     2.11           OBSERVATION DATA    M                   RINEX VERSION / TYPE
GS10 V12.10                             2023 12 08 16:51    PGM / RUN BY / DATE 
45                                                          MARKER NAME         
0592                                                        MARKER NUMBER       
                                                            OBSERVER / AGENCY   
3230592             LEICA GS10          12.10.060/7.813     REC # / TYPE / VERS 
                    LEIAS10         NONE                    ANT # / TYPE        
  4201761.5924   177875.3945  4779296.4335                  APPROX POSITION XYZ 
        0.0000        0.0000        0.0000                  ANTENNA: DELTA H/E/N
     1     1                                                WAVELENGTH FACT L1/2
    16    C1    L1    D1    P2    L2    D2    C2    C5    L5# / TYPES OF OBSERV 
          D5    C7    L7    D7    C8    L8    D8            # / TYPES OF OBSERV 
                                                            COMMENT             
    30.000                                                  INTERVAL            
  2023    12    08    16    52    0.0000000     GPS         TIME OF FIRST OBS   
  2023    12    08    17    25    0.0000000     GPS         TIME OF LAST OBS    
    18                                                      LEAP SECONDS        
    30                                                      # OF SATELLITES     
BIT 2 OF LLI FLAGS DATA COLLECTED UNDER A/S CONDITION       COMMENT             
SNR is mapped to RINEX snr flag value [1-9]                 COMMENT             
LX:    >= 25dBHz -> 1; 26-27dBHz -> 2; 28-31dBHz -> 3       COMMENT             
       32-35dBHz -> 4; 36-38dBHz -> 5; 39-41dBHz -> 6       COMMENT             
       42-44dBHz -> 7; 45-48dBHz -> 8; >= 49dBHz -> 9       COMMENT             
                                                            END OF HEADER       
 23 12 08 16 52  0.0000000  0 25G06G11G12G24G25G28G29G31G32R05R06R07
                                R14R15R16R17R18R24E04E09E13E15E21E26
                                E31
  23778428.749   124956486.75217     -1477.190    23778430.981    97368693.71357
     -1151.057    23778431.397    23778429.660    93311663.31418     -1103.197  
                                                                                
                
  23163866.098   121726937.93718       615.763    23163865.148    94852156.60456
       479.817    23163865.309    23163867.531    90899987.84018       459.732  
                                                                                
                
  21374112.354   112321718.22819     -2271.561    21374110.602    87523413.78359
     -1770.047    21374111.050                                                  
                                                                                
                
  24853818.523   130607696.95917     -3783.261    24853821.359   101772237.81757
     -2947.995    24853821.537    24853821.136    97531723.89417     -2825.173  
                                                                                
                
  19818720.088   104148075.85919       -93.689    19818721.167    81154347.17459
       -73.003    19818721.600    19818720.739    77772914.51019       -70.031  
                                                                                
                
  22086600.718   116065872.15318      2679.574    22086600.033    90440937.41657
      2087.981    22086600.228    22086604.094    86672569.99819      2001.076  
                                                                                
                
  21732265.181   114203823.56119      2711.340    21732263.944    88989989.28059
      2112.733    21732264.425                                                  
                                                                                
                
  23906556.588   125629799.29218      3424.423    23906555.653    97893346.92956
      2668.384    23906555.818                                                  
                                                                                
                
  22479355.509   118129810.84019     -1773.367    22479356.778    92049205.19457
     -1381.844    22479356.927    22479354.757    88213817.77018     -1324.316  
                                                                                
                
  23838340.357   127429590.73417     -4221.458    23838346.849    99111909.94316
     -3283.362                                                                  
                                                                                
                
  22127769.079   118078019.20614     -1610.591                                  
                                                                                
                                                                                
                
  23111005.183   123715025.66216      1915.451    23111010.281    96222807.70717
      1489.796                                                                  
                                                                                
                
  22431098.312   119570376.03818     -3169.758    22431102.025    92999190.18617
     -2465.368                                                                  
                                                                                
                
  19478352.652   104086410.49019      -598.079    19478355.288    80956103.28618
      -465.172                                                                  
                                                                                
                
  20894134.926   111612717.52719      2677.985    20894138.555    86809898.51218
      2082.881                                                                  
                                                                                
                
  20080176.355   107453080.00419      1804.553    20080179.341    83574626.25718
      1403.542                                                                  
                                                                                
                
  22474775.942   119971882.73418      4470.282    22474780.910    93311476.91017
      3476.888                                                                  
                                                                                
                
  21411083.540   114494684.97219     -2461.126    21411084.953    89051427.14217
     -1914.208                                                                  
                                                                                
                
  25493008.687   133966663.61519     -2064.141                                  
                                  25493010.412   100040042.33518     -1541.420  
  25493009.475   102649781.07818     -1581.569    25493009.447   101344913.74219
     -1561.503  
  25942676.062   136329681.74019       490.624                                  
                                  25942678.926   101804632.20318       366.358  
  25942676.996   104460404.90218       375.896    25942678.198   103132523.08819
       371.131  
  25788638.390   135520207.29718       354.498                                  
                                  25788642.027   101200155.49519       264.741  
  25788639.240   103840159.23418       271.617    25788640.511   102520161.89819
       268.186  
  28176699.752   148069557.85217     -2089.526                                  
                                  28176703.826   110571428.19818     -1560.280  
  28176701.851   113455896.82917     -1600.965    28176702.720   112013664.54918
     -1580.611  
  25328279.754   133101008.21019     -1939.509                                  
                                  25328282.279    99393610.36518     -1448.309  
  25328280.457   101986486.77319     -1486.125    25328281.599   100690053.10119
     -1467.196  
  26180638.217   137580188.90318      2730.352                                  
                                  26180640.104   102738450.61318      2038.938  
  26180638.732   105418581.57918      2092.115    26180639.167   104078518.62718
      2065.563  
  25884087.788   136021801.26718      2146.319                                  
                                  25884092.502   101574721.51518      1602.758  
  25884091.253   104224496.62418      1644.587    25884091.424   102899613.60619
      1623.636  
 23 12 08 16 52 30.0000000  0 26G06G11G12G24G25G28G29G31G32R05R06R07
                                R14R15R16R17R18R24E04E09E13E15E19E21
                                E26E31
  23786914.926   125001081.63407     -1495.528    23786917.039    97403442.99947
     -1165.346    23786917.464    23786915.908    93344964.71608     -1116.892  
                                                                                
                
  23160405.568   121708753.31008       596.506    23160404.630    94837986.81446
       464.811    23160404.776    23160407.000    90886408.45508       445.514  
                                                                                
                
  21387106.317   112390001.72209     -2280.665    21387104.431    87576621.71449
     -1777.142    21387104.890                                                  
                                                                                
                
  24875421.722   130721222.13106     -3784.899    24875424.475   101860698.97546
     -2949.272    24875424.688    24875424.344    97616499.18707     -2826.614  
                                                                                
                
  19819294.918   104151096.56909      -107.717    19819295.981    81156700.99849
       -83.935    19819296.433    19819295.443    77775170.26109       -80.463  
                                                                                
                
  22071332.778   115985638.87009      2669.177    22071332.036    90378418.00946
      2079.879    22071332.228    22071336.071    86612655.59909      1993.104  
                                                                                
                
  21716824.318   114122681.51609      2697.957    21716823.162    88926761.75449
      2102.306    21716823.654                                                  
                                                                                
                
  23887021.815   125527142.68408      3419.247    23887020.564    97813354.83746
      2664.350    23887020.711                                                  
                                                                                
                
  22489526.668   118183260.59009     -1789.972    22489527.969    92090854.34247
     -1394.784    22489528.132    22489525.874    88253731.53008     -1336.676  
                                                                                
                
  23862036.731   127556261.62307     -4223.427    23862043.224    99210431.58906
     -3284.893                                                                  
                                                                                
                
  22136890.443   118126692.54004     -1634.486                                  
                                                                                
                                                                                
                
  23100335.685   123657911.12307      1892.087    23100340.969    96178385.32807
      1471.626                                                                  
                                                                                
                
  22448956.443   119665570.56708     -3176.443    22448960.353    93073230.36507
     -2470.567                                                                  
                                                                                
                
  19481750.418   104104567.14009      -612.419    19481753.003    80970225.14808
      -476.325                                                                  
                                                                                
                
  20879115.490   111532486.67709      2670.632    20879119.201    86747496.76608
      2077.159                                                                  
                                                                                
                
  20070132.501   107399333.13309      1778.566    20070135.470    83532823.16308
      1383.330                                                                  
                                                                                
                
  22449673.056   119837881.98808      4462.860    22449677.903    93207254.14807
      3471.116                                                                  
                                                                                
                
  21424952.603   114568849.58209     -2483.278    21424953.992    89109110.74707
     -1931.437                                                                  
                                                                                
                
  25504822.481   134028745.36709     -2074.712                                  
                                  25504824.212   100086402.07608     -1549.330  
  25504823.116   102697350.20508     -1589.700    25504823.226   101391878.17709
     -1569.553  
  25939917.266   136315183.40709       475.842                                  
                                  25939920.177   101793805.53708       355.346  
  25939917.997   104449295.79708       364.585    25939919.246   103121555.20609
       359.903  
  25786658.371   135509801.84908       339.095                                  
                                  25786661.804   101192385.22808       253.195  
  25786659.317   103832186.26808       259.728    25786660.386   102512290.28209
       256.486  
  28188658.407   148132401.32207     -2100.235                                  
                                  28188662.617   110618356.81508     -1568.276  
  28188660.399   113504049.66707     -1609.176    28188661.391   112061205.28108
     -1588.807  
  28653765.013   150576552.16616     -3191.436                                  
                                  28653769.889   112443534.18915     -2383.155  
  28653768.656   115376840.49215     -2445.245    28653768.905   113910187.37516
     -2414.265  
  25339362.352   133159247.96709     -1943.257                                  
                                  25339364.890    99437101.11608     -1451.168  
  25339363.022   102031112.05409     -1489.007    25339364.211   100734111.12209
     -1470.119  
  26165070.449   137498379.94908      2723.402                                  
                                  26165072.148   102677359.56108      2033.716  
  26165070.917   105355896.84408      2086.738    26165071.419   104016630.73709
      2060.246  
  25871843.705   135957458.50708      2143.069                                  
                                  25871848.482   101526673.45008      1600.360  
  25871847.217   104175195.12208      1642.051    25871847.270   102850938.82009
      1621.217  
 23 12 08 16 53  0.0000000  0 26G06G11G12G24G25G28G29G31G32R05R06R07
                                R14R15R16R17R18R24E04E09E13E15E19E21
                                E26E31
  23795506.110   125046228.30707     -1513.702    23795508.075    97438622.23947
     -1179.509    23795508.488    23795507.195    93378678.12909     -1130.257  
                                                                                
                
  23157055.106   121691146.88708       577.640    23157054.066    94824267.54445
       450.110    23157054.200    23157056.591    90873260.84008       431.380  
                                                                                
                
  21400152.741   112458560.91309     -2289.434    21400150.797    87630044.45449
     -1783.975    21400151.254                                                  
                                                                                
                
  24897036.771   130834809.89306     -3786.780    24897039.463   101949208.94046
     -2950.737    24897039.684    24897039.456    97701321.22607     -2827.854  
                                                                                
                
  19819949.363   104154535.62609      -121.083    19819950.410    81159380.79849
       -94.350    19819950.863    19819949.807    77777738.41309       -90.464  
                                                                                
                
  22056126.246   115905728.12409      2658.831    22056125.422    90316149.92947
      2071.819    22056125.616    22056129.461    86552982.01509      1985.388  
                                                                                
                
  21701460.080   114041942.17109      2685.031    21701459.018    88863848.01549
      2092.234    21701459.516                                                  
                                                                                
                
  23867517.163   125424644.46208      3414.454    23867515.675    97733486.15946
      2660.616    23867515.809                                                  
                                                                                
                
  22499792.483   118237207.95209     -1805.994    22499793.806    92132891.25847
     -1407.269    22499793.958    22499791.765    88294016.91608     -1348.690  
                                                                                
                
  23885744.245   127682991.98107     -4224.769    23885750.667    99308999.47106
     -3285.937                                                                  
                                                                                
                
  22146146.440   118176085.17304     -1658.019                                  
                                                                                
                                                                                
                
  23089797.952   123601501.00007      1869.025    23089803.156    96134510.82007
      1453.686                                                                  
                                                                                
                
  22466852.603   119760967.60408     -3182.858    22466856.544    93147428.07007
     -2475.558                                                                  
                                                                                
                
  19485229.436   104123157.97009      -626.445    19485232.029    80984684.69708
      -487.234                                                                  
                                                                                
                
  20864138.488   111452482.21209      2663.473    20864142.232    86685271.11508
      2071.591                                                                  
                                                                                
                
  20060234.566   107346367.34809      1752.939    20060237.506    83491627.60108
      1363.398                                                                  
                                                                                
                
  22424613.465   119704112.28908      4455.521    22424618.244    93103211.09907
      3465.408                                                                  
                                                                                
                
  21438945.849   114643678.42608     -2504.775    21438947.346    89167310.95907
     -1948.159                                                                  
                                                                                
                
  25516697.087   134091146.68709     -2084.951                                  
                                  25516698.759   100133000.45608     -1556.920  
  25516697.599   102745164.21208     -1597.606    25516697.833   101439084.36709
     -1577.248  
  25937243.136   136301130.19509       461.430                                  
                                  25937245.915   101783311.28108       344.630  
  25937243.635   104438527.76208       353.604    25937244.982   103110924.05309
       349.140  
  25784767.137   135499863.12108       323.942                                  
                                  25784770.357   101184963.48608       241.895  
  25784768.144   103824570.92308       248.204    25784769.098   102504771.73709
       245.072  
  28200678.771   148195568.56607     -2110.512                                  
                                  28200682.941   110665527.20207     -1576.028  
  28200680.622   113552450.58307     -1617.124    28200681.754   112108990.92508
     -1596.541  
  28671978.743   150672265.24606     -3188.932                                  
                                  28671983.575   112515008.06205     -2381.223  
  28671982.484   115450178.93306     -2443.434    28671982.885   113982593.53106
     -2412.221  
  25350466.831   133217602.42709     -1946.624                                  
                                  25350469.357    99480677.49708     -1453.633  
  25350467.514   102075825.20809     -1491.563    25350468.665   100778255.88809
     -1472.580  
  26149543.249   137416784.08708      2716.745                                  
                                  26149544.951   102616427.66408      2028.700  
  26149543.726   105293375.41308      2081.689    26149544.255   103954904.07309
      2055.173  
  25859618.845   135893216.62109      2140.226                                  
                                  25859623.657   101478700.69808      1598.189  
  25859622.374   104125970.90708      1639.837    25859622.346   102802340.34109
      1619.040  
 23 12 08 16 53 30.0000000  0 26G06G11G12G24G25G28G29G31G32R05R06R07
                                R14R15R16R17R18R24E04E09E13E15E19E21
                                E26E31
  23804201.469   125091922.47407     -1532.100    23804203.286    97474228.11647
     -1193.842    23804203.710    23804202.661    93412800.43609     -1144.149  
                                                                                
                
  23153814.403   121674116.98908       558.049    23153813.224    94810997.50246
       434.843    23153813.354    23153815.935    90860543.74808       416.849  
                                                                                
                
  21413250.913   112527392.21609     -2298.890    21413248.953    87683679.25249
     -1791.342    21413249.419                                                  
                                                                                
                
  24918662.920   130948455.90306     -3789.167    24918665.600   102037764.24246
     -2952.600    24918665.809    24918665.677    97786186.71407     -2829.471  
                                                                                
                
  19820682.880   104158390.23709      -135.322    19820683.898    81162384.41049
      -105.445    19820684.362    19820683.285    77780616.87209      -101.030  
                                                                                
                
  22040981.059   115826139.55209      2647.585    22040980.179    90254132.88147
      2063.055    22040980.378    22040984.174    86493549.03909      1977.123  
                                                                                
                
  21686172.240   113961604.31409      2671.239    21686171.231    88801247.13449
      2081.486    21686171.737                                                  
                                                                                
                
  23848042.437   125322303.65008      3408.663    23848040.815    97653740.12046
      2656.101    23848040.953                                                  
                                                                                
                
  22510152.066   118291648.10309     -1822.787    22510153.420    92175312.16747
     -1420.352    22510153.562    22510151.410    88334670.27108     -1361.155  
                                                                                
                
  23909461.566   127809774.83707     -4226.792    23909467.883    99407608.20106
     -3287.511                                                                  
                                                                                
                
  22155536.358   118226191.97804     -1681.935                                  
                                                                                
                                                                                
                
  23079391.772   123545794.96107      1845.006    23079396.793    96091183.95207
      1435.005                                                                  
                                                                                
                
  22484786.054   119856563.27108     -3189.713    22484789.952    93221780.25007
     -2480.888                                                                  
                                                                                
                
  19488789.258   104142180.67309      -641.189    19488791.927    80999480.14208
      -498.702                                                                  
                                                                                
                
  20849203.776   111372703.29009      2655.522    20849207.410    86623220.85608
      2065.407                                                                  
                                                                                
                
  20050482.559   107294182.44809      1726.594    20050485.511    83451039.37708
      1342.908                                                                  
                                                                                
                
  22399597.461   119570575.07508      4447.488    22399602.174    92999348.87807
      3459.160                                                                  
                                                                                
                
  21453062.106   114719165.41908     -2527.039    21453063.700    89226023.08307
     -1965.474                                                                  
                                                                                
                
  25528631.671   134153863.24909     -2095.760                                  
                                  25528633.303   100179834.23408     -1564.978  
  25528632.073   102793219.73608     -1605.739    25528632.442   101486529.01709
     -1585.320  
  25934653.228   136287519.86009       446.383                                  
                                  25934655.906   101773147.73908       333.312  
  25934653.541   104428099.08908       342.035    25934654.996   103100627.94809
       337.696  
  25782964.234   135490388.73708       308.155                                  
                                  25782967.323   101177888.49508       230.142  
  25782965.276   103817311.37908       236.028    25782966.198   102497604.46809
       233.131  
  28212759.857   148259055.15806     -2121.325                                  
                                  28212763.896   110712936.07007     -1584.201  
  28212761.642   113601096.18607     -1625.563    28212762.845   112157018.15908
     -1604.823  
  28690180.244   150767914.18205     -3187.047                                  
                                  28690185.116   112586434.06205     -2379.902  
  28690184.163   115523468.25105     -2442.141    28690184.465   114054951.20306
     -2411.071  
  25361592.540   133276068.53709     -1950.604                                  
                                  25361595.071    99524337.27408     -1456.651  
  25361593.250   102120623.92409     -1494.648    25361594.343   100822485.13309
     -1475.646  
  26134056.465   137335400.73008      2709.164                                  
                                  26134058.129   102555654.42308      2023.183  
  26134056.871   105231016.78208      2075.962    26134057.480   103893338.13709
      2049.604  
  25847412.693   135829073.11809      2136.619                                  
                                  25847417.511   101430801.43308      1595.532  
  25847416.191   104076822.08008      1637.054    25847416.138   102753816.28909
      1616.291  
 23 12 08 16 54  0.0000000  0 26G06G11G12G24G25G28G29G31G32R05R06R07
                                R14R15R16R17R18R24E04E09E13E15E19E21
                                E26E31
  23813000.589   125138161.95106     -1550.704    23813002.266    97510258.90747
     -1208.341    23813002.693    23813001.881    93447329.94209     -1157.975  
                                                                                
                
  23150683.462   121657663.88508       538.435    23150682.176    94798176.94746
       419.561    23150682.311    23150685.010    90848257.38608       402.111  
                                                                                
                
  21426400.460   112596493.43209     -2308.172    21426398.484    87737524.35849
     -1798.575    21426398.952                                                  
                                                                                
                
  24940299.647   131062157.65906     -3791.477    24940302.327   102126363.00946
     -2954.397    24940302.522    24940302.423    97871093.86607     -2831.155  
                                                                                
                
  19821495.253   104162659.23009      -149.579    19821496.246    81165710.91449
      -116.555    19821496.717    19821495.648    77783804.77209      -111.683  
                                                                                
                
  22025897.485   115746874.73409      2636.371    22025896.539    90192368.11147
      2054.316    22025896.736    22025900.502    86434357.81909      1968.746  
                                                                                
                
  21670961.021   113881668.91809      2657.409    21670960.052    88738959.83749
      2070.709    21670960.562                                                  
                                                                                
                
  23828597.973   125220121.91208      3402.950    23828596.265    97574118.02846
      2651.650    23828596.407                                                  
                                                                                
                
  22520604.875   118346578.08109     -1839.482    22520606.240    92218114.74547
     -1433.363    22520606.373    22520604.264    88375689.42008     -1373.620  
                                                                                
                
  23933187.755   127936605.29707     -4229.045    23933194.028    99506253.96406
     -3289.261                                                                  
                                                                                
                
  22165059.288   118277009.11704     -1705.847                                  
                                                                                
                                                                                
                
  23069117.527   123490795.23307      1821.204    23069122.336    96048406.41207
      1416.493                                                                  
                                                                                
                
  22502756.524   119952356.18308     -3196.680    22502760.392    93296285.85407
     -2486.307                                                                  
                                                                                
                
  19492429.804   104161634.79509      -656.073    19492432.525    81014611.14008
      -510.279                                                                  
                                                                                
                
  20834311.418   111293150.53909      2647.591    20834314.866    86561346.53308
      2059.238                                                                  
                                                                                
                
  20040876.765   107242779.72509      1699.979    20040879.700    83411059.50808
      1322.207                                                                  
                                                                                
                
  22374625.670   119437273.75708      4439.063    22374630.319    92895670.12107
      3452.605                                                                  
                                                                                
                
  21467300.638   114795306.21408     -2549.167    21467302.354    89285243.71007
     -1982.685                                                                  
                                                                                
                
  25540625.764   134216892.70509     -2106.519                                  
                                  25540627.424   100226901.67708     -1573.038  
  25540626.101   102841515.04208     -1614.123    25540626.584   101534210.39409
     -1593.556  
  25932147.459   136274352.03009       431.228                                  
                                  25932150.137   101763314.63808       321.954  
  25932147.651   104418009.47408       330.350    25932149.219   103090666.58709
       326.152  
  25781249.570   135481378.28708       292.151                                  
                                  25781252.621   101171159.94108       218.219  
  25781250.637   103810407.29708       223.889    25781251.605   102490788.15709
       221.003  
  28224901.221   148322858.75406     -2132.606                                  
                                  28224905.171   110760581.62207     -1592.471  
  28224903.018   113649984.66507     -1634.020    28224904.210   112205285.17608
     -1613.202  
  28708369.089   150863496.53606     -3185.077                                  
                                  28708374.049   112657810.35005     -2378.608  
  28708373.148   115596706.53905     -2440.716    28708373.323   114127258.47906
     -2409.651  
  25372739.341   133334645.26809     -1954.785                                  
                                  25372741.870    99568079.64608     -1459.763  
  25372740.011   102165507.40309     -1497.795    25372741.090   100866798.05909
     -1478.779  
  26118610.381   137254231.12508      2701.669                                  
                                  26118612.015   102495040.81808      2017.513  
  26118610.687   105168821.94308      2070.091    26118611.391   103831933.91009
      2043.833  
  25835225.168   135765027.46909      2132.903                                  
                                  25835230.018   101382975.23808      1592.721  
  25835228.589   104027748.22808      1634.284    25835228.554   102705366.26809
      1613.496  
 23 12 08 16 54 30.0000000  0 26G06G11G12G24G25G28G29G31G32R05R06R07
                                R14R15R16R17R18R24E04E09E13E15E19E21
                                E26E31
  23821903.116   125184944.66706     -1568.515    23821904.654    97546712.96446
     -1222.220    23821905.086    23821904.471    93482265.08509     -1171.238  
                                                                                
                
  23147662.403   121641788.06008       519.429    23147661.055    94785806.19546
       404.751    23147661.189    23147663.971    90836402.10308       387.970  
                                                                                
                
  21439601.008   112665862.62709     -2316.742    21439599.004    87791578.27749
     -1805.253    21439599.479                                                  
                                                                                
                
  24961946.554   131175912.96806     -3792.758    24961949.231   102215003.51746
     -2955.396    24961949.412    24961949.321    97956041.02608     -2832.329  
                                                                                
                
  19822386.344   104167341.90309      -162.943    19822387.317    81169359.76449
      -126.968    19822387.793    19822386.745    77787301.60109      -121.668  
                                                                                
                
  22010875.828   115667935.46309      2625.893    22010874.840    90130857.04447
      2046.152    22010875.029    22010878.765    86375409.72409      1960.889  
                                                                                
                
  21655826.629   113802137.30409      2644.305    21655825.692    88676987.19949
      2060.499    21655826.201                                                  
                                                                                
                
  23809184.134   125118101.20008      3397.989    23809182.354    97494621.41746
      2647.784    23809182.497                                                  
                                                                                
                
  22531150.385   118401995.15809     -1855.369    22531151.776    92261296.87547
     -1445.743    22531151.904    22531149.802    88417072.29208     -1385.470  
                                                                                
                
  23956921.872   128063478.21507     -4229.758    23956928.200    99604932.78206
     -3289.816                                                                  
                                                                                
                
  22174714.791   118328533.19505     -1729.197                                  
                                                                                
                                                                                
                
  23058975.525   123436503.34907      1797.860    23058980.043    96006179.43107
      1398.336                                                                  
                                                                                
                
  22520763.840   120048345.32008     -3202.886    22520767.718    93370944.06407
     -2491.133                                                                  
                                                                                
                
  19496151.019   104181519.92609      -670.105    19496153.753    81030077.35908
      -521.192                                                                  
                                                                                
                
  20819461.618   111213825.24609      2640.275    20819464.877    86499649.13508
      2053.549                                                                  
                                                                                
                
  20031417.481   107192160.96409      1674.194    20031420.361    83371689.39508
      1302.151                                                                  
                                                                                
                
  22349698.710   119304211.95308      4431.216    22349703.333    92792177.67107
      3446.503                                                                  
                                                                                
                
  21481660.734   114872096.94008     -2570.506    21481662.531    89344969.83308
     -1999.282                                                                  
                                                                                
                
  25552678.969   134280232.92009     -2116.397                                  
                                  25552680.676   100274201.18608     -1580.419  
  25552679.250   102890048.45008     -1621.614    25552679.857   101582126.85409
     -1601.050  
  25929725.820   136261626.55808       416.850                                  
                                  25929728.540   101753811.86608       311.273  
  25929725.938   104408258.80908       319.372    25929727.634   103081039.87309
       315.339  
  25779623.084   135472831.52108       277.227                                  
                                  25779626.102   101164777.66208       207.035  
  25779624.127   103803858.52408       212.389    25779625.202   102484322.62909
       209.694  
  28237102.444   148386977.09906     -2142.509                                  
                                  28237106.394   110808462.24507     -1599.835  
  28237104.323   113699114.35407     -1641.724    28237105.456   112253790.33308
     -1620.797  
  28726544.853   150959010.12606     -3182.327                                  
                                  28726549.914   112729135.29105     -2376.599  
  28726549.000   115669892.14205     -2438.564    28726549.078   114199513.75806
     -2407.594  
  25383907.049   133393331.78609     -1958.007                                  
                                  25383909.558    99611904.00408     -1462.116  
  25383907.661   102210475.00408     -1500.278    25383908.735   100911194.03809
     -1481.183  
  26103205.238   137173276.76008      2694.878                                  
                                  26103206.873   102434587.95708      2012.339  
  26103205.457   105106792.02008      2065.003    26103206.220   103770692.52109
      2038.662  
  25823056.210   135701079.37909      2129.938                                  
                                  25823061.086   101335221.90008      1590.557  
  25823059.530   103978749.14308      1632.040    25823059.535   102656990.05809
      1611.312  
 23 12 08 16 55  0.0000000  0 26G06G11G12G24G25G28G29G31G32R05R06R07
                                R14R15R16R17R18R24E04E09E13E15E19E21
                                E26E31
  23830908.457   125232267.97106     -1586.196    23830909.888    97583588.28846
     -1235.997    23830910.322    23830909.856    93517603.93608     -1184.689  
                                                                                
                
  23144751.174   121626489.46308       500.342    23144749.785    94773885.24946
       389.878    23144749.911    23144752.753    90824977.88508       373.573  
                                                                                
                
  21452852.198   112735497.91109     -2325.651    21452850.178    87845839.52649
     -1812.195    21452850.661                                                  
                                                                                
                
  24983603.160   131289719.21706     -3794.450    24983605.840   102303683.70846
     -2956.714    24983606.009    24983605.925    98041026.19408     -2833.466  
                                                                                
                
  19823355.922   104172437.07509      -176.705    19823356.889    81173330.04749
      -137.692    19823357.373    19823356.340    77791106.46009      -132.015  
                                                                                
                
  21995916.397   115589323.13909      2614.925    21995915.399    90069600.71347
      2037.605    21995915.587    21995919.267    86316705.74609      1952.715  
                                                                                
                
  21640769.221   113723010.17709      2630.802    21640768.308    88615329.73549
      2049.977    21640768.817                                                  
                                                                                
                
  23789801.108   125016242.59508      3392.639    23789799.269    97415251.13146
      2643.616    23789799.424                                                  
                                                                                
                
  22541787.955   118457896.05109     -1871.452    22541789.367    92304856.02347
     -1458.273    22541789.498    22541787.389    88458816.48608     -1397.574  
                                                                                
                
  23980663.066   128190388.79907     -4230.853    23980669.525    99703640.88706
     -3290.667                                                                  
                                                                                
                
  22184502.273   118380760.40204     -1752.681                                  
                                                                                
                                                                                
                
  23048965.950   123382920.54807      1774.279    23048970.194    95964503.97107
      1379.997                                                                  
                                                                                
                
  22538807.601   120144528.58508     -3209.296    22538811.438    93445753.28307
     -2496.118                                                                  
                                                                                
                
  19499952.813   104201835.63409      -684.376    19499955.537    81045878.47408
      -532.291                                                                  
                                                                                
                
  20804654.473   111134728.01209      2632.729    20804657.596    86438129.12008
      2047.680                                                                  
                                                                                
                
  20022104.908   107142327.36809      1648.027    20022107.736    83332929.96208
      1281.799                                                                  
                                                                                
                
  22324817.196   119171392.78408      4423.248    22324821.824    92688873.91407
      3440.306                                                                  
                                                                                
                
  21496141.572   114949533.11809     -2591.906    21496143.455    89405197.96807
     -2015.925                                                                  
                                                                                
                
  25564790.798   134343881.25109     -2126.805                                  
                                  25564792.562   100321730.77808     -1588.164  
  25564791.051   102938817.94808     -1629.548    25564791.764   101630276.39709
     -1608.820  
  25927388.201   136249342.86108       402.050                                  
                                  25927391.025   101744638.98708       300.264  
  25927388.293   104398846.64708       308.058    25927390.127   103071747.35209
       304.178  
  25778084.749   135464747.76308       261.718                                  
                                  25778087.752   101158741.11908       195.402  
  25778085.773   103797664.50208       200.537    25778086.946   102478207.34509
       197.955  
  28249363.036   148451407.54705     -2152.668                                  
                                  28249367.082   110856575.93507     -1607.751  
  28249365.036   113748483.17907     -1649.653    28249366.105   112302531.59208
     -1628.720  
  28744707.078   151054452.50506     -3180.209                                  
                                  28744712.227   112800407.03505     -2374.972  
  28744711.256   115743023.16605     -2436.741    28744711.298   114271715.12306
     -2405.785  
  25395095.399   133452126.82609     -1961.643                                  
                                  25395097.883    99655809.39508     -1464.902  
  25395095.967   102255525.74708     -1503.064    25395097.041   100955672.10609
     -1484.015  
  26087841.295   137092538.75208      2687.560                                  
                                  26087842.963   102374296.64008      2006.991  
  26087841.499   105044927.89308      2059.317    26087842.267   103709614.80409
      2033.123  
  25810905.690   135637228.04709      2126.750                                  
                                  25810910.577   101287540.79908      1588.174  
  25810908.897   103929824.18708      1629.517    25810908.953   102608687.03109
      1608.832  
 23 12 08 16 55 30.0000000  0 26G06G11G12G24G25G28G29G31G32R05R06R07
                                R14R15R16R17R18R24E04E09E13E15E19E21
                                E26E31
  23840016.920   125280133.11506     -1604.822    23840018.284    97620885.79146
     -1250.512    23840018.719    23840018.360    93553347.36609     -1198.239  
                                                                                
                
  23141950.474   121611771.82208       480.701    23141949.089    94762417.01446
       374.574    23141949.209    23141952.073    90813987.47808       359.044  
                                                                                
                
  21466154.318   112805400.96309     -2334.600    21466152.270    87900309.45849
     -1819.168    21466152.752                                                  
                                                                                
                
  25005269.660   131403577.37906     -3796.316    25005272.355   102392404.33246
     -2958.169    25005272.517    25005272.437    98126050.12508     -2834.828  
                                                                                
                
  19824404.448   104177947.18609      -190.583    19824405.416    81177623.66249
      -148.506    19824405.903    19824404.888    77795221.18109      -142.392  
                                                                                
                
  21981020.114   115511042.77609      2603.740    21981019.122    90008603.07547
      2028.889    21981019.304    21981022.898    86258249.67909      1944.295  
                                                                                
                
  21625789.682   113644292.20809      2617.094    21625788.792    88553991.09249
      2039.295    21625789.298                                                  
                                                                                
                
  23770449.802   124914550.68207      3386.787    23770447.919    97336010.71945
      2639.057    23770448.080                                                  
                                                                                
                
  22552517.719   118514281.30109     -1887.638    22552519.145    92348792.56947
     -1470.886    22552519.278    22552517.143    88500922.33308     -1409.515  
                                                                                
                
  24004410.960   128317334.89307     -4232.200    24004417.544    99802376.61506
     -3291.717                                                                  
                                                                                
                
  22194421.666   118433690.57205     -1775.973                                  
                                                                                
                                                                                
                
  23039089.846   123330052.47607      1750.363    23039093.877    95923384.41207
      1361.394                                                                  
                                                                                
                
  22556888.181   120240908.03308     -3216.000    22556891.965    93520715.05707
     -2501.334                                                                  
                                                                                
                
  19503835.751   104222584.92609      -698.929    19503838.438    81062016.82108
      -543.611                                                                  
                                                                                
                
  20789890.804   111055863.43109      2624.823    20789893.867    86376790.06708
      2041.531                                                                  
                                                                                
                
  20012939.946   107093283.74209      1621.563    20012942.718    83294784.95008
      1261.216                                                                  
                                                                                
                
  22299982.467   119038823.28108      4414.727    22299987.092    92585764.32907
      3433.677                                                                  
                                                                                
                
  21510743.021   115027614.06608     -2613.401    21510744.982    89465927.58108
     -2032.647                                                                  
                                                                                
                
  25576961.469   134407838.78609     -2137.120                                  
                                  25576963.315   100369491.26708     -1595.873  
  25576961.726   102987824.36308     -1637.523    25576962.508   101678659.85209
     -1616.671  
  25925135.231   136237504.03608       387.110                                  
                                  25925138.186   101735798.31208       289.105  
  25925135.346   104389775.35008       296.548    25925137.285   103062791.36409
       292.836  
  25776635.118   135457130.02608       246.103                                  
                                  25776638.109   101153052.57308       183.784  
  25776636.148   103791827.55608       188.534    25776637.357   102472444.60009
       186.169  
  28261683.279   148516151.22505     -2163.488                                  
                                  28261687.514   110904923.47507     -1615.508  
  28261685.450   113798091.95807     -1657.710    28261686.462   112351509.75708
     -1636.687  
  28762855.949   151149824.63605     -3177.903                                  
                                  28762861.143   112871626.32905     -2373.133  
  28762860.078   115816100.36005     -2434.991    28762860.150   114343863.38606
     -2404.148  
  25406304.843   133511032.75109     -1965.382                                  
                                  25406307.283    99699797.59508     -1467.654  
  25406305.365   102300661.47208     -1506.020    25406306.445   101000234.06709
     -1486.837  
  26072519.402   137012021.83008      2680.123                                  
                                  26072521.053   102314170.42408      2001.305  
  26072519.582   104983233.16708      2053.603    26072520.339   103648704.32909
      2027.445  
  25798774.162   135573476.46709      2123.287                                  
                                  25798779.017   101239934.19908      1585.568  
  25798777.233   103880975.66708      1626.973    25798777.352   102560459.46709
      1606.305  
 23 12 08 16 56  0.0000000  0 26G06G11G12G24G25G28G29G31G32R05R06R07
                                R14R15R16R17R18R24E04E09E13E15E19E21
                                E26E31
  23849228.071   125328537.96606     -1622.282    23849229.384    97658603.85446
     -1264.115    23849229.818    23849229.546    93589493.84908     -1211.365  
                                                                                
                
  23139260.416   121597635.58008       461.666    23139259.059    94751401.79246
       359.740    23139259.172    23139262.072    90803431.23508       344.874  
                                                                                
                
  21479507.033   112875569.84209     -2343.151    21479504.952    87954986.52049
     -1825.831    21479505.432                                                  
                                                                                
                
  25026945.627   131517485.35206     -3797.565    25026948.339   102481163.78946
     -2959.142    25026948.500    25026948.409    98211111.27208     -2835.836  
                                                                                
                
  19825531.797   104183871.55209      -204.170    19825532.766    81182240.07249
      -159.093    19825533.257    19825532.245    77799645.23509      -152.405  
                                                                                
                
  21966187.364   115433096.28409      2592.802    21966186.375    89947865.58847
      2020.367    21966186.551    21966190.052    86200042.91309      1936.264  
                                                                                
                
  21610888.235   113565984.61509      2603.689    21610887.352    88492972.22649
      2028.850    21610887.856                                                  
                                                                                
                
  23751130.568   124813027.43907      3381.534    23751128.651    97256901.74645
      2634.963    23751128.807                                                  
                                                                                
                
  22563339.116   118571148.13209     -1903.432    22563340.557    92393104.38147
     -1483.193    22563340.689    22563338.506    88543387.81808     -1421.249  
                                                                                
                
  24028164.803   128444312.42707     -4232.820    24028171.488    99901136.77106
     -3292.199                                                                  
                                                                                
                
  22204472.210   118487320.15405     -1798.915                                  
                                                                                
                                                                                
                
  23029347.487   123277900.51308      1726.692    23029351.364    95882821.84407
      1342.985                                                                  
                                                                                
                
  22575005.369   120337482.71408     -3222.167    22575009.116    93595828.68807
     -2506.129                                                                  
                                                                                
                
  19507799.805   104243767.67609      -713.105    19507802.457    81078492.30208
      -554.636                                                                  
                                                                                
                
  20775170.844   110977232.48809      2617.309    20775173.892    86315632.69908
      2035.687                                                                  
                                                                                
                
  20003922.928   107045031.77909      1595.420    20003925.646    83257255.67008
      1240.883                                                                  
                                                                                
                
  22275195.158   118906507.08108      4406.437    22275199.781    92482851.78407
      3427.230                                                                  
                                                                                
                
  21525464.305   115106335.84208     -2634.490    21525466.325    89527155.65708
     -2049.046                                                                  
                                                                                
                
  25589190.578   134472103.41409     -2147.006                                  
                                  25589192.533   100417481.07508     -1603.218  
  25589190.859   103037066.10008     -1645.141    25589191.692   101727275.62709
     -1624.184  
  25922966.915   136226109.98208       372.615                                  
                                  25922969.972   101727289.77008       278.315  
  25922967.062   104381044.85108       285.522    25922969.086   103054171.84609
       281.904  
  25775274.152   135449978.09408       230.923                                  
                                  25775277.116   101147711.86508       172.470  
  25775275.169   103786347.51008       176.995    25775276.407   102467034.22509
       174.664  
  28274062.665   148581205.90106     -2173.461                                  
                                  28274067.077   110953503.30507     -1623.050  
  28274064.989   113847939.05607     -1665.227    28274065.933   112400723.21207
     -1644.098  
  28780991.029   151245124.30005     -3175.164                                  
                                  28780996.260   112942791.50305     -2370.981  
  28780995.075   115889122.03805     -2432.800    28780995.211   114415956.79705
     -2401.874  
  25417535.254   133570048.83609     -1968.804                                  
                                  25417537.659    99743868.05308     -1470.247  
  25417535.719   102345881.58908     -1508.465    25417536.821   101044879.35409
     -1489.348  
  26057239.859   136931727.56608      2672.893                                  
                                  26057241.475   102254210.48708      1996.088  
  26057240.007   104921709.05708      2048.205    26057240.778   103587962.30708
      2022.139  
  25786661.580   135509824.41009      2120.363                                  
                                  25786666.388   101192401.91208      1583.371  
  25786664.516   103832203.41408      1624.735    25786664.708   102512307.19909
      1604.044  
 23 12 08 16 56 30.0000000  0 26G06G11G12G24G25G28G29G31G32R05R06R07
                                R14R15R16R17R18R24E04E09E13E15E19E21
                                E26E31
  23858540.988   125377477.77906     -1640.447    23858542.289    97696738.78046
     -1278.272    23858542.724    23858542.495    93626039.83208     -1225.011  
                                                                                
                
  23136680.534   121584078.48008       442.016    23136679.197    94740837.88046
       344.430    23136679.303    23136682.217    90793307.49108       330.071  
                                                                                
                
  21492909.526   112946000.36909     -2352.211    21492907.417    88009867.46849
     -1832.891    21492907.895                                                  
                                                                                
                
  25048630.206   131631438.38506     -3799.157    25048632.938   102569958.31446
     -2960.383    25048633.102    25048633.006    98296206.04208     -2837.333  
                                                                                
                
  19826737.337   104190206.79809      -218.211    19826738.306    81187176.64349
      -170.034    19826738.797    19826737.790    77804376.12909      -162.997  
                                                                                
                
  21951418.011   115355482.88909      2581.292    21951417.015    89887387.64447
      2011.397    21951417.176    21951420.612    86142084.89209      1927.559  
                                                                                
                
  21596064.566   113488085.72009      2589.598    21596063.672    88432271.82849
      2017.870    21596064.178                                                  
                                                                                
                
  23731843.233   124711671.95107      3375.413    23731841.307    97177923.47545
      2630.193    23731841.455                                                  
                                                                                
                
  22574251.126   118628491.18309     -1919.584    22574252.572    92437787.28447
     -1495.780    22574252.703    22574250.493    88586208.93008     -1433.523  
                                                                                
                
  24051923.176   128571314.00306     -4234.034    24051929.891    99999915.64005
     -3293.142                                                                  
                                                                                
                
  22214652.663   118541643.07105     -1822.325                                  
                                                                                
                                                                                
                
  23019738.764   123226463.79308      1702.472    23019742.523    95842815.55107
      1324.147                                                                  
                                                                                
                
  22593158.464   120434248.75807     -3228.881    22593162.185    93671091.14907
     -2511.352                                                                  
                                                                                
                
  19511844.496   104265381.32209      -727.836    19511847.144    81095302.92208
      -566.093                                                                  
                                                                                
                
  20760494.373   110898834.00309      2609.202    20760497.448    86254656.13308
      2029.379                                                                  
                                                                                
                
  19995053.645   106997570.38709      1568.710    19995056.301    83220341.27908
      1220.109                                                                  
                                                                                
                
  22250455.523   118774445.26208      4397.654    22250460.147    92380137.06307
      3420.399                                                                  
                                                                                
                
  21540304.199   115185691.60808     -2655.949    21540306.267    89588876.80608
     -2065.738                                                                  
                                                                                
                
  25601477.216   134536670.36409     -2157.442                                  
                                  25601479.267   100465696.65708     -1611.112  
  25601477.513   103086539.47608     -1653.154    25601478.394   101776120.10409
     -1632.118  
  25920882.740   136215157.92609       357.409                                  
                                  25920885.842   101719111.30408       266.860  
  25920882.908   104372653.03108       273.859    25920884.984   103045886.70109
       270.377  
  25774001.281   135443289.11408       214.980                                  
                                  25774004.212   101142716.87108       160.560  
  25774002.276   103781222.21108       164.788    25774003.532   102461974.07909
       162.630  
  28286500.319   148646566.81706     -2184.005                                  
                                  28286504.836   111002311.82006     -1630.941  
  28286502.738   113898020.84006     -1673.472    28286503.614   112450168.37107
     -1652.286  
  28799111.375   151340346.71305     -3173.153                                  
                                  28799116.632   113013899.00905     -2369.668  
  28799115.305   115962084.53205     -2431.293    28799115.564   114487991.81305
     -2400.554  
  25428785.963   133629171.65809     -1972.797                                  
                                  25428788.341    99788018.22508     -1473.195  
  25428786.384   102391183.51108     -1511.608    25428787.512   101089605.39909
     -1492.401  
  26042002.469   136851654.87708      2665.227                                  
                                  26042004.067   102194416.04408      1990.132  
  26042002.584   104860354.73708      2042.135    26042003.391   103527387.93108
      2016.091  
  25774567.384   135446268.98209      2116.697                                  
                                  25774572.112   101144941.78208      1580.606  
  25774570.174   103783505.19508      1621.901    25774570.462   102464228.02309
      1601.261  
 23 12 08 16 57  0.0000000  0 26G06G11G12G24G25G28G29G31G32R05R06R07
                                R14R15R16R17R18R24E04E09E13E15E19E21
                                E26E31
  23867956.590   125426957.21506     -1657.950    23867957.909    97735294.17446
     -1291.909    23867958.348    23867958.117    93662988.75408     -1238.053  
                                                                                
                
  23134212.264   121571107.76608       422.838    23134210.950    94730730.86146
       329.485    23134211.052    23134213.941    90783621.59908       315.785  
                                                                                
                
  21506362.781   113016697.71509     -2360.710    21506360.656    88064956.33249
     -1839.514    21506361.132                                                  
                                                                                
                
  25070324.214   131745441.04406     -3800.548    25070326.965   102658791.52146
     -2961.467    25070327.132    25070327.009    98381337.86208     -2838.155  
                                                                                
                
  19828022.213   104196958.95509      -231.642    19828023.178    81192438.07849
      -180.500    19828023.670    19828022.676    77809418.34709      -173.000  
                                                                                
                
  21936713.694   115278211.23509      2570.315    21936712.663    89827175.99147
      2002.844    21936712.816    21936716.216    86084382.06609      1919.355  
                                                                                
                
  21581320.207   113410603.60909      2576.030    21581319.292    88371896.19749
      2007.298    21581319.793                                                  
                                                                                
                
  23712589.392   124610492.68606      3370.129    23712587.457    97099082.54945
      2626.080    23712587.598                                                  
                                                                                
                
  22585254.528   118686314.45209     -1935.094    22585255.982    92482844.36847
     -1507.866    22585256.118    22585253.895    88629388.64708     -1445.037  
                                                                                
                
  24075686.406   128698341.44307     -4234.368    24075693.112   100098714.64405
     -3293.402                                                                  
                                                                                
                
  22224963.666   118596662.64605     -1844.917                                  
                                                                                
                                                                                
                
  23010265.324   123175751.21708      1678.544    23010268.960    95803372.47807
      1305.535                                                                  
                                                                                
                
  22611348.343   120531210.96307     -3234.940    22611352.073    93746506.16208
     -2516.066                                                                  
                                                                                
                
  19515971.019   104287432.32609      -742.058    19515973.664    81112453.72208
      -577.156                                                                  
                                                                                
                
  20745862.910   110820675.89109      2601.541    20745866.022    86193866.53208
      2023.423                                                                  
                                                                                
                
  19986333.687   106950908.06609      1542.386    19986336.269    83184048.38508
      1199.634                                                                  
                                                                                
                
  22225765.505   118642648.35508      4389.029    22225770.134    92277628.39107
      3413.691                                                                  
                                                                                
                
  21555263.220   115265684.38108     -2676.723    21555265.308    89651093.43908
     -2081.895                                                                  
                                                                                
                
  25613822.276   134601544.26709     -2167.263                                  
                                  25613824.407   100514141.45808     -1618.449  
  25613822.594   103136248.05108     -1660.608    25613823.506   101825196.79209
     -1639.560  
  25918883.983   136204654.50109       342.854                                  
                                  25918887.052   101711267.85608       256.037  
  25918884.169   104364604.97209       262.729    25918886.254   103037940.95009
       259.360  
  25772817.759   135437069.63608       199.627                                  
                                  25772820.694   101138072.47008       149.233  
  25772818.770   103776456.65508       153.051    25772820.016   102457269.09509
       151.140  
  28298997.235   148712238.66405     -2193.989                                  
                                  28299001.864   111051352.49806     -1638.542  
  28298999.739   113948340.83806     -1681.124    28299000.569   112499848.71407
     -1660.000  
  28817217.942   151435496.70405     -3170.140                                  
                                  28817223.215   113084952.40704     -2367.410  
  28817221.765   116034991.53205     -2429.078    28817222.156   114559972.00505
     -2398.169  
  25440058.138   133688407.24009     -1976.148                                  
                                  25440060.497    99832252.58808     -1475.633  
  25440058.547   102436571.82508     -1514.176    25440059.675   101134416.74109
     -1494.883  
  26026808.805   136771812.07008      2657.871                                  
                                  26026810.394   102134793.24708      1984.740  
  26026808.876   104799176.54008      2036.535    26026809.736   103466987.42408
      2010.682  
  25762492.806   135382816.70609      2113.704                                  
                                  25762497.446   101097558.67708      1578.348  
  25762495.455   103734885.99908      1619.581    25762495.856   102416226.87009
      1599.032  
 23 12 08 16 57 30.0000000  0 26G06G11G12G24G25G28G29G31G32R05R06R07
                                R14R15R16R17R18R24E04E09E13E15E19E21
                                E26E31
  23877473.657   125476970.03006     -1675.711    23877475.014    97774265.21746
     -1305.748    23877475.451    23877475.174    93700336.01308     -1251.345  
                                                                                
                
  23131854.871   121558719.69208       403.513    23131853.556    94721077.85346
       314.427    23131853.653    23131856.516    90774370.81108       301.354  
                                                                                
                
  21519865.717   113087656.15709     -2369.411    21519863.591    88120248.64449
     -1846.293    21519864.068                                                  
                                                                                
                
  25092026.468   131859487.11506     -3802.215    25092029.226   102747658.58446
     -2962.764    25092029.394    25092029.225    98466502.11008     -2839.085  
                                                                                
                
  19829385.509   104204123.21709      -245.461    19829386.466    81198020.63849
      -191.267    19829386.957    19829385.975    77814768.29509      -183.184  
                                                                                
                
  21922073.987   115201279.11909      2558.976    21922072.914    89767228.91847
      1994.010    21922073.056    21922076.449    86026932.79509      1911.013  
                                                                                
                
  21566654.633   113333535.50709      2562.210    21566653.703    88311843.16049
      1996.529    21566654.202                                                  
                                                                                
                
  23693368.617   124509487.42207      3364.005    23693366.708    97020377.23045
      2621.305    23693366.852                                                  
                                                                                
                
  22596347.994   118744611.06909     -1950.927    22596349.443    92528270.30847
     -1520.203    22596349.579    22596347.351    88672921.83108     -1456.686  
                                                                                
                
  24099452.864   128825386.04307     -4234.851    24099459.522   100197527.00505
     -3293.776                                                                  
                                                                                
                
  22235403.685   118652371.26905     -1867.985                                  
                                                                                
                                                                                
                
  23000926.761   123125760.60107      1654.468    23000930.265    95764490.91907
      1286.809                                                                  
                                                                                
                
  22629574.017   120628364.12107     -3241.360    22629577.778    93822069.70407
     -2521.059                                                                  
                                                                                
                
  19520178.600   104309916.45509      -756.412    19520181.232    81129941.39508
      -588.319                                                                  
                                                                                
                
  20731275.955   110742755.33709      2593.588    20731279.094    86133261.70708
      2017.238                                                                  
                                                                                
                
  19977762.542   106905042.14509      1515.821    19977765.058    83148374.92508
      1178.972                                                                  
                                                                                
                
  22201125.046   118511116.01108      4380.195    22201129.673    92175325.50007
      3406.820                                                                  
                                                                                
                
  21570339.871   115346305.99308     -2697.594    21570341.975    89713799.13607
     -2098.129                                                                  
                                                                                
                
  25626224.596   134666718.93609     -2177.182                                  
                                  25626226.790   100562810.84008     -1625.775  
  25626224.948   103186187.07408     -1668.216    25626225.860   101874500.98909
     -1646.946  
  25916969.833   136194595.46809       328.214                                  
                                  25916972.809   101703756.25608       245.106  
  25916970.027   104356897.41809       251.463    25916972.087   103030331.37009
       248.317  
  25771722.730   135431315.29108       184.540                                  
                                  25771725.664   101133775.41508       137.707  
  25771723.769   103772047.49808       141.385    25771724.998   102452915.98809
       139.574  
  28311552.115   148778215.07505     -2203.948                                  
                                  28311556.819   111100620.60206     -1645.884  
  28311554.667   113998894.20906     -1688.787    28311555.476   112549759.44007
     -1667.200  
  28835309.523   151530568.00105     -3167.351                                  
                                  28835314.809   113155947.01904     -2365.151  
  28835313.258   116107838.21505     -2427.047    28835313.794   114631892.65305
     -2396.138  
  25451350.830   133747750.71809     -1979.669                                  
                                  25451353.202    99876567.52308     -1478.240  
  25451351.257   102482042.80809     -1516.745    25451352.375   101179309.70409
     -1497.546  
  26011658.409   136692196.61908      2650.274                                  
                                  26011660.004   102075340.23108      1979.124  
  26011658.450   104738172.56408      2030.743    26011659.352   103406758.93208
      2004.955  
  25750437.017   135319463.22909      2110.443                                  
                                  25750441.574   101050249.35408      1575.969  
  25750439.544   103686342.51608      1617.029    25750440.049   102368300.47209
      1596.471  
 23 12 08 16 58  0.0000000  0 26G06G11G12G24G25G28G29G31G32R05R06R07
                                R14R15R16R17R18R24E04E09E13E15E19E21
                                E26E31
  23887091.530   125527512.47906     -1694.269    23887092.935    97813648.93646
     -1320.209    23887093.374    23887093.019    93738078.74508     -1264.945  
                                                                                
                
  23129608.106   121546912.93908       383.574    23129606.780    94711877.82046
       298.891    23129606.879    23129609.716    90765554.12609       286.295  
                                                                                
                
  21533417.708   113158872.32009     -2378.381    21533415.603    88175741.75049
     -1853.283    21533416.078                                                  
                                                                                
                
  25113736.274   131973572.73407     -3803.624    25113739.028   102836556.44547
     -2963.863    25113739.203    25113738.990    98551695.91407     -2840.497  
                                                                                
                
  19830826.764   104211697.15909      -259.624    19830827.712    81203922.42949
      -202.304    19830828.201    19830827.235    77820424.19009      -193.943  
                                                                                
                
  21907498.915   115124686.74809      2547.041    21907497.806    89707546.59346
      1984.710    21907497.950    21907501.335    85969737.24309      1901.934  
                                                                                
                
  21552067.746   113256880.97509      2547.890    21552066.803    88252112.39649
      1985.370    21552067.303                                                  
                                                                                
                
  23674180.944   124408656.04207      3357.721    23674179.088    96941807.37945
      2616.409    23674179.234                                                  
                                                                                
                
  22607530.691   118803376.56709     -1967.004    22607532.140    92574061.60147
     -1532.731    22607532.272    22607530.066    88716805.16708     -1468.948  
                                                                                
                
  24123221.374   128952441.40107     -4235.750    24123227.972   100296347.70505
     -3294.476                                                                  
                                                                                
                
  22245971.541   118708763.39005     -1891.808                                  
                                                                                
                                                                                
                
  22991723.000   123076491.55307      1629.828    22991726.376    95726170.55207
      1267.643                                                                  
                                                                                
                
  22647835.022   120725705.68808     -3248.152    22647838.797    93897779.80308
     -2526.341                                                                  
                                                                                
                
  19524466.913   104332831.92109      -771.381    19524469.543    81147764.53408
      -599.963                                                                  
                                                                                
                
  20716733.419   110665071.79809      2585.155    20716736.561    86072841.22408
      2010.678                                                                  
                                                                                
                
  19969340.174   106859972.46209      1488.692    19969342.642    83113320.76708
      1157.873                                                                  
                                                                                
                
  22176534.487   118379850.11208      4370.609    22176539.116    92073229.85807
      3399.365                                                                  
                                                                                
                
  21585533.051   115427550.68208     -2718.842    21585535.146    89776989.44307
     -2114.656                                                                  
                                                                                
                
  25638683.438   134732190.57309     -2187.750                                  
                                  25638685.680   100611701.98508     -1633.735  
  25638683.825   103236353.64308     -1676.327    25638684.723   101924029.84909
     -1655.037  
  25915139.937   136184979.01609       312.727                                  
                                  25915142.799   101696575.14408       233.519  
  25915140.151   104349528.98209       239.559    25915142.154   103023056.59909
       236.572  
  25770715.836   135426024.20108       168.337                                  
                                  25770718.769   101129824.29408       125.649  
  25770716.911   103767993.31108       128.870    25770718.127   102448913.33609
       127.270  
  28324164.208   148844492.24905     -2214.596                                  
                                  28324168.913   111150113.33706     -1653.849  
  28324166.760   114049678.06706     -1696.984    28324167.580   112599897.73206
     -1675.298  
  28853385.389   151625556.92305     -3165.292                                  
                                  28853390.673   113226880.15904     -2363.918  
  28853389.046   116180621.76905     -2425.145    28853389.717   114703751.00305
     -2394.547  
  25462663.575   133807199.68209     -1983.769                                  
                                  25462665.965    99920961.24008     -1481.419  
  25462664.040   102527594.63008     -1520.018    25462665.144   101224282.47209
     -1500.744  
  25996551.245   136612808.37608      2642.078                                  
                                  25996552.812   102016056.85508      1972.943  
  25996551.268   104677342.68008      2024.520    25996552.182   103346702.29908
      1998.749  
  25738399.677   135256206.70709      2106.567                                  
                                  25738404.158   101003012.41808      1572.983  
  25738402.106   103637873.28908      1614.154    25738402.695   102320447.39109
      1593.557  
 23 12 08 16 58 30.0000000  0 26G06G11G12G24G25G28G29G31G32R05R06R07
                                R14R15R16R17R18R24E04E09E13E15E19E21
                                E26E31
  23896811.439   125578591.11106     -1711.567    23896812.867    97853450.47146
     -1333.689    23896813.309    23896812.891    93776221.87508     -1278.069  
                                                                                
                
  23127473.719   121535696.67908       363.946    23127472.386    94703137.89946
       283.596    23127472.483    23127475.323    90757178.37208       271.845  
                                                                                
                
  21547020.096   113230353.39409     -2386.983    21547018.019    88231441.29149
     -1859.986    21547018.496                                                  
                                                                                
                
  25135454.897   132087704.65906     -3805.070    25135457.641   102925490.39646
     -2964.990    25135457.812    25135457.553    98636924.29007     -2841.423  
                                                                                
                
  19832347.518   104219688.86709      -273.373    19832348.460    81210149.74849
      -213.018    19832348.948    19832347.981    77826392.03309      -204.109  
                                                                                
                
  21892990.517   115048444.79509      2535.560    21892989.378    89648137.32847
      1975.763    21892989.522    21892992.913    85912803.37409      1893.437  
                                                                                
                
  21537561.429   113180649.86309      2533.996    21537560.472    88192711.56949
      1974.544    21537560.970                                                  
                                                                                
                
  23655028.320   124308009.04207      3351.849    23655026.509    96863381.24945
      2611.833    23655026.661                                                  
                                                                                
                
  22618803.745   118862616.92709     -1982.435    22618805.189    92620222.92246
     -1544.755    22618805.320    22618803.158    88761043.10208     -1480.544  
                                                                                
                
  24146992.779   129079512.09507     -4235.772    24146999.338   100395180.29106
     -3294.495                                                                  
                                                                                
                
  22256668.304   118765844.66804     -1913.824                                  
                                                                                
                                                                                
                
  22982655.981   123027954.91006      1605.673    22982659.250    95688419.87207
      1248.860                                                                  
                                                                                
                
  22666132.731   120823242.83408     -3254.412    22666136.510    93973642.00708
     -2531.210                                                                  
                                                                                
                
  19528837.596   104356187.58609      -785.815    19528840.232    81165930.06308
      -611.189                                                                  
                                                                                
                
  20702237.161   110587635.29809      2577.056    20702240.286    86012612.88408
      2004.378                                                                  
                                                                                
                
  19961068.525   106815709.35509      1462.033    19961070.957    83078893.94508
      1137.138                                                                  
                                                                                
                
  22151996.230   118248863.45808      4361.685    22152000.891    91971351.39907
      3392.422                                                                  
                                                                                
                
  21600843.649   115509423.48408     -2739.581    21600845.708    89840668.33807
     -2130.785                                                                  
                                                                                
                
  25651200.042   134797965.73709     -2197.581                                  
                                  25651202.304   100660819.80208     -1640.976  
  25651200.454   103286752.79108     -1683.869    25651201.334   101973788.33209
     -1662.425  
  25913395.882   136175813.73109       298.023                                  
                                  25913398.607   101689730.97208       222.520  
  25913396.122   104342506.25309       228.334    25913398.044   103016123.15009
       225.414  
  25769798.721   135421204.84808       152.821                                  
                                  25769801.668   101126225.45008       114.096  
  25769799.854   103764300.57108       117.152    25769801.050   102445267.54509
       115.623  
  28336834.822   148911076.87705     -2224.597                                  
                                  28336839.492   111199835.65906     -1661.362  
  28336837.363   114100697.47606     -1704.653    28336838.205   112650268.60407
     -1682.916  
  28871446.866   151720470.19005     -3162.609                                  
                                  28871452.157   113297756.79004     -2361.574  
  28871450.488   116253347.36905     -2423.027    28871451.246   114775552.10205
     -2392.156  
  25473997.924   133866762.15608     -1987.227                                  
                                  25474000.319    99965439.71008     -1484.061  
  25473998.437   102573233.40809     -1522.709    25473999.526   101269341.09509
     -1503.420  
  25981489.300   136533657.72008      2634.320                                  
                                  25981490.853   101956950.92008      1967.292  
  25981489.325   104616694.85608      2018.560    25981490.258   103286825.41708
      1992.935  
  25726382.388   135193055.66109      2103.386                                  
                                  25726386.804   100955854.25708      1570.607  
  25726384.765   103589484.90808      1611.599    25726385.396   102272674.12009
      1591.120  
 23 12 08 16 59  0.0000000  0 26G06G11G12G24G25G28G29G31G32R05R06R07
                                R14R15R16R17R18R24E04E09E13E15E19E21
                                E26E31
  23906631.283   125630194.86506     -1729.237    23906632.722    97893661.19847
     -1347.457    23906633.167    23906632.705    93814757.15008     -1291.075  
                                                                                
                
  23125450.054   121525062.28008       344.535    23125448.711    94694851.38346
       268.468    23125448.811    23125451.639    90749237.13609       257.312  
                                                                                
                
  21560670.916   113302088.97609     -2395.711    21560668.870    88287339.15149
     -1866.788    21560669.348                                                  
                                                                                
                
  25157180.226   132201871.79007     -3806.426    25157182.957   103014451.78147
     -2966.045    25157183.122    25157182.809    98722178.95407     -2842.477  
                                                                                
                
  19833945.923   104228088.67809      -287.029    19833946.866    81216695.07749
      -223.658    19833947.353    19833946.377    77832664.64309      -214.303  
                                                                                
                
  21878547.467   114972546.25508      2523.995    21878546.300    89588995.66047
      1966.751    21878546.439    21878549.849    85856125.94409      1884.831  
                                                                                
                
  21523134.232   113104834.58409      2519.952    21523133.257    88133634.77449
      1963.601    21523133.751                                                  
                                                                                
                
  23635909.461   124207539.37808      3345.707    23635907.690    96785093.28945
      2607.046    23635907.843                                                  
                                                                                
                
  22630164.940   118922320.45509     -1998.011    22630166.386    92666745.14546
     -1556.891    22630166.517    22630164.402    88805626.90008     -1491.995  
                                                                                
                
  24170764.396   129206583.91106     -4235.959    24170770.928   100494013.74207
     -3294.642                                                                  
                                                                                
                
  22267491.666   118823602.45104     -1937.038                                  
                                                                                
                                                                                
                
  22973724.398   122980143.57006      1581.350    22973727.621    95651233.29407
      1229.940                                                                  
                                                                                
                
  22684465.299   120920965.79108     -3260.710    22684469.083    94049648.73208
     -2536.107                                                                  
                                                                                
                
  19533288.891   104379974.01409      -800.280    19533291.548    81184430.62209
      -622.440                                                                  
                                                                                
                
  20687785.778   110510438.47509      2569.022    20687788.880    85952570.96308
      1998.130                                                                  
                                                                                
                
  19952946.147   106772245.01109      1435.275    19952948.549    83045088.38108
      1116.326                                                                  
                                                                                
                
  22127509.257   118118150.63108      4352.155    22127513.931    91869685.92807
      3385.012                                                                  
                                                                                
                
  21616269.241   115591911.03808     -2759.971    21616271.279    89904825.32907
     -2146.643                                                                  
                                                                                
                
  25663772.323   134864033.47509     -2207.186                                  
                                  25663774.584   100710156.10208     -1648.308  
  25663772.759   103337376.11808     -1691.283    25663773.612   102023768.14309
     -1669.796  
  25911735.972   136167090.54009       283.220                                  
                                  25911738.532   101683216.91108       211.563  
  25911736.244   104335822.26109       217.044    25911738.083   103009524.12209
       214.303  
  25768969.617   135416848.05708       137.397                                  
                                  25768972.564   101122972.02408       102.545  
  25768970.800   103760962.27008       105.298    25768971.978   102441971.67909
       103.988  
  28349561.810   148977957.80705     -2234.638                                  
                                  28349566.397   111249779.24105     -1668.699  
  28349564.318   114151943.93105     -1712.140    28349565.166   112700863.61706
     -1690.395  
  28889491.884   151815296.85205     -3159.526                                  
                                  28889497.198   113368568.73004     -2359.294  
  28889495.505   116326006.61605     -2420.977    28889496.319   114847287.71105
     -2389.986  
  25485352.040   133926428.51808     -1990.889                                  
                                  25485354.445   100009995.74608     -1486.654  
  25485352.623   102618951.78309     -1525.416    25485353.688   101314478.29909
     -1506.031  
  25966471.156   136454737.27408      2626.620                                  
                                  25966472.692   101898016.88808      1961.347  
  25966471.159   104556223.38108      2012.629    25966472.131   103227122.67308
      1986.901  
  25714383.446   135130001.00509      2099.994                                  
                                  25714387.810   100908768.05408      1568.238  
  25714385.804   103541170.35808      1609.049    25714386.450   102224973.73809
      1588.687  
 23 12 08 16 59 30.0000000  0 26G06G11G12G24G25G28G29G31G32R05R06R07
                                R14R15R16R17R18R24E04E09E13E15E19E21
                                E26E31
  23916551.820   125682327.67906     -1746.452    23916553.262    97934284.17146
     -1360.871    23916553.710    23916553.226    93853687.51908     -1304.416  
                                                                                
                
  23123538.356   121515016.24908       324.987    23123537.013    94687023.32446
       253.237    23123537.117    23123539.918    90741735.24509       242.558  
                                                                                
                
  21574371.012   113374083.43109     -2404.325    21574368.996    88343438.71749
     -1873.500    21574369.473                                                  
                                                                                
                
  25178913.009   132316078.14007     -3807.595    25178915.712   103103443.74146
     -2966.957    25178915.872    25178915.503    98807462.90407     -2843.351  
                                                                                
                
  19835623.023   104236902.00709      -300.892    19835623.974    81223562.62049
      -234.461    19835624.463    19835623.474    77839246.04709      -224.668  
                                                                                
                
  21864171.304   114896999.17309      2512.206    21864170.111    89530127.84947
      1957.565    21864170.249    21864173.673    85799710.97009      1875.952  
                                                                                
                
  21508787.555   113029442.45409      2505.773    21508786.562    88074887.70249
      1952.551    21508787.053                                                  
                                                                                
                
  23616825.893   124107255.08808      3339.388    23616824.144    96706949.77245
      2602.123    23616824.291                                                  
                                                                                
                
  22641614.903   118982490.45509     -2013.633    22641616.348    92713630.85746
     -1569.066    22641616.474    22641614.419    88850559.04408     -1503.714  
                                                                                
                
  24194536.617   129333658.80607     -4235.910    24194543.151   100592849.53706
     -3294.605                                                                  
                                                                                
                
  22278442.250   118882039.20004     -1959.229                                  
                                                                                
                                                                                
                
  22964929.622   122933064.99606      1556.789    22964932.874    95614616.66007
      1210.837                                                                  
                                                                                
                
  22702833.574   121018879.01208     -3267.118    22702837.354    94125803.43808
     -2541.093                                                                  
                                                                                
                
  19537821.968   104404197.44009      -814.905    19537824.663    81203271.06208
      -633.815                                                                  
                                                                                
                
  20673380.623   110433488.64309      2560.715    20673383.702    85892721.13708
      1991.669                                                                  
                                                                                
                
  19944974.494   106729587.24909      1408.293    19944976.866    83011910.16408
      1095.341                                                                  
                                                                                
                
  22103075.440   117987721.57608      4342.704    22103080.130    91768241.15907
      3377.661                                                                  
                                                                                
                
  21631810.184   115675015.47208     -2780.563    21631812.198    89969462.12507
     -2162.659                                                                  
                                                                                
                
  25676401.051   134930397.77609     -2217.198                                  
                                  25676403.304   100759713.83908     -1655.736  
  25676401.509   103388226.66308     -1698.907    25676402.342   102073972.28409
     -1677.334  
  25910161.300   136158815.39909       268.221                                  
                                  25910163.697   101677037.45508       200.244  
  25910161.612   104329481.58609       205.526    25910163.358   103003264.05709
       202.852  
  25768229.619   135412959.67808       121.622                                  
                                  25768232.551   101120068.39508        90.821  
  25768230.807   103757982.89008        93.190    25768231.999   102439030.17509
        92.072  
  28362345.958   149045139.09504     -2244.552                                  
                                  28362350.458   111299947.12905     -1676.264  
  28362348.418   114203420.51905     -1719.824    28362349.279   112751685.87006
     -1698.143  
  28907521.165   151910040.89205     -3156.678                                  
                                  28907526.505   113439319.00804     -2357.311  
  28907524.773   116398602.53104     -2418.788    28907525.617   114918960.80305
     -2387.907  
  25496726.944   133986204.15908     -1994.452                                  
                                  25496729.356   100054633.39308     -1489.430  
  25496727.595   102664753.89109     -1528.238    25496728.636   101359698.17309
     -1508.825  
  25951498.315   136376054.77208      2618.607                                  
                                  25951499.837   101839260.54508      1955.357  
  25951498.277   104495934.23908      2006.378    25951499.289   103167599.92208
      1980.878  
  25702403.948   135067048.66009      2096.522                                  
                                  25702408.255   100861758.26708      1565.578  
  25702406.301   103492934.21108      1606.412    25702406.955   102177350.77509
      1585.970  
 23 12 08 17 00  0.0000000  0 26G06G11G12G24G25G28G29G31G32R05R06R07
                                R14R15R16R17R18R24E04E09E13E15E19E21
                                E26E31
  23926572.771   125734988.23506     -1763.564    23926574.211    97975318.39246
     -1374.205    23926574.662    23926574.151    93893011.97308     -1317.011  
                                                                                
                
  23121738.826   121505559.68908       305.659    23121737.490    94679654.59646
       238.176    23121737.602    23121740.382    90734673.55308       228.292  
                                                                                
                
  21588120.234   113446336.10409     -2412.253    21588118.237    88399739.50849
     -1879.677    21588118.715                                                  
                                                                                
                
  25200653.045   132430322.51206     -3808.460    25200655.724   103192465.29646
     -2967.632    25200655.878    25200655.472    98892775.23407     -2843.911  
                                                                                
                
  19837378.846   104246128.99709      -314.179    19837379.804    81230752.49549
      -244.814    19837380.296    19837379.280    77846136.34709      -234.573  
                                                                                
                
  21849862.554   114821806.29809      2500.862    21849861.323    89471536.03947
      1948.724    21849861.455    21849864.907    85743560.49309      1867.551  
                                                                                
                
  21494521.820   112954475.66809      2492.165    21494520.809    88016472.06149
      1941.947    21494521.294                                                  
                                                                                
                
  23597778.036   124007158.45108      3333.860    23597776.306    96628952.48245
      2597.814    23597776.459                                                  
                                                                                
                
  22653153.255   119043124.97609     -2028.464    22653154.706    92760878.54146
     -1580.620    22653154.834    22653152.814    88895838.06708     -1514.771  
                                                                                
                
  24218308.721   129460733.16307     -4235.380    24218315.242   100691684.92605
     -3294.194                                                                  
                                                                                
                
  22289519.715   118941152.15304     -1981.579                                  
                                                                                
                                                                                
                
  22956272.200   122886721.85206      1532.920    22956275.523    95578572.01807
      1192.272                                                                  
                                                                                
                
  22721237.555   121116982.53208     -3272.913    22721241.321    94202106.16108
     -2545.598                                                                  
                                                                                
                
  19542436.940   104428858.54509      -828.984    19542439.660    81222451.94008
      -644.764                                                                  
                                                                                
                
  20659022.093   110356787.92609      2552.762    20659025.142    85833065.06008
      1985.482                                                                  
                                                                                
                
  19937153.992   106687738.36209      1381.754    19937156.357    82979361.06808
      1074.699                                                                  
                                                                                
                
  22078695.643   117857580.94008      4333.505    22078700.347    91667020.72907
      3370.506                                                                  
                                                                                
                
  21647465.957   115758733.87008     -2800.423    21647467.960    90034576.42807
     -2178.107                                                                  
                                                                                
                
  25689085.958   134997057.33309     -2226.586                                  
                                  25689088.186   100809492.06608     -1662.672  
  25689086.421   103439303.45508     -1706.098    25689087.251   102124399.79509
     -1684.385  
  25908672.012   136150988.98809       253.784                                  
                                  25908674.282   101671193.07408       189.552  
  25908672.397   104323484.74109       194.491    25908674.033   102997343.44209
       192.030  
  25767578.874   135409540.28808       106.506                                  
                                  25767581.814   101117514.98808        79.575  
  25767580.059   103755362.86508        81.650    25767581.280   102436443.46309
        80.600  
  28375187.057   149112619.41504     -2253.623                                  
                                  28375191.517   111350338.28705     -1683.055  
  28375189.489   114255126.23105     -1727.100    28375190.368   112802734.29506
     -1705.069  
  28925534.522   152004701.11805     -3153.591                                  
                                  28925539.920   113510006.65404     -2355.020  
  28925538.146   116471134.21704     -2416.294    28925539.009   114990570.48305
     -2385.790  
  25508122.670   134046089.24508     -1997.652                                  
                                  25508125.074   100099352.77308     -1491.761  
  25508123.382   102710639.85809     -1530.727    25508124.406   101405000.84809
     -1511.215  
  25936571.209   136297612.61608      2611.187                                  
                                  25936572.700   101780683.65108      1949.859  
  25936571.133   104435829.27408      2000.714    25936572.149   103108258.99808
      1975.287  
  25690444.051   135004199.29709      2093.626                                  
                                  25690448.296   100814825.36908      1563.483  
  25690446.406   103444776.95208      1604.241    25690447.061   102129805.69409
      1583.882  
 23 12 08 17 00 30.0000000  0 26G06G11G12G24G25G28G29G31G32R05R06R07
                                R14R15R16R17R18R24E04E09E13E15E19E21
                                E26E31
  23936692.249   125788166.54306     -1781.518    23936693.697    98016756.04746
     -1388.195    23936694.146    23936693.607    93932723.05808     -1330.414  
                                                                                
                
  23120050.030   121496685.07708       285.703    23120048.715    94672739.33146
       222.627    23120048.830    23120051.585    90728046.42208       213.460  
                                                                                
                
  21601916.849   113518837.76209     -2421.261    21601914.871    88456234.29649
     -1886.697    21601915.346                                                  
                                                                                
                
  25222398.383   132544594.89907     -3809.739    25222401.030   103281508.71247
     -2968.627    25222401.172    25222400.737    98978108.50207     -2845.064  
                                                                                
                
  19839211.757   104255761.07609      -328.195    19839212.716    81238258.02349
      -255.736    19839213.207    19839212.170    77853329.15309      -245.112  
                                                                                
                
  21835620.102   114746961.75509      2488.579    21835618.825    89413215.65347
      1939.154    21835618.949    21835622.430    85687670.13209      1858.374  
                                                                                
                
  21480335.732   112879927.50309      2477.501    21480334.701    87958382.63449
      1930.522    21480335.187                                                  
                                                                                
                
  23578764.824   123907243.82708      3327.058    23578763.111    96551097.02246
      2592.516    23578763.264                                                  
                                                                                
                
  22664777.993   119104213.35709     -2044.206    22664779.442    92808479.86546
     -1592.888    22664779.579    22664777.595    88941455.99108     -1526.478  
                                                                                
                
  24242078.437   129587794.71307     -4235.463    24242084.894   100790510.33704
     -3294.256                                                                  
                                                                                
                
  22300721.889   119000929.75105     -2003.961                                  
                                                                                
                                                                                
                
  22947750.979   122841107.81507      1507.800    22947754.377    95543094.46907
      1172.735                                                                  
                                                                                
                
  22739675.507   121215267.07608     -3279.572    22739679.255    94278549.67207
     -2550.777                                                                  
                                                                                
                
  19547132.332   104453949.34209      -843.924    19547135.078    81241967.00208
      -656.385                                                                  
                                                                                
                
  20644708.950   110280329.86509      2544.216    20644711.968    85773597.73108
      1978.835                                                                  
                                                                                
                
  19929483.390   106646691.60109      1354.524    19929485.764    82947435.83108
      1053.519                                                                  
                                                                                
                
  22054369.095   117727724.52608      4323.342    22054373.801    91566021.36407
      3362.602                                                                  
                                                                                
                
  21663234.231   115843053.94508     -2821.104    21663236.212    90100158.72607
     -2194.190                                                                  
                                                                                
                
  25701825.148   135064002.18509     -2236.563                                  
                                  25701827.346   100859483.33708     -1670.167  
  25701825.610   103490598.84908     -1713.790    25701826.449   102175043.12609
     -1691.977  
  25907266.563   136143603.30109       238.470                                  
                                  25907268.745   101665677.81908       178.044  
  25907267.034   104317825.59809       182.750    25907268.558   102991756.24009
       180.441  
  25767015.801   135406581.72108        90.618                                  
                                  25767018.752   101115305.71608        67.693  
  25767016.979   103753095.95608        69.385    25767018.227   102434205.36909
        68.577  
  28388083.085   149180382.81714     -2263.998                                  
                                  28388087.378   111400945.34904     -1690.611  
  28388084.615   114307053.46805     -1734.871    28388086.132   112854001.45205
     -1712.734  
  28943530.064   152099267.72705     -3151.150                                  
                                  28943535.532   113580624.38404     -2353.034  
  28943533.723   116543594.18304     -2414.163    28943534.592   115062109.33405
     -2383.774  
  25519537.604   134106075.23308     -2001.571                                  
                                  25519539.984   100144147.49808     -1494.742  
  25519538.371   102756603.13309     -1533.670    25519539.375   101450379.85009
     -1514.203  
  25921688.670   136219404.56708      2602.686                                  
                                  25921690.139   101722281.59208      1943.547  
  25921688.591   104375903.68608      1994.254    25921689.589   103049095.17209
      1968.902  
  25678502.232   134941444.89509      2089.893                                  
                                  25678506.407   100767963.37308      1560.638  
  25678504.577   103396692.45108      1601.354    25678505.244   102082332.44709
      1581.025  
 23 12 08 17 01  0.0000000  0 26G06G11G12G24G25G28G29G31G32R05R06R07
                                R14R15R16R17R18R24E04E09E13E15E19E21
                                E26E31
  23946911.104   125841867.13507     -1798.752    23946912.565    98058600.68346
     -1401.624    23946913.016    23946912.442    93972824.17008     -1343.375  
                                                                                
                
  23118473.284   121488399.44808       266.251    23118471.990    94666283.03546
       207.471    23118472.107    23118474.844    90721859.14709       198.704  
                                                                                
                
  21615761.827   113591593.64009     -2429.535    21615759.858    88512927.19549
     -1893.143    21615760.330                                                  
                                                                                
                
  25244149.950   132658900.09506     -3810.869    25244152.571   103370577.70146
     -2969.507    25244152.710    25244152.253    99063466.26707     -2845.762  
                                                                                
                
  19841122.921   104265804.39809      -341.886    19841123.870    81246084.00649
      -266.404    19841124.360    19841123.310    77860829.05609      -255.303  
                                                                                
                
  21821445.595   114672474.22509      2476.762    21821444.265    89355173.45646
      1929.945    21821444.383    21821447.898    85632046.38109      1849.455  
                                                                                
                
  21466230.818   112805805.90909      2463.358    21466229.772    87900625.59349
      1919.501    21466230.260                                                  
                                                                                
                
  23559787.879   123807519.91208      3320.861    23559786.176    96473390.20846
      2587.689    23559786.329                                                  
                                                                                
                
  22676489.856   119165759.58009     -2059.156    22676491.305    92856437.95046
     -1604.538    22676491.452    22676489.494    88987415.82208     -1537.809  
                                                                                
                
  24265846.049   129714845.18307     -4234.863    24265852.379   100889327.14703
     -3293.791                                                                  
                                                                                
                
  22312049.405   119061375.15505     -2026.352                                  
                                                                                
                                                                                
                
  22939367.641   122796231.70407      1483.512    22939371.087    95508190.85907
      1153.843                                                                  
                                                                                
                
  22758148.448   121313738.16708     -3285.617    22758152.178    94355138.28607
     -2555.481                                                                  
                                                                                
                
  19551909.379   104479476.55209      -858.344    19551912.139    81261821.51608
      -667.600                                                                  
                                                                                
                
  20630442.739   110204122.55609      2535.894    20630445.731    85714325.42408
      1972.364                                                                  
                                                                                
                
  19921964.191   106606455.07509      1327.501    19921966.574    82916140.78308
      1032.502                                                                  
                                                                                
                
  22030097.818   117598162.97208      4313.617    22030102.512    91465251.29907
      3355.038                                                                  
                                                                                
                
  21679115.580   115927978.65008     -2841.139    21679117.533    90166211.27907
     -2209.775                                                                  
                                                                                
                
  25714619.514   135131237.05509     -2246.244                                  
                                  25714621.669   100909691.19108     -1677.394  
  25714619.961   103542116.46708     -1721.205    25714620.824   102225905.86609
     -1699.353  
  25905946.223   136136664.95109       223.580                                  
                                  25905948.369   101660496.60908       166.934  
  25905946.807   104312509.22709       171.279    25905948.211   102986507.45409
       169.105  
  25766541.671   135404090.52908        74.974                                  
                                  25766544.638   101113445.46309        55.985  
  25766542.841   103751187.15308        57.440    25766544.115   102432320.84209
        56.746  
  28401035.001   149248445.98514     -2274.108                                  
                                  28401039.395   111451771.77704     -1698.106  
  28401036.702   114359205.78105     -1742.243    28401038.097   112905490.82605
     -1720.554  
  28961508.658   152193745.41705     -3148.102                                  
                                  28961514.195   113651175.74204     -2350.973  
  28961512.374   116615986.06104     -2412.167    28961513.225   115133580.92405
     -2381.259  
  25530972.922   134166168.26908     -2005.134                                  
                                  25530975.289   100189022.14408     -1497.391  
  25530973.731   102802648.42909     -1536.418    25530974.728   101495839.81909
     -1516.884  
  25906852.305   136141439.03109      2594.651                                  
                                  25906853.762   101664060.60808      1937.521  
  25906852.250   104316163.90108      1988.085    25906853.222   102990114.78508
      1962.832  
  25666579.751   134878792.11709      2086.644                                  
                                  25666583.845   100721177.27008      1558.097  
  25666582.074   103348685.83108      1598.753    25666582.753   102034936.08409
      1578.449  
 23 12 08 17 01 30.0000000  0 27G06G11G12G24G25G28G29G31G32R05R06R07
                                R14R15R16R17R18R24E04E09E13E15E19E21
                                E26E31E33
  23957229.381   125896090.08406     -1815.940    23957230.868    98100852.32246
     -1415.017    23957231.321    23957230.708    94013315.34108     -1356.197  
                                                                                
                
  23117009.097   121480705.34508       246.716    23117007.837    94660287.65547
       192.248    23117007.958    23117010.690    90716113.58309       184.181  
                                                                                
                
  21629655.280   113664604.20509     -2437.895    21629653.314    88569818.53748
     -1899.659    21629653.788                                                  
                                                                                
                
  25265907.766   132773238.20006     -3811.838    25265910.372   103459672.34346
     -2970.262    25265910.505    25265910.050    99148848.62407     -2846.401  
                                                                                
                
  19843112.617   104276260.40009      -355.360    19843113.550    81254231.55749
      -276.903    19843114.038    19843112.983    77868637.13309      -265.395  
                                                                                
                
  21807339.802   114598347.84609      2464.823    21807338.413    89297412.68847
      1920.643    21807338.525    21807342.063    85576692.31909      1840.641  
                                                                                
                
  21452207.729   112732114.29409      2449.235    21452206.665    87843203.59549
      1908.496    21452207.151                                                  
                                                                                
                
  23540847.995   123707990.65908      3314.352    23540846.305    96395835.06046
      2582.616    23540846.462                                                  
                                                                                
                
  22688288.714   119227762.98709     -2074.394    22688290.167    92904752.28646
     -1616.412    22688290.321    22688288.377    89033717.05008     -1549.022  
                                                                                
                
  24289610.782   129841883.09606     -4234.226    24289611.092                  
     -3293.293                                                                  
                                                                                
                
  22323501.961   119122487.03405     -2048.677                                  
                                                                                
                                                                                
                
  22931122.745   122752096.48807      1458.764    22931126.218    95473863.48707
      1134.595                                                                  
                                                                                
                
  22776656.594   121412396.94908     -3291.909    22776660.297    94431872.89207
     -2560.373                                                                  
                                                                                
                
  19556768.518   104505442.38209      -872.838    19556771.290    81282017.16908
      -678.874                                                                  
                                                                                
                
  20616224.170   110128169.74609      2527.490    20616227.127    85655251.07408
      1965.828                                                                  
                                                                                
                
  19914597.103   106567032.47409      1300.502    19914599.486    82885478.78808
      1011.502                                                                  
                                                                                
                
  22005882.892   117468902.31608      4303.764    22005887.552    91364715.30107
      3347.374                                                                  
                                                                                
                
  21695109.654   116013506.20808     -2860.808    21695111.575    90232732.72407
     -2225.072                                                                  
                                                                                
                
  25727469.076   135198761.97209     -2255.624                                  
                                  25727471.185   100960115.63008     -1684.292  
  25727469.508   103593856.32808     -1728.320    25727470.399   102276988.01209
     -1706.322  
  25904711.383   136130175.95709       208.832                                  
                                  25904713.538   101655650.94608       156.021  
  25904712.088   104307537.15109       160.069    25904713.380   102981598.58209
       158.046  
  25766156.852   135402068.61608        59.562                                  
                                  25766159.846   101111935.62609        44.461  
  25766158.016   103749637.91808        45.639    25766159.300   102430791.30409
        45.074  
  28414042.985   149316802.92014     -2283.303                                  
                                  28414046.793   111502817.58404     -1705.187  
  28414044.899   114411583.24705     -1749.530    28414045.961   112957202.44305
     -1727.337  
  28979470.399   152288134.42804     -3145.109                                  
                                  28979476.021   113721660.83004     -2348.563  
  28979474.205   116688309.88704     -2409.432    28979475.030   115204985.39505
     -2379.125  
  25542428.887   134226369.83408     -2008.515                                  
                                  25542431.250   100233977.84608     -1499.857  
  25542429.720   102848776.89308     -1538.998    25542430.723   101541381.90209
     -1519.391  
  25892062.807   136063719.76908      2586.483                                  
                                  25892064.253   101606023.56208      1931.497  
  25892062.749   104256612.81208      1981.846    25892063.711   102931320.71509
      1956.725  
  25654677.009   134816242.99409      2083.288                                  
                                  25654681.017   100674468.56008      1555.707  
  25654679.303   103300758.62208      1596.294    25654679.997   101987618.12909
      1575.956  
  28573918.564   150156959.18116      3229.372                                  
                                  28573924.132   112130201.36616      2411.305  
  28573922.247   115055332.70316      2474.414    28573922.205   113592766.56716
      2442.892  
 23 12 08 17 02  0.0000000  0 27G06G11G12G24G25G28G29G31G32R05R06R07
                                R14R15R16R17R18R24E04E09E13E15E19E21
                                E26E31E33
  23967646.524   125950832.71706     -1833.281    23967648.036    98143508.94746
     -1428.530    23967648.489    23967647.827    94054194.59208     -1368.979  
                                                                                
                
  23115657.430   121473602.57908       226.856    23115656.210    94654753.06546
       176.772    23115656.339    23115659.055    90710809.60909       169.571  
                                                                                
                
  21643596.811   113737867.41809     -2446.203    21643594.843    88626906.73649
     -1906.133    21643595.318                                                  
                                                                                
                
  25287671.406   132887606.81206     -3812.856    25287674.017   103548790.72146
     -2971.058    25287674.144    25287673.713    99234253.72707     -2847.057  
                                                                                
                
  19845180.644   104287128.02609      -368.947    19845181.557    81262699.85649
      -287.490    19845182.043    19845180.976    77876752.58709      -275.510  
                                                                                
                
  21793303.039   114524584.22709      2452.781    21793301.602    89239934.58747
      1911.259    21793301.711    21793305.261    85521609.15509      1831.674  
                                                                                
                
  21438266.629   112658853.53709      2434.933    21438265.544    87786117.33349
      1897.352    21438266.029                                                  
                                                                                
                
  23521945.403   123608657.44608      3308.112    23521943.732    96318432.68846
      2577.753    23521943.895                                                  
                                                                                
                
  22700173.963   119290220.37009     -2089.243    22700175.421    92953420.36246
     -1627.982    22700175.572    22700173.649    89080357.27008     -1560.152  
                                                                                
                
  24313372.454   129968903.07506     -4233.558    24313372.795   101086933.29414
     -3292.774                                                                  
                                                                                
                
  22335078.705   119184261.02705     -2070.019                                  
                                                                                
                                                                                
                
  22923016.601   122708703.91307      1434.033    22923020.057    95440113.75107
      1115.360                                                                  
                                                                                
                
  22795199.611   121511241.62308     -3297.801    22795203.286    94508752.08606
     -2564.956                                                                  
                                                                                
                
  19561709.611   104531846.16109      -887.365    19561712.386    81302553.45408
      -690.172                                                                  
                                                                                
                
  20602053.408   110052472.20809      2519.105    20602056.320    85596375.26308
      1959.305                                                                  
                                                                                
                
  19907382.264   106528424.48309      1273.483    19907384.626    82855450.36508
       990.488                                                                  
                                                                                
                
  21981724.969   117339945.94208      4293.521    21981729.592    91264415.98107
      3339.407                                                                  
                                                                                
                
  21711215.631   116099632.09408     -2880.711    21711217.528    90299719.52107
     -2240.553                                                                  
                                                                                
                
  25740373.351   135266574.45409     -2264.962                                  
                                  25740375.405   101010754.82108     -1691.410  
  25740373.763   103645816.53608     -1735.532    25740374.683   102328287.71309
     -1713.469  
  25903561.891   136124135.68509       194.043                                  
                                  25903564.084   101651140.40708       144.886  
  25903562.710   104302908.94209       148.636    25903563.903   102977029.20909
       146.734  
  25765861.216   135400515.25608        44.122                                  
                                  25765864.240   101110775.67908        32.910  
  25765862.382   103748447.70508        33.823    25765863.666   102429616.22709
        33.352  
  28427106.259   149385451.16314     -2292.561                                  
                                  28427109.992   111554080.98204     -1712.483  
  28427109.000   114464183.94005     -1757.252    28427109.253   113009134.49805
     -1735.038  
  28997414.258   152382439.39914     -3141.321                                  
                                  28997420.006   113792104.96014     -2345.795  
  28997419.687   116760564.03304     -2407.270    28997419.202   115276321.03704
     -2376.601  
  25553905.324   134286678.91608     -2011.922                                  
                                  25553907.698   100279013.82108     -1502.395  
  25553906.179   102894987.73009     -1541.626    25553907.193   101587005.30809
     -1521.999  
  25877320.378   135986247.98308      2578.357                                  
                                  25877321.796   101548171.30908      1925.438  
  25877320.284   104197251.35308      1975.763    25877321.243   102872713.86309
      1950.604  
  25642793.903   134753797.01209      2080.017                                  
                                  25642797.815   100627836.86908      1553.212  
  25642796.154   103252910.45108      1593.717    25642796.867   101940378.19009
      1573.545  
  28555475.091   150060038.01306      3232.403                                  
                                  28555480.347   112057825.37205      2413.560  
  28555478.604   114981068.61606      2476.723    28555478.823   113519446.52506
      2445.242  
 23 12 08 17 02 30.0000000  0 27G06G11G12G24G25G28G29G31G32R05R06R07
                                R14R15R16R17R18R24E04E09E13E15E19E21
                                E26E31E33
  23978161.646   126006090.09807     -1850.402    23978163.188    98186566.64647
     -1441.872    23978163.641    23978162.949    94095458.21108     -1381.718  
                                                                                
                
  23114417.809   121467088.58008       207.383    23114416.621    94649677.25647
       161.599    23114416.751    23114419.454    90705945.30609       154.885  
                                                                                
                
  21657585.624   113811379.17609     -2454.369    21657583.651    88684188.62249
     -1912.495    21657584.123                                                  
                                                                                
                
  25309439.918   133002001.05206     -3813.408    25309442.538   103637929.06646
     -2971.487    25309442.661    25309442.273    99319677.99507     -2847.840  
                                                                                
                
  19847326.349   104298403.79909      -382.469    19847327.240    81271486.18449
      -298.027    19847327.722    19847326.645    77885172.82609      -285.635  
                                                                                
                
  21779335.128   114451182.50909      2440.742    21779333.652    89182738.50147
      1901.879    21779333.756    21779337.292    85466796.24309      1822.666  
                                                                                
                
  21424407.166   112586021.75509      2420.623    21424406.059    87729365.33149
      1886.200    21424406.539                                                  
                                                                                
                
  23503079.988   123509519.66308      3301.317    23503078.340    96241182.61647
      2572.460    23503078.505                                                  
                                                                                
                
  22712144.516   119353126.09008     -2104.067    22712145.972    93002437.80347
     -1639.535    22712146.124    22712144.216    89127332.32808     -1571.363  
                                                                                
                
  24337129.284   130095897.94004     -4232.546    24337130.438   101185706.77605
     -3291.992                                                                  
                                                                                
                
  22346778.297   119246690.82505     -2091.685                                  
                                                                                
                                                                                
                
  22915048.963   122666052.53307      1409.246    22915052.382    95406940.47707
      1096.081                                                                  
                                                                                
                
  22813776.829   121610268.51907     -3303.971    22813780.494    94585772.97505
     -2569.755                                                                  
                                                                                
                
  19566732.128   104558685.01709      -901.818    19566734.912    81323428.12408
      -701.414                                                                  
                                                                                
                
  20587930.215   109977028.73509      2510.550    20587933.074    85537697.06308
      1952.651                                                                  
                                                                                
                
  19900319.421   106490629.77709      1246.353    19900321.744    82826054.49608
       969.386                                                                  
                                                                                
                
  21957624.291   117211295.00308      4283.253    21957628.872    91164354.18707
      3331.421                                                                  
                                                                                
                
  21727432.218   116186349.46808     -2900.426    21727434.105    90367166.37107
     -2255.887                                                                  
                                                                                
                
  25753331.432   135334669.63809     -2274.397                                  
                                  25753333.434   101061605.10408     -1698.415  
  25753331.834   103697993.34708     -1742.774    25753332.778   102379801.26309
     -1720.616  
  25902497.245   136118541.20209       179.132                                  
                                  25902499.534   101646962.72909       133.796  
  25902498.185   104298622.27608       137.286    25902499.287   102972797.03909
       135.547  
  25765654.166   135399427.36508        28.574                                  
                                  25765657.192   101109963.31008        21.425  
  25765655.331   103747614.15508        21.906    25765656.603   102428793.26709
        21.662  
  28440224.744   149454390.90514     -2302.272                                  
                                  28440228.025   111605558.24504     -1719.335  
  28440227.347   114517004.10004     -1764.536    28440227.085   113061283.20705
     -1741.900  
  29015340.598   152476641.99704     -3138.491                                  
                                  29015346.010   113862449.81714     -2343.565  
  29015346.257   116832745.01704     -2404.892    29015345.592   115347584.45204
     -2374.319  
  25565401.557   134347092.06108     -2015.462                                  
                                  25565403.957   100324127.51708     -1505.018  
  25565402.431   102941278.31409     -1544.220    25565403.458   101632707.45009
     -1524.630  
  25862624.851   135909022.54609      2570.130                                  
                                  25862626.230   101490502.99608      1919.321  
  25862624.744   104138078.67308      1969.399    25862625.684   102814293.37009
      1944.352  
  25630929.881   134691451.21809      2076.674                                  
                                  25630933.689   100581279.98208      1550.777  
  25630932.079   103205139.05008      1591.130    25630932.819   101893214.05109
      1570.959  
  28537015.453   149963032.26006      3235.032                                  
                                  28537020.323   111985386.18406      2415.623  
  28537018.593   114906739.68706      2478.934    28537019.142   113446062.46506
      2447.337  
 23 12 08 17 03  0.0000000  0 27G06G11G12G24G25G28G29G31G32R05R06R07
                                R14R15R16R17R18R24E04E09E13E15E19E21
                                E26E31E33
  23988770.718   126061841.25507     -1867.589    23988772.289    98230009.12147
     -1455.263    23988772.748    23988772.041    94137090.58608     -1394.588  
                                                                                
                
  23113286.740   121461144.91208       187.604    23113285.572    94645045.85346
       146.186    23113285.706    23113288.391    90701506.88709       140.142  
                                                                                
                
  21671617.914   113885119.43309     -2462.711    21671615.923    88741648.56949
     -1918.995    21671616.395                                                  
                                                                                
                
  25331209.326   133116400.16606     -3814.436    25331211.949   103727071.24546
     -2972.288    25331212.067    25331211.715    99405105.90307     -2848.411  
                                                                                
                
  19849546.032   104310068.33209      -396.206    19849546.901    81280575.44449
      -308.732    19849547.382    19849546.293    77893883.36509      -295.876  
                                                                                
                
  21765432.900   114378125.98209      2428.524    21765431.395    89125811.39247
      1892.358    21765431.495    21765434.999    85412241.10809      1813.495  
                                                                                
                
  21410626.061   112513601.77909      2406.214    21410624.931    87672934.22849
      1874.973    21410625.410                                                  
                                                                                
                
  23484248.484   123410560.13108      3294.600    23484246.866    96164071.45047
      2567.226    23484247.031                                                  
                                                                                
                
  22724196.288   119416458.62809     -2119.066    22724197.739    93051787.83246
     -1651.220    22724197.893    22724195.985    89174626.08708     -1582.375  
                                                                                
                
  24360877.095   130222844.18204     -4231.636    24360879.397   101284442.38805
     -3291.283                                                                  
                                                                                
                
  22358596.370   119309753.56405     -2113.409                                  
                                                                                
                                                                                
                
  22907216.506   122624124.72108      1384.579    22907219.871    95374329.99607
      1076.896                                                                  
                                                                                
                
  22832384.349   121709457.18707     -3309.878    22832387.992    94662919.73405
     -2574.347                                                                  
                                                                                
                
  19571832.468   104585939.75509      -916.375    19571835.256    81344626.26008
      -712.736                                                                  
                                                                                
                
  20573851.274   109901821.63009      2501.956    20573854.103    85479202.69508
      1945.968                                                                  
                                                                                
                
  19893405.179   106453630.31009      1219.077    19893407.458    82797277.15708
       948.172                                                                  
                                                                                
                
  21933577.967   117082934.14908      4272.871    21933582.477    91064518.01207
      3323.346                                                                  
                                                                                
                
  21743755.060   116273635.00208     -2919.841    21743756.936    90435055.11507
     -2270.989                                                                  
                                                                                
                
  25766339.335   135403026.70309     -2283.850                                  
                                  25766341.276   101112650.96708     -1705.581  
  25766339.727   103750370.83808     -1749.949    25766340.688   102431512.93709
     -1727.754  
  25901513.823   136113373.59709       164.213                                  
                                  25901516.233   101643103.83608       122.555  
  25901514.861   104294662.71108       125.785    25901515.889   102968887.80309
       124.164  
  25765532.117   135398785.97108        12.958                                  
                                  25765535.153   101109484.36408         9.722  
  25765533.296   103747122.71608         9.954    25765534.548   102428308.07509
         9.851  
  28453393.022   149523589.24114     -2312.081                                  
                                  28453396.383   111657233.84204     -1726.401  
  28453395.823   114570027.71604     -1771.599    28453395.438   113113632.80904
     -1748.871  
  29033244.854   152570731.04714     -3135.046                                  
                                  29033249.932   113932708.63714     -2341.064  
  29033250.528   116904836.71104     -2402.270    29033249.789   115418759.72504
     -2371.820  
  25576913.925   134407589.98808     -2018.921                                  
                                  25576916.354   100369304.52508     -1507.597  
  25576914.820   102987633.86109     -1547.000    25576915.858   101678473.72609
     -1527.284  
  25847972.949   135832026.34308      2561.731                                  
                                  25847974.283   101433005.88508      1912.928  
  25847972.843   104079081.64408      1962.834    25847973.763   102756046.30009
      1937.904  
  25619081.372   134629186.86509      2073.203                                  
                                  25619085.068   100534783.90308      1548.175  
  25619083.493   103157430.02808      1588.567    25619084.279   101846111.50209
      1568.309  
  28518536.320   149865924.69106      3237.594                                  
                                  28518540.933   111912870.96506      2417.817  
  28518539.281   114832332.78306      2480.712    28518540.072   113372601.40507
      2449.259  
 23 12 08 17 03 30.0000000  0 27G06G11G12G24G25G28G29G31G32R05R06R07
                                R14R15R16R17R18R24E04E09E13E15E19E21
                                E26E31E33
  23999481.812   126118128.52906     -1884.768    23999483.413    98273869.34546
     -1468.651    23999483.881    23999483.165    94179123.29408     -1407.416  
                                                                                
                
  23112272.717   121455816.28308       168.018    23112271.559    94640893.70646
       130.923    23112271.700    23112274.374    90697527.76109       125.394  
                                                                                
                
  21685701.825   113959131.01109     -2470.989    21685699.795    88799319.95149
     -1925.445    21685700.266                                                  
                                                                                
                
  25352987.801   133230846.74605     -3815.236    25352990.442   103816250.36845
     -2972.913    25352990.554    25352990.247    99490569.23807     -2848.960  
                                                                                
                
  19851848.041   104322165.50509      -409.863    19851848.887    81290001.83149
      -319.374    19851849.366    19851848.280    77902916.99309      -306.118  
                                                                                
                
  21751605.225   114305461.21709      2416.158    21751603.700    89069189.54747
      1882.722    21751603.800    21751607.255    85357978.50609      1804.244  
                                                                                
                
  21396932.088   112441639.58109      2391.691    21396930.937    87616859.82049
      1863.656    21396931.416                                                  
                                                                                
                
  23465459.738   123311825.30608      3287.951    23465458.154    96087135.37147
      2562.045    23465458.319                                                  
                                                                                
                
  22736337.235   119480259.69309     -2133.804    22736338.682    93101502.93047
     -1662.706    22736338.833    22736336.937    89222269.72708     -1593.553  
                                                                                
                
  24384623.630   130349783.44106     -4230.948    24384626.931   101383172.57606
     -3290.751                                                                  
                                                                                
                
  22370540.612   119373490.62705     -2135.082                                  
                                                                                
                                                                                
                
  22899528.080   122582967.79607      1359.606    22899531.377    95342319.09307
      1057.472                                                                  
                                                                                
                
  22851030.426   121808851.51607     -3315.995    22851034.015    94740226.48705
     -2579.105                                                                  
                                                                                
                
  19577019.088   104613655.54309      -930.918    19577021.877    81366182.99508
      -724.047                                                                  
                                                                                
                
  20559825.304   109826897.57709      2493.352    20559828.131    85420928.47808
      1939.276                                                                  
                                                                                
                
  19886648.212   106417472.47309      1191.808    19886650.456    82769154.41708
       926.963                                                                  
                                                                                
                
  21909595.171   116954912.48708      4262.221    21909599.600    90964945.68407
      3315.064                                                                  
                                                                                
                
  21760191.891   116361530.17508     -2939.244    21760193.758    90503418.03507
     -2286.077                                                                  
                                                                                
                
  25779405.162   135471688.08609     -2293.212                                  
                                  25779407.044   101163924.07108     -1712.535  
  25779405.554   103802981.50708     -1757.284    25779406.519   102483454.82809
     -1734.924  
  25900620.086   136108677.21609       149.258                                  
                                  25900622.626   101639596.81608       111.439  
  25900621.180   104291064.20608       114.297    25900622.182   102965335.04509
       112.856  
  25765503.429   135398635.26909        -2.632                                  
                                  25765506.464   101109371.85708        -1.973  
  25765504.625   103747007.27309        -2.001    25765505.842   102428194.09709
        -1.996  
                                                                                
                                  28466623.613   111709144.43914     -1733.478  
  28466622.821   114623287.39203     -1778.748    28466622.764   113166215.47004
     -1756.488  
  29051135.050   152664744.55914     -3131.605                                  
                                  29051140.226   114002914.59414     -2338.739  
  29051140.296   116976872.07804     -2399.676    29051139.980   115489879.36404
     -2369.307  
  25588450.784   134468216.59708     -2022.524                                  
                                  25588453.221   100414577.63308     -1510.327  
  25588451.687   103034088.00209     -1549.738    25588452.741   101724337.35309
     -1530.037  
  25833373.448   135755305.53509      2553.301                                  
                                  25833374.746   101375714.44308      1906.723  
  25833373.348   104020295.62508      1956.450    25833374.254   102698007.56709
      1931.570  
  25607256.797   134567048.31609      2069.812                                  
                                  25607260.383   100488381.77808      1545.597  
  25607258.830   103109817.41408      1585.876    25607259.675   101799104.13109
      1565.694  
  28500046.576   149768761.34806      3240.200                                  
                                  28500050.992   111840314.06406      2419.637  
  28500049.481   114757883.06906      2482.712    28500050.410   113299098.11507
      2451.037  
 23 12 08 17 04  0.0000000  0 27G06G11G12G24G25G28G29G31G32R05R06R07
                                R14R15R16R17R18R24E04E09E13E15E19E21
                                E26E31E33
  24010289.789   126174925.00907     -1902.233    24010291.415    98318126.36846
     -1482.258    24010291.887    24010291.170    94221536.27708     -1420.432  
                                                                                
                
  23111371.094   121451078.24808       147.680    23111369.943    94637201.75646
       115.075    23111370.089    23111372.755    90693989.64409       110.313  
                                                                                
                
  21699832.464   114033388.03509     -2479.698    21699830.395    88857182.56749
     -1932.233    21699830.862                                                  
                                                                                
                
  25374770.251   133345314.17705     -3816.672    25374772.919   103905445.73045
     -2974.032    25374773.023    25374772.744    99576048.10507     -2849.873  
                                                                                
                
  19854227.568   104334670.03309      -424.000    19854228.399    81299745.63149
      -330.389    19854228.878    19854227.798    77912254.80109      -316.624  
                                                                                
                
  21737847.790   114233165.51909      2403.240    21737846.245    89012855.27547
      1872.656    21737846.343    21737849.752    85303991.50109      1794.703  
                                                                                
                
  21383320.666   112370111.19009      2376.599    21383319.495    87561123.44749
      1851.896    21383319.971                                                  
                                                                                
                
  23446709.486   123213292.76608      3280.502    23446707.935    96010356.91147
      2556.241    23446708.100                                                  
                                                                                
                
  22748562.105   119544501.77409     -2149.086    22748563.552    93151561.68247
     -1674.613    22748563.706    22748561.804    89270242.70308     -1604.850  
                                                                                
                
  24408363.325   130476685.53006     -4229.894    24408367.349   101481873.91006
     -3289.929                                                                  
                                                                                
                
  22382605.764   119437873.36005     -2157.364                                  
                                                                                
                                                                                
                
  22891979.243   122542558.02107      1334.084    22891982.468    95310889.28806
      1037.623                                                                  
                                                                                
                
  22869710.207   121908425.36607     -3322.478    22869713.765    94817672.81205
     -2584.151                                                                  
                                                                                
                
  19582287.285   104641807.30209      -946.086    19582290.071    81388078.82908
      -735.845                                                                  
                                                                                
                
  20545847.907   109752233.07809      2484.035    20545850.762    85362856.12808
      1932.027                                                                  
                                                                                
                
  19880044.032   106382132.28209      1164.028    19880046.240    82741667.63708
       905.357                                                                  
                                                                                
                
  21885671.961   116827208.91008      4251.046    21885676.330    90865620.74707
      3306.370                                                                  
                                                                                
                
  21776737.243   116450005.61208     -2959.299    21776739.092    90572232.27207
     -2301.676                                                                  
                                                                                
                
  25792523.837   135540627.09009     -2302.914                                  
                                  25792525.671   101215404.47408     -1719.630  
  25792524.239   103855804.87408     -1764.524    25792525.187   102535606.70809
     -1742.070  
  25899811.301   136104427.22809       133.904                                  
                                  25899813.958   101636423.14308        99.925  
  25899812.403   104287807.73508       102.566    25899813.418   102962119.97509
       101.249  
  25765563.399   135398950.31608       -18.636                                  
                                  25765566.430   101109607.13208       -13.911  
  25765564.638   103747248.69509       -14.290    25765565.812   102428432.44609
       -14.094  
                                                                                
                                  28479903.734   111761260.22414     -1741.037  
  28479902.825   114676762.67903     -1786.370    28479902.774   113219010.98504
     -1763.677  
                                                                                
                                  29069011.402   114073044.72913     -2336.336  
  29069010.897   117048860.74614     -2397.924    29069011.168   115560923.26104
     -2367.004  
  25600007.323   134528946.61609     -2026.435                                  
                                  25600009.758   100459927.96708     -1513.233  
  25600008.230   103080621.39409     -1552.712    25600009.298   101770279.21309
     -1532.961  
  25818821.975   135678837.14309      2544.332                                  
                                  25818823.247   101318611.49608      1899.932  
  25818821.867   103961703.01008      1949.519    25818822.770   102640159.78509
      1924.742  
  25595451.457   134505010.90609      2065.870                                  
                                  25595454.950   100442055.18808      1542.772  
  25595453.394   103062282.29508      1582.914    25595454.311   101752173.27309
      1562.894  
  28481541.799   149671518.86507      3242.190                                  
                                  28481546.032   111767698.05106      2421.198  
  28481544.695   114683372.69507      2484.545    28481545.686   113225534.90907
      2452.854  
 23 12 08 17 04 30.0000000  0 27G06G11G12G24G25G28G29G31G32R05R06R07
                                R14R15R16R17R18R24E04E09E13E15E19E21
                                E26E31E33
  24021194.499   126232229.74206     -1918.830    24021196.150    98362779.40946
     -1495.191    24021196.629    24021195.927    94264328.78408     -1432.934  
                                                                                
                
  23110582.132   121446932.24708       127.963    23110580.981    94633971.12846
        99.712    23110581.137    23110583.797    90690893.62709        95.579  
                                                                                
                
  21714009.685   114107889.83109     -2487.750    21714007.574    88915235.92249
     -1938.506    21714008.034                                                  
                                                                                
                
  25396556.479   133459801.54206     -3816.552    25396559.154   103994656.65546
     -2973.938    25396559.251    25396559.000    99661541.91707     -2850.222  
                                                                                
                
  19856684.714   104347582.47809      -437.542    19856685.534    81309807.28849
      -340.941    19856686.011    19856684.936    77921897.23109      -326.744  
                                                                                
                
  21724161.191   114161242.13209      2391.057    21724159.623    88956811.12947
      1863.163    21724159.721    21724163.093    85250282.54609      1785.425  
                                                                                
                
  21369792.296   112299019.24809      2362.091    21369791.112    87505727.16649
      1840.592    21369791.586                                                  
                                                                                
                
  23427998.312   123114965.52607      3273.882    23427996.794    95933738.40747
      2551.080    23427996.956                                                  
                                                                                
                
  22760870.604   119609183.31609     -2163.614    22760872.049    93201962.87347
     -1685.934    22760872.203    22760870.286    89318543.84208     -1615.699  
                                                                                
                
  24432095.680   130603547.68906     -4228.291    24432100.144   101580544.15205
     -3288.682                                                                  
                                                                                
                
  22394791.424   119502899.37905     -2178.405                                  
                                                                                
                                                                                
                
  22884570.430   122502897.76007      1309.134    22884573.539    95280042.43206
      1018.216                                                                  
                                                                                
                
  22888423.725   122008179.14007     -3328.302    22888427.262    94895259.08205
     -2588.678                                                                  
                                                                                
                
  19587637.308   104670396.25209      -960.586    19587640.096    81410314.69008
      -747.122                                                                  
                                                                                
                
  20531919.629   109677831.00309      2475.321    20531922.523    85304987.89808
      1925.251                                                                  
                                                                                
                
  19873593.123   106347612.31209      1136.680    19873595.310    82714818.81108
       884.086                                                                  
                                                                                
                
  21861809.276   116699828.37208      4240.374    21861813.575    90766547.05507
      3298.072                                                                  
                                                                                
                
  21793390.590   116539058.60209     -2978.259    21793392.424    90641495.72607
     -2316.423                                                                  
                                                                                
                
  25805695.170   135609842.87509     -2312.014                                  
                                  25805696.982   101267091.58008     -1726.520  
  25805695.589   103908840.34308     -1771.566    25805696.512   102587967.99809
     -1749.019  
  25899087.682   136100624.68909       118.982                                  
                                  25899090.425   101633583.60008        88.856  
  25899088.752   104284894.11208        91.176    25899089.807   102959243.38909
        89.999  
  25765712.167   135399732.05908       -34.083                                  
                                  25765715.171   101110190.91508       -25.489  
  25765713.438   103747847.71608       -26.232    25765714.576   102429023.85609
       -25.945  
                                                                                
                                  28493237.316   111813585.41613     -1747.970  
  28493236.031   114730455.84714     -1793.074    28493236.211   113272018.65704
     -1770.549  
                                                                                
                                                                                
  29086862.760   117120742.20313     -2395.150    29086863.339   115631890.96904
     -2364.280  
  25611583.673   134589780.74709     -2029.909                                  
                                  25611586.100   100505356.05608     -1515.829  
  25611584.578   103127234.55809     -1555.346    25611585.658   101816299.83709
     -1535.575  
  25804319.083   135602624.03309      2535.801                                  
                                  25804320.337   101261699.15608      1893.589  
  25804318.965   103903305.99108      1943.038    25804319.858   102582505.11009
      1918.287  
  25583665.578   134443075.80809      2062.556                                  
                                  25583669.010   100395804.99408      1540.155  
  25583667.430   103014825.56208      1580.403    25583668.422   101705319.81409
      1560.255  
  28463022.497   149574199.86207      3244.751                                  
                                  28463026.562   111695024.88206      2423.124  
  28463025.411   114608803.69907      2486.372    28463026.417   113151913.82907
      2454.646  
 23 12 08 17 05  0.0000000  0 27G06G11G12G24G25G28G29G31G32R05R06R07
                                R14R15R16R17R18R24E04E09E13E15E19E21
                                E26E31E33
  24032195.426   126290040.09007     -1935.392    24032197.083    98407826.44947
     -1508.097    24032197.563    24032196.897    94307498.87308     -1445.240  
                                                                                
                
  23109905.771   121443378.03108       108.659    23109904.614    94631201.64246
        84.670    23109904.768    23109907.434    90688239.51908        81.083  
                                                                                
                
  21728233.204   114182634.87009     -2495.551    21728231.046    88973478.82049
     -1944.585    21728231.504                                                  
                                                                                
                
  25418346.099   133574306.66606     -3817.046    25418348.763   104083881.41146
     -2974.322    25418348.853    25418348.624    99747048.95607     -2850.505  
                                                                                
                
  19859219.284   104360901.82509      -450.693    19859220.098    81320186.01649
      -351.189    19859220.572    19859219.493    77931843.51509      -336.577  
                                                                                
                
  21710545.754   114089692.71809      2378.718    21710544.164    88901058.38947
      1853.547    21710544.261    21710547.605    85196852.84109      1776.320  
                                                                                
                
  21356347.165   112228364.69809      2347.827    21356345.973    87450671.70449
      1829.477    21356346.446                                                  
                                                                                
                
  23409326.517   123016845.21508      3267.390    23409325.022    95857281.13946
      2546.023    23409325.181                                                  
                                                                                
                
  22773262.125   119674301.09209     -2177.841    22773263.568    93252703.98247
     -1697.021    22773263.719    22773261.784    89367170.72408     -1626.221  
                                                                                
                
  24455819.872   130730365.80106     -4226.385    24455824.701   101679180.16005
     -3287.199                                                                  
                                                                                
                
  22407096.843   119568564.20305     -2199.181                                  
                                                                                
                                                                                
                
  22877301.795   122463987.93207      1284.362    22877304.771    95249779.25906
       998.949                                                                  
                                                                                
                
  22907170.686   122108111.13007     -3334.016    22907174.207    94972983.95106
     -2593.123                                                                  
                                                                                
                
  19593069.071   104699422.00009      -974.813    19593071.858    81432890.28508
      -758.188                                                                  
                                                                                
                
  20518040.659   109603692.26309      2466.899    20518043.596    85247324.48308
      1918.701                                                                  
                                                                                
                
  19867295.638   106313913.26809      1109.614    19867297.802    82688608.47108
       863.034                                                                  
                                                                                
                
  21838007.744   116572774.43008      4229.709    21838011.999    90667727.41107
      3289.776                                                                  
                                                                                
                
  21810151.095   116628684.65608     -2997.112    21810152.915    90711204.90107
     -2331.086                                                                  
                                                                                
                
  25818918.708   135679332.99209     -2320.907                                  
                                  25818920.513   101318983.55208     -1733.112  
  25818919.151   103962086.01808     -1778.370    25818920.036   102640536.82309
     -1755.759  
  25898449.118   136097269.03809       104.442                                  
                                  25898451.907   101631077.77108        77.971  
  25898450.122   104282322.91108        80.000    25898451.234   102956704.87609
        78.973  
  25765949.604   135400979.80509       -49.315                                  
                                  25765952.582   101111122.69808       -36.850  
  25765950.895   103748803.80108       -37.803    25765952.010   102429967.78109
       -37.300  
  28506618.673   149803277.88413     -2349.153                                  
                                  28506624.212   111866116.24213     -1754.609  
  28506623.396   114784359.16504     -1800.526    28506623.560   113325236.74704
     -1777.533  
  29104691.807   152946186.52514     -3121.905                                  
                                  29104696.197   114213079.65313     -2331.202  
  29104695.238   117192545.71913     -2391.908    29104695.830   115702780.74104
     -2361.654  
  25623179.666   134650718.06409     -2032.948                                  
                                  25623182.083   100550861.18808     -1518.098  
  25623180.583   103173926.77609     -1557.737    25623181.662   101862398.51609
     -1537.918  
  25789865.018   135526667.48609      2527.610                                  
                                  25789866.265   101204978.39608      1887.552  
  25789864.899   103845105.57108      1936.730    25789865.782   102525044.52009
      1912.108  
  25571899.100   134381242.62409      2059.434                                  
                                  25571902.499   100349630.88508      1537.946  
  25571900.876   102967446.89808      1577.996    25571901.938   101658543.42409
      1558.005  
  28444488.878   149476805.61806      3247.696                                  
                                  28444492.773   111622295.55306      2425.235  
  28444491.820   114534177.06207      2488.540    28444492.800   113078235.85107
      2456.826  
 23 12 08 17 05 30.0000000  0 27G06G11G12G24G25G28G29G31G32R05R06R07
                                R14R15R16R17R18R24E04E09E13E15E19E21
                                E26E31E33
  24043293.106   126348358.84907     -1952.236    24043294.745    98453269.66947
     -1521.221    24043295.225    24043294.590    94351048.63008     -1457.883  
                                                                                
                
  23109343.034   121440420.85008        88.709    23109341.865    94628897.34946
        69.123    23109342.021    23109344.717    90686031.25408        66.240  
                                                                                
                
  21742503.772   114257627.01209     -2503.697    21742501.577    89031914.23949
     -1950.933    21742502.032                                                  
                                                                                
                
  25440139.691   133688832.55106     -3817.735    25440142.343   104173122.32346
     -2974.860    25440142.427    25440142.212    99832571.48308     -2850.819  
                                                                                
                
  19861832.125   104374632.51009      -464.467    19861832.938    81330885.27049
      -361.922    19861833.410    19861832.314    77942096.96709      -346.797  
                                                                                
                
  21697002.825   114018524.34509      2365.940    21697001.216    88845602.55747
      1843.592    21697001.315    21697004.643    85143707.68009      1766.876  
                                                                                
                
  21342986.403   112158153.55809      2333.094    21342985.204    87395961.76649
      1817.997    21342985.678                                                  
                                                                                
                
  23390695.480   122918939.00808      3259.968    23390693.994    95780990.69146
      2540.239    23390694.155                                                  
                                                                                
                
  22785737.060   119739857.26509     -2192.434    22785738.512    93303786.71347
     -1708.390    22785738.661    22785736.692    89416125.00808     -1637.171  
                                                                                
                
  24479535.960   130857140.34006     -4224.968    24479541.039   101777782.32105
     -3286.094                                                                  
                                                                                
                
  22419522.372   119634869.40104     -2220.755                                  
                                                                                
                                                                                
                
  22870174.582   122425835.22307      1259.081    22870177.449    95220104.95507
       979.286                                                                  
                                                                                
                
  22925951.770   122208224.90207     -3340.018    22925955.287    95050850.17907
     -2597.794                                                                  
                                                                                
                
  19598583.473   104728889.32109      -989.517    19598586.257    81455809.31908
      -769.623                                                                  
                                                                                
                
  20504212.278   109529823.64909      2457.841    20504215.254    85189871.15408
      1911.654                                                                  
                                                                                
                
  19861152.660   106281040.99209      1082.032    19861154.797    82663041.16708
       841.581                                                                  
                                                                                
                
  21814269.100   116446056.07608      4218.468    21814273.336    90569168.73607
      3281.032                                                                  
                                                                                
                
  21827018.927   116718884.68108     -3016.093    21827020.751    90781360.48907
     -2345.849                                                                  
                                                                                
                
  25832195.035   135749100.42609     -2330.090                                  
                                  25832196.855   101371082.58908     -1739.990  
  25832195.503   104015544.16108     -1785.401    25832196.349   102693315.41109
     -1762.685  
  25897896.523   136094365.07509        89.443                                  
                                  25897899.334   101628909.23608        66.781  
  25897897.448   104280097.80908        68.541    25897898.619   102954508.05709
        67.689  
  25766276.602   135402698.26408       -64.976                                  
                                  25766279.554   101112405.99408       -48.599  
  25766277.884   103750120.55808       -49.734    25766279.003   102431267.81509
       -49.207  
                                                                                
                                  28520064.398   111918858.99113     -1760.975  
  28520063.810   114838477.84914     -1807.727    28520064.174   113378667.44904
     -1784.407  
                                                                                
                                                                                
  29122508.975   117264275.00712     -2390.144    29122509.488   115773595.20603
     -2359.429  
  25634796.138   134711763.01709     -2036.471                                  
                                  25634798.541   100596446.70308     -1520.728  
  25634797.082   103220701.46709     -1560.397    25634798.140   101908578.62109
     -1540.606  
  25775461.055   135450974.15109      2518.769                                  
                                  25775462.319   101148454.20708      1880.944  
  25775460.953   103787106.82608      1930.051    25775461.832   102467783.05309
      1905.452  
  25560152.944   134319516.28409      2055.898                                  
                                  25560156.335   100303536.56908      1535.280  
  25560154.654   102920150.11508      1575.286    25560155.777   101611847.87509
      1555.266  
  28425942.172   149379342.68206      3250.150                                  
                                  28425945.914   111549514.96106      2426.950  
  28425945.151   114459497.81707      2490.395    28425946.074   113004505.92107
      2458.684  
 23 12 08 17 06  0.0000000  0 27G06G11G12G24G25G28G29G31G32R05R06R07
                                R14R15R16R17R18R24E04E09E13E15E19E21
                                E26E31E33
  24054486.596   126407180.88807     -1969.322    24054488.216    98499105.02147
     -1534.537    24054488.696    24054488.078    94394974.18808     -1470.555  
                                                                                
                
  23108893.358   121438057.90607        68.773    23108892.180    94627056.10646
        53.591    23108892.336    23108895.064    90684266.73709        51.317  
                                                                                
                
  21756820.490   114332861.75209     -2512.124    21756818.262    89090538.71549
     -1957.499    21756818.716                                                  
                                                                                
                
  25461936.292   133803374.33906     -3818.654    25461938.929   104262375.65046
     -2975.575    25461939.006    25461938.792    99918105.91308     -2851.442  
                                                                                
                
  19864522.544   104388770.90309      -478.072    19864523.357    81341902.22649
      -372.523    19864523.830    19864522.708    77952654.88509      -357.052  
                                                                                
                
  21683532.224   113947736.11009      2353.177    21683530.605    88790442.94447
      1833.646    21683530.701    21683534.020    85090846.39309      1757.202  
                                                                                
                
  21329709.706   112088384.20109      2318.114    21329708.503    87341596.07549
      1806.325    21329708.974                                                  
                                                                                
                
  23372105.056   122821246.16308      3252.593    23372103.576    95704866.48246
      2534.489    23372103.739                                                  
                                                                                
                
  22798294.338   119805846.11509     -2206.947    22798295.814    93355206.57947
     -1719.698    22798295.963    22798293.948    89465402.39208     -1647.983  
                                                                                
                
  24503242.707   130983864.65607     -4223.355    24503247.965   101876345.34506
     -3284.840                                                                  
                                                                                
                
  22432066.569   119701808.15305     -2241.902                                  
                                                                                
                                                                                
                
  22863188.528   122388438.23507      1233.712    22863191.350    95191018.41907
       959.556                                                                  
                                                                                
                
  22944766.336   122308517.10207     -3346.210    22944769.858    95128855.18207
     -2602.608                                                                  
                                                                                
                
  19604179.990   104758795.39709     -1004.373    19604182.772    81479069.59708
      -781.179                                                                  
                                                                                
                
  20490434.170   109456223.57009      2448.636    20490437.174    85132626.68908
      1904.497                                                                  
                                                                                
                
  19855163.848   106248993.71509      1054.406    19855165.956    82638115.53808
       820.095                                                                  
                                                                                
                
  21790593.467   116319674.25508      4206.916    21790597.677    90470871.85108
      3272.050                                                                  
                                                                                
                
  21843992.808   116809651.77508     -3035.059    21843994.645    90851957.10907
     -2360.602                                                                  
                                                                                
                
  25845523.159   135819140.15809     -2339.360                                  
                                  25845524.999   101423384.99008     -1746.897  
  25845523.644   104069210.97008     -1792.528    25845524.457   102746300.01409
     -1769.690  
  25897429.291   136091909.69809        74.271                                  
                                  25897432.084   101627075.69708        55.400  
  25897430.127   104278216.43108        56.892    25897431.355   102952650.59709
        56.129  
  25766692.557   135404884.21208       -80.766                                  
                                  25766695.495   101114038.37708       -60.268  
  25766693.825   103751795.53508       -61.912    25766694.953   102432921.49009
       -61.052  
                                                                                
                                  28533558.133   111971809.94513     -1768.211  
  28533557.184   114892809.03613     -1814.659    28533557.509   113432307.04804
     -1791.505  
                                                                                
                                                                                
  29140302.428   117335922.32213     -2386.789    29140303.019   115844365.76914
     -2356.452  
  25646432.429   134772912.14909     -2040.158                                  
                                  25646434.811   100642110.02008     -1523.510  
  25646433.404   103267556.00409     -1563.249    25646434.431   101954837.54509
     -1543.382  
  25761106.923   135375542.83209      2509.916                                  
                                  25761108.181   101092125.67108      1874.267  
  25761106.804   103729308.82908      1923.116    25761107.688   102410719.78309
      1898.678  
  25548426.583   134257893.89109      2052.106                                  
                                  25548429.983   100257519.85708      1532.488  
  25548428.245   102872932.96108      1572.459    25548429.408   101565230.94109
      1552.521  
  28407382.105   149281809.59506      3252.210                                  
                                  28407385.729   111476682.00706      2428.538  
  28407385.117   114384764.86307      2491.940    28407385.984   112930722.97307
      2460.171  
 23 12 08 17 06 30.0000000  0 27G06G11G12G24G25G28G29G31G32R05R06R07
                                R14R15R16R17R18R24E04E09E13E15E19E21
                                E26E31E33
  24065774.901   126466501.21807     -1985.913    24065776.496    98545328.66847
     -1547.464    24065776.974    24065776.353    94439271.86708     -1483.131  
                                                                                
                
  23108556.253   121436286.65308        48.916    23108555.076    94625675.93546
        38.117    23108555.230    23108558.000    90682944.08509        36.421  
                                                                                
                
  21771182.608   114408335.00109     -2520.242    21771180.359    89149349.01849
     -1963.825    21771180.812                                                  
                                                                                
                
  25483735.037   133917927.39206     -3818.934    25483737.668   104351637.75446
     -2975.793    25483737.736    25483737.518   100003648.76308     -2851.763  
                                                                                
                
  19867289.943   104403313.76909      -491.886    19867290.758    81353234.34449
      -383.287    19867291.229    19867290.085    77963514.83609      -367.364  
                                                                                
                
  21670133.850   113877327.39309      2340.275    21670132.228    88735579.04447
      1823.592    21670132.326    21670135.642    85038268.50909      1747.555  
                                                                                
                
  21316516.812   112019055.21009      2303.244    21316515.604    87287573.51549
      1794.737    21316516.074                                                  
                                                                                
                
  23353554.977   122723765.35608      3245.436    23353553.490    95628907.50746
      2528.915    23353553.651                                                  
                                                                                
                
  22810932.873   119872262.08009     -2221.330    22810934.374    93406959.27947
     -1730.906    22810934.527    22810932.456    89514998.72408     -1658.762  
                                                                                
                
  24526938.689   131110531.38606     -4221.546    24526944.066   101974863.62505
     -3283.434                                                                  
                                                                                
                
  22444728.360   119769373.82204     -2263.249                                  
                                                                                
                                                                                
                
  22856343.338   122351795.46807      1208.486    22856346.161    95162518.51807
       939.935                                                                  
                                                                                
                
  22963613.528   122408983.31308     -3352.065    22963617.052    95206995.56007
     -2607.163                                                                  
                                                                                
                
  19609858.048   104789137.22609     -1018.970    19609860.831    81502668.80708
      -792.532                                                                  
                                                                                
                
  20476706.156   109382891.05109      2439.601    20476709.172    85075590.31408
      1897.468                                                                  
                                                                                
                
  19849328.909   106217769.85909      1026.772    19849331.005    82613830.34108
       798.601                                                                  
                                                                                
                
  21766981.085   116193630.16108      4195.482    21766985.294    90372837.63907
      3263.154                                                                  
                                                                                
                
  21861071.419   116900978.97908     -3053.978    21861073.246    90922989.39607
     -2375.315                                                                  
                                                                                
                
  25858902.211   135889447.48409     -2348.372                                  
                                  25858904.073   101475887.21108     -1753.703  
  25858902.696   104123082.81208     -1799.444    25858903.494   102799487.04509
     -1776.584  
  25897046.882   136089900.02209        59.141                                  
                                  25897049.612   101625574.98408        44.131  
  25897047.630   104276676.56209        45.330    25897048.909   102951130.30709
        44.746  
  25767196.916   135407534.64609       -96.502                                  
                                  25767199.864   101116017.61909       -72.026  
  25767198.164   103753826.38908       -73.946    25767199.306   102434926.53809
       -72.951  
                                                                                
                                                                                
  28547100.692   114947346.18113     -1821.839    28547101.427   113486151.88704
     -1798.444  
                                                                                
                                                                                
                                                  29158076.140   115915018.88403
     -2353.745  
  25658087.943   134834162.26109     -2043.675                                  
                                  25658090.303   100687848.74008     -1526.151  
  25658088.938   103314487.90109     -1566.033    25658089.939   102001172.84909
     -1546.028  
  25746802.468   135300372.52008      2500.984                                  
                                  25746803.724   101035992.02608      1867.530  
  25746802.317   103671710.81408      1916.290    25746803.215   102353853.95609
      1891.888  
  25536719.491   134196372.74809      2048.623                                  
                                  25536722.906   100211578.76108      1529.838  
  25536721.111   102825793.39408      1569.770    25536722.298   101518690.61109
      1549.777  
  28388808.479   149184205.28706      3254.044                                  
                                  28388812.022   111403795.89206      2430.104  
  28388811.503   114309977.35607      2493.471    28388812.316   112856886.15508
      2461.794  
 23 12 08 17 07  0.0000000  0 28G06G11G12G24G25G28G29G31G32R05R06R07
                                R14R15R16R17R18R24E04E05E09E13E15E19
                                E21E26E31E33
  24077157.997   126526319.64807     -2002.480    24077159.562    98591940.44447
     -1560.375    24077160.042    24077159.400    94483941.47508     -1495.249  
                                                                                
                
  23108332.159   121435109.28108        29.191    23108331.001    94624758.52446
        22.746    23108331.153    23108333.953    90682064.90209        21.821  
                                                                                
                
  21785590.223   114484047.40009     -2527.840    21785587.962    89208345.67849
     -1969.746    21785588.412                                                  
                                                                                
                
  25505535.958   134032491.85306     -3818.838    25505538.597   104440908.73446
     -2975.719    25505538.661    25505538.425   100089200.12108     -2851.963  
                                                                                
                
  19870134.576   104418262.50809      -505.085    19870135.393    81364882.73149
      -393.573    19870135.865    19870134.698    77974677.87509      -377.209  
                                                                                
                
  21656808.481   113807302.29109      2327.705    21656806.860    88681014.06147
      1813.798    21656806.959    21656810.278    84985977.08309      1738.111  
                                                                                
                
  21303408.334   111950169.89009      2288.718    21303407.116    87233896.68049
      1783.418    21303407.587                                                  
                                                                                
                
  23335046.109   122626501.10108      3238.469    23335044.608    95553117.27246
      2523.485    23335044.765                                                  
                                                                                
                
  22823652.538   119939104.36909     -2235.258    22823654.068    93459044.17147
     -1741.760    22823654.224    22823652.106    89564913.41908     -1669.223  
                                                                                
                
  24550623.652   131237139.13906     -4219.321    24550629.165   102073335.95704
     -3281.702                                                                  
                                                                                
                
  22457507.379   119837564.46604     -2283.221                                  
                                                                                
                                                                                
                
  22849639.611   122315910.02607      1183.626    22849642.461    95134607.65107
       920.599                                                                  
                                                                                
                
  22982493.659   122509624.96508     -3357.691    22982497.189    95285272.37207
     -2611.538                                                                  
                                                                                
                
  19615618.105   104819917.17109     -1033.343    19615620.892    81526608.76208
      -803.711                                                                  
                                                                                
                
  20463028.931   109309829.86709      2430.766    20463031.952    85018764.97008
      1890.597                                                                  
                                                                                
                
  19843648.364   106187372.20809       999.464    19843650.453    82590187.74508
       777.362                                                                  
                                                                                
                
  21743433.089   116067929.67408      4184.210    21743437.293    90275070.65207
      3254.387                                                                  
                                                                                
                
  21878254.411   116992864.36808     -3072.191    21878256.211    90994455.83407
     -2389.483                                                                  
                                                                                
                
  25872332.180   135960022.39109     -2356.946                                  
                                  25872334.068   101528589.24508     -1760.179  
  25872332.662   104177159.68108     -1806.055    25872333.454   102852876.50009
     -1783.151  
  27233909.927   143115170.93415      2291.542                                  
                                  27233910.277   106871714.26316      1711.301  
  27233910.009   109659669.55316      1756.294    27233911.039   108265695.44816
      1733.670  
  25896749.641   136088337.87609        44.502                                  
                                  25896752.293   101624408.45108        33.171  
  25896750.327   104275479.59609        34.077    25896751.638   102949948.56109
        33.610  
  25767789.986   135410651.26209      -111.771                                  
                                  25767792.937   101118344.97509       -83.392  
  25767791.193   103756214.43908       -85.650    25767792.353   102437284.24209
       -84.511  
                                                                                
                                                                                
                                                  28560697.878   113540202.04103
     -1805.417  
                                                                                
                                                                                
                                                  29175828.482   115985594.19413
     -2351.524  
  25669762.963   134895514.87509     -2046.994                                  
                                  25669765.302   100733664.00008     -1528.529  
  25669763.975   103361498.33309     -1568.453    25669764.954   102047585.70109
     -1548.476  
  25732548.372   135225466.86808      2492.310                                  
                                  25732549.624   100980056.00908      1861.146  
  25732548.184   103614315.61608      1909.611    25732549.096   102297188.34409
      1885.374  
  25525032.065   134134954.88809      2045.488                                  
                                  25525035.499   100165714.78008      1527.426  
  25525033.668   102778732.97108      1567.275    25525034.852   101472228.40809
      1547.345  
  28370221.918   149086533.17806      3256.735                                  
                                  28370225.425   111330859.18506      2432.012  
  28370224.955   114235137.92907      2495.409    28370225.714   112782998.08808
      2463.762  
 23 12 08 17 07 30.0000000  0 27G06G11G12G24G25G28G29G31G32R05R06R07
                                R14R15R16R17R18R24E04E05E09E13E15E21
                                E26E31E33
  24088635.359   126586633.42306     -2018.736    24088636.891    98638938.19647
     -1573.041    24088637.371    24088636.717    94528980.99608     -1507.483  
                                                                                
                
  23108221.002   121434525.35008         9.225    23108219.856    94624303.52946
         7.189    23108220.006    23108222.836    90681628.87209         7.062  
                                                                                
                
  21800042.965   114559997.00709     -2535.774    21800040.701    89267527.18049
     -1975.929    21800041.150                                                  
                                                                                
                
  25527338.553   134147065.28406     -3819.244    25527341.203   104530186.73646
     -2976.034    25527341.264    25527340.992   100174758.19907     -2852.060  
                                                                                
                
  19873056.237   104433616.01009      -518.735    19873057.056    81376846.51449
      -404.208    19873057.527    19873056.352    77986143.17509      -387.293  
                                                                                
                
  21643556.412   113737662.39209      2314.818    21643554.800    88626749.24047
      1803.755    21643554.898    21643558.221    84933973.31009      1728.581  
                                                                                
                
  21290384.399   111881728.88609      2273.793    21290383.170    87180566.07449
      1771.789    21290383.643                                                  
                                                                                
                
  23316578.815   122529455.04608      3231.028    23316577.287    95477497.00645
      2517.687    23316577.438                                                  
                                                                                
                
  22836452.688   120006369.63509     -2249.385    22836454.250    93511458.65647
     -1752.767    22836454.404    22836452.240    89615143.96308     -1679.614  
                                                                                
                
  24574296.669   131363682.75304     -4216.998    24574302.346   102171758.34004
     -3279.901                                                                  
                                                                                
                
  22470402.833   119906376.13104     -2304.544                                  
                                                                                
                                                                                
                
  22843077.551   122280782.98507      1158.138    22843080.436    95107286.65006
       900.776                                                                  
                                                                                
                
  23001406.283   122610439.84908     -3363.626    23001409.808    95363683.93407
     -2616.152                                                                  
                                                                                
                
  19621460.020   104851134.55709     -1048.031    19621462.808    81550888.95708
      -815.135                                                                  
                                                                                
                
  20449402.642   109237040.89609      2421.620    20449405.659    84962151.36108
      1883.484                                                                  
                                                                                
                
  19838122.330   106157801.39309       971.763    19838124.407    82567188.24808
       755.817                                                                  
                                                                                
                
  21719950.108   115942576.21708      4172.489    21719954.310    90177573.57607
      3245.271                                                                  
                                                                                
                
  21895540.951   117085303.41908     -3090.589    21895542.743    91066352.87807
     -2403.791                                                                  
                                                                                
                
  25885812.588   136030862.36409     -2365.873                                  
                                  25885814.506   101581489.21408     -1766.689  
  25885813.058   104231439.65308     -1812.850    25885813.856   102906466.46709
     -1789.769  
  27220849.386   143046543.13305      2283.307                                  
                                  27220852.465   106820466.27306      1704.970  
  27220851.778   109607084.65607      1749.425    27220851.823   108213779.00407
      1727.152  
  25896537.417   136087222.55509        29.678                                  
                                  25896539.999   101623575.59308        22.117  
  25896538.053   104274625.01809        22.687    25896539.385   102949104.84209
        22.386  
  25768471.615   135414233.24308      -127.271                                  
                                  25768474.554   101121019.84809       -95.026  
  25768472.774   103758959.08808       -97.527    25768473.948   102439994.00009
       -96.273  
                                                                                
                                                                                
                                                  28574344.910   113594456.68113
     -1812.072  
  25681457.301   134956968.99508     -2050.272                                  
                                  25681459.613   100779555.06608     -1531.048  
  25681458.313   103408586.55909     -1570.986    25681459.278   102094075.34909
     -1551.056  
  25718344.900   135150827.13908      2483.439                                  
                                  25718346.172   100924318.57808      1854.513  
  25718344.696   103557124.16608      1902.950    25718345.630   102240723.90609
      1878.757  
  25513364.203   134073639.82009      2042.007                                  
                                  25513367.665   100119927.55508      1524.883  
  25513365.805   102731751.28708      1564.713    25513366.969   101425843.95609
      1544.798  
  28351622.619   148988794.29006      3259.049                                  
                                  28351626.144   111257872.63106      2433.530  
  28351625.689   114160247.33207      2497.123    28351626.382   112709059.51407
      2465.372  
 23 12 08 17 08  0.0000000  0 26G06G11G12G24G25G28G29G31G32R05R06R07
                                R14R15R16R17R18R24E04E05E09E13E21E26
                                E31E33
  24100207.333   126647444.47007     -2034.921    24100208.825    98686323.45047
     -1585.652    24100209.303    24100208.629    94574391.88607     -1519.642  
                                                                                
                
  23108223.597   121434539.13108        -9.947    23108222.458    94624314.28646
        -7.751    23108222.610    23108225.461    90681639.19909        -7.529  
                                                                                
                
  21814541.405   114636186.81409     -2543.289    21814539.137    89326895.85949
     -1981.783    21814539.580                                                  
                                                                                
                
  25549143.301   134261649.98006     -3819.132    25549145.974   104619473.49546
     -2975.948    25549146.034    25549145.717   100260324.68307     -2852.115  
                                                                                
                
  19876055.603   104449377.84509      -531.861    19876056.422    81389128.48049
      -414.436    19876056.891    19876055.722    77997913.39609      -397.176  
                                                                                
                
  21630378.827   113668413.93209      2302.048    21630377.232    88572789.44347
      1793.806    21630377.331    21630380.652    84882261.83809      1719.118  
                                                                                
                
  21277446.012   111813737.41509      2259.194    21277444.778    87127585.74649
      1760.412    21277445.253                                                  
                                                                                
                
  23298154.244   122432633.44408      3223.900    23298152.656    95402051.64045
      2512.131    23298152.801                                                  
                                                                                
                
  22849333.590   120074059.22509     -2262.927    22849335.178    93564203.77846
     -1763.320    22849335.332    22849333.140    89665691.38708     -1689.853  
                                                                                
                
  24597957.845   131490163.05805     -4214.397    24597963.686   102270131.47304
     -3277.877                                                                  
                                                                                
                
  22483414.647   119975808.72505     -2324.320                                  
                                                                                
                                                                                
                
  22836658.224   122246420.03208      1133.000    22836661.116    95080559.94606
       881.223                                                                  
                                                                                
                
  23020352.087   122711431.59808     -3368.911    23020355.602    95442233.06107
     -2620.264                                                                  
                                                                                
                
  19627384.562   104882793.50909     -1062.346    19627387.343    81575512.60208
      -826.269                                                                  
                                                                                
                
  20435828.388   109164529.95509      2412.608    20435831.394    84905754.00608
      1876.474                                                                  
                                                                                
                
  19832751.713   106129062.24209       944.375    19832753.779    82544835.60108
       734.516                                                                  
                                                                                
                
  21696533.681   115817578.05608      4160.944    21696537.877    90080352.85208
      3236.293                                                                  
                                                                                
                
  21912931.056   117178296.31208     -3108.574    21912932.867    91138680.67707
     -2417.780                                                                  
                                                                                
                
  25899343.853   136101969.55709     -2374.340                                  
                                  25899345.797   101634588.72308     -1773.002  
  25899344.294   104285924.37308     -1819.352    25899345.116   102960258.58009
     -1796.148  
  27207840.697   142978182.40506      2274.328                                  
                                  27207843.913   106769417.67506      1698.406  
  27207843.087   109554704.33307      1742.818    27207843.194   108162064.55107
      1720.538  
  25896410.985   136086558.05309        15.058                                  
                                  25896413.518   101623079.37108        11.248  
  25896411.590   104274115.85409        11.501    25896412.935   102948602.14709
        11.359  
  25769242.543   135418284.42908      -142.424                                  
                                  25769245.472   101124045.10209      -106.409  
  25769243.657   103762063.25108      -109.227    25769244.839   102443058.70609
      -107.765  
  25693171.675   135018528.35008     -2053.376                                  
                                  25693173.978   100825524.70208     -1533.276  
  25693172.687   103455755.40308     -1573.319    25693173.638   102140644.58709
     -1553.335  
  25704193.129   135076459.16308      2474.724                                  
                                  25704194.418   100868784.09208      1847.969  
  25704192.893   103500140.93708      1896.219    25704193.861   102184465.05009
      1872.046  
  25501716.706   134012431.76309      2038.844                                  
                                  25501720.204   100074220.23508      1522.536  
  25501718.328   102684851.60708      1562.257    25501719.457   101379540.45509
      1542.401  
  28333011.738   148890994.42207      3261.344                                  
                                  28333015.309   111184840.50706      2435.445  
  28333014.854   114085310.00607      2498.937    28333015.479   112635074.79907
      2467.076  
 23 12 08 17 08 30.0000000  0 26G06G11G12G24G25G28G29G31G32R05R06R07
                                R14R15R16R17R18R24E04E05E09E13E21E26
                                E31E33
  24111873.039   126708748.02907     -2052.064    24111874.487    98734092.46647
     -1599.010    24111874.962    24111874.249    94620170.53907     -1532.303  
                                                                                
                
  23108339.506   121435148.26208       -30.676    23108338.377    94624788.94246
       -23.903    23108338.530    23108341.378    90682094.07409       -22.749  
                                                                                
                
  21829084.812   114712612.89709     -2551.708    21829082.547    89386448.63549
     -1988.343    21829082.986                                                  
                                                                                
                
  25570949.362   134376241.57306     -3819.912    25570952.062   104708765.62546
     -2976.554    25570952.124    25570951.747   100345896.30607     -2852.662  
                                                                                
                
  19879132.081   104465544.91209      -545.863    19879132.895    81401726.21549
      -425.347    19879133.362    19879132.207    78009986.22209      -407.620  
                                                                                
                
  21617275.636   113599556.44009      2288.503    21617274.068    88519134.29647
      1783.251    21617274.170    21617277.487    84830842.33009      1708.921  
                                                                                
                
  21264592.975   111746194.46609      2243.813    21264591.729    87074954.92649
      1748.428    21264592.204                                                  
                                                                                
                
  23279772.296   122336035.81308      3215.896    23279770.636    95326780.80545
      2505.894    23279770.775                                                  
                                                                                
                
  22862294.220   120142167.75609     -2277.496    22862295.817    93617275.34646
     -1774.672    22862295.972    22862293.771    89716551.64908     -1700.813  
                                                                                
                
  24621606.704   131616573.53303     -4213.008    24621613.437   102368450.22200
     -3276.795                                                                  
                                                                                
                
  22496541.741   120045856.07304     -2345.048                                  
                                                                                
                                                                                
                
  22830381.325   122212819.37608      1107.024    22830384.166    95054426.14506
       861.022                                                                  
                                                                                
                
  23039330.345   122812596.26508     -3375.233    23039333.852    95520916.66407
     -2625.182                                                                  
                                                                                
                
  19633391.242   104914891.35109     -1077.461    19633394.011    81600477.59608
      -838.025                                                                  
                                                                                
                
  20422306.066   109092296.30009      2402.879    20422309.054    84849572.29608
      1868.907                                                                  
                                                                                
                
  19827536.227   106101153.18209       916.258    19827538.284    82523128.57208
       712.646                                                                  
                                                                                
                
  21673184.041   115692936.44108      4148.540    21673188.234    89983409.45108
      3226.645                                                                  
                                                                                
                
  21930423.449   117271836.20708     -3127.245    21930425.276    91211433.92607
     -2432.301                                                                  
                                                                                
                
  25912925.089   136173339.38109     -2383.503                                  
                                  25912927.047   101687884.35708     -1779.917  
  25912925.486   104340610.33008     -1826.412    25912926.352   103014249.37609
     -1803.172  
  27194882.820   142910087.67006      2265.119                                  
                                  27194885.705   106718567.77506      1691.466  
  27194884.874   109502527.88907      1735.630    27194885.113   108110551.37307
      1713.456  
  25896369.798   136086341.62509        -0.441                                  
                                  25896372.285   101622917.76508        -0.371  
  25896370.390   104273950.02509        -0.434    25896371.736   102948438.43109
        -0.408  
  25770102.206   135422801.97108      -158.539                                  
                                  25770105.121   101127418.60409      -118.403  
  25770103.275   103765524.75308      -121.487    25770104.461   102446476.21509
      -119.958  
  25704905.478   135080189.90408     -2057.288                                  
                                  25704907.772   100871570.67908     -1536.320  
  25704906.484   103503002.56908     -1576.368    25704907.423   102187291.15809
     -1556.352  
  25690092.891   135002362.13608      2465.156                                  
                                  25690094.189   100813451.94308      1840.811  
  25690092.581   103443365.31408      1888.838    25690093.593   102128411.16509
      1864.795  
  25490089.090   133951328.26109      2034.921                                  
                                  25490092.625   100028591.00908      1519.509  
  25490090.748   102638032.05508      1559.198    25490091.827   101333316.06509
      1539.337  
  28314389.121   148793132.64307      3262.711                                  
                                  28314392.728   111111762.10806      2436.590  
  28314392.257   114010325.18807      2500.143    28314392.826   112561043.18407
      2468.305  
 23 12 08 17 09  0.0000000  0 25G06G11G12G24G25G28G29G31G32R06R07R14
                                R15R16R17R18R24E04E05E09E13E21E26E31
                                E33
  24123631.904   126770541.10907     -2067.544    24123633.305    98782242.92347
     -1611.073    24123633.779    24123633.019    94666314.77007     -1544.141  
                                                                                
                
  23108568.565   121436352.04208       -49.837    23108567.431    94625726.98846
       -38.833    23108567.581    23108570.428    90682993.03408       -37.273  
                                                                                
                
  21843672.820   114789273.37609     -2559.129    21843670.564    89446184.05849
     -1994.126    21843670.997                                                  
                                                                                
                
  25592756.231   134490837.47706     -3819.563    25592758.959   104798061.13147
     -2976.283    25592759.024    25592758.579   100431471.15207     -2852.421  
                                                                                
                
  19882285.438   104482115.95009      -558.826    19882286.244    81414638.72949
      -435.448    19882286.710    19882285.576    78022360.71409      -417.347  
                                                                                
                
  21604247.132   113531091.37609      2275.876    21604245.594    88465784.92447
      1773.410    21604245.698    21604249.027    84779715.86409      1699.388  
                                                                                
                
  21251825.289   111679100.02009      2229.198    21251824.034    87022673.58649
      1737.040    21251824.512                                                  
                                                                                
                
  23261433.282   122239663.74408      3208.813    23261431.541    95251685.73245
      2500.376    23261431.672                                                  
                                                                                
                
  22875333.903   120210691.73509     -2290.822    22875335.482    93670670.65146
     -1785.056    22875335.633    22875333.456    89767722.14608     -1710.739  
                                                                                
                
  22509783.037   120116513.73704     -2365.409                                  
                                                                                
                                                                                
                
  22824247.038   122179981.90508      1082.096    22824249.770    95028885.90806
       841.631                                                                  
                                                                                
                
  23058340.696   122913931.97508     -3380.465    23058344.196    95599733.30007
     -2629.250                                                                  
                                                                                
                
  19639479.911   104947427.33609     -1091.640    19639482.664    81625783.37108
      -849.053                                                                  
                                                                                
                
  20408835.846   109020340.90409      2394.151    20408838.807    84793607.00708
      1862.117                                                                  
                                                                                
                
  19822475.913   106074074.46509       888.969    19822477.955    82502067.36508
       691.421                                                                  
                                                                                
                
  21649901.832   115568654.69809      4136.882    21649906.036    89886745.93908
      3217.576                                                                  
                                                                                
                
  21948017.247   117365918.34007     -3144.916    21948019.089    91284608.91607
     -2446.046                                                                  
                                                                                
                
  25926555.794   136244969.18309     -2391.891                                  
                                  25926557.734   101741374.13508     -1786.109  
  25926556.135   104395495.47908     -1832.618    25926557.056   103068436.84308
     -1809.378  
  27181975.739   142842259.76406      2256.552                                  
                                  27181978.269   106667917.09606      1685.108  
  27181977.466   109450555.89306      1729.115    27181977.808   108059240.02907
      1707.028  
  25896413.701   136086572.41509       -14.947                                  
                                  25896416.151   101623090.12208       -11.187  
  25896414.306   104274126.86909       -11.520    25896415.638   102948613.03009
       -11.343  
  25771050.425   135427784.89608      -173.789                                  
                                  25771053.339   101131139.62109      -129.692  
  25771051.462   103769342.84608      -133.110    25771052.644   102450245.77009
      -131.395  
  25716658.529   135141952.55508     -2060.230                                  
                                  25716660.806   100917692.14008     -1538.503  
  25716659.528   103550327.19908     -1578.682    25716660.455   102234014.20309
     -1558.578  
  25676044.417   134928537.12308      2456.473                                  
                                  25676045.724   100758322.89408      1834.404  
  25676044.036   103386798.12708      1882.176    25676045.081   102072563.04209
      1858.325  
  25478481.270   133890328.72709      2031.737                                  
                                  25478484.844    99983039.39508      1517.231  
  25478482.988   102591292.14808      1556.827    25478484.005   101287170.30409
      1537.040  
  28295754.889   148695209.82007      3265.264                                  
                                  28295758.501   111038638.13707      2438.387  
  28295758.010   113935293.60607      2501.993    28295758.543   112486965.40807
      2470.199  
 23 12 08 17 09 30.0000000  0 25G06G11G12G24G25G28G29G31G32R06R07R14
                                R15R16R17R18R24E04E05E09E13E21E26E31
                                E33
  24135484.151   126832824.99507     -2083.772    24135485.504    98830775.84847
     -1623.717    24135485.979    24135485.161    94712825.51207     -1556.238  
                                                                                
                
  23108911.512   121438154.15708       -69.708    23108910.361    94627131.23546
       -54.317    23108910.509    23108913.371    90684338.76908       -52.072  
                                                                                
                
  21858305.770   114866170.07309     -2566.867    21858303.519    89506103.56149
     -2000.156    21858303.953                                                  
                                                                                
                
  25614564.273   134605439.46606     -3819.882    25614567.031   104887361.36846
     -2976.532    25614567.100    25614566.592   100517050.53407     -2852.478  
                                                                                
                
  19885516.238   104499093.94409      -572.386    19885517.035    81427868.35149
      -446.015    19885517.503    19885516.381    78035039.10509      -427.439  
                                                                                
                
  21591294.393   113463024.42209      2262.559    21591292.874    88412745.76147
      1763.034    21591292.978    21591296.330    84728886.66109      1689.559  
                                                                                
                
  21239143.934   111612459.19509      2214.129    21239142.671    86970745.71549
      1725.297    21239143.149                                                  
                                                                                
                
  23243138.225   122143522.75208      3201.218    23243136.403    95176770.74145
      2494.458    23243136.523                                                  
                                                                                
                
  22888452.788   120279631.85409     -2304.634    22888454.345    93724390.20446
     -1795.820    22888454.502    22888452.360    89819203.38308     -1720.961  
                                                                                
                
  22523138.256   120187781.22204     -2385.253                                  
                                                                                
                                                                                
                
  22818256.172   122147912.21408      1056.550    22818258.800    95003942.86906
       821.763                                                                  
                                                                                
                
  23077383.691   123015441.68008     -3386.139    23077387.179    95678685.27207
     -2633.665                                                                  
                                                                                
                
  19645651.254   104980405.08609     -1106.231    19645653.993    81651432.73308
      -860.401                                                                  
                                                                                
                
  20395418.708   108948668.97209      2384.679    20395421.635    84737862.18708
      1854.752                                                                  
                                                                                
                
  19817571.550   106047830.34609       861.251    19817573.577    82481655.30508
       669.863                                                                  
                                                                                
                
  21626688.466   115444740.39409      4124.691    21626692.681    89790368.21407
      3208.095                                                                  
                                                                                
                
  21965712.424   117460542.56307     -3162.818    21965714.297    91358205.52007
     -2459.971                                                                  
                                                                                
                
  25940236.276   136316860.50809     -2400.473                                  
                                  25940238.176   101795059.19408     -1792.442  
  25940236.566   104450581.03308     -1839.249    25940237.539   103122822.14708
     -1815.903  
  27169120.290   142774703.62905      2247.814                                  
                                  27169122.615   106617469.38106      1678.445  
  27169121.801   109398792.16607      1722.153    27169122.230   108008134.30607
      1700.254  
  25896543.325   136087253.71609       -29.865                                  
                                  25896545.749   101623598.90108       -22.276  
  25896543.970   104274648.91809       -22.905    25896545.265   102949128.44709
       -22.613  
  25772087.804   135433236.37808      -189.231                                  
                                  25772090.740   101135210.54808      -141.303  
  25772088.822   103773519.96808      -144.914    25772090.005   102454369.79409
      -143.138  
  25728431.422   135203819.42209     -2063.677                                  
                                  25728433.697   100963891.41208     -1541.021  
  25728432.417   103597731.67808     -1581.283    25728433.331   102280816.08309
     -1561.176  
  25662048.736   134854989.37908      2447.199                                  
                                  25662050.062   100703400.89708      1827.484  
  25662048.315   103330443.40008      1875.184    25662049.385   102016924.68309
      1851.349  
  25466893.897   133829436.72809      2028.301                                  
                                  25466897.482    99937568.11008      1514.622  
  25466895.672   102544634.66109      1554.143    25466896.629   101241105.92509
      1534.347  
  28277110.037   148597231.11607      3267.229                                  
                                  28277113.667   110965472.41607      2439.824  
  28277113.138   113860219.20007      2503.423    28277113.646   112412845.34008
      2471.610  
 23 12 08 17 10  0.0000000  0 25G06G11G12G24G25G28G29G31G32R06R07R14
                                R15R16R17R18R24E04E05E09E13E21E26E31
                                E33
  24147428.867   126895594.80207     -2100.434    24147430.169    98879687.41347
     -1636.701    24147430.639    24147429.784    94759699.07608     -1568.614  
                                                                                
                
  23109367.802   121440551.92108       -89.960    23109366.630    94628999.62546
       -70.097    23109366.773    23109369.656    90686129.31008       -67.210  
                                                                                
                
  21872983.021   114943299.51509     -2575.067    21872980.772    89566204.41649
     -2006.546    21872981.206                                                  
                                                                                
                
  25636372.602   134720042.93906     -3820.220    25636375.380   104976662.76446
     -2976.794    25636375.454    25636374.891   100602631.04307     -2852.710  
                                                                                
                
  19888823.849   104516475.60209      -586.319    19888824.634    81441412.52049
      -456.871    19888825.101    19888823.989    78048018.93709      -437.834  
                                                                                
                
  21578417.293   113395354.95509      2248.898    21578415.783    88360016.32747
      1752.389    21578415.891    21578419.278    84678354.30209      1679.325  
                                                                                
                
  21226548.596   111546270.39309      2198.641    21226547.329    86919170.07049
      1713.229    21226547.805                                                  
                                                                                
                
  23224887.062   122047612.30208      3193.117    23224885.175    95102035.36345
      2488.143    23224885.292                                                  
                                                                                
                
  22901649.811   120348982.59709     -2318.679    22901651.345    93778429.72646
     -1806.765    22901651.504    22901649.410    89870991.26808     -1731.521  
                                                                                
                
  22536606.350   120259651.81203     -2405.563                                  
                                                                                
                                                                                
                
  22812408.495   122116608.90907      1030.529    22812411.042    94979595.89707
       801.523                                                                  
                                                                                
                
  23096458.587   123117121.40108     -3392.225    23096462.069    95757769.46707
     -2638.399                                                                  
                                                                                
                
  19651904.746   105013821.87009     -1121.353    19651907.460    81677423.58208
      -872.164                                                                  
                                                                                
                
  20382054.455   108877279.52009      2374.907    20382057.346    84682337.08608
      1847.151                                                                  
                                                                                
                
  19812822.838   106022419.13609       833.033    19812824.859    82461891.05508
       647.916                                                                  
                                                                                
                
  21603544.182   115321194.71209      4111.944    21603548.388    89694277.17708
      3198.180                                                                  
                                                                                
                
  21983507.607   117555701.60908     -3180.976    21983509.522    91432218.09707
     -2474.093                                                                  
                                                                                
                
  25953965.634   136389008.67308     -2409.272                                  
                                  25953967.480   101848936.04508     -1799.169  
  25953965.880   104505863.37208     -1845.997    25953966.902   103177401.74308
     -1822.537  
  27156316.318   142707418.20805      2238.105                                  
                                  27156318.621   106567223.76207      1671.390  
  27156317.729   109347235.79507      1714.939    27156318.238   107957233.31208
      1693.171  
  25896758.131   136088382.64209       -45.279                                  
                                  25896760.540   101624441.94508       -33.764  
  25896758.832   104275513.95309       -34.656    25896760.071   102949982.48209
       -34.183  
  25773213.751   135439153.38108      -205.141                                  
                                  25773216.714   101139629.10308      -153.153  
  25773214.761   103778053.80508      -157.195    25773215.944   102458845.98609
      -155.144  
  25740223.545   135265787.38409     -2067.365                                  
                                  25740225.826   101010166.18808     -1543.877  
  25740224.533   103645213.60908     -1584.081    25740225.430   102327694.42909
     -1563.946  
  25648105.624   134781717.89708      2437.618                                  
                                  25648106.973   100648685.22808      1820.318  
  25648105.176   103274300.34808      1867.757    25648106.270   101961495.32109
      1844.063  
  25455326.507   133768649.71509      2024.350                                  
                                  25455330.078    99892175.21908      1511.670  
  25455328.342   102498057.63209      1551.076    25455329.242   101195120.96409
      1531.312  
  28258454.360   148499195.46307      3268.747                                  
                                  28258458.037   110892264.14107      2440.821  
  28258457.439   113785101.11007      2504.544    28258457.933   112338682.16208
      2472.646  
 23 12 08 17 10 30.0000000  0 25G06G11G12G24G25G28G29G31G32R06R07R14
                                R15R16R17R18R24E04E05E09E13E21E26E31
                                E33
  24159465.340   126958846.83307     -2116.201    24159466.586    98928974.73847
     -1648.987    24159467.058    24159466.186    94806932.74008     -1580.252  
                                                                                
                
  23109937.153   121443543.99208      -109.438    23109935.950    94631331.14346
       -85.274    23109936.091    23109938.982    90688363.67908       -81.676  
                                                                                
                
  21887704.024   115020658.85409     -2582.242    21887701.782    89626484.40649
     -2012.137    21887702.218                                                  
                                                                                
                
  25658180.624   134834644.72706     -3819.722    25658183.414   105065962.83546
     -2976.407    25658183.498    25658182.880   100688210.27406     -2852.364  
                                                                                
                
  19892207.927   104534259.04509      -599.215    19892208.703    81455269.75249
      -466.920    19892209.171    19892208.066    78061298.79109      -447.462  
                                                                                
                
  21565615.977   113328083.74209      2236.069    21565614.466    88307597.22647
      1742.391    21565614.571    21565618.002    84628119.33909      1669.746  
                                                                                
                
  21214039.271   111480533.59509      2184.097    21214038.009    86867946.63349
      1701.895    21214038.486                                                  
                                                                                
                
  23206679.962   121951933.42508      3185.550    23206678.012    95027480.43545
      2482.247    23206678.124                                                  
                                                                                
                
  22914924.151   120418739.71208     -2331.724    22914925.660    93832785.91946
     -1816.927    22914925.815    22914923.759    89923082.62008     -1741.214  
                                                                                
                
  22550186.485   120332120.33104     -2425.461                                  
                                                                                
                                                                                
                
  22806703.860   122086071.40307      1005.385    22806706.384    94955844.53506
       781.966                                                                  
                                                                                
                
  23115564.881   123218968.57108     -3397.503    23115568.351    95836983.92107
     -2642.504                                                                  
                                                                                
                
  19658240.125   105047676.20809     -1135.425    19658242.825    81703754.73908
      -883.108                                                                  
                                                                                
                
  20368743.147   108806172.87409      2365.831    20368745.998    84627031.94808
      1840.092                                                                  
                                                                                
                
  19808229.620   105997840.03409       805.708    19808231.659    82442773.99708
       626.662                                                                  
                                                                                
                
  21580469.452   115198020.36909      4099.831    21580473.639    89598474.97608
      3188.760                                                                  
                                                                                
                
  22001401.856   117651390.43808     -3198.102    22001403.773    91506642.74907
     -2487.413                                                                  
                                                                                
                
  25967743.218   136461410.33308     -2417.348                                  
                                  25967744.995   101903002.20808     -1805.113  
  25967743.429   104561339.95908     -1852.272    25967744.493   103232173.12008
     -1828.726  
  27143563.739   142640403.47305      2229.507                                  
                                  27143566.149   106517180.30607      1664.913  
  27143565.195   109295886.85507      1708.387    27143565.747   107906537.10807
      1686.735  
  25897057.814   136089957.62309       -59.770                                  
                                  25897060.209   101625618.08608       -44.568  
  25897058.578   104276720.76709       -45.684    25897059.754   102951173.95609
       -45.060  
  25774427.961   135445534.21508      -220.113                                  
                                  25774430.945   101144394.02708      -164.430  
  25774428.972   103782943.04008      -168.721    25774430.158   102463673.07009
      -166.605  
  25752034.564   135327854.65408     -2070.288                                  
                                  25752036.850   101056515.12508     -1545.999  
  25752035.557   103692771.65808     -1586.387    25752036.433   102374647.92809
     -1566.218  
  25634215.130   134708723.07308      2428.833                                  
                                  25634216.499   100594176.16108      1813.649  
  25634214.660   103218369.28208      1860.990    25634215.763   101906275.25309
      1837.363  
  25443778.851   133707966.40209      2021.254                                  
                                  25443782.387    99846859.77608      1509.387  
  25443780.721   102451560.04709      1548.775    25443781.588   101149214.44609
      1529.103  
  28239787.923   148401103.14807      3270.960                                  
                                  28239791.655   110819013.52107      2442.516  
  28239790.989   113709939.59307      2506.249    28239791.466   112264476.09208
      2474.342  
 23 12 08 17 11  0.0000000  0 25G06G11G12G24G25G28G29G31G32R06R07R14
                                R15R16R17R18R24E04E05E09E13E21E26E31
                                E33
  24171594.371   127022585.17806     -2133.141    24171595.579    98978640.97346
     -1662.188    24171596.053    24171595.178    94854529.54408     -1592.542  
                                                                                
                
  23110620.814   121447136.72708      -129.467    23110619.598    94634130.68847
      -100.883    23110619.738    23110622.630    90691046.58708       -96.784  
                                                                                
                
  21902469.730   115098253.12709     -2590.229    21902467.499    89686947.46749
     -2018.360    21902467.936                                                  
                                                                                
                
  25679989.189   134949249.36206     -3820.146    25679991.974   105155265.13445
     -2976.738    25679992.062    25679991.398   100773791.62806     -2852.598  
                                                                                
                
  19895669.544   104552450.02609      -613.015    19895670.308    81469444.56249
      -477.673    19895670.775    19895669.677    78074882.98809      -457.786  
                                                                                
                
  21552892.065   113261219.27909      2222.038    21552890.546    88255495.07847
      1731.460    21552890.651    21552894.114    84578188.11809      1659.379  
                                                                                
                
  21201617.374   111415256.23309      2168.309    21201616.116    86817081.19449
      1689.592    21201616.593                                                  
                                                                                
                
  23188518.463   121856494.20308      3177.627    23188516.462    94953112.25045
      2476.074    23188516.569                                                  
                                                                                
                
  22928276.496   120488906.72908     -2345.546    22928277.985    93887461.51146
     -1827.698    22928278.137    22928276.108    89975480.04508     -1751.538  
                                                                                
                
  22563879.340   120405189.36504     -2445.103                                  
                                                                                
                                                                                
                
  22801143.765   122056307.72607       979.319    22801146.312    94932694.98806
       761.693                                                                  
                                                                                
                
  23134703.616   123320988.69808     -3403.437    23134707.073    95916332.90707
     -2647.118                                                                  
                                                                                
                
  19664658.607   105081974.64509     -1150.567    19664661.298    81730431.30808
      -894.885                                                                  
                                                                                
                
  20355486.331   108735357.34209      2355.813    20355489.167    84571953.22408
      1832.300                                                                  
                                                                                
                
  19803793.231   105974100.12009       777.395    19803795.288    82424309.62508
       604.641                                                                  
                                                                                
                
  21557466.197   115075227.67009      4086.838    21557470.382    89502969.62608
      3178.654                                                                  
                                                                                
                
  22019395.592   117747611.17408     -3216.050    22019397.509    91581481.10207
     -2501.372                                                                  
                                                                                
                
  25981569.873   136534069.81908     -2426.181                                  
                                  25981571.594   101957260.88508     -1811.696  
  25981570.082   104617014.09008     -1858.985    25981571.161   103287139.52209
     -1835.313  
  27130864.143   142573667.26606      2219.962                                  
                                  27130866.694   106467344.83407      1657.818  
  27130865.700   109244751.31907      1700.996    27130866.267   107856051.61008
      1679.414  
  25897443.528   136091984.75109       -74.973                                  
                                  25897445.887   101627131.88208       -56.020  
  25897444.358   104278274.04309       -57.440    25897445.468   102952707.49509
       -56.747  
  25775731.605   135452384.91408      -236.205                                  
                                  25775734.613   101149509.80708      -176.290  
  25775732.652   103788192.28608      -180.859    25775733.833   102468855.58509
      -178.647  
  25763865.625   135390027.19108     -2074.033                                  
                                  25763867.923   101102942.65308     -1548.783  
  25763866.624   103740410.35308     -1589.205    25763867.481   102421681.03909
     -1569.008  
  25620378.793   134636012.96108      2418.944                                  
                                  25620380.164   100539879.68008      1806.382  
  25620378.312   103162656.37708      1853.504    25620379.401   101851270.56409
      1829.917  
  25432252.160   133647393.24409      2017.371                                  
                                  25432255.645    99801626.59808      1506.473  
  25432254.039   102405146.88209      1545.776    25432254.899   101103391.27309
      1526.138  
  28221112.242   148302962.19507      3272.275                                  
                                  28221116.020   110745726.56107      2443.521  
  28221115.297   113634740.78407      2507.336    28221115.761   112190233.20808
      2475.423  
 23 12 08 17 11 30.0000000  0 25G06G11G12G24G25G28G29G31G32R06R07R14
                                R15R16R17R18R24E04E05E09E13E21E26E31
                                E33
  24183814.397   127086801.92407     -2148.672    24183815.575    99028680.03247
     -1674.288    24183816.045    24183815.172    94902483.65608     -1604.511  
                                                                                
                
  23111417.723   121451324.63708      -149.678    23111416.502    94637394.01746
      -116.631    23111416.637    23111419.507    90694173.94908      -111.783  
                                                                                
                
  21917278.887   115176075.74609     -2598.104    21917276.662    89747588.47049
     -2024.497    21917277.099                                                  
                                                                                
                
  25701796.933   135063849.56806     -3820.183    25701799.714   105244563.95646
     -2976.767    25701799.811    25701799.103   100859369.66106     -2852.528  
                                                                                
                
  19899207.571   104571042.54509      -626.780    19899208.327    81483932.25749
      -488.399    19899208.795    19899207.698    78088767.02809      -467.943  
                                                                                
                
  21540244.915   113194758.19709      2208.369    21540243.394    88203707.25147
      1720.807    21540243.498    21540246.987    84528558.13309      1649.170  
                                                                                
                
  21189282.128   111350434.25309      2153.023    21189280.865    86766570.60549
      1677.682    21189281.344                                                  
                                                                                
                
  23170401.950   121761291.48508      3169.142    23170399.894    94878928.37246
      2469.464    23170399.997                                                  
                                                                                
                
  22941705.285   120559475.33908     -2359.061    22941706.774    93942450.00046
     -1838.231    22941706.921    22941704.924    90028177.34808     -1761.640  
                                                                                
                
  22577683.152   120478849.20204     -2465.316                                  
                                                                                
                                                                                
                
  22795727.248   122027313.00507       953.464    22795729.838    94910143.53005
       741.583                                                                  
                                                                                
                
  23153873.615   123423175.38407     -3409.245    23153877.073    95995811.41006
     -2651.634                                                                  
                                                                                
                
  19671159.120   105116711.48109     -1165.526    19671161.799    81757448.86808
      -906.519                                                                  
                                                                                
                
  20342283.303   108664829.15609      2345.890    20342286.134    84517097.98308
      1824.583                                                                  
                                                                                
                
  19799512.729   105951194.51809       749.369    19799514.798    82406494.19108
       582.843                                                                  
                                                                                
                
  21534534.164   114952814.99509      4073.805    21534538.343    89407759.81807
      3168.518                                                                  
                                                                                
                
  22037487.013   117844354.18608     -3233.551    22037488.923    91656725.67006
     -2514.984                                                                  
                                                                                
                
  25995444.163   136606979.65408     -2434.575                                  
                                  25995445.852   102011706.51808     -1818.107  
  25995444.401   104672880.05508     -1865.512    25995445.465   103342295.32209
     -1841.805  
  27118216.773   142507205.57406      2210.786                                  
                                  27118219.482   106417714.37607      1650.926  
  27118218.432   109193826.14907      1693.892    27118219.000   107805773.79308
      1672.467  
  25897914.206   136094458.34909       -90.063                                  
                                  25897916.508   101628979.07808       -67.291  
  25897915.102   104280169.42109       -68.929    25897916.143   102954578.78309
       -68.123  
  25777123.521   135459699.58909      -251.717                                  
                                  25777126.534   101154972.08108      -187.978  
  25777124.597   103793797.06408      -192.850    25777125.770   102474389.11109
      -190.490  
  25775715.594   135452299.12008     -2077.543                                  
                                  25775717.902   101149444.41008     -1551.441  
  25775716.596   103788125.19808     -1591.902    25775717.440   102468789.33709
     -1571.649  
  25606595.965   134563583.85409      2409.374                                  
                                  25606597.338   100485793.02708      1799.275  
  25606595.499   103107158.78308      1846.161    25606596.566   101796478.44209
      1822.685  
  25420745.409   133586924.91009      2013.708                                  
                                  25420748.839    99756471.71008      1503.758  
  25420747.274   102358814.03009      1542.978    25420748.147   101057647.40409
      1523.366  
  28202426.597   148204768.80007      3273.794                                  
                                  28202430.405   110672400.42007      2444.746  
  28202429.639   113559501.77607      2508.491    28202430.094   112115950.63008
      2476.654  
 23 12 08 17 12  0.0000000  0 25G06G11G12G24G25G28G29G31G32R06R07R14
                                R15R16R17R18R24E04E05E09E13E21E26E31
                                E33
  24196125.209   127151495.64607     -2164.648    24196126.384    99079090.72647
     -1686.740    24196126.853    24196125.981    94950793.91508     -1616.361  
                                                                                
                
  23112328.052   121456108.44008      -169.434    23112326.830    94641121.66046
      -132.026    23112326.962    23112329.804    90697746.27209      -126.528  
                                                                                
                
  21932131.372   115254126.04309     -2605.623    21932129.155    89808406.88449
     -2030.356    21932129.597                                                  
                                                                                
                
  25723603.630   135178444.23505     -3819.403    25723606.406   105333858.45945
     -2976.161    25723606.500    25723605.769   100944943.57806     -2852.540  
                                                                                
                
  19902822.023   104590036.68909      -639.887    19902822.779    81498732.90449
      -498.613    19902823.249    19902822.152    78102950.99109      -477.900  
                                                                                
                
  21527675.058   113128703.28809      2194.931    21527673.539    88152235.92347
      1710.337    21527673.639    21527677.141    84479231.44909      1639.093  
                                                                                
                
  21177033.813   111286069.16109      2137.843    21177032.540    86716416.04649
      1665.854    21177033.020                                                  
                                                                                
                
  23152331.020   121666328.28008      3161.502    23152328.919    94804931.11946
      2463.512    23152329.024                                                  
                                                                                
                
  22955210.046   120630443.33508     -2372.318    22955211.535    93997749.73646
     -1848.559    22955211.680    22955209.696    90081172.90908     -1771.526  
                                                                                
                
  22591597.300   120553096.83705     -2485.066                                  
                                                                                
                                                                                
                
  22790454.715   121999089.29907       927.871    22790457.341    94888191.78006
       721.677                                                                  
                                                                                
                
  23173074.683   123525527.77807     -3414.662    23173078.143    96075418.80406
     -2655.847                                                                  
                                                                                
                
  19677741.864   105151887.66509     -1179.971    19677744.536    81784808.12408
      -917.754                                                                  
                                                                                
                
  20329134.505   108594590.73709      2336.396    20329137.341    84462468.12908
      1817.198                                                                  
                                                                                
                
  19795388.392   105929124.48509       721.637    19795390.460    82389328.62908
       561.274                                                                  
                                                                                
                
  21511674.206   114830786.99909      4061.119    21511678.367    89312849.19308
      3158.649                                                                  
                                                                                
                
  22055675.509   117941616.30508     -3250.791    22055677.388    91732373.99507
     -2528.392                                                                  
                                                                                
                
  26009365.843   136680138.57008     -2442.813                                  
                                  26009367.520   102066338.15608     -1824.233  
  26009366.122   104728936.87308     -1871.779    26009367.167   103397639.55109
     -1847.993  
  27105622.129   142441020.69306      2201.509                                  
                                  27105624.965   106368290.61407      1643.814  
  27105623.859   109143113.06607      1686.821    27105624.417   107755705.37208
      1665.344  
  25898469.929   136097378.84709      -104.833                                  
                                  25898472.169   101631159.99608       -78.323  
  25898470.896   104282407.24009       -80.345    25898471.866   102956788.15409
       -79.353  
  25778603.797   135467478.58409      -267.087                                  
                                  25778606.794   101160781.09208      -199.509  
  25778604.880   103799757.60908      -204.710    25778606.051   102480273.88809
      -202.112  
  25787584.525   135514670.71008     -2080.869                                  
                                  25787586.840   101196020.59108     -1553.902  
  25787585.536   103835916.41808     -1594.407    25787586.369   102515973.04209
     -1574.191  
  25592867.083   134491438.12308      2399.973                                  
                                  25592868.456   100431918.00008      1792.191  
  25592866.640   103051878.30708      1838.963    25592867.689   101741900.68909
      1815.597  
  25409258.741   133526562.17309      2010.247                                  
                                  25409262.124    99711395.68808      1501.108  
  25409260.584   102312562.09709      1540.254    25409261.474   101011983.42509
      1520.658  
  28183731.432   148106525.33107      3275.559                                  
                                  28183735.246   110599036.89107      2446.029  
  28183734.445   113484224.40307      2509.808    28183734.894   112041630.18408
      2477.881  
 23 12 08 17 12 30.0000000  0 25G06G11G12G24G25G28G29G31G32R06R07R14
                                R15R16R17R18R24E04E05E09E13E21E26E31
                                E33
  24208526.956   127216667.25907     -2180.877    24208528.133    99129873.80947
     -1699.385    24208528.601    24208527.720    94999461.02207     -1628.101  
                                                                                
                
  23113352.387   121461491.30708      -189.524    23113351.162    94645316.10946
      -147.681    23113351.298    23113354.126    90701765.95609      -141.484  
                                                                                
                
  21947027.544   115332405.96309     -2613.231    21947025.337    89869404.23349
     -2036.284    21947025.781                                                  
                                                                                
                
  25745409.542   135293034.82805     -3819.462    25745412.321   105423149.78745
     -2976.203    25745412.413    25745411.661   101030514.40705     -2852.279  
                                                                                
                
  19906513.414   104609435.16409      -653.433    19906514.181    81513848.61249
      -509.168    19906514.654    19906513.556    78117436.87609      -487.901  
                                                                                
                
  21515183.520   113063059.95109      2181.153    21515182.011    88101085.30347
      1699.600    21515182.109    21515185.603    84430212.11109      1628.885  
                                                                                
                
  21164873.262   111222165.23909      2122.414    21164871.978    86666620.83449
      1653.831    21164872.459                                                  
                                                                                
                
  23134306.687   121571610.05508      3153.183    23134304.559    94731124.78546
      2457.027    23134304.669                                                  
                                                                                
                
  22968790.886   120701811.10408     -2385.741    22968792.384    94053360.97346
     -1859.019    22968792.531    22968790.543    90134467.00608     -1781.416  
                                                                                
                
  22605621.534   120627931.27405     -2504.444                                  
                                                                                
                                                                                
                
  22785326.978   121971640.70708       901.929    22785329.640    94866842.90606
       701.501                                                                  
                                                                                
                
  23192307.305   123628048.58608     -3420.153    23192310.750    96155157.23406
     -2660.118                                                                  
                                                                                
                
  19684407.361   105187506.09509     -1194.758    19684410.023    81812511.35908
      -929.256                                                                  
                                                                                
                
  20316040.818   108524646.70509      2326.418    20316043.667    84408067.23408
      1809.437                                                                  
                                                                                
                
  19791420.981   105907894.23609       693.635    19791423.032    82372816.25308
       539.494                                                                  
                                                                                
                
  21488887.645   114709151.04809      4047.867    21488891.778    89218243.55208
      3148.343                                                                  
                                                                                
                
  22073960.889   118039396.50108     -3267.945    22073962.758    91808425.26107
     -2541.734                                                                  
                                                                                
                
  26023335.150   136753547.76508     -2451.091                                  
                                  26023336.829   102121156.68808     -1830.287  
  26023335.490   104785185.46708     -1878.136    26023336.504   103453173.11409
     -1854.211  
  27093081.094   142375117.31806      2192.022                                  
                                  27093084.037   106319077.04907      1636.913  
  27093082.868   109092615.68307      1679.625    27093083.424   107705849.89208
      1658.325  
  25899111.279   136100749.27609      -119.841                                  
                                  25899113.478   101633676.88708       -89.492  
  25899112.329   104284989.79109       -91.866    25899113.219   102959337.87509
       -90.663  
  25780172.995   135475724.75909      -282.656                                  
                                  25780175.972   101166938.95008      -211.043  
  25780174.078   103806076.11308      -216.568    25780175.253   102486512.06709
      -213.804  
  25799472.980   135577144.88308     -2084.199                                  
                                  25799475.317   101242673.36608     -1556.310  
  25799474.010   103883786.23608     -1596.989    25799474.828   102563234.33709
     -1576.667  
  25579193.060   134419580.78509      2390.284                                  
                                  25579194.411   100378258.33408      1785.075  
  25579192.626   102996818.81408      1831.635    25579193.653   101687541.10809
      1808.385  
  25397792.812   133466308.43309      2006.654                                  
                                  25397796.154    99666401.05608      1498.465  
  25397794.646   102266393.68609      1537.558    25397795.543   100966401.90409
      1517.995  
  28165027.713   148008236.76707      3277.063                                  
                                  28165031.520   110525639.66007      2447.143  
  28165030.696   113408912.45607      2510.954    28165031.135   111967275.59508
      2479.055  
