     2.11           OBSERVATION DATA    G (GPS)             RINEX VERSION / TYPE
teqc  2019Feb25                         20231202 21:54:31UTCPGM / RUN BY / DATE
Linux 2.6.32-573.12.1.x86_64|x86_64|gcc|Linux 64|=+         COMMENT
teqc  2019Feb25                         20231202 21:54:30UTCCOMMENT
     2.11           OBSERVATION DATA    M (MIXED)           COMMENT
teqc  2019Feb25     IGN-RGP             20231202 16:02:18UTCCOMMENT
teqc  2019Feb25     Administrateur RGP  20231202 16:02:18UTCCOMMENT
teqc  2019Feb25     IGN-RGP             20231202 16:02:15UTCCOMMENT
teqc  2019Feb25     IGN-RGP             20231202 16:02:14UTCCOMMENT
BIT 2 OF LLI FLAGS DATA COLLECTED UNDER A/S CONDITION       COMMENT
IGNF                                                        MARKER NAME
10001M009                                                   MARKER NUMBER
Automatic           IGN                                     OBSERVER / AGENCY
1834194             LEICA GR50          4.51                REC # / TYPE / VERS
5000113963          TRM57971.00     NONE                    ANT # / TYPE
  4201694.1440   177888.8370  4779371.7670                  APPROX POSITION XYZ
        0.0000        0.0000        0.0000                  ANTENNA: DELTA H/E/N
     1     1                                                WAVELENGTH FACT L1/2
    21    L1    L2    C1    P1    P2    D1    D2    S1    S2# / TYPES OF OBSERV
          L5    C5    D5    S5    L7    C7    D7    S7    L8# / TYPES OF OBSERV
          C8    D8    S8                                    # / TYPES OF OBSERV
    30.0000                                                 INTERVAL
DefaultJobName                                              COMMENT
DefaultUserDiscription                                      COMMENT
Project creator:                                            COMMENT
 SNR is mapped to RINEX snr flag value [0-9]                COMMENT
  L1 & L2: min(max(int(snr_dBHz/6), 0), 9)                  COMMENT
    18                                                      LEAP SECONDS
Forced Modulo Decimation to 30 seconds                      COMMENT
teqc_2019 edited: all GLONASS satellites excluded           COMMENT
teqc_2019 edited: all SBAS satellites excluded              COMMENT
teqc_2019 edited: all Galileo satellites excluded           COMMENT
  2023    12     2    15     0    0.0000000     GPS         TIME OF FIRST OBS
                                                            END OF HEADER
 23 12  2 15  0  0.0000000  0 12G06G10G12G13G15G17G19G22G23G24G25G32
 132948808.231 6 103596494.44946  25299316.700                    25299322.100
      2782.320        2168.042          38.700          38.350    99279985.928 7
  25299324.600        2077.665          43.800


 124985751.755 7  97391518.60847  23783993.120                    23783999.340
     -1598.658       -1245.710          42.950          42.850    93333546.516 7
  23783999.780       -1193.594          46.950


 107735181.945 8  83949658.76748  20501256.780                    20501255.200
      1490.835        1161.691          51.350          51.250



 134150768.676 6 104533031.69445  25528067.400                    25528072.980
     -3887.874       -3029.535          37.050          32.700



 122849021.143 7  95726501.65347  23377395.940                    23377397.620
     -3817.085       -2974.356          45.650          45.400



 126688868.776 7  98718666.32047  24108061.780                    24108062.500
     -2631.006       -2050.135          44.550          44.200



 116511053.000 8  90787913.06547  22171282.180                    22171279.860
     -1005.770        -783.716          48.650          45.900



 134892443.364 6 105111066.81845  25669136.680                    25669138.260
     -3286.824       -2561.156          36.050          35.050



 129245836.511 6 100711035.11446  24594674.720                    24594680.840
     -3083.019       -2402.360          39.600          39.450    96514769.692 7
  24594684.640       -2302.340          44.150


 107220182.481 8  83548264.44848  20403294.920                    20403296.660
     -1348.145       -1050.502          51.600          51.600    80067109.020 9
  20403297.780       -1006.717          56.550


 118285055.115 7  92170257.21147  22508875.180                    22508879.340
      3277.414        2553.833          46.300          42.400    88329858.869 8
  22508882.020        2447.436          49.900


 124426160.809 7  96955495.53047  23677498.660                    23677502.900
      2960.198        2306.652          46.600          43.100    92915710.511 7
  23677503.840        2210.640          47.650


 23 12  2 15  0 30.0000000  0 12G06G10G12G13G15G17G19G22G23G24G25G32
 132865418.499 6 103531515.43346  25283448.200                    25283453.500
      2777.634        2164.388          40.300          39.950    99217714.366 7
  25283456.000        2074.072          42.750


 125033932.524 7  97429061.99347  23793161.680                    23793168.040
     -1613.060       -1256.932          42.750          42.450    93369525.591 7
  23793167.720       -1204.706          46.250


 107690687.295 8  83914987.66248  20492789.700                    20492788.080
      1475.860        1150.021          51.650          51.500



 134267399.148 6 104623911.65145  25550262.080                    25550267.640
     -3887.103       -3028.936          37.000          33.350



 122963597.993 7  95815782.21047  23399199.220                    23399201.140
     -3820.996       -2977.402          45.400          45.350



 126767962.577 7  98780297.83547  24123113.020                    24123113.400
     -2641.521       -2058.328          45.850          45.750



 116541520.222 8  90811653.75747  22177079.880                    22177077.520
     -1025.034        -798.728          48.950          45.900



 134991022.078 6 105187881.58945  25687895.700                    25687896.980
     -3284.634       -2559.441          38.250          35.900



 129338394.441 6 100783158.07546  24612287.900                    24612294.200
     -3086.696       -2405.220          40.100          40.100    96583887.530 7
  24612297.440       -2305.275          44.050


 107260830.562 8  83579938.27848  20411030.000                    20411031.760
     -1361.288       -1060.744          51.450          51.350    80097463.106 9
  20411032.860       -1016.541          56.350


 118186850.284 7  92093734.10446  22490187.360                    22490191.080
      3269.984        2548.045          46.500          41.950    88256524.255 8
  22490194.320        2441.892          50.250


 124337498.100 7  96886407.82147  23660626.620                    23660630.840
      2951.096        2299.560          46.700          42.450    92849501.485 7
  23660631.740        2203.727          47.600


 23 12  2 15  1  0.0000000  0 12G06G10G12G13G15G17G19G22G23G24G25G32
 132782190.280 6 103466662.23046  25267610.520                    25267615.460
      2771.505        2159.612          39.950          40.000    99155563.388 7
  25267618.000        2069.685          42.550


 125082579.457 7  97466968.61446  23802419.060                    23802425.400
     -1629.375       -1269.645          42.250          41.850    93405852.752 7
  23802424.520       -1216.586          46.450


 107646667.597 8  83880686.64848  20484413.020                    20484411.420
      1459.312        1137.127          51.500          51.550



 134384012.792 6 104714778.55044  25572453.760                    25572459.460
     -3885.968       -3028.049          37.000          29.200



 123078318.998 7  95905175.08147  23421029.960                    23421031.960
     -3826.329       -2981.560          44.950          44.850



 126847395.760 7  98842193.80547  24138228.840                    24138228.960
     -2653.278       -2067.489          46.000          45.750



 116572589.027 8  90835863.24047  22182992.200                    22182989.660
     -1045.685        -814.819          48.750          46.750



 135089565.693 6 105264669.03546  25706647.800                    25706649.260
     -3284.477       -2559.327          38.300          37.650



 129431087.420 6 100855386.21146  24629926.660                    24629933.220
     -3092.097       -2409.429          40.650          37.500    96653106.123 7
  24629936.920       -2308.887          44.650


 107301895.994 8  83611937.32548  20418844.480                    20418846.240
     -1375.797       -1072.050          51.350          51.250    80128128.859 9
  20418847.340       -1027.347          56.300


 118088891.549 7  92017402.75946  22471546.260                    22471549.700
      3261.101        2541.123          46.200          41.750    88183373.409 8
  22471553.420        2435.323          50.400


 124249139.313 7  96817556.93047  23643812.400                    23643816.620
      2940.264        2291.118          46.750          42.200    92783519.407 7
  23643817.340        2195.687          47.850


 23 12  2 15  1 30.0000000  0 12G06G10G12G13G15G17G19G22G23G24G25G32
 132699130.198 6 103401940.06646  25251804.600                    25251809.580
      2765.839        2155.198          39.450          38.600    99093537.959 7
  25251812.060        2065.388          42.900


 125131693.951 7  97505239.55247  23811765.520                    23811771.640
     -1645.032       -1281.847          43.700          43.550    93442529.074 7
  23811770.520       -1228.287          46.950


 107603127.689 8  83846759.50048  20476127.660                    20476126.120
      1443.345        1124.686          51.650          51.600



 134500611.576 6 104805633.90745  25594642.220                    25594647.940
     -3886.591       -3028.535          37.100          31.000



 123193185.169 7  95994681.05147  23442888.400                    23442890.520
     -3831.147       -2985.315          45.100          44.800



 126927169.397 7  98904355.06347  24153409.480                    24153409.440
     -2664.729       -2076.413          45.950          46.150



 116604261.966 8  90860543.43947  22189019.380                    22189017.080
     -1065.743        -830.448          48.600          46.950



 135188076.378 6 105341430.80245  25725393.660                    25725395.000
     -3283.299       -2558.409          38.750          35.700



 129523915.596 6 100927719.74846  24647591.080                    24647597.960
     -3096.509       -2412.868          40.200          38.800    96722425.720 7
  24647601.980       -2312.272          44.100


 107343381.725 8  83644263.87448  20426738.980                    20426740.640
     -1389.827       -1082.982          51.050          50.900    80159108.469 9
  20426741.680       -1037.878          56.350


 117991183.799 7  91941266.97146  22452952.960                    22452955.820
      3252.714        2534.587          45.950          41.650    88110409.998 8
  22452960.200        2429.009          50.950


 124161090.453 7  96748947.54146  23627057.180                    23627061.300
      2929.886        2283.031          46.700          41.850    92717768.786 8
  23627061.920        2187.902          48.050


 23 12  2 15  2  0.0000000  0 12G06G10G12G13G15G17G19G22G23G24G25G32
 132616237.760 6 103337348.52546  25236030.780                    25236035.660
      2760.187        2150.796          39.350          38.800    99031637.709 7
  25236038.000        2061.282          42.500


 125181269.817 7  97543870.01547  23821199.680                    23821205.560
     -1660.350       -1293.781          45.050          44.100    93479549.914 7
  23821204.400       -1239.725          46.950


 107560063.464 8  83813203.00648  20467932.820                    20467931.380
      1427.415        1112.272          52.000          51.950



 134617190.269 5 104896473.45145  25616827.040                    25616832.620
     -3885.525       -3027.720          35.950          34.150



 123308189.670 7  96084294.84247  23464773.160                    23464775.240
     -3835.847       -2988.975          45.800          45.750



 127007277.400 7  98966776.85447  24168653.540                    24168653.620
     -2675.893       -2085.112          45.300          45.550



 116636534.130 7  90885690.58747  22195160.600                    22195158.320
     -1085.851        -846.117          47.700          47.050



 135286549.444 6 105418163.27845  25744132.260                    25744133.580
     -3281.984       -2557.390          39.700          34.550



 129616872.129 6 101000153.30346  24665280.240                    24665287.180
     -3100.791       -2416.206          41.500          39.700    96791841.202 7
  24665291.520       -2315.596          44.400


 107385283.538 8  83676914.64648  20434712.600                    20434714.160
     -1403.783       -1093.856          51.600          51.650    80190398.798 9
  20434715.180       -1048.211          56.200


 117893724.829 7  91865325.04346  22434406.960                    22434409.520
      3244.282        2528.016          46.550          40.300    88037632.344 8
  22434414.300        2422.798          50.500


 124073350.463 7  96680578.81947  23610360.760                    23610364.760
      2919.421        2274.877          46.800          42.500    92652248.791 7
  23610365.220        2180.093          47.900


 23 12  2 15  2 30.0000000  0 12G06G10G12G13G15G17G19G22G23G24G25G32
 132533521.912 6 103272894.60346  25220290.480                    25220295.200
      2754.324        2146.229          39.750          39.950    98969869.371 7
  25220297.520        2056.816          43.150


 125231310.204 7  97582862.42347  23830722.360                    23830727.840
     -1675.566       -1305.639          46.150          43.100    93516917.614 7
  23830727.040       -1251.133          47.750


 107517481.754 8  83780022.49648  20459829.780                    20459828.440
      1411.561        1099.918          51.550          51.650



 134733752.599 5 104987300.26345  25639008.960                    25639014.340
     -3884.591       -3026.975          35.550          31.750



 123423335.732 7  96174018.92147  23486684.900                    23486686.880
     -3840.322       -2992.463          45.400          45.150



 127087723.277 7  99029461.94947  24183961.760                    24183962.080
     -2686.962       -2093.736          44.500          44.250



 116669410.168 8  90911308.25647  22201416.520                    22201414.700
     -1105.762        -861.635          48.000          47.150



 135384989.575 6 105494870.03946  25762864.780                    25762865.380
     -3280.362       -2556.123          39.350          36.900



 129709959.617 6 101072688.88146  24682994.400                    24683001.280
     -3104.847       -2419.365          41.100          39.300    96861354.439 7
  24683006.200       -2318.551          45.750


 107427606.640 8  83709893.68548  20442766.340                    20442767.920
     -1417.531       -1104.570          51.300          51.200    80222003.716 9
  20442768.840       -1058.586          56.350


 117796521.689 7  91789582.47147  22415909.680                    22415912.100
      3236.003        2521.564          46.400          42.300    87965045.765 8
  22415917.000        2416.575          50.600


 123985927.638 7  96612457.26247  23593724.660                    23593728.660
      2908.997        2266.756          46.900          43.350    92586965.648 7
  23593728.920        2172.392          47.800


 23 12  2 15  3  0.0000000  0 12G06G10G12G13G15G17G19G22G23G24G25G32
 132450976.729 6 103208573.67146  25204582.600                    25204587.500
      2748.488        2141.679          38.450          37.900    98908228.494 7
  25204589.640        2052.606          42.300


 125281804.260 7  97622208.35846  23840331.340                    23840336.460
     -1690.655       -1317.397          47.250          40.850    93554624.124 7
  23840336.140       -1262.603          47.850


 107475373.972 8  83747211.27448  20451816.880                    20451815.720
      1395.588        1087.472          51.100          51.100



 134850288.211 5 105078106.08444  25661185.500                    25661191.320
     -3884.373       -3026.816          35.450          29.550



 123538611.861 7  96263844.34747  23508621.380                    23508623.340
     -3844.960       -2996.076          44.900          44.750



 127168495.821 7  99092401.58047  24199332.020                    24199332.580
     -2697.883       -2102.247          44.150          44.000



 116702879.798 7  90937388.48047  22207785.340                    22207783.780
     -1125.739        -877.201          47.200          46.400



 135483386.457 6 105571543.14946  25781588.960                    25781589.300
     -3279.225       -2555.233          40.650          38.250



 129803165.782 7 101145316.95746  24700731.320                    24700737.860
     -3108.736       -2422.391          42.900          38.100    96930956.324 7
  24700743.380       -2321.580          44.750


 107470341.464 8  83743193.55148  20450898.480                    20450900.080
     -1431.465       -1115.427          51.550          51.600    80253916.082 9
  20450901.040       -1068.933          56.200


 117699566.878 7  91714033.39547  22397459.660                    22397462.120
      3227.519        2514.955          46.250          42.100    87892644.604 8
  22397466.980        2410.196          50.200


 123898815.532 7  96544577.81847  23577147.620                    23577151.660
      2898.489        2258.566          46.100          42.100    92521914.547 7
  23577151.800        2164.442          47.400


 23 12  2 15  3 30.0000000  0 12G06G10G12G13G15G17G19G22G23G24G25G32
 132368615.806 6 103144396.34746  25188909.720                    25188914.700
      2742.604        2137.093          38.000          38.050    98846725.243 7
  25188916.740        2048.159          42.100


 125332759.659 7  97661913.78846  23850028.020                    23850032.760
     -1705.723       -1329.138          47.200          40.600    93592675.116 8
  23850033.000       -1273.660          48.250


 107433751.088 8  83714777.89948  20443896.220                    20443895.240
      1379.778        1075.152          51.050          51.150



 134966804.510 6 105168896.78145  25683358.440                    25683364.940
     -3883.388       -3026.065          36.350          34.900



 123654026.324 7  96353777.56747  23530584.200                    23530585.900
     -3848.892       -2999.139          45.450          45.350



 127249602.785 7  99155601.79347  24214765.900                    24214766.700
     -2708.653       -2110.639          43.950          43.750



 116736952.271 7  90963938.45547  22214268.860                    22214267.640
     -1145.297        -892.438          47.700          46.600



 135581749.788 6 105648190.05646  25800306.760                    25800307.360
     -3277.667       -2554.021          40.300          37.500



 129896497.876 7 101218043.11946  24718492.340                    24718498.680
     -3112.893       -2425.632          42.750          38.300    97000652.192 7
  24718504.480       -2324.430          44.150


 107513497.759 8  83776821.83448  20459110.860                    20459112.520
     -1445.189       -1126.122          51.650          51.600    80286143.190 9
  20459113.620       -1079.127          56.600


 117602872.039 7  91638686.89147  22379059.100                    22379061.780
      3219.309        2508.556          46.100          43.150    87820437.574 8
  22379066.180        2404.096          50.100


 123812027.055 7  96476950.56747  23560632.060                    23560636.180
      2887.929        2250.338          45.600          42.900    92457105.133 7
  23560636.340        2156.638          47.350


 23 12  2 15  4  0.0000000  0 12G06G10G12G13G15G17G19G22G23G24G25G32
 132286435.060 6 103080359.48846  25173271.280                    25173276.340
      2736.183        2132.092          37.750          37.650    98785356.592 7
  25173278.140        2043.286          42.400


 125384166.770 7  97701971.19746  23859810.580                    23859814.960
     -1721.151       -1341.160          46.850          41.350    93631063.432 8
  23859815.840       -1285.270          48.400


 107392605.952 8  83682716.80348  20436066.460                    20436065.620
      1363.390        1062.383          51.700          51.800



 135083293.391 6 105259666.06245  25705526.660                    25705533.880
     -3882.464       -3025.339          36.850          33.700



 123769568.450 7  96443810.25447  23552571.240                    23552572.920
     -3853.572       -3002.787          45.100          45.100



 127331034.706 7  99219055.22447  24230261.660                    24230262.640
     -2719.808       -2119.332          43.550          43.500



 116771619.123 7  90990951.59047  22220865.600                    22220864.420
     -1165.630        -908.282          47.000          46.100



 135680070.868 6 105724804.04946  25819016.520                    25819017.120
     -3276.518       -2553.125          41.100          36.050



 129989945.408 7 101290859.22446  24736275.240                    24736281.540
     -3116.866       -2428.736          42.700          37.800    97070434.302 7
  24736287.380       -2327.592          44.850


 107557067.726 8  83810772.45748  20467402.020                    20467403.700
     -1459.271       -1137.095          51.900          51.900    80318679.210 9
  20467404.980       -1089.759          56.700


 117506431.405 7  91563538.49047  22360706.900                    22360709.920
      3210.425        2501.637          46.200          42.600    87748420.380 8
  22360713.800        2397.317          49.750


 123725557.549 7  96409571.86647  23544177.100                    23544181.520
      2876.833        2241.692          44.900          42.550    92392533.913 7
  23544181.600        2148.265          47.150


 23 12  2 15  4 30.0000000  0 12G06G10G12G13G15G17G19G22G23G24G25G32
 132204441.112 6 103016468.18246  25157668.160                    25157673.440
      2729.824        2127.139          38.150          37.800    98724127.443 7
  25157675.260        2038.616          42.550


 125436026.771 7  97742381.49747  23869679.160                    23869683.660
     -1736.169       -1352.861          45.300          42.100    93669789.948 8
  23869684.820       -1296.532          48.450


 107351942.706 8  83651031.20248  20428328.420                    20428327.620
      1347.336        1049.873          51.450          51.350



 135199756.564 6 105350415.14544  25727689.700                    25727697.100
     -3881.931       -3024.939          36.650          26.750



 123885239.498 7  96533943.38847  23574582.720                    23574584.460
     -3857.923       -3006.180          44.550          44.500



 127412792.827 7  99282762.88347  24245819.720                    24245820.640
     -2730.751       -2127.856          43.600          43.000



 116806882.760 7  91018429.76147  22227576.100                    22227574.580
     -1185.430        -923.710          47.400          46.650



 135778352.504 6 105801387.29746  25837718.600                    25837718.960
     -3275.401       -2552.258          40.700          37.850



 130083508.703 7 101363765.58746  24754080.020                    24754086.020
     -3120.637       -2431.670          42.000          38.650    97140302.806 7
  24754092.320       -2330.342          45.600


 107601054.249 8  83845047.68048  20475772.480                    20475774.020
     -1473.178       -1147.931          51.450          51.450    80351526.295 9
  20475775.640       -1100.106          56.800


 117410249.841 7  91488591.94247  22342403.980                    22342407.340
      3201.587        2494.748          46.100          43.300    87676596.617 8
  22342410.460        2390.881          49.350


 123639413.022 7  96342446.39547  23527784.120                    23527788.640
      2866.018        2233.266          45.050          43.500    92328205.371 7
  23527788.740        2140.267          47.200


 23 12  2 15  5  0.0000000  0 12G06G10G12G13G15G17G19G22G23G24G25G32
 132122635.050 6 102952723.27746  25142100.920                    25142106.520
      2723.634        2122.313          37.150          37.750    98663038.633 6
  25142107.880        2033.731          41.900


 125488335.376 7  97783141.36747  23879633.040                    23879637.540
     -1751.594       -1364.881          44.250          42.500    93708851.460 8
  23879639.060       -1307.890          48.650


 107311760.151 8  83619720.16548  20420681.880                    20420681.040
      1330.938        1037.097          51.300          51.300



 135316190.490 5 105441141.43545  25749847.320                    25749854.980
     -3880.367       -3023.709          34.500          33.250



 124001034.522 7  96624173.14047  23596617.900                    23596619.660
     -3862.420       -3009.682          44.900          44.700



 127494872.773 7  99346721.29747  24261439.040                    24261439.920
     -2741.774       -2136.447          44.050          44.300



 116842739.785 7  91046370.28647  22234399.580                    22234397.960
     -1205.646        -939.465          46.950          46.650



 135876591.446 6 105877937.26545  25856412.800                    25856413.060
     -3274.317       -2551.411          40.800          34.300



 130177182.561 6 101436758.12246  24771905.580                    24771911.540
     -3124.622       -2434.777          41.850          38.500    97210253.932 7
  24771918.100       -2333.310          43.500


 107645454.785 8  83879645.50248  20484221.660                    20484223.020
     -1487.338       -1158.965          50.850          51.050    80384682.539 9
  20484225.060       -1110.670          56.900


 117314326.692 7  91413846.76747  22324150.200                    22324154.080
      3192.814        2487.911          45.450          44.500    87604965.876 8
  22324156.480        2384.197          49.150


 123553594.083 7  96275574.63847  23511453.120                    23511457.760
      2854.663        2224.418          44.300          43.650    92264119.961 7
  23511457.860        2131.842          47.300


 23 12  2 15  5 30.0000000  0 12G06G10G12G13G15G17G19G22G23G24G25G32
 132041019.904 6 102889127.18346  25126569.860                    25126575.660
      2717.225        2117.321          38.150          38.800    98602092.353 7
  25126577.100        2029.236          42.450


 125541089.739 7  97824248.58146  23889671.660                    23889676.320
     -1765.795       -1375.945          44.200          41.800    93748245.868 8
  23889677.980       -1318.524          48.750


 107272058.305 8  83588783.70748  20413126.820                    20413125.900
      1315.553        1025.107          51.400          51.250



 135432593.378 5 105531843.43844  25771999.200                    25772006.700
     -3879.487       -3023.027          35.050          25.800



 124116951.479 7  96714497.89647  23618676.240                    23618678.180
     -3865.855       -3012.358          44.700          44.950



 127577271.743 7  99410928.31547  24277119.160                    24277120.120
     -2751.913       -2144.348          43.200          43.450



 116879188.700 7  91074772.06347  22241335.760                    22241333.780
     -1224.755        -954.354          47.450          45.800



 135974786.434 6 105954452.95746  25875098.500                    25875098.600
     -3272.517       -2550.011          39.750          38.300



 130270963.561 6 101509834.05246  24789751.400                    24789757.440
     -3127.569       -2437.070          41.600          36.300    97280285.065 7
  24789764.000       -2335.554          44.250


 107690268.484 8  83914565.26648  20492749.400                    20492750.660
     -1500.533       -1169.247          51.100          51.350    80418147.307 9
  20492752.840       -1120.503          56.650


 117218663.151 7  91339303.87847  22305945.940                    22305950.140
      3184.626        2481.529          45.250          44.550    87533528.959 8
  22305951.740        2378.144          48.850


 123468103.051 7  96208958.39747  23495184.600                    23495189.360
      2844.427        2216.440          45.550          44.650    92200279.418 7
  23495189.400        2124.061          47.450


 23 12  2 15  6  0.0000000  0 12G06G10G12G13G15G17G19G22G23G24G25G32
 131959596.776 6 102825680.66846  25111075.420                    25111081.720
      2710.504        2112.082          38.500          38.300    98541289.496 6
  25111082.740        2024.085          41.500


 125594285.475 7  97865699.72647  23899794.320                    23899799.180
     -1780.545       -1387.439          43.850          42.350    93787969.862 8
  23899800.760       -1329.773          48.550


 107232835.009 8  83558220.14548  20405662.840                    20405661.740
      1299.243        1012.398          51.200          51.200



 135548961.719 5                  25794144.500
     -3878.023                          30.550



 124232985.043 7  96804913.49647  23640756.720                    23640758.780
     -3869.972       -3015.568          44.750          44.400



 127659985.533 7  99475380.65047  24292859.100                    24292860.220
     -2762.599       -2152.673          43.650          43.350



 116916226.332 7  91103632.56547  22248383.800                    22248381.800
     -1244.560        -969.787          47.350          46.100



 136072934.616 6 106030932.19945  25893775.400                    25893775.320
     -3271.187       -2548.973          40.750          33.500



 130364846.688 6 101582989.65345  24807616.300                    24807622.260
     -3131.331       -2439.997          40.600          34.800    97350392.387 7
  24807629.740       -2338.341          44.700


 107735492.873 8  83949805.04948  20501355.340                    20501356.520
     -1514.623       -1180.225          51.750          51.800    80451918.771 9
  20501358.620       -1131.016          56.250


 117123258.678 7  91264962.87847  22287791.040                    22287795.480
      3175.442        2474.374          46.200          44.250    87462285.532 8
  22287796.400        2371.305          48.850


 123382940.558 7  96142598.15947  23478978.720                    23478983.500
      2833.084        2207.603          45.550          45.100    92136684.223 7
  23478983.500        2115.615          47.500


 23 12  2 15  6 30.0000000  0 11G06G10G12G15G17G19G22G23G24G25G32
 131878376.748 6 102762392.37746  25095619.660                    25095625.980
      2703.848        2106.896          38.100          38.150    98480638.239 7
  25095627.300        2019.062          42.600


 125647928.052 7  97907499.06946  23910002.220                    23910007.160
     -1795.580       -1399.154          44.850          41.400    93828027.550 8
  23910008.600       -1340.970          48.850


 107194099.079 8  83528036.34648  20398291.640                    20398290.260
      1282.918         999.678          51.300          51.300



 124349140.781 7  96895424.31447  23662860.560                    23662862.680
     -3873.886       -3018.617          45.050          45.250



 127743019.773 7  99540082.68847  24308659.940                    24308661.360
     -2773.164       -2160.907          43.250          43.350



 116953859.291 7  91132956.97347  22255545.200                    22255543.020
     -1264.251        -985.129          46.600          46.000



 136171042.683 6 106107380.17345  25912444.560                    25912444.140
     -3269.723       -2547.831          38.800          34.300



 130458836.552 6 101656228.32046  24825501.800                    24825507.780
     -3134.525       -2442.495          40.400          37.400    97420579.496 7
  24825515.620       -2341.050          45.300


 107781135.081 8  83985370.42348  20510040.800                    20510041.920
     -1528.430       -1190.983          51.950          52.050    80486002.256 9
  20510043.880       -1141.435          56.350


 117028122.436 7  91190830.90047  22269687.160                    22269691.720
      3166.703        2467.564          46.150          44.250    87391242.419 8
  22269692.100        2364.646          49.000


 123298117.042 7  96076502.06347  23462837.400                    23462842.160
      2821.653        2198.695          46.200          45.300    92073342.153 7
  23462842.020        2107.118          47.900


 23 12  2 15  7  0.0000000  0 11G06G10G12G15G17G19G22G23G24G25G32
 131797357.041 6 102699260.18646  25080201.980                    25080208.640
      2696.846        2101.441          39.250          39.200    98420136.557 6
  25080210.000        2014.031          41.800


 125702009.185 7  97949640.14046  23920293.660                    23920298.620
     -1810.401       -1410.704          45.100          41.650    93868412.712 8
  23920299.860       -1351.928          48.550


 107155844.833 8  83498227.87948  20391012.140                    20391010.520
      1266.735         987.068          52.000          52.050



 124465410.319 7  96986023.79647  23684986.000                    23684988.180
     -3877.784       -3021.656          45.300          44.850



 127826365.721 7  99605027.60147  24324520.060                    24324521.760
     -2783.736       -2169.144          43.950          44.100



 116992080.607 7  91162739.81147  22262818.380                    22262816.400
     -1284.200       -1000.675          47.150          45.950



 136269104.076 6 106183791.73045  25931104.880                    25931104.920
     -3268.574       -2546.940          39.000          35.250



 130552924.179 6 101729543.20445  24843405.820                    24843411.300
     -3138.229       -2445.379          40.150          33.700    97490839.499 7
  24843420.400       -2343.513          44.950


 107827188.649 8  84021256.33248  20518804.520                    20518805.720
     -1542.421       -1201.887          51.750          51.850    80520392.917 9
  20518807.360       -1151.789          56.200


 116933249.941 7  91116904.44047  22251633.460                    22251638.100
      3157.664        2460.522          46.450          44.100    87320396.256 8
  22251638.160        2357.965          49.100


 123213629.128 7  96010667.48947  23446759.960                    23446764.620
      2810.219        2189.785          47.000          45.100    92010250.705 8
  23446764.460        2098.531          48.000


 23 12  2 15  7 30.0000000  0 11G06G10G12G15G17G19G22G23G24G25G32
 131716540.699 6 102636286.46246  25064823.120                    25064829.920
      2690.188        2096.253          39.300          39.800    98359786.756 6
  25064831.240        2008.959          41.900


 125756526.321 7  97992120.94146  23930667.980                    23930673.240
     -1824.878       -1421.986          45.300          41.950    93909123.466 8
  23930674.000       -1362.682          48.550


 107118072.442 8  83468794.88648  20383824.360                    20383822.560
      1250.642         974.526          51.950          51.800



 124581790.944 7  97076709.86047  23707132.640                    23707134.940
     -3881.515       -3024.562          45.350          45.800



 127910021.366 7  99670213.83047  24340439.220                    24340440.900
     -2794.054       -2177.184          42.650          42.800



 117030888.390 7  91192979.65147  22270203.320                    22270201.400
     -1303.596       -1015.788          46.400          46.000



 136367117.739 6 106260166.16845  25949756.300                    25949756.340
     -3266.965       -2545.686          37.350          35.100



 130647106.164 6 101802931.61146  24861328.300                    24861333.680
     -3141.567       -2447.984          39.700          38.650    97561170.038 7
  24861343.020       -2345.670          44.500


 107873652.858 8  84057462.20748  20527646.320                    20527647.660
     -1556.137       -1212.574          51.150          51.150    80555090.220 9
  20527649.120       -1162.019          56.350


 116838642.473 7  91043184.49347  22233630.280                    22233634.740
      3148.830        2453.640          46.450          44.550    87249748.005 8
  22233634.760        2351.310          49.400


 123129479.259 7  95945096.31947  23430746.840                    23430751.400
      2798.992        2181.038          47.650          44.750    91947411.689 8
  23430751.180        2090.110          48.500


 23 12  2 15  8  0.0000000  0 11G06G10G12G15G17G19G22G23G24G25G32
 131635929.858 6 102573472.88546  25049483.380                    25049490.280
      2683.894        2091.349          39.650          39.150    98299590.419 7
  25049491.820        2004.152          42.550


 125811475.615 7  98034938.48546  23941124.680                    23941130.160
     -1838.656       -1432.724          45.300          41.750    93950156.936 8
  23941130.400       -1373.026          48.100


 107080781.746 8  83439737.24248  20376728.240                    20376726.300
      1235.323         962.591          51.800          51.850



 124698278.637 7  97167479.34447  23729299.600                    23729301.920
     -3884.555       -3026.931          44.400          44.350



 127993983.083 7  99735638.54947  24356416.660                    24356418.140
     -2803.754       -2184.743          42.300          42.600



 117070280.396 7  91223674.71747  22277699.340                    22277697.380
     -1322.601       -1030.598          46.850          46.100



 136465081.188 6 106336501.39545  25968398.100                    25968398.560
     -3264.473       -2543.739          37.850          32.200



 130741378.321 6 101876390.26746  24879267.940                    24879273.660
     -3143.608       -2449.565          40.050          36.050    97631567.910 7
  24879282.640       -2347.618          45.200


 107920525.914 8  84093986.67248  20536565.900                    20536567.260
     -1568.935       -1222.546          51.100          51.100    80590092.845 9
  20536568.780       -1171.671          56.350


 116744300.238 7  90969671.23747  22215677.360                    22215681.880
      3140.689        2447.297          46.150          45.750    87179297.838 8
  22215681.940        2345.149          49.650


 123045668.906 7  95879789.67047  23414798.380                    23414802.740
      2788.235        2172.654          47.350          44.850    91884826.186 8
  23414802.580        2082.064          48.750


 23 12  2 15  8 30.0000000  0 11G06G10G12G15G17G19G22G23G24G25G32
 131555534.907 6 102510827.51046  25034184.880                    25034191.680
      2676.348        2085.467          39.050          38.900    98239555.333 7
  25034193.360        1998.244          43.300


 125866861.950 7  98078096.58847  23951664.440                    23951670.320
     -1853.574       -1444.348          45.300          42.450    93991516.770 7
  23951670.060       -1384.176          47.900


 107043979.855 8  83411060.49148  20369725.180                    20369723.060
      1218.436         949.432          52.000          52.050



 124814878.179 7  97258335.98247  23751487.840                    23751490.120
     -3888.606       -3030.087          45.300          45.550



 128078255.657 7  99801305.49547  24372453.220                    24372454.300
     -2814.437       -2193.066          44.050          43.850



 117110262.248 7  91254829.39747  22285307.640                    22285305.740
     -1342.841       -1046.371          47.000          45.700



 136563000.947 6 106412802.67145  25987031.680                    25987031.940
     -3263.046       -2542.635          37.600          31.750



 130835744.625 6 101949922.31646  24897225.620                    24897230.960
     -3147.258       -2452.414          40.550          37.000    97702036.042 7
  24897239.780       -2350.208          43.850


 107967814.436 8  84130834.87748  20545564.660                    20545565.900
     -1583.357       -1233.784          51.750          51.750    80625405.702 9
  20545567.480       -1182.406          56.400


 116650231.813 7  90896371.33647  22197776.580                    22197781.080
      3130.871        2439.646          46.650          44.750    87109052.125 8
  22197781.300        2337.956          49.850


 122962207.802 7  95814755.18347  23398916.260                    23398920.400
      2776.063        2163.170          47.750          44.300    91822501.497 8
  23398920.440        2072.991          49.150


 23 12  2 15  9  0.0000000  0 11G06G10G12G15G17G19G22G23G24G25G32
 131475350.050 6 102448345.87246  25018926.320                    25018932.840
      2669.219        2079.915          39.050          39.750    98179677.091 7
  25018934.820        1993.217          42.550


 125922673.913 7  98121586.34847  23962285.260                    23962291.360
     -1867.466       -1455.171          45.600          43.650    94033194.447 7
  23962290.760       -1394.669          47.250


 107007658.087 8  83382757.86248  20362813.460                    20362811.080
      1202.548         937.053          52.600          52.550



 124931578.086 7  97349270.84247  23773695.280                    23773697.360
     -3891.823       -3032.593          44.600          44.400



 128162827.793 7  99867205.85347  24388546.740                    24388547.260
     -2824.225       -2200.693          43.400          43.000



 117150823.743 7  91286435.76347  22293026.200                    22293024.380
     -1361.782       -1061.130          46.550          45.450



 136660867.154 6 106489062.21145  26005655.060                    26005654.560
     -3261.306       -2541.277          38.100          30.850



 130930193.123 6 102023518.28646  24915198.900                    24915204.240
     -3149.737       -2454.351          40.600          36.600    97772565.539 7
  24915212.180       -2352.073          43.250


 108015508.778 8  84167999.31048  20554640.680                    20554641.860
     -1596.734       -1244.208          51.700          51.800    80661021.613 9
  20554643.340       -1192.356          56.000


 116556429.582 7  90823278.86547  22179926.460                    22179930.880
      3122.158        2432.856          46.300          44.500    87039005.205 8
  22179931.280        2331.490          49.650


 122879089.560 7  95749987.85347  23383099.300                    23383103.280
      2764.723        2154.333          47.300          44.500    91760432.839 8
  23383103.540        2064.554          48.950


 23 12  2 15  9 30.0000000  0 11G06G10G12G15G17G19G22G23G24G25G32
 131395383.411 6 102386034.27346  25003709.260                    25003715.720
      2661.599        2073.978          39.250          39.250    98119961.818 7
  25003717.560        1987.616          42.850


 125978913.970 7  98165409.68547  23972987.640                    23972993.760
     -1881.918       -1466.432          46.150          43.850    94075191.802 7
  23972992.840       -1405.261          47.050


 106971821.588 8  83354833.36748  20355994.060                    20355991.380
      1186.360         924.438          52.950          52.850



 125048380.703 7  97440285.72547  23795922.260                    23795924.300
     -3895.172       -3035.203          44.350          44.400



 128247701.879 7  99933341.50447  24404697.780                    24404697.740
     -2834.556       -2208.745          42.350          42.800



 117191968.070 7  91318496.25747  22300855.580                    22300854.000
     -1381.413       -1076.425          46.100          45.850



 136758683.648 6 106565283.05545  26024268.860                    26024268.960
     -3259.880       -2540.155          38.500          33.400



 131024725.441 6 102097179.65946  24933188.000                    24933192.840
     -3152.577       -2456.562          40.600          36.900    97843157.634 7
  24933200.640       -2354.177          43.250


 108063613.217 8  84205483.29548  20563794.620                    20563795.880
     -1610.419       -1254.872          51.650          51.650    80696943.765 9
  20563797.180       -1202.590          56.100


 116462899.783 7  90750398.67247  22162128.280                    22162132.580
      3112.796        2425.562          47.000          44.800    86969161.724 8
  22162133.100        2324.684          49.800


 122796321.611 7  95685493.50147  23367349.020                    23367352.740
      2752.981        2145.186          47.400          43.850    91698625.787 8
  23367353.340        2055.839          49.200


 23 12  2 15 10  0.0000000  0 11G06G10G12G15G17G19G22G23G24G25G32
 131315636.592 6 102323894.01046  24988534.100                    24988540.220
      2654.446        2068.404          39.050          38.900    98060410.748 7
  24988542.000        1982.258          44.200


 126035577.722 7  98209563.17447  23983770.660                    23983776.660
     -1895.980       -1477.389          46.200          43.200    94117505.552 7
  23983775.900       -1415.804          47.250


 106936469.370 8  83327286.23348  20349266.740                    20349263.880
      1170.249         911.883          52.350          52.250



 125165281.881 7  97531377.42147  23818167.940                    23818169.880
     -3898.403       -3037.721          44.500          43.750



 128332873.920 7  99999709.31247  24420905.420                    24420904.900
     -2844.257       -2216.305          43.300          43.600



 117233692.329 7  91351008.64447  22308795.400                    22308793.920
     -1400.484       -1091.287          46.000          45.600



 136856448.283 5 106641463.53245  26042872.760                    26042872.800
     -3258.034       -2538.703          33.700          32.000



 131119337.018 6 102170902.76945  24951192.160                    24951196.880
     -3155.267       -2458.658          40.250          34.700    97913808.862 7
  24951204.380       -2356.028          43.000


 108112125.587 8  84243285.15248  20573026.160                    20573027.440
     -1624.068       -1265.508          50.850          51.000    80733170.534 9
  20573028.740       -1212.722          56.100


 116369642.276 7  90677730.65047  22144381.820                    22144386.000
      3103.846        2418.587          46.750          44.550    86899521.572 8
  22144386.600        2317.924          49.900


 122713905.061 7  95621272.94047  23351665.540                    23351669.020
      2741.175        2135.985          47.100          43.750    91637081.119 8
  23351669.900        2047.039          49.250


 23 12  2 15 10 30.0000000  0 10G06G10G12G15G17G19G23G24G25G32
 131236109.140 6 102261924.76146  24973400.420                    24973406.380
      2646.993        2062.599          39.850          39.600    98001023.571 7
  24973407.940        1976.680          44.950


 126092658.984 7  98254041.97746  23994632.980                    23994638.960
     -1909.715       -1488.094          46.350          41.850    94160131.066 7
  23994638.240       -1426.102          47.150


 106901597.680 8  83300113.53248  20342630.820                    20342627.920
      1154.148         899.338          52.550          52.450



 125282275.408 7  97622541.07147  23840431.180                    23840433.120
     -3901.467       -3040.108          44.400          44.250



 128418337.960 7 100066304.64347  24437168.680                    24437167.780
     -2853.692       -2223.658          43.700          43.950



 117275991.652 7  91383969.14547  22316844.740                    22316843.300
     -1419.687       -1106.249          46.150          45.750



 131214020.967 6 102244682.23246  24969209.940                    24969215.100
     -3157.598       -2460.473          39.250          37.150    97984514.144 6
  24969221.760       -2357.789          41.550


 108161041.488 8  84281401.45148  20582334.500                    20582335.740
     -1637.434       -1275.922          51.350          51.350    80769698.660 9
  20582337.160       -1222.705          56.150


 116276654.694 7  90605272.96247  22126686.780                    22126690.860
      3094.831        2411.563          47.150          44.600    86830082.983 8
  22126691.360        2311.147          49.650


 122631838.651 7  95557325.23547  23336048.700                    23336052.000
      2729.534        2126.915          47.350          43.250    91575797.946 8
  23336052.960        2038.339          48.950


 23 12  2 15 11  0.0000000  0 10G06G10G12G15G17G19G23G24G25G32
 131156809.575 6 102200133.13546  24958310.000                    24958315.820
      2639.379        2056.669          38.700          39.050    97941806.634 7
  24958317.220        1971.224          45.000


 126150160.746 7  98298848.44646  24005575.320                    24005581.300
     -1923.476       -1498.817          45.300          41.650    94203070.580 7
  24005580.780       -1436.423          47.100


 106867212.693 8  83273320.08148  20336087.440                    20336084.780
      1138.292         886.982          52.100          52.150



 125399364.225 7  97713778.97147  23862712.500                    23862714.360
     -3904.217       -3042.253          44.400          43.550



 128504097.317 7 100133130.10247  24453488.220                    24453487.180
     -2863.411       -2231.230          42.800          42.650



 117318869.867 7  91417380.73947  22325004.180                    22325003.020
     -1438.693       -1121.060          47.150          44.650



 131308779.601 6 102318519.87945  24987241.880                    24987247.420
     -3160.051       -2462.387          38.700          35.800    98055275.114 7
  24987253.980       -2359.458          42.050


 108210365.666 8  84319835.88748  20591720.540                    20591721.660
     -1650.869       -1286.392          51.600          51.700    80806531.662 9
  20591723.360       -1232.736          56.000


 116183943.785 7  90533030.85547  22109044.400                    22109048.260
      3085.898        2404.602          47.150          44.350    86760850.999 8
  22109048.720        2304.432          49.600


 122550130.407 7  95493656.59447  23320499.960                    23320503.160
      2717.811        2117.778          46.700          43.700    91514782.210 8
  23320504.140        2029.538          48.650


 23 12  2 15 11 30.0000000  0 10G06G10G12G15G17G19G23G24G25G32
 131077740.509 6 102138521.14446  24943263.520                    24943269.140
      2631.774        2050.740          39.950          40.150    97882761.870 7
  24943270.240        1965.393          45.950


 126208079.692 7  98343980.00946  24016596.840                    24016602.820
     -1937.314       -1509.601          44.550          41.750    94246321.635 7
  24016602.700       -1446.789          47.650


 106833314.038 8  83246905.59648  20329636.540                    20329634.320
      1122.103         874.367          52.150          52.150



 125516545.024 7  97805088.56347  23885011.460                    23885013.100
     -3907.361       -3044.701          45.100          45.000



 128590148.932 7 100200183.30147  24469863.400                    24469862.400
     -2873.153       -2238.821          42.200          42.700



 117362324.853 7  91451241.76147  22333273.400                    22333272.240
     -1457.914       -1136.037          47.150          44.200



 131403609.252 6 102392412.82346  25005287.560                    25005293.480
     -3162.034       -2463.932          38.350          36.900    98126089.207 6
  25005299.500       -2361.257          40.700


 108260096.926 8  84358587.51848  20601184.040                    20601185.060
     -1664.318       -1296.872          51.900          51.950    80843668.645 9
  20601186.960       -1242.825          56.100


 116091510.346 7  90461004.95447  22091454.680                    22091458.460
      3076.604        2397.358          46.750          44.050    86691826.205 8
  22091458.840        2297.525          49.600


 122468782.318 7  95430268.61047  23305019.780                    23305022.980
      2705.560        2108.232          47.600          42.550    91454035.423 8
  23305023.780        2020.457          48.700


 23 12  2 15 12  0.0000000  0 10G06G10G12G15G17G19G23G24G25G32
 130998903.831 6 102077090.26846  24928261.240                    24928266.800
      2623.705        2044.454          40.750          40.250    97823890.658 7
  24928267.460        1959.349          45.700


 126266412.289 7  98389433.88846  24027696.960                    24027703.080
     -1951.437       -1520.603          44.100          41.850    94289881.561 7
  24027703.400       -1457.295          47.600


 106799900.628 8  83220869.22848  20323277.960                    20323276.120
      1105.450         861.391          51.650          51.650



 125633813.789 7  97896466.70147  23907327.020                    23907328.620
     -3910.409       -3047.075          45.400          45.000



 128676489.002 7 100267461.28147  24486293.420                    24486292.600
     -2882.837       -2246.368          42.400          42.000



 117406353.813 7  91485550.05647  22341651.840                    22341650.680
     -1477.408       -1151.227          47.150          44.300



 131498505.657 6 102466357.84846  25023346.180                    25023351.780
     -3164.431       -2465.794          40.150          38.750    98196953.078 7
  25023358.040       -2363.142          43.250


 108310233.346 8  84397654.85648  20610724.740                    20610725.680
     -1678.079       -1307.594          51.800          51.850    80881108.184 9
  20610727.660       -1253.163          56.150


 115999354.500 7  90389195.34947  22073917.740                    22073921.360
      3067.088        2389.943          46.350          44.300    86623008.710 8
  22073922.000        2290.308          49.800


 122387795.690 7  95367162.27847  23289608.400                    23289611.660
      2693.324        2098.698          47.300          42.850    91393558.549 8
  23289612.220        2011.299          48.650


 23 12  2 15 12 30.0000000  0 10G06G10G12G15G17G19G23G24G25G32
 130920303.579 6 102015843.57946  24913303.960                    24913309.400
      2616.213        2038.617          39.800          40.000    97765195.995 7
  24913309.680        1953.554          46.000


 126325156.496 7  98435208.46846  24038875.400                    24038881.700
     -1964.930       -1531.116          43.900          41.500    94333748.830 7
  24038882.200       -1467.309          47.300


 106766973.837 8  83195212.03948  20317012.040                    20317010.420
      1089.545         848.998          51.700          51.850



 125751169.430 7  97987912.54647  23929659.100                    23929660.560
     -3913.162       -3049.221          45.450          45.350



 128763116.265 7 100334963.03247  24502778.100                    24502777.520
     -2892.317       -2253.753          43.350          43.500



 117450956.387 7  91520305.30647  22350139.360                    22350138.260
     -1496.198       -1165.868          46.650          44.200



 131593466.584 6 102540353.08746  25041416.840                    25041422.660
     -3166.256       -2467.225          38.250          37.050    98267865.134 7
  25041429.020       -2364.437          42.650


 108360775.152 8  84437038.09548  20620342.600                    20620343.500
     -1691.461       -1318.021          51.850          51.850    80918850.465 9
  20620345.440       -1263.061          56.000


 115907478.463 7  90317603.79047  22056434.060                    22056437.580
      3057.715        2382.641          46.350          44.350    86554400.152 8
  22056438.440        2283.452          49.800


 122307173.979 7  95304340.29247  23274266.380                    23274269.680
      2681.343        2089.362          47.850          44.000    91333354.181 8
  23274270.060        2002.241          48.600


 23 12  2 15 13  0.0000000  0 10G06G10G12G15G17G19G23G24G25G32
 130841942.204 6 101954783.02646  24898391.960                    24898397.460
      2607.932        2032.164          40.650          41.150    97706679.669 7
  24898397.200        1947.290          45.750


 126384309.535 7  98481301.65946  24050131.620                    24050138.260
     -1979.075       -1542.139          42.800          41.850    94377921.430 7
  24050138.880       -1477.700          47.250


 106734532.816 8  83169933.36948  20310838.680                    20310837.080
      1073.000         836.106          52.000          52.100



 125868608.235 7  98079423.18347  23952007.060                    23952008.600
     -3916.349       -3051.704          44.800          45.000



 128850027.486 7 100402686.05147  24519316.640                    24519316.540
     -2902.137       -2261.407          42.600          42.350



 117496129.875 7  91555505.44547  22358735.580                    22358734.140
     -1515.648       -1181.024          46.950          42.900



 131688488.248 6 102614395.64546  25059499.200                    25059504.840
     -3168.630       -2469.074          40.200          36.800    98338822.568 6
  25059511.120       -2366.234          41.500


 108411720.948 8  84476736.12948  20630037.300                    20630038.340
     -1705.200       -1328.727          51.850          51.850    80956894.417 9
  20630040.040       -1273.336          56.050


 115815882.866 7  90246230.73747  22039003.800                    22039007.080
      3048.330        2375.327          46.150          44.650    86486001.015 8
  22039008.460        2276.289          49.900


 122226919.022 7  95241804.08747  23258994.220                    23258997.600
      2668.685        2079.499          47.700          44.000    91273423.671 8
  23258997.860        1992.896          48.700


 23 12  2 15 13 30.0000000  0 10G06G10G12G15G17G19G23G24G25G32
 130763822.121 6 101893910.46646  24883525.900                    24883531.480
      2599.624        2025.690          40.150          40.500    97648343.501 7
  24883530.860        1941.309          45.850


 126443867.493 7  98527710.36346  24061465.060                    24061471.840
     -1992.291       -1552.437          42.450          41.800    94422396.411 7
  24061472.440       -1487.646          47.400


 106702577.135 8  83145032.87948  20304757.760                    20304756.120
      1056.916         823.572          52.600          52.600



 125986127.082 7  98170996.18947  23974370.220                    23974371.900
     -3918.788       -3053.604          45.250          45.850



 128937219.586 7 100470627.96847  24535908.700                    24535908.760
     -2911.503       -2268.701          42.900          43.150



 117541872.158 7  91591148.81147  22367440.000                    22367438.140
     -1534.463       -1195.687          46.950          42.950



 131783566.811 6 102688482.53946  25077592.200                    25077597.940
     -3170.449       -2470.493          39.350          38.200    98409822.472 7
  25077604.300       -2367.626          42.100


 108463069.279 8  84516747.82448  20639808.600                    20639809.720
     -1718.558       -1339.136          51.800          51.900    80995238.966 9
  20639811.240       -1283.315          56.400


 115724568.325 7  90175076.67347  22021627.080                    22021630.320
      3038.817        2367.912          46.650          44.050    86417811.732 8
  22021631.920        2269.273          50.400


 122147032.622 8  95179555.05447  23243792.300                    23243795.700
      2656.460        2069.974          48.000          44.400    91213768.372 8
  23243795.820        1983.755          49.200


 23 12  2 15 14  0.0000000  0 10G06G10G12G15G17G19G23G24G25G32
 130685949.765 6 101833230.89146  24868707.040                    24868712.480
      2592.076        2019.804          41.050          40.800    97590192.306 7
  24868711.760        1935.563          45.600


 126503831.128 6  98574435.16446  24072875.520                    24072882.560
     -2005.321       -1562.594          41.600          41.900    94467174.335 7
  24072883.200       -1497.456          47.050


 106671110.534 8  83120513.50148  20298769.960                    20298768.240
      1041.047         811.206          52.600          52.650



 126103726.948 7  98262632.33847  23996748.800                    23996750.380
     -3920.755       -3055.140          44.650          44.350



 129024693.470 7 100538789.45047  24552554.280                    24552554.500
     -2920.173       -2275.460          42.850          43.000



 117588185.030 7  91627236.79647  22376252.980                    22376250.980
     -1552.913       -1210.062          46.700          43.300



 131878702.450 6 102762614.01245  25095696.280                    25095701.080
     -3171.892       -2471.609          38.750          35.050    98480865.064 7
  25095708.000       -2368.662          42.400


 108514822.752 8  84557075.21048  20649656.940                    20649658.120
     -1731.560       -1349.267          52.000          51.950    81033886.044 9
  20649659.600       -1293.016          56.300


 115633539.399 7  90104145.18747  22004304.720                    22004307.980
      3029.685        2360.799          46.500          45.050    86349835.752 8
  22004309.760        2262.537          50.300


 122067520.603 8  95117597.76047  23228661.600                    23228665.100
      2644.341        2060.529          48.450          44.800    91154392.649 8
  23228665.140        1974.782          49.250


 23 12  2 15 14 30.0000000  0 10G06G10G12G15G17G19G23G24G25G32
 130608321.533 6 101772741.52246  24853934.760                    24853940.080
      2583.150        2012.852          41.500          41.350    97532223.368 7
  24853939.180        1928.975          44.600


 126564191.123 6  98621468.82146  24084361.680                    24084368.660
     -2018.631       -1572.967          41.150          40.650    94512248.256 7
  24084369.420       -1507.588          46.750


 106640126.296 8  83096369.98848  20292873.880                    20292872.180
      1024.299         798.156          52.100          52.100



 126221398.291 7  98354324.19547  24019140.880                    24019142.540
     -3923.821       -3057.527          43.950          44.350



 129112439.740 7 100607163.20647  24569251.720                    24569251.900
     -2929.811       -2282.968          42.350          42.100



 117635059.838 7  91663762.64247  22385172.980                    22385170.980
     -1572.179       -1225.073          46.150          44.200



 131973885.446 6 102836782.28445  25113808.960                    25113813.440
     -3173.839       -2473.131          37.800          35.900    98551942.928 7
  25113821.160       -2370.090          43.300


 108566973.842 8  84597712.42948  20659580.920                    20659582.100
     -1745.428       -1360.074          51.450          51.400    81072830.042 9
  20659583.580       -1303.340          56.300


 115542790.668 7  90033432.03247  21987035.760                    21987039.080
      3019.878        2353.155          46.750          44.850    86282068.998 8
  21987040.760        2255.198          50.350


 121988378.679 7  95055928.84547  23213601.240                    23213604.900
      2631.475        2050.504          47.700          45.300    91095293.297 8
  23213604.900        1965.036          49.600


 23 12  2 15 15  0.0000000  0 10G06G10G12G15G17G19G23G24G25G32
 130530945.198 7 101712448.38747  24839210.460                    24839215.420
      2574.698        2006.263          42.950          43.300    97474442.462 7
  24839214.620        1922.813          44.250


 126624949.493 6  98668812.90846  24095923.760                    24095930.700
     -2031.802       -1583.226          41.900          41.550    94557619.639 7
  24095931.480       -1517.432          46.700


 106609629.257 8  83072606.11148  20287070.380                    20287068.760
      1008.149         785.572          51.950          51.800



 126339143.010 7  98446073.20047  24041546.880                    24041548.940
     -3926.140       -3059.334          43.150          43.100



 129200461.166 7 100675751.37947  24586001.400                    24586001.640
     -2938.681       -2289.878          42.250          42.350



 117682499.506 7  91700728.63447  22394200.520                    22394198.560
     -1590.938       -1239.691          47.500          43.150



 132069117.225 6 102910988.58545  25131931.140                    25131936.120
     -3175.257       -2474.237          36.600          34.150    98623057.237 7
  25131943.920       -2371.128          43.200


 108619526.491 8  84638662.55948  20669581.340                    20669582.540
     -1758.806       -1370.498          51.500          51.450    81112073.914 9
  20669583.860       -1313.321          56.200


 115452328.054 7  89962941.82847  21969821.320                    21969824.620
      3010.535        2345.876          47.200          44.050    86214515.907 8
  21969826.180        2248.182          50.100


 121909614.034 7  94994553.90047  23198612.620                    23198616.520
      2618.941        2040.736          47.650          44.600    91036475.667 8
  23198616.520        1955.771          49.850


 23 12  2 15 15 30.0000000  0 10G06G10G12G15G17G19G23G24G25G32
 130453821.577 7 101652352.16247  24824534.160                    24824539.080
      2566.244        1999.675          43.250          43.150    97416850.273 7
  24824538.440        1916.319          43.800


 126686101.435 7  98716463.65646  24107560.920                    24107567.500
     -2045.197       -1593.663          42.250          41.950    94603284.934 7
  24107568.260       -1527.278          46.850


 106579617.261 8  83049220.18948  20281359.160                    20281357.540
       992.079         773.051          52.100          52.200



 126456956.564 7  98537875.82047  24063966.000                    24063968.340
     -3928.415       -3061.107          44.100          43.550



 129288752.893 7 100744550.18947  24602802.680                    24602802.840
     -2947.870       -2297.039          42.850          42.550



 117730500.313 8  91738131.88247  22403334.940                    22403333.020
     -1609.563       -1254.206          48.250          43.700



 132164392.455 6 102985228.74746  25150061.660                    25150067.480
     -3176.691       -2475.352          39.850          37.600    98694203.995 7
  25150074.780       -2372.350          42.550


 108672477.581 8  84679923.16148  20679657.560                    20679659.000
     -1771.990       -1380.771          51.450          51.300    81151615.333 9
  20679660.080       -1323.214          56.350


 115362150.589 7  89892673.79047  21952661.100                    21952664.280
      3000.929        2338.390          47.100          45.200    86147175.730 8
  21952665.660        2240.989          50.300


 121831226.859 7  94933473.10547  23183695.860                    23183699.960
      2606.443        2030.999          47.750          45.300    90977939.923 8
  23183699.960        1946.321          50.200


 23 12  2 15 16  0.0000000  0 10G06G10G12G15G17G19G23G24G25G32
 130376957.613 7 101592458.21547  24809907.500                    24809912.140
      2557.937        1993.199          43.050          43.350    97359451.931 7
  24809911.700        1910.198          44.300


 126747647.333 7  98764421.39446  24119273.120                    24119279.340
     -2057.980       -1603.625          42.700          41.950    94649244.412 7
  24119280.260       -1536.777          46.950


 106550094.154 8  83026215.21948  20275741.040                    20275739.420
       976.164         760.648          52.150          52.100



 126574840.003 7  98629732.92447  24086398.480                    24086400.840
     -3930.438       -3062.683          43.350          43.400



 129377315.932 6 100813560.41546  24619655.600                    24619655.660
     -2956.373       -2303.664          41.350          41.150



 117779064.495 8  91775974.13447  22412576.620                    22412574.640
     -1628.001       -1268.570          48.050          43.850



 132259711.896 6 103059503.35646  25168200.640                    25168206.680
     -3178.050       -2476.415          37.000          36.600    98765383.777 7
  25168213.920       -2373.009          43.650


 108725830.235 8  84721496.67048  20689810.160                    20689811.780
     -1785.033       -1390.934          51.050          50.850    81191456.610 9
  20689812.800       -1332.867          56.100


 115272263.307 7  89822631.89147  21935556.140                    21935559.260
      2991.233        2330.836          47.500          44.400    86080052.251 8
  21935560.420        2233.938          49.850


 121753223.482 7  94872691.35947  23168852.200                    23168856.420
      2593.957        2021.269          47.300          44.050    90919690.768 8
  23168856.380        1937.008          50.000


 23 12  2 15 16 30.0000000  0 10G06G10G12G15G17G19G23G24G25G32
 130300351.645 7 101532765.28647  24795329.900                    24795334.340
      2549.449        1986.583          42.850          42.800    97302246.231 7
  24795334.420        1903.781          44.200


 126809580.243 7  98812680.71146  24131059.020                    24131065.000
     -2070.643       -1613.489          43.900          41.600    94695492.898 7
  24131065.660       -1546.197          47.200


 106521055.739 8  83003587.93248  20270215.200                    20270213.640
       960.116         748.144          52.400          52.400



 126692786.084 7  98721638.83147  24108842.960                    24108845.620
     -3932.366       -3064.186          43.500          43.450



 129466142.963 6 100882776.36346  24636558.780                    24636558.860
     -2964.907       -2310.312          40.050          39.850



 117828185.340 8  91814250.13147  22421924.240                    22421922.100
     -1646.380       -1282.892          48.550          43.500



 132355067.650 6 103133806.27446  25186346.360                    25186352.540
     -3178.913       -2477.083          38.600          36.200    98836590.707 7
  25186360.060       -2373.719          43.650


 108779578.875 8  84763378.73948  20700038.140                    20700039.820
     -1797.934       -1400.987          51.650          51.600    81231593.611 9
  20700040.860       -1342.623          55.850


 115182662.680 7  89752813.32947  21918505.700                    21918508.580
      2982.063        2323.689          47.350          44.400    86013142.839 8
  21918509.760        2226.934          50.000


 121675601.603 7  94812206.89147  23154081.160                    23154085.400
      2581.117        2011.265          47.400          44.200    90861726.497 8
  23154085.360        1927.568          49.850


 23 12  2 15 17  0.0000000  0 10G06G10G12G15G17G19G23G24G25G32
 130224011.735 6 101473279.67646  24780803.000                    24780807.500
      2540.362        1979.505          41.950          41.900    97245239.218 7
  24780807.640        1896.938          44.000


 126871902.229 7  98861243.21746  24142918.860                    24142924.540
     -2083.852       -1623.782          44.100          40.950    94742031.941 7
  24142925.160       -1556.088          47.650


 106492506.524 8  82981341.83648  20264782.480                    20264780.980
       943.596         735.271          52.300          52.400



 126810797.380 7  98813595.53647  24131299.940                    24131302.520
     -3934.607       -3065.933          42.450          42.750



 129555237.032 6 100952200.38847  24653512.720                    24653512.800
     -2974.029       -2317.424          41.950          42.500



 117877865.962 8  91852962.34347  22431378.260                    22431376.040
     -1665.227       -1297.577          48.450          43.950



 132450461.728 6 103208139.09546  25204499.480                    25204506.140
     -3180.808       -2478.564          38.050          36.900    98907826.225 7
  25204513.920       -2374.907          45.450


 108833727.674 8  84805572.61948  20710342.360                    20710343.880
     -1811.631       -1411.659          51.850          51.800    81272029.415 9
  20710345.060       -1352.857          56.000


 115093355.007 7  89683223.05847  21901510.920                    21901513.720
      2972.058        2315.894          47.100          45.000    85946452.182 8
  21901514.800        2219.400          50.300


 121598368.633 7  94752025.45647  23139384.220                    23139388.260
      2567.994        2001.038          47.500          44.250    90804052.655 8
  23139388.320        1917.677          50.050


 23 12  2 15 17 30.0000000  0 10G06G10G12G15G17G19G23G24G25G32
 130147937.891 6 101414001.36546  24766326.700                    24766331.160
      2531.354        1972.483          40.800          40.550    97188430.858 7
  24766331.340        1890.300          43.400


 126934607.461 7  98910104.37247  24154851.480                    24154857.160
     -2096.340       -1633.512          43.700          42.050    94788857.181 7
  24154857.740       -1565.487          47.400


 106464444.196 8  82959475.12848  20259442.380                    20259440.920
       927.425         722.670          52.150          52.250



 126928867.993 7  98905598.44947  24153768.100                    24153770.600
     -3936.525       -3067.428          42.450          42.700



 129644592.648 6 101021828.21946  24670516.380                    24670516.520
     -2982.769       -2324.232          41.550          40.850



 117928101.484 8  91892106.92247  22440937.780                    22440935.640
     -1683.615       -1311.907          48.250          44.100



 132545887.785 6 103282496.87146  25222658.560                    25222665.440
     -3180.896       -2478.623          38.900          38.000    98979085.698 7
  25222673.680       -2375.639          44.950


 108888272.707 8  84848075.25848  20720721.960                    20720723.180
     -1824.662       -1421.814          51.650          51.550    81312761.116 9
  20720724.560       -1362.598          55.700


 115004338.372 7  89613859.55047  21884571.500                    21884574.220
      2962.491        2308.438          47.550          44.350    85879978.862 8
  21884575.480        2212.223          50.350


 121521523.916 7  94692146.54547  23124761.180                    23124764.900
      2555.165        1991.041          47.350          44.550    90746668.733 8
  23124765.100        1908.020          49.600


 23 12  2 15 18  0.0000000  0 10G06G10G12G15G17G19G23G24G25G32
 130072135.566 6 101354934.64446  24751901.980                    24751906.580
      2522.856        1965.861          41.550          41.700    97131825.227 7
  24751906.560        1883.884          43.350


 126997695.704 7  98959263.95847  24166856.900                    24166862.680
     -2108.690       -1643.138          44.400          42.000    94835968.445 7
  24166863.020       -1574.742          47.550


 106436870.055 8  82937988.83548  20254195.140                    20254193.720
       911.500         710.262          52.000          52.000



 127046997.767 6  98997647.48446  24176247.620                    24176249.980
     -3937.918       -3068.516          41.900          41.800



 129734209.540 6 101091659.64246  24687569.800                    24687569.960
     -2990.970       -2330.621          40.900          40.900



 117978892.763 8  91931684.56147  22450603.120                    22450600.840
     -1701.740       -1326.030          48.350          44.050



 132641345.258 5 103356879.13545  25240823.480                    25240831.240
     -3182.342       -2479.743          35.050          35.450    99050368.663 7
  25240838.980       -2376.067          44.050


 108943215.545 8  84890887.86448  20731177.220                    20731178.160
     -1837.515       -1431.829          51.000          50.800    81353789.863 9
  20731179.760       -1372.200          56.000


 114915616.389 7  89544725.64647  21867688.160                    21867691.000
      2953.148        2301.158          47.150          45.000    85813725.578 8
  21867692.100        2205.120          50.850


 121445072.322 7  94632573.95547  23110212.980                    23110216.320
      2542.388        1981.083          47.700          44.400    90689578.354 8
  23110216.720        1898.477          49.650


 23 12  2 15 18 30.0000000  0 10G06G10G12G15G17G19G23G24G25G32
 129996600.889 6 101296076.47546  24737528.140                    24737532.820
      2513.430        1958.519          40.150          40.150    97075419.477 7
  24737532.520        1876.857          43.900


 127061156.905 7  99008714.15846  24178933.160                    24178939.220
     -2121.293       -1652.958          44.750          41.600    94883358.209 7
  24178939.220       -1584.276          47.350


 106409777.909 8  82916878.11948  20249039.620                    20249038.160
       895.204         697.563          51.950          52.000



 127165177.114 7  99089735.13147  24198736.620                    24198739.040
     -3939.914       -3070.069          42.600          42.850



 129824078.067 6 101161687.14946  24704671.100                    24704671.340
     -2999.831       -2337.527          40.850          40.900



 118030230.705 8  91971688.15647  22460372.400                    22460369.900
     -1720.214       -1340.427          48.650          44.100



 132736824.126 6 103431278.01046  25258992.420                    25259000.660
     -3182.677       -2480.015          38.600          36.900    99121667.594 7
  25259007.960       -2376.893          43.300


 108998548.380 8  84934004.37348  20741706.680                    20741707.440
     -1850.854       -1442.223          51.350          51.100    81395109.847 9
  20741709.220       -1382.133          56.000


 114827183.367 8  89475816.90647  21850859.820                    21850862.660
      2943.114        2293.340          48.100          43.750    85747688.059 8
  21850863.940        2197.705          51.100


 121369009.281 8  94573304.14147  23095738.660                    23095741.660
      2529.095        1970.726          48.000          43.000    90632778.138 8
  23095742.260        1888.479          49.250


 23 12  2 15 19  0.0000000  0 10G06G10G12G15G17G19G23G24G25G32
 129921351.146 6 101237440.34046  24723208.440                    24723213.300
      2504.161        1951.295          40.850          41.200    97019226.509 7
  24723213.220        1869.826          44.950


 127125002.483 7  99058463.87147  24191082.560                    24191088.800
     -2134.323       -1663.110          43.950          42.000    94931034.985 7
  24191088.660       -1593.610          47.350


 106383182.062 8  82896154.12348  20243978.500                    20243977.020
       878.700         684.703          51.900          51.950



 127283418.100 7  99181870.79247  24221237.420                    24221239.740
     -3941.940       -3071.647          42.800          43.150



 129914209.929 6 101231919.84246  24721822.500                    24721822.840
     -3008.259       -2344.098          41.000          40.200



 118082127.388 8  92012127.13847  22470248.020                    22470245.320
     -1738.754       -1354.872          48.450          44.050



 132832335.386 6 103505702.31746  25277167.980                    25277175.740
     -3183.839       -2480.915          41.350          38.250    99192990.875 7
  25277182.820       -2377.440          44.050


 109054284.650 8  84977435.25148  20752312.940                    20752313.680
     -1864.077       -1452.527          51.450          51.400    81436731.103 9
  20752315.480       -1392.066          56.350


 114739054.685 8  89407145.30947  21834089.440                    21834092.140
      2933.063        2285.507          48.250          44.600    85681877.814 8
  21834093.560        2190.248          51.650


 121293351.471 8  94514350.08347  23081341.360                    23081344.140
      2515.596        1960.207          48.150          43.600    90576280.512 8
  23081344.900        1878.590          49.300


 23 12  2 15 19 30.0000000  0 10G06G10G12G15G17G19G23G24G25G32
 129846370.371 6 101179013.78146  24708939.940                    24708944.940
      2494.831        1944.022          40.050          39.750    96963234.398 7
  24708944.940        1862.894          45.600


 127189210.616 7  99108496.08346  24203300.980                    24203307.240
     -2146.333       -1672.471          44.300          41.250    94978982.521 7
  24203307.020       -1602.852          46.700


 106357063.130 8  82875801.75048  20239008.160                    20239006.580
       862.543         672.112          52.150          52.000



 127401698.651 7  99274037.27347  24243745.700                    24243748.040
     -3943.333       -3072.734          42.950          42.950



 130004583.771 6 101302341.09846  24739019.920                    24739020.220
     -3016.379       -2350.424          41.400          40.250



 118134562.384 8  92052985.57247  22480226.020                    22480223.220
     -1756.938       -1369.042          48.350          44.050



 132927857.085 6 103580134.84346  25295345.260                    25295352.460
     -3184.062       -2481.088          38.000          36.600    99264321.969 7
  25295360.140       -2377.889          45.600


 109110404.409 8  85021164.95048  20762992.180                    20762992.900
     -1877.190       -1462.745          51.050          51.100    81478638.729 9
  20762994.740       -1401.807          56.150


 114651212.566 8  89338697.02547  21817373.540                    21817376.240
      2923.202        2277.823          48.450          44.550    85616281.565 8
  21817377.840        2182.823          51.250


 121218082.290 8  94455698.85747  23067018.040                    23067020.680
      2502.418        1949.938          48.600          43.350    90520073.110 8
  23067021.340        1868.505          48.900


 23 12  2 15 20  0.0000000  0 10G06G10G12G15G17G19G23G24G25G32
 129771677.226 6 101120811.35246  24694726.160                    24694731.300
      2485.013        1936.374          40.700          40.500    96907457.074 7
  24694731.520        1855.745          46.050


 127253794.385 7  99158821.00146  24215590.800                    24215597.200
     -2158.763       -1682.156          44.050          41.700    95027210.556 7
  24215597.040       -1612.163          46.900


 106331436.915 8  82855833.30548  20234131.680                    20234129.900
       846.135         659.327          52.300          52.200



 127520032.057 7  99366244.97547  24266263.960                    24266266.120
     -3945.060       -3074.079          42.800          42.800



 130095213.120 6 101372961.46246  24756266.100                    24756266.280
     -3024.970       -2357.114          40.600          41.250



 118187549.784 8  92094274.44547  22490309.160                    22490306.380
     -1775.327       -1383.373          48.400          43.950



 133023401.941 5 103654585.25345  25313526.640                    25313533.760
     -3185.212       -2481.989          35.900          32.550    99335670.236 7
  25313542.020       -2378.412          45.900


 109166922.491 8  85065205.02248  20773747.220                    20773747.880
     -1890.477       -1473.099          50.950          50.850    81520843.801 9
  20773749.900       -1411.702          56.600


 114563673.810 8  89270485.10747  21800715.360                    21800717.840
      2913.197        2270.027          48.250          44.850    85550911.836 8
  21800719.740        2175.386          51.500


 121143219.774 8  94397364.50947  23052772.100                    23052774.720
      2488.767        1939.302          48.750          43.800    90464169.364 8
  23052775.180        1858.489          48.950


 23 12  2 15 20 30.0000000  0 10G06G10G12G15G17G19G23G24G25G32
 129697268.220 6 101062830.30746  24680566.560                    24680571.700
      2475.386        1928.871          40.200          40.150    96851891.902 7
  24680572.020        1848.628          45.200


 127318744.035 7  99209431.01946  24227950.360                    24227956.520
     -2171.144       -1691.803          44.100          41.500    95075711.808 7
  24227956.520       -1621.352          46.600


 106306297.177 8  82836243.93848  20229347.800                    20229345.860
       829.700         646.521          52.200          52.300



 127638409.217 7  99458486.75047  24288790.440                    24288792.660
     -3946.461       -3075.171          42.350          42.850



 130186088.674 6 101443773.68646  24773559.220                    24773559.300
     -3033.216       -2363.540          40.000          40.050



 118241080.694 8  92135986.84147  22500495.700                    22500492.860
     -1793.579       -1397.595          48.000          44.000



 133119038.058 6 103729150.01546  25331710.580                    25331718.300
     -3186.021       -2482.615          40.350          38.400    99407028.519 7
  25331726.300       -2378.886          43.950


 109223831.454 8  85109549.68948  20784576.660                    20784577.240
     -1903.676       -1483.384          51.250          51.250    81563340.775 9
  20784579.580       -1421.552          56.700


 114476433.090 8  89202505.42447  21784114.000                    21784116.240
      2902.900        2262.003          48.250          44.400    85485764.661 8
  21784118.360        2167.737          51.200


 121068759.763 8  94339343.80747  23038602.760                    23038605.420
      2475.130        1928.675          49.200          44.050    90408566.193 8
  23038605.540        1848.295          48.900


 23 12  2 15 21  0.0000000  0 10G06G10G12G15G17G19G23G24G25G32
 129623147.563 6 101005073.96946  24666461.900                    24666466.820
      2465.762        1921.373          40.400          40.600    96796542.078 7
  24666467.520        1841.246          45.400


 127384058.077 7  99260324.99946  24240379.300                    24240385.200
     -2183.404       -1701.355          43.000          41.200    95124485.181 7
  24240385.700       -1630.419          46.850


 106281644.739 8  82817034.28548  20224656.580                    20224654.560
       813.467         633.871          52.100          52.000



 127756828.732 7  99550761.48847  24311325.020                    24311327.480
     -3948.081       -3076.434          43.100          43.300



 130277209.087 6 101514776.67746  24790898.860                    24790898.960
     -3041.735       -2370.181          40.700          40.600



 118295154.263 7  92178122.06547  22510785.460                    22510782.840
     -1811.641       -1411.669          47.800          43.650



 133214607.434 6 103803619.62846  25349897.020                    25349904.520
     -3186.362       -2482.882          39.350          37.900    99478395.254 7
  25349912.420       -2379.147          42.600


 109281131.594 8  85154199.15648  20795480.520                    20795481.200
     -1916.595       -1493.450          51.450          51.600    81606129.844 9
  20795483.720       -1431.226          57.000


 114389492.763 8  89134759.82147  21767569.720                    21767571.660
      2892.873        2254.191          48.650          44.150    85420841.800 8
  21767574.080        2160.267          51.400


 120994705.864 8  94281639.55447  23024510.680                    23024513.340
      2461.517        1918.067          49.050          43.400    90353266.298 8
  23024513.260        1838.174          49.250


 23 12  2 15 21 30.0000000  0 10G06G10G12G15G17G19G23G24G25G32
 129549316.824 6 100947543.50546  24652412.500                    24652416.980
      2456.007        1913.771          40.750          41.000    96741408.709 7
  24652418.240        1834.157          44.600


 127449731.929 7  99311499.35546  24252876.840                    24252882.020
     -2194.907       -1710.318          42.100          41.650    95173527.236 7
  24252883.160       -1639.122          46.650


 106257477.832 8  82798202.96848  20220057.700                    20220055.680
       797.504         621.433          52.200          52.150



 127875286.391 7  99643065.96547  24333866.800                    24333869.300
     -3949.179       -3077.289          43.050          43.000



 130368570.443 6 101585967.43046  24808284.500                    24808284.540
     -3049.211       -2376.006          41.350          41.300



 118349767.093 7  92220677.49447  22521177.780                    22521175.360
     -1829.427       -1425.529          47.600          43.350



 133310183.618 6 103878094.52945  25368084.780                    25368091.580
     -3185.698       -2482.362          36.550          33.650    99549767.037 7
  25368100.200       -2379.112          43.800


 109338820.524 8  85199151.57848  20806458.320                    20806459.140
     -1929.375       -1503.409          51.750          51.800    81649209.254 9
  20806461.640       -1440.810          56.350


 114302852.445 8  89067247.98147  21751082.560                    21751084.200
      2883.026        2246.517          48.750          43.150    85356142.978 8
  21751086.860        2152.862          50.750


 120921058.896 8  94224252.40547  23010496.040                    23010498.560
      2448.214        1907.703          48.400          44.100    90298270.305 8
  23010498.500        1828.099          49.000


 23 12  2 15 22  0.0000000  0 10G06G10G12G15G17G19G23G24G25G32
 129475782.117 6 100890243.71546  24638419.500                    24638423.360
      2446.475        1906.344          41.200          41.550    96686496.455 7
  24638425.500        1826.606          44.300


 127515765.872 6  99362954.26146  24265442.640                    24265447.520
     -2206.875       -1719.646          41.000          40.300    95222838.159 7
  24265449.160       -1648.087          46.100


 106233799.893 8  82779752.66548  20215551.900                    20215549.920
       781.286         608.795          52.400          52.450



 127993782.851 7  99735400.65747  24356416.000                    24356418.740
     -3950.331       -3078.187          42.900          42.650



 130460173.780 6 101657346.75046  24825716.020                    24825716.120
     -3057.268       -2382.282          40.850          40.700



 118404920.551 7  92263654.20447  22531672.920                    22531670.520
     -1847.239       -1439.406          46.550          44.050



 133405766.945 6 103952574.81045  25386273.620                    25386280.540
     -3186.470       -2482.976          36.850          34.900    99621143.848 7
  25386289.200       -2379.254          45.850


 109396900.435 8  85244408.66448  20817510.520                    20817511.400
     -1942.288       -1513.471          51.650          51.700    81692580.637 9
  20817513.720       -1450.552          55.850


 114216516.500 8  88999973.31747  21734653.340                    21734654.740
      2872.889        2238.618          48.700          44.100    85291671.441 8
  21734657.520        2145.274          50.400


 120847824.422 8  94167186.67947  22996559.860                    22996562.240
      2434.433        1896.964          48.100          44.000    90243582.336 8
  22996562.300        1817.826          48.900


 23 12  2 15 22 30.0000000  0 10G06G10G12G15G17G19G23G24G25G32
 129402542.698 6 100833174.05846  24624482.700                    24624486.000
      2436.333        1898.441          41.100          41.100    96631804.697 7
  24624489.040        1819.131          44.650


 127582153.410 6  99414684.71046  24278075.720                    24278080.300
     -2219.061       -1729.143          40.300          41.000    95272413.122 7
  24278082.460       -1657.011          46.050


 106210607.054 8  82761680.35648  20211138.420                    20211136.560
       764.908         596.033          52.450          52.550



 128112311.713 7  99827760.58647  24378971.420                    24378974.200
     -3951.566       -3079.150          42.600          42.500



 130552012.285 6 101728909.30646  24843192.200                    24843192.600
     -3065.186       -2388.453          40.800          40.900



 118460608.309 7  92307047.25247  22542269.680                    22542267.560
     -1865.210       -1453.410          46.650          43.950



 133501350.273 6 104027055.15446  25404462.620                    25404469.980
     -3186.366       -2482.891          40.700          40.250    99692520.769 7
  25404478.160       -2379.308          47.100


 109455366.669 8  85289966.78148  20828636.240                    20828637.260
     -1955.484       -1523.754          51.600          51.700    81736240.502 9
  20828639.160       -1460.252          56.100


 114130482.249 8  88932933.72747  21718281.460                    21718282.640
      2862.681        2230.662          48.400          44.350    85227425.191 8
  21718285.580        2137.611          50.950


 120775000.976 8  94110441.23947  22982701.860                    22982704.100
      2420.348        1885.988          48.000          44.250    90189201.303 8
  22982704.420        1807.493          49.650


 23 12  2 15 23  0.0000000  0 10G06G10G12G15G17G19G23G24G25G32
 129329605.234 6 100776339.74046  24610603.300                    24610606.280
      2425.730        1890.183          41.700          41.900    96577338.469 7
  24610609.640        1811.561          43.950


 127648895.183 6  99466691.16946  24290776.160                    24290780.620
     -2230.949       -1738.405          40.600          39.800    95322252.634 7
  24290783.140       -1665.945          45.450


 106187902.829 8  82743988.77648  20206817.940                    20206816.140
       748.268         583.066          52.000          51.950



 128230874.278 6  99920146.79246  24401533.240                    24401536.260
     -3953.081       -3080.331          41.850          41.750



 130644087.386 6 101800656.24246  24860713.340                    24860714.100
     -3073.522       -2394.947          41.000          40.800



 118516832.230 7  92350858.09247  22552968.580                    22552966.740
     -1883.465       -1467.636          46.300          44.200



 133596934.221 6 104101535.98046  25422651.840                    25422659.580
     -3186.668       -2483.125          37.650          36.650    99763898.253 7
  25422667.300       -2379.562          42.400


 109514221.910 8  85335828.02848  20839836.000                    20839837.080
     -1968.673       -1534.029          51.400          51.400    81780190.866 9
  20839838.580       -1470.138          55.400


 114044754.509 8  88866132.99147  21701967.960                    21701969.140
      2851.912        2222.271          48.550          44.200    85163407.815 8
  21701972.000        2129.799          50.650


 120702594.530 7  94054020.74547  22968923.300                    22968925.300
      2406.223        1874.983          47.800          44.150    90135131.686 8
  22968925.960        1796.906          49.250


 23 12  2 15 23 30.0000000  0 10G06G10G12G15G17G19G23G24G25G32
 129256971.429 7 100719742.09947  24596781.640                    24596784.260
      2416.118        1882.694          42.250          42.100    96523099.085 7
  24596788.020        1804.373          45.000


 127715987.117 6  99518970.47546  24303543.240                    24303547.720
     -2242.077       -1747.080          39.800          40.050    95372353.637 7
  24303550.300       -1674.172          45.050


 106165685.553 8  82726676.63748  20202590.140                    20202588.260
       732.619         570.873          52.400          52.250



 128349466.503 7 100012556.03946  24424100.860                    24424104.240
     -3953.679       -3080.797          42.050          41.700



 130736395.189 6 101872584.50946  24878278.800                    24878279.800
     -3080.488       -2400.375          41.550          41.350



 118573589.241 7  92395084.32147  22563769.120                    22563767.560
     -1900.529       -1480.933          46.700          43.700



 133692514.798 5 104176014.06344  25440840.200                    25440848.560
     -3185.378       -2482.130          33.800          28.450    99835273.159 6
  25440855.540       -2378.963          39.650


 109573463.988 8  85381990.69848  20851109.400                    20851110.380
     -1980.831       -1543.504          51.600          51.750    81824430.097 9
  20851111.700       -1479.341          55.800


 113959333.159 8  88799570.98647  21685712.700                    21685713.960
      2842.326        2214.803          48.000          44.850    85099619.251 8
  21685716.720        2122.557          51.250


 120630606.236 8  93997926.07247  22955224.360                    22955226.080
      2392.749        1864.483          48.000          43.550    90081374.317 8
  22955227.100        1786.838          49.600


 23 12  2 15 24  0.0000000  0 10G06G10G12G15G17G19G23G24G25G32
 129184643.956 6 100663383.18846  24583018.120                    24583020.560
      2405.354        1874.308          41.950          41.700    96469088.502 7
  24583024.560        1796.271          45.700


 127783425.702 6  99571519.90746  24316376.400                    24316380.900
     -2254.523       -1756.778          40.750          40.700    95422713.468 7
  24316383.620       -1683.284          44.850


 106143954.833 8  82709743.64248  20198454.960                    20198452.840
       715.803         557.770          52.950          52.950



 128468085.407 7 100104986.09047  24446673.520                    24446677.220
     -3954.736       -3081.622          43.900          43.650



 130828932.793 7 101944691.84147  24895888.060                    24895889.200
     -3088.809       -2406.858          42.700          42.150



 118630876.999 7  92439724.12547  22574670.780                    22574669.260
     -1919.023       -1495.344          47.500          44.100



 133788088.716 6 104250487.12145  25459027.520                    25459035.720
     -3186.013       -2482.610          37.300          34.100    99906643.092 7
  25459042.840       -2379.239          43.700


 109633091.622 8  85428453.81248  20862456.200                    20862456.980
     -1994.477       -1554.136          52.000          51.950    81868957.236 9
  20862458.440       -1489.387          55.950


 113874218.976 8  88733248.34247  21669515.900                    21669517.400
      2831.562        2206.416          48.350          44.200    85036060.068 8
  21669520.060        2114.384          51.500


 120559038.013 8  93942158.74847  22941605.340                    22941606.860
      2378.106        1853.074          48.600          43.150    90027930.657 8
  22941608.140        1775.809          49.550


 23 12  2 15 24 30.0000000  0 10G06G10G12G15G17G19G23G24G25G32
 129112625.989 6 100607265.49346  24569313.320                    24569315.860
      2395.537        1866.659          41.600          41.700    96415309.082 7
  24569319.720        1788.845          45.100


 127851208.297 6  99624337.41146  24329275.060                    24329279.620
     -2265.088       -1765.009          41.100          39.550    95473330.232 7
  24329282.240       -1691.436          43.600


 106122710.690 8  82693189.79948  20194412.340                    20194409.960
       700.140         545.564          52.450          52.350



 128586728.987 7 100197435.37747  24469250.920                    24469254.640
     -3955.086       -3081.893          43.500          43.600



 130921698.069 6 102016976.60446  24913540.600                    24913542.020
     -3095.907       -2412.388          41.000          41.000



 118688693.501 8  92484775.95147  22585673.240                    22585671.480
     -1935.889       -1508.484          48.000          44.500



 133883653.105 6 104324952.80146  25477212.940                    25477221.340
     -3184.954       -2481.789          38.700          38.000    99978005.904 7
  25477228.340       -2378.666          45.050


 109693104.085 8  85475216.78948  20873876.240                    20873876.900
     -2006.839       -1563.770          51.600          51.550    81913771.753 9
  20873878.620       -1498.614          55.600


 113789413.332 7  88667166.11647  21653377.760                    21653379.560
      2822.005        2198.969          47.700          45.800    84972731.296 8
  21653382.120        2107.158          51.350


 120487892.476 7  93886720.77647  22928066.700                    22928068.120
      2364.530        1842.494          47.750          44.900    89974802.634 8
  22928069.540        1765.654          49.000


 23 12  2 15 25  0.0000000  0 11G06G10G11G12G15G17G19G23G24G25G32
 129040921.053 7 100551391.74046  24555668.100                    24555670.740
      2385.045        1858.484          42.050          41.800    96361763.460 7
  24555674.160        1781.063          45.400


 127919332.632 6  99677421.19046  24342238.680                    24342243.600
     -2276.253       -1773.708          40.750          40.300    95524202.185 7
  24342245.860       -1699.820          43.450


 136291023.651 6 106200795.44945  25935318.680                    25935321.840
      2986.383        2327.062          38.500          30.950   101775797.924 6
  25935327.660        2230.048          41.300


 106101953.878 8  82677015.69848  20190462.460                    20190459.940
       683.945         532.945          52.450          52.650



 128705395.176 7 100289902.24547  24491832.580                    24491836.440
     -3955.668       -3082.349          43.600          43.650



 131014689.306 6 102089437.39446  24931236.200                    24931237.700
     -3103.151       -2418.035          40.800          40.700



 118747037.267 8  92530238.64847  22596776.080                    22596774.020
     -1953.388       -1522.119          48.600          44.500



 133979205.549 6 104399409.15245  25495396.320                    25495404.760
     -3184.686       -2481.575          37.500          35.550   100049359.907 7
  25495411.520       -2378.201          42.250


 109753501.038 8  85522279.36248  20885369.380                    20885370.100
     -2019.463       -1573.607          51.600          51.600    81958873.386 9
  20885371.940       -1508.000          55.750


 113704918.003 7  88601325.68847  21637298.680                    21637300.720
      2811.596        2190.856          47.900          45.400    84909634.230 8
  21637303.260        2099.459          51.650


 120417172.503 8  93831614.42447  22914609.080                    22914610.360
      2350.422        1831.502          48.650          43.900    89921992.399 8
  22914611.820        1755.122          48.850


 23 12  2 15 25 30.0000000  0 11G06G10G11G12G15G17G19G23G24G25G32
 128969535.159 7 100495766.61647  24542083.540                    24542086.220
      2374.320        1850.128          42.350          42.150    96308456.084 7
  24542089.200        1773.109          45.200


 127987798.442 6  99730771.05846  24355267.340                    24355272.160
     -2287.595       -1782.546          40.950          38.300    95575329.117 7
  24355274.380       -1708.186          43.000


 136201439.905 6 106130989.86745  25918271.900                    25918273.660
      2986.229        2326.930          40.600          34.450   101708900.916 7
  25918280.340        2230.058          43.050


 106081687.156 8  82661223.47848  20186605.760                    20186603.400
       667.760         520.333          52.350          52.250



 128824084.435 7 100382387.10747  24514418.640                    24514422.560
     -3956.310       -3082.847          43.350          43.050



 131107906.811 7 102162074.51247  24948974.840                    24948976.440
     -3110.857       -2424.039          42.400          42.850



 118805909.409 8  92576113.06747  22607979.400                    22607977.060
     -1970.833       -1535.713          48.700          44.300



 134074746.074 5 104473856.15545  25513577.240                    25513585.560
     -3183.928       -2480.988          35.400          35.450   100120704.925 7
  25513592.300       -2377.793          43.650


 109814284.509 8  85569643.11448  20896936.060                    20896936.820
     -2032.179       -1583.516          51.650          51.350    82004263.650 9
  20896938.700       -1517.616          55.600


 113620737.056 8  88535730.24247  21621279.480                    21621281.660
      2801.094        2182.674          48.600          45.550    84846771.943 8
  21621284.260        2091.685          51.450


 120346883.421 8  93776843.83047  22901233.480                    22901234.700
      2336.164        1820.391          49.050          44.200    89869503.927 8
  22901236.000        1744.462          48.600


 23 12  2 15 26  0.0000000  0 11G06G10G11G12G15G17G19G23G24G25G32
 128898465.282 6 100440387.75946  24528559.200                    24528561.760
      2363.943        1842.044          41.700          41.550    96255384.719 7
  24528564.340        1765.144          45.700


 128056597.183 6  99784380.34546  24368359.380                    24368364.420
     -2298.702       -1791.202          41.300          39.800    95626704.669 7
  24368366.360       -1716.527          43.200


 136111854.202 6 106061182.77545  25901224.400                    25901225.140
      2986.218        2326.919          39.800          34.650   101642002.458 7
  25901232.720        2230.000          42.900


 106061904.212 8  82645808.22848  20182841.020                    20182838.960
       651.462         507.635          52.200          52.050



 128942787.974 7 100474883.01947  24537007.440                    24537011.640
     -3956.905       -3083.313          44.100          44.150



 131201342.196 6 102234881.43646  24966754.960                    24966756.420
     -3118.125       -2429.703          41.350          40.850



 118865301.675 8  92622392.78547  22619281.580                    22619279.020
     -1988.355       -1549.367          48.700          44.050



 134170265.945 5 104548287.12745  25531754.140                    25531762.520
     -3183.706       -2480.814          34.850          34.100   100192034.563 6
  25531769.120       -2377.307          41.200


 109875447.660 8  85617302.72248  20908574.940                    20908575.760
     -2044.883       -1593.414          51.350          51.250    82049937.449 9
  20908577.620       -1527.098          55.800


 113536865.710 8  88470376.03647  21605319.260                    21605321.480
      2790.744        2174.609          48.350          45.800    84784140.851 8
  21605324.040        2083.943          51.600


 120277021.650 8  93722406.19947  22887939.260                    22887940.340
      2321.681        1809.106          49.200          44.750    89817334.550 8
  22887941.400        1733.729          48.600


 23 12  2 15 26 30.0000000  0 11G06G10G11G12G15G17G19G23G24G25G32
 128827711.839 6 100385255.42746  24515095.000                    24515097.640
      2352.837        1833.386          41.650          41.300    96202549.613 7
  24515099.900        1757.043          46.400


 128125723.136 6  99838244.63046  24381513.660                    24381518.820
     -2310.044       -1800.037          41.800          39.250    95678324.579 7
  24381520.500       -1724.940          42.950


 136022266.544 6 105991374.32345  25884176.340                    25884177.480
      2986.248        2326.956          40.100          34.400   101575102.662 7
  25884185.080        2229.819          45.300


 106042602.735 8  82630768.15348  20179167.920                    20179166.020
       634.900         494.729          51.700          51.650



 129061501.031 7 100567386.38047  24559597.920                    24559602.180
     -3957.724       -3083.953          43.750          44.150



 131294990.861 6 102307854.52946  24984575.580                    24984576.840
     -3125.337       -2435.324          40.650          40.650



 118925209.305 7  92669074.10547  22630681.580                    22630679.000
     -2005.926       -1563.058          47.800          45.250



 134265759.719 5 104622697.81345  25549926.120                    25549933.700
     -3183.239       -2480.440          35.200          31.150   100263344.805 6
  25549941.160       -2376.843          39.650


 109936986.942 8  85665255.41548  20920285.500                    20920286.360
     -2057.890       -1603.550          51.600          51.550    82095892.113 9
  20920288.200       -1536.705          56.000


 113453302.540 8  88405261.97447  21589417.680                    21589420.040
      2779.866        2166.132          49.000          45.750    84721739.883 8
  21589422.380        2075.962          51.600


 120207586.892 8  93668301.29847  22874726.300                    22874727.280
      2306.941        1797.620          49.000          44.850    89765484.035 8
  22874728.040        1722.789          48.700


 23 12  2 15 27  0.0000000  0 11G06G10G11G12G15G17G19G23G24G25G32
 128757288.988 6 100330380.65446  24501693.920                    24501696.500
      2342.095        1825.016          40.950          40.000    96149961.359 7
  24501698.740        1748.847          46.850


 128195184.665 7  99892370.37046  24394731.960                    24394737.140
     -2320.911       -1808.506          42.750          37.250    95730195.082 7
  24394738.500       -1733.193          44.050


 135932691.025 5 105921575.24645  25867130.620                    25867131.880
      2986.404        2327.071          34.950          32.650   101508211.903 7
  25867139.480        2229.638          43.550


 106023793.315 8  82616111.49748  20175588.500                    20175586.620
       618.891         482.253          51.950          52.000



 129180232.553 7 100659904.08546  24582191.940                    24582196.620
     -3957.938       -3084.121          42.600          41.950



 131388861.029 6 102381000.22546  25002438.300                    25002439.520
     -3132.718       -2441.076          40.800          40.400



 118985641.695 7  92716164.31647  22642181.240                    22642178.920
     -2023.171       -1576.495          47.250          44.900



                                  25568094.680
     -3182.897                          29.900                   100334641.871 5
  25568109.820       -2376.400          35.150


 109998912.632 8  85713509.21048  20932069.640                    20932070.440
     -2070.633       -1613.479          51.950          51.900    82142135.339 9
  20932072.380       -1546.214          56.050


 113370059.936 8  88340397.70147  21573577.200                    21573579.500
      2769.494        2158.052          48.650          46.150    84659578.315 8
  21573581.620        2068.116          51.450


 120138592.757 8  93614539.73647  22861597.120                    22861598.100
      2292.525        1786.387          49.300          44.550    89713962.564 8
  22861598.600        1711.923          48.850


 23 12  2 15 27 30.0000000  0 11G06G10G11G12G15G17G19G23G24G25G32
 128687190.317 6 100275758.44446  24488354.200                    24488357.120
      2330.789        1816.203          39.200          39.550    96097615.108 7
  24488359.300        1740.394          46.900


 128264969.489 7  99946748.03846  24408011.780                    24408017.000
     -2332.266       -1817.352          43.050          38.800    95782306.973 7
  24408018.180       -1741.564          44.050


 135843121.110 6 105851780.50545  25850085.920                    25850087.240
      2985.170        2326.107          37.900          31.450   101441325.385 6
  25850094.940        2228.917          41.350


 106005466.463 8  82601830.86448  20172101.020                    20172099.020
       602.205         469.251          52.350          52.400



 129298970.432 6 100752426.78646  24604787.280                    24604791.940
     -3958.313       -3084.416          41.750          41.650



 131482941.201 6 102454309.55846  25020341.160                    25020342.040
     -3139.860       -2446.642          40.600          39.750



 119046587.077 7  92763654.26147  22653778.520                    22653776.480
     -2040.622       -1590.095          46.350          45.850



 134456689.806 5                  25586256.760
     -3181.259                          33.250                   100405916.350 6
  25586272.660       -2375.926          37.900


 110061214.464 8  85762056.09648  20943925.340                    20943926.040
     -2083.570       -1623.562          52.000          52.050    82188659.443 9
  20943928.000       -1555.945          56.200


 113287129.674 8  88275776.81847  21557796.100                    21557798.500
      2758.538        2149.514          49.000          45.800    84597649.983 8
  21557800.240        2059.964          51.500


 120070032.156 8  93561115.99147  22848550.480                    22848551.440
      2277.489        1774.670          49.800          44.400    89662764.829 8
  22848551.720        1700.723          49.200


 23 12  2 15 28  0.0000000  0 11G06G10G11G12G15G17G19G23G24G25G32
 128617424.185 5 100221395.32545  24475077.520                    24475081.020
      2320.207        1807.957          35.500          35.450    96045517.166 7
  24475083.380        1732.552          46.700


 128335079.910 7 100001379.44946  24421353.700                    24421358.840
     -2342.189       -1825.087          43.850          39.050    95834662.055 7
  24421359.800       -1749.041          44.300


 135753565.106 6 105781996.68546  25833043.780                    25833045.140
      2984.995        2325.969          38.550          37.800   101374449.157 7
  25833052.940        2229.123          44.200


 105987627.707 8  82587930.56948  20168706.500                    20168704.440
       586.604         457.096          52.600          52.550



 129417717.556 7 100844956.66147  24627384.340                    24627389.260
     -3958.293       -3084.394          42.400          43.000



 131577234.221 6 102527784.74146  25038284.460                    25038285.120
     -3146.927       -2452.146          40.250          40.400



 119108048.774 7  92811546.55347  22665473.920                    22665472.180
     -2057.310       -1603.097          46.250          45.350




                                                                 100477170.404 5
  25604430.500       -2374.261          35.300


 110123896.892 8  85810899.54748  20955853.460                    20955854.040
     -2095.624       -1632.954          51.750          51.800    82235467.748 9
  20955856.020       -1564.903          56.050


 113204518.307 8  88211404.41247  21542075.680                    21542078.120
      2748.590        2141.762          48.650          46.350    84535959.800 8
  21542079.540        2052.391          51.350


 120001912.858 8  93508036.10947  22835587.800                    22835588.800
      2263.323        1763.632          49.700          44.850    89611896.635 8
  22835588.900        1690.169          49.300


 23 12  2 15 28 30.0000000  0 10G06G10G11G12G15G17G19G24G25G32
 128547985.305 6 100167287.13346  24461863.200                    24461867.320
      2309.226        1799.397          37.300          36.900    95993663.510 7
  24461869.760        1724.141          46.650


 128405504.756 7 100056255.86046  24434755.440                    24434760.540
     -2353.030       -1833.532          44.150          39.650    95887251.907 7
  24434761.300       -1757.037          43.250


 135664017.510 6 105712219.39945  25816003.340                    25816005.080
      2984.559        2325.631          40.150          34.000   101307579.301 7
  25816012.260        2228.672          44.250


 105970268.270 8  82574403.76448  20165403.200                    20165401.120
       570.473         444.525          52.400          52.450



 129536463.307 7 100937485.39447  24649981.060                    24649986.520
     -3958.274       -3084.382          42.550          42.900



 131671729.567 6 102601417.55846  25056266.220                    25056266.900
     -3153.416       -2457.202          41.000          40.850



 119170016.607 7  92859833.22347  22677265.620                    22677264.000
     -2074.323       -1616.353          45.450          44.250



 110186950.691 8  85860032.38148  20967852.140                    20967852.680
     -2108.258       -1642.799          51.150          51.300    82282553.381 9
  20967854.620       -1574.330          55.650


 113122218.689 8  88147274.93847  21526414.540                    21526417.060
      2737.974        2133.490          48.700          46.500    84474502.403 8
  21526418.120        2044.530          51.100


 119934228.873 8  93455295.42147  22822707.960                    22822709.120
      2248.643        1752.192          49.600          44.950    89561353.508 8
  22822709.000        1679.117          49.150


 23 12  2 15 29  0.0000000  0 11G06G10G11G12G15G17G19G23G24G25G32
 128478890.942 6 100113447.37246  24448714.760                    24448719.000
      2297.457        1790.225          37.600          37.150    95942067.084 7
  24448721.920        1715.793          46.150


 128476255.361 7 100111386.10546  24448219.040                    24448224.460
     -2363.373       -1841.591          43.550          39.350    95940085.048 7
  24448224.980       -1764.921          44.200


 135574495.319 6 105642461.75145  25798967.820                    25798969.720
      2984.047        2325.229          39.900          34.200   101240728.252 6
  25798976.580        2228.292          41.200


 105953402.291 8  82561261.47548  20162193.780                    20162191.640
       554.308         431.930          52.050          51.900



 129655219.368 6 101030022.18146  24672580.020                    24672585.580
     -3957.946       -3084.126          41.800          41.800



 131766438.953 6 102675217.15046  25074288.760                    25074289.220
     -3160.063       -2462.384          40.900          40.500



 119232502.465 7  92908523.56247  22689155.960                    22689154.340
     -2091.250       -1629.543          46.000          44.000




                                                                 100619719.647 5
  25640725.760       -2373.114          35.350


 110250389.085 8  85909464.90948  20979923.940                    20979924.520
     -2120.608       -1652.422          50.550          50.750    82329926.219 9
  20979926.360       -1583.619          55.550


 113040246.179 8  88083400.35147  21510815.640                    21510818.240
      2727.382        2125.236          48.700          46.550    84413289.279 8
  21510819.120        2036.621          51.350


 119866996.735 8  93402906.82847  22809914.060                    22809915.400
      2233.938        1740.734          49.100          45.200    89511147.785 8
  22809915.160        1668.192          49.300


 23 12  2 15 29 30.0000000  0 10G06G10G11G12G15G17G19G24G25G32
 128410125.188 6 100059863.68246  24435629.160                    24435633.260
      2286.144        1781.411          38.850          39.000    95890716.047 7
  24435636.380        1707.325          46.250


 128547310.035 7 100166753.28246  24461740.420                    24461746.180
     -2373.879       -1849.778          44.250          38.150    95993145.247 7
  24461746.540       -1772.680          44.300


 135484982.500 6 105572711.60146  25781934.040                    25781936.320
      2983.151        2324.537          40.200          36.650   101173884.248 7
  25781942.460        2227.730          45.300


 105937011.237 8  82548489.25248  20159074.680                    20159072.460
       538.080         419.285          52.350          52.350



 129773964.619 7 101122550.53647  24695176.800                    24695182.280
     -3958.435       -3084.508          42.450          42.650



 131861341.110 6 102749166.98546  25092348.120                    25092348.320
     -3166.886       -2467.696          41.300          41.050



 119295485.584 7  92957601.37647  22701141.000                    22701139.320
     -2108.124       -1642.693          45.100          44.650



 110314192.271 8  85959181.68548  20992065.160                    20992065.820
     -2133.277       -1662.293          50.750          50.700    82377571.453 9
  20992067.640       -1592.992          55.600


 112958583.020 8  88019766.83147  21495275.540                    21495278.280
      2716.479        2116.740          48.900          47.250    84352307.166 8
  21495279.020        2028.573          51.800


 119800199.850 8  93350857.39247  22797202.860                    22797204.460
      2218.831        1728.962          48.900          45.750    89461267.090 8
  22797204.160        1656.984          49.450


 23 12  2 15 30  0.0000000  0 10G06G10G11G12G15G17G19G24G25G32
 128341708.155 6 100006551.74546  24422609.940                    24422614.020
      2274.952        1772.691          40.750          40.950    95839625.469 7
  24422616.980        1698.771          45.900


 128618682.590 7 100222368.16546  24475322.280                    24475328.300
     -2384.071       -1857.722          44.000          39.700    96046442.816 7
  24475328.520       -1780.329          44.350


 135395499.239 6 105502984.35245  25764906.020                    25764908.080
      2982.348        2323.903          41.700          35.350   101107062.344 7
  25764914.220        2227.174          43.450


 105921111.320 8  82536099.73548  20156049.020                    20156046.700
       522.028         406.776          53.000          52.950



 129892713.615 7 101215081.79946  24717774.120                    24717779.720
     -3958.298       -3084.400          42.000          41.750



 131956450.786 6 102823278.44746  25110446.860                    25110447.100
     -3173.433       -2472.802          40.750          40.550



 119358980.603 7  93007078.05847  22713223.520                    22713221.740
     -2124.968       -1655.817          46.200          44.050



 110378376.412 8  86009195.31448  21004278.940                    21004279.620
     -2145.752       -1672.015          51.000          51.000    82425501.183 9
  21004281.420       -1602.308          55.650


 112877247.470 8  87956388.58747  21479797.800                    21479800.600
      2705.891        2108.490          49.200          46.500    84291569.709 8
  21479801.420        2020.588          52.000


 119733857.658 8  93299162.25947  22784578.120                    22784580.000
      2204.035        1717.433          48.900          45.800    89411725.943 8
  22784579.720        1645.791          49.550


 23 12  2 15 30 30.0000000  0 10G06G10G11G12G15G17G19G24G25G32
 128273635.240 7  99953507.99547  24409656.360                    24409660.200
      2263.565        1763.819          42.200          42.400    95788791.875 7
  24409662.640        1690.365          45.550


 128690362.551 7 100278222.57146  24488962.480                    24488968.780
     -2393.901       -1865.382          43.650          40.100    96099969.957 7
  24488968.980       -1787.896          44.750


 135306040.726 6 105433276.35246  25747882.600                    25747884.840
      2981.795        2323.477          38.600          36.350   101040258.879 6
  25747890.600        2226.711          41.700


 105905694.638 8  82524086.76548  20153115.320                    20153112.960
       506.225         394.461          52.300          52.300



 130011456.349 6 101307608.13846  24740370.480                    24740376.220
     -3957.415       -3083.721          40.500          40.800



 132051757.793 6 102897543.75246  25128583.180                    25128583.040
     -3179.881       -2477.828          40.200          40.000



 119422977.776 7  93056946.01347  22725401.780                    22725399.880
     -2141.193       -1668.462          45.450          44.200



 110442932.946 8  86059499.11348  21016563.600                    21016564.340
     -2157.757       -1681.368          50.550          50.450    82473708.998 9
  21016566.180       -1611.329          55.450


 112796233.087 8  87893260.59947  21464381.200                    21464384.020
      2695.419        2100.330          48.850          47.400    84231072.073 8
  21464384.900        2012.800          52.050


 119667964.836 8  93247817.27547  22772038.880                    22772040.940
      2189.215        1705.884          48.250          45.850    89362520.345 8
  22772040.760        1634.736          49.350


 23 12  2 15 31  0.0000000  0 10G06G10G11G12G15G17G19G24G25G32
 128205912.647 6  99900737.25047  24396769.260                    24396773.020
      2251.262        1754.235          41.950          42.550    95738219.914 7
  24396775.180        1681.195          45.700


 128762350.228 7 100334316.79046  24502661.200                    24502667.860
     -2404.952       -1873.989          43.000          39.350    96153726.863 7
  24502667.980       -1795.907          44.550


 135216613.236 6 105363592.62246  25730865.180                    25730867.520
      2980.604        2322.550          41.200          38.650   100973478.546 7
  25730873.400        2225.401          45.100


 105890764.444 8  82512452.87448  20150274.120                    20150271.780
       489.367         381.326          51.950          51.950



 130130193.873 6 101400130.45446  24762965.960                    24762971.420
     -3958.138       -3084.279          40.200          39.850



 132147263.144 6 102971963.53446  25146757.200                    25146757.060
     -3186.726       -2483.162          40.600          41.150



 119487477.992 7  93107205.92447  22737675.840                    22737673.900
     -2158.580       -1682.011          45.850          44.950



 110507864.191 8  86110094.88848  21028919.620                    21028920.420
     -2170.967       -1691.662          50.950          50.700    82522196.618 9
  21028922.440       -1621.120          55.350


 112715544.222 8  87830386.25947  21449026.580                    21449029.280
      2684.042        2091.464          49.500          46.800    84170817.519 8
  21449030.300        2004.299          51.750


 119602526.949 8  93196826.78847  22759586.360                    22759588.320
      2173.611        1693.726          48.450          46.350    89313654.470 8
  22759588.340        1623.077          49.100


 23 12  2 15 31 30.0000000  0 11G06G10G11G12G15G17G19G24G25G29G32
 128138538.397 7  99848237.97147  24383948.300                    24383951.900
      2239.726        1745.246          42.000          42.050    95687908.126 7
  24383954.020        1672.410          46.050


 128834637.760 7 100390644.63646  24516417.000                    24516423.660
     -2414.810       -1881.673          42.400          40.400    96207707.701 7
  24516423.880       -1803.431          44.900


 135127214.830 6 105293931.50045  25713853.300                    25713856.160
      2979.521        2321.707          36.550          34.000   100906719.984 7
  25713861.840        2224.652          44.900


 105876315.398 8  82501193.90248  20147524.420                    20147522.200
       473.244         368.763          51.800          51.800



 130248918.611 6 101492642.70346  24785558.740                    24785564.480
     -3957.582       -3083.850          40.050          40.050



 132242959.763 6 103046532.42446  25164967.720                    25164967.160
     -3193.082       -2488.111          40.150          40.200



 119552474.373 7  93157852.46447  22750044.460                    22750042.480
     -2175.171       -1694.937          45.550          45.100



 110573164.247 8  86160978.04848  21041345.860                    21041346.740
     -2183.201       -1701.196          51.100          51.100    82570959.652 9
  21041348.880       -1630.275          55.400


 112635177.125 8  87767762.64647  21433733.220                    21433735.680
      2673.069        2082.913          49.300          46.800    84110803.242 8
  21433736.880        1996.169          51.700


 136745721.005 6                  26021844.860
      3876.092                          36.300



 119537541.388 8  93146188.76147  22747219.880                    22747221.740
      2158.197        1681.715          48.250          46.050    89265126.362 8
  22747222.000        1611.661          49.350


 23 12  2 15 32  0.0000000  0 11G06G10G11G12G15G17G19G24G25G29G32
 128071519.195 7  99796015.37047  24371195.020                    24371197.940
      2227.868        1736.007          42.900          42.850    95637861.492 7
  24371200.520        1663.774          46.500


 128907225.928 7 100447206.74746  24530230.060                    24530236.720
     -2424.526       -1889.244          43.100          39.200    96261913.005 7
  24530236.880       -1810.503          44.950


 135037852.329 6 105224298.28946  25696848.420                    25696851.140
      2978.309        2320.757          40.700          36.800   100839988.221 7
  25696856.860        2223.856          43.700


 105862351.395 8  82490312.89148  20144867.060                    20144864.960
       457.276         356.320          52.250          52.200



 130367631.765 7 101585146.02947  24808149.620                    24808155.000
     -3956.959       -3083.359          42.500          42.200



 132338848.781 6 103121251.16946  25183214.680                    25183214.460
     -3199.816       -2493.364          39.900          40.500



 119617968.445 7  93208886.78447  22762507.760                    22762505.660
     -2191.463       -1707.634          46.350          42.900



 110638835.950 8  86212150.80848  21053842.800                    21053843.720
     -2195.355       -1710.667          51.600          51.550    82620000.217 9
  21053845.820       -1639.341          55.250


 112555136.698 8  87705393.58347  21418501.980                    21418504.240
      2662.498        2074.678          49.850          46.550    84051032.909 8
  21418505.500        1988.232          51.500


 136629398.782 6 106464544.70346  25999707.160                    25999737.260
      3878.115        3022.046          36.200          36.900



 119473014.187 8  93095907.89747  22734940.660                    22734942.480
      2143.164        1670.001          48.300          46.250    89216940.554 8
  22734942.880        1600.372          49.700


 23 12  2 15 32 30.0000000  0 11G06G10G11G12G15G17G19G24G25G29G32
 128004852.470 7  99744067.42847  24358508.840                    24358511.080
      2217.473        1727.905          43.000          42.900    95588078.073 7
  24358514.160        1655.864          46.350


 128980106.422 7 100503996.63846  24544098.760                    24544105.280
     -2433.127       -1895.947          42.350          40.850    96316336.632 7
  24544105.500       -1816.795          45.000


 134948523.116 6 105154691.17945  25679849.800                    25679852.260
      2978.126        2320.614          39.350          35.250   100773281.381 7
  25679858.500        2223.978          46.200


 105848866.848 8  82479805.47648  20142300.940                    20142299.060
       442.669         344.938          51.800          51.850



 130486325.708 7 101677634.29447  24830736.720                    24830742.080
     -3954.914       -3081.770          42.000          42.050



 132434922.330 6 103196113.79146  25201496.900                    25201496.520
     -3204.270       -2496.838          38.450          37.800



 119683952.475 7  93260302.87947  22775064.300                    22775061.960
     -2206.590       -1719.427          45.700          44.150



 110704872.822 8  86263608.12348  21066409.260                    21066410.160
     -2206.130       -1719.062          51.050          51.000    82669313.480 9
  21066412.140       -1647.429          55.100


 112475418.592 8  87643275.67247  21403332.040                    21403334.040
      2653.141        2067.386          49.550          46.250    83991503.263 8
  21403335.540        1981.179          51.350


 136512998.858 6 106373847.66746  25977553.760                    25977583.840
      3882.273        3025.292          36.800          36.300



 119408942.123 8  93045981.68147  22722748.040                    22722749.940
      2129.256        1659.164          48.050          46.750    89169094.597 8
  22722750.460        1590.084          50.100


 23 12  2 15 33  0.0000000  0 11G06G10G11G12G15G17G19G24G25G29G32
 127938554.661 7  99692406.95047  24345892.800                    24345894.580
      2204.688        1717.944          42.250          42.000    95538570.146 7
  24345897.940        1646.337          46.300


 129053289.494 7 100561022.30046  24558025.140                    24558031.620
     -2443.473       -1904.007          42.850          39.300    96370986.208 7
  24558031.760       -1824.625          45.350


 134859243.795 6 105085122.94046  25662860.500                    25662863.160
      2975.764        2318.775          39.750          38.500   100706611.834 7
  25662869.760        2222.324          44.400


 105835874.960 8  82469681.95048  20139828.520                    20139826.880
       425.785         331.782          51.400          51.450



 130605011.580 6 101770116.32946  24853322.340                    24853327.740
     -3955.440       -3082.181          39.600          39.250



 132531191.561 6 103271128.91146  25219816.280                    25219815.780
     -3211.366       -2502.354          39.600          39.550



 119750437.909 7  93312109.71147  22787716.100                    22787713.620
     -2223.608       -1732.683          46.050          42.050



 110771287.413 8  86315359.75748  21079047.580                    21079048.480
     -2219.162       -1729.218          50.700          50.750    82718908.796 9
  21079050.220       -1657.184          55.150


 112396037.472 8  87581420.34747  21388226.240                    21388228.120
      2641.345        2058.193          49.250          46.350    83932225.255 8
  21388229.660        1972.464          51.700


 136396536.931 6 106283102.22046  25955388.620                    25955418.280
      3884.013        3026.637          39.250          39.050



 119345341.012 7  92996422.44147  22710645.080                    22710647.080
      2113.037        1646.524          47.750          46.650    89121600.335 8
  22710647.700        1577.979          50.750


 23 12  2 15 33 30.0000000  0 11G06G10G11G12G15G17G19G24G25G29G32
 127872617.380 6  99641027.38347  24333345.060                    24333346.800
      2191.630        1707.768          41.650          42.250    95489331.390 7
  24333350.240        1636.756          46.350


 129126761.120 6 100618272.80746  24572006.500                    24572012.860
     -2453.985       -1912.202          41.700          40.750    96425851.258 7
  24572012.860       -1832.536          45.000


 134770006.035 6 105015587.06146  25645879.100                    25645881.640
      2973.660        2317.142          39.950          36.400   100639973.261 7
  25645888.440        2220.758          43.500


 105823363.315 8  82459932.64848  20137447.500                    20137445.960
       409.025         318.723          51.300          51.250



 130723676.057 6 101862581.61246  24875903.840                    24875909.600
     -3955.362       -3082.117          40.750          41.000



 132627642.992 6 103346285.95446  25238170.340                    25238170.120
     -3217.734       -2507.316          40.750          40.300



 119817411.229 7  93364296.69247  22800460.840                    22800458.180
     -2240.724       -1746.020          45.850          44.950



 110838067.450 8  86367396.17048  21091755.380                    21091756.440
     -2232.128       -1739.320          50.750          51.000    82768777.021 9
  21091757.760       -1666.835          55.150


 112316983.149 8  87519819.67447  21373182.620                    21373184.400
      2629.663        2049.091          49.400          46.650    83873191.291 8
  21373186.080        1963.704          51.900


 136280002.988 6 106192300.61246  25933209.660                    25933239.000
      3885.326        3027.657          37.400          37.450



 119282201.790 7  92947223.11647  22698629.980                    22698632.160
      2096.843        1633.905          47.900          46.400    89074451.002 8
  22698632.900        1565.869          51.350


 23 12  2 15 34  0.0000000  0 11G06G10G11G12G15G17G19G24G25G29G32
 127807040.530 6  99589928.64246  24320866.080                    24320867.700
      2180.223        1698.878          41.700          41.650    95440361.797 7
  24320871.140        1627.966          46.700


 129200515.196 7 100675743.39846  24586041.560                    24586048.080
     -2462.805       -1919.074          42.200          41.250    96480927.230 7
  24586047.800       -1839.206          45.650


 134680809.838 6 104946083.63946  25628905.320                    25628908.040
      2972.657        2316.361          39.200          36.950   100573365.843 7
  25628915.080        2219.831          46.150


 105811329.454 8  82450555.64348  20135157.440                    20135155.840
       393.397         306.545          51.250          51.250



 130842312.915 6 101955025.35046  24898480.040                    24898485.960
     -3953.837       -3080.933          40.750          40.500



 132724271.310 6 103421580.83146  25256558.040                    25256557.700
     -3223.375       -2511.715          40.650          40.600



 119884867.337 7  93416859.86146  22813297.260                    22813294.600
     -2256.323       -1758.174          45.650          41.950



 110905209.015 8  86419714.28248  21104531.940                    21104533.240
     -2243.776       -1748.397          50.750          50.700    82818915.218 9
  21104534.100       -1675.628          55.000


 112238253.776 8  87458472.21147  21358200.880                    21358202.560
      2619.062        2040.831          49.650          46.900    83814399.994 8
  21358204.380        1955.769          52.200


 136163396.730 6 106101442.46146  25911017.340                    25911046.200
      3887.964        3029.711          36.900          37.000



 119219523.749 8  92898383.15947  22686702.640                    22686705.060
      2081.730        1622.130          48.300          46.050    89027646.062 8
  22686705.820        1554.531          51.800


 23 12  2 15 34 30.0000000  0 11G06G10G11G12G15G17G19G24G25G29G32
 127741833.759 6  99539118.20346  24308457.600                    24308459.220
      2166.968        1688.547          41.250          40.850    95391668.483 7
  24308462.660        1618.129          46.600


 129274555.277 7 100733436.86046  24600131.080                    24600137.460
     -2473.326       -1927.272          42.550          39.000    96536216.748 7
  24600137.320       -1846.867          44.750


 134591664.853 6 104876620.13146  25611941.240                    25611944.180
      2970.139        2314.400          39.650          38.750   100506796.681 7
  25611951.240        2218.052          44.450


 105799779.630 8  82441555.80648  20132959.580                    20132957.780
       376.450         293.338          51.850          51.800



 130960927.071 6 102047451.48146  24921052.080                    24921058.000
     -3953.885       -3080.968          39.950          40.500



 132821081.055 6 103497017.06446  25274980.260                    25274979.920
     -3230.615       -2517.365          40.250          40.300



 119952810.321 7  93469802.41147  22826226.280                    22826223.820
     -2273.405       -1771.487          45.600          42.950



 110972717.758 8  86472318.50548  21117378.360                    21117379.840
     -2256.809       -1758.552          50.950          51.000    82869327.600 9
  21117380.300       -1685.324          54.750


 112159857.139 8  87397384.01947  21343282.440                    21343284.060
      2607.226        2031.607          49.950          46.000    83755857.160 8
  21343285.820        1946.905          52.100


 136046726.532 6 106010534.43946  25888812.820                    25888841.120
      3889.386        3030.816          36.900          36.400



 119157315.806 8  92849909.50247  22674864.820                    22674867.400
      2065.203        1609.252          48.650          45.300    88981192.161 8
  22674868.120        1542.225          51.800


 23 12  2 15 35  0.0000000  0 11G06G10G11G12G15G17G19G24G25G29G32
 127676984.990 6  99488586.72946  24296117.060                    24296119.020
      2155.194        1679.374          40.550          40.550    95343242.499 7
  24296122.320        1609.264          46.550


 129348863.478 7 100791339.22946  24614271.640                    24614278.080
     -2482.189       -1934.179          42.850          39.750    96591706.507 7
  24614277.720       -1853.433          45.350


 134502559.242 6 104807187.30046  25594984.780                    25594987.540
      2969.237        2313.695          39.700          38.100   100440256.936 7
  25594994.440        2216.937          44.900


 105788698.599 8  82432921.26448  20130851.020                    20130849.020
       360.934         281.247          52.400          52.500



 131079501.245 6 102139846.38446  24943616.300                    24943622.500
     -3952.387       -3079.798          41.250          41.550



 132918054.366 6 103572580.80446  25293433.420                    25293433.140
     -3236.033       -2521.580          39.850          40.400



 120021222.743 7  93523110.76147  22839244.640                    22839242.380
     -2288.824       -1783.501          45.900          42.800



 111040577.791 8  86525196.45848  21130291.600                    21130293.180
     -2268.552       -1767.702          50.650          50.550    82920002.307 9
  21130293.680       -1693.983          55.100


 112081779.451 8  87336544.36047  21328424.620                    21328426.300
      2596.563        2023.300          49.850          46.350    83697552.497 8
  21328428.020        1939.043          52.300


 135929979.745 6 105919566.47846  25866593.780                    25866621.740
      3892.432        3033.180          38.600          38.100



 119095565.253 8  92801792.25047  22663114.100                    22663116.640
      2050.003        1597.408          49.100          45.850    88935079.812 8
  22663117.400        1530.938          52.100


 23 12  2 15 35 30.0000000  0 11G06G10G11G12G15G17G19G24G25G29G32
 127612524.100 6  99438357.50546  24283850.120                    24283852.440
      2142.831        1669.740          37.700          37.700    95295106.203 7
  24283855.720        1599.904          45.750


 129423464.101 6 100849469.44346  24628467.760                    24628474.380
     -2491.330       -1941.303          41.650          40.200    96647414.631 7
  24628473.960       -1860.276          45.200


 134413522.987 6 104737808.51345  25578041.960                    25578044.160
      2967.131        2312.051          41.250          35.250   100373768.937 7
  25578050.600        2215.693          43.350


 105778112.903 8  82424672.70048  20128836.740                    20128834.620
       344.937         268.783          52.200          52.200



 131198059.859 6 102232229.19146  24966177.660                    24966183.520
     -3951.137       -3078.831          39.000          38.600



 133015216.107 6 103648291.37846  25311922.620                    25311922.100
     -3241.522       -2525.857          39.500          39.500



 120090129.706 7  93576804.46947  22852357.020                    22852354.880
     -2304.831       -1795.972          45.700          42.750



 111108815.047 8  86578368.34948  21143276.640                    21143278.240
     -2280.525       -1777.032          50.350          50.550    82970958.709 9
  21143279.100       -1702.973          55.200


 112004048.782 8  87275975.10047  21313632.840                    21313634.580
      2585.542        2014.711          49.250          46.700    83639506.980 8
  21313636.060        1930.754          52.250


 135813185.073 6 105828560.98146  25844365.940                    25844393.000
      3894.186        3034.538          39.200          39.750



 119034301.288 8  92754054.14647  22651456.000                    22651458.500
      2034.336        1585.198          48.850          45.250    88889330.825 8
  22651459.160        1519.173          51.900


 23 12  2 15 36  0.0000000  0 11G06G10G11G12G15G17G19G24G25G29G32
 127548441.291 6  99388422.89946  24271655.440                    24271657.580
      2130.172        1659.874          38.900          38.600    95247252.228 7
  24271661.060        1590.514          45.050


 129498340.999 6 100907814.98646  24642716.480                    24642723.080
     -2500.498       -1948.441          41.050          40.400    96703329.060 7
  24642722.880       -1867.153          45.100


 134324546.245 6 104668476.17146  25561110.260                    25561112.360
      2964.948        2310.355          40.750          37.150   100307325.458 7
  25561118.120        2214.198          43.100


 105768009.853 8  82416800.22648  20126914.320                    20126912.060
       328.839         256.239          52.100          52.100



 131316587.922 7 102324588.18247  24988733.360                    24988739.360
     -3950.220       -3078.108          42.450          42.250



 133112551.111 6 103724136.97146  25330444.660                    25330443.880
     -3247.457       -2530.480          39.600          39.400



 120159516.282 7  93630871.91146  22865560.700                    22865558.520
     -2320.502       -1808.184          45.000          41.850



 111177415.817 8  86631823.50148  21156330.900                    21156332.380
     -2292.630       -1786.465          50.350          50.550    83022186.560 9
  21156333.720       -1712.012          55.150


 111926653.466 8  87215667.16047  21298904.740                    21298906.740
      2574.234        2005.900          48.650          47.100    83581711.882 8
  21298907.880        1922.446          52.150


 135696332.247 6 105737510.02646  25822127.300                    25822153.320
      3896.066        3036.000          39.350          39.400



 118973513.363 8  92706686.99747  22639888.500                    22639890.840
      2018.358        1572.749          49.050          45.950    88843937.329 8
  22639891.420        1507.255          51.700


 23 12  2 15 36 30.0000000  0 11G06G10G11G12G15G17G19G24G25G29G32
 127484737.631 6  99338783.72846  24259533.200                    24259535.020
      2117.258        1649.814          40.150          39.900    95199681.368 7
  24259538.440        1581.126          44.350


 129573489.443 6 100966372.04846  24657016.700                    24657023.720
     -2509.457       -1955.426          41.300          39.750    96759446.238 7
  24657023.200       -1873.850          44.800


 134235630.367 6 104599191.20046  25544190.360                    25544192.140
      2963.053        2308.875          41.250          37.100   100240927.418 7
  25544197.300        2212.547          43.150


 105758386.772 8  82409301.75648  20125083.200                    20125080.800
       312.988         243.889          52.550          52.700



 131435081.473 6 102416920.22746  25011282.360                    25011288.280
     -3948.729       -3076.951          41.800          41.950



 133210055.661 6 103800114.64946  25348999.120                    25348998.420
     -3252.903       -2534.721          40.100          39.950



 120229378.255 7  93685309.80246  22878855.000                    22878852.600
     -2336.369       -1820.548          45.850          39.950



 111246377.245 8  86685559.67548  21169453.860                    21169455.300
     -2304.516       -1795.727          50.750          50.850    83073683.733 9
  21169456.920       -1720.962          55.300


 111849592.769 8  87155619.95447  21284240.380                    21284242.620
      2563.257        1997.345          48.900          46.200    83524166.676 8
  21284243.480        1914.102          52.350


 135579421.302 6 105646413.51746  25799877.600                    25799902.280
      3898.426        3037.829          38.650          39.150



 118913201.815 8  92659691.04147  22628411.620                    22628413.820
      2002.542        1560.424          49.050          46.100    88798899.559 8
  22628414.300        1495.419          51.600


 23 12  2 15 37  0.0000000  0 11G06G10G11G12G15G17G19G24G25G29G32
 127421413.875 6  99289440.57946  24247483.340                    24247485.120
      2104.213        1639.647          39.850          40.400    95152394.207 7
  24247488.180        1571.198          43.550


 129648904.184 6 101025136.67646  24671367.680                    24671374.940
     -2518.707       -1962.632          39.900          39.050    96815762.311 7
  24671374.280       -1880.903          44.500


 134146776.223 6 104529954.35646  25527282.160                    25527283.600
      2960.562        2306.938          39.950          36.950   100174575.468 6
  25527287.980        2210.544          40.600


 105749241.683 8  82402175.74648  20123342.980                    20123340.500
       296.449         231.001          52.050          52.100



 131553535.716 6 102509221.69746  25033824.060                    25033829.940
     -3948.320       -3076.632          40.650          40.700



 133307725.178 6 103876220.87246  25367585.020                    25367584.100
     -3258.704       -2539.248          38.950          39.050



 120299711.033 7  93740114.56647  22892238.940                    22892236.240
     -2352.706       -1833.275          44.550          42.750



 111315696.192 8  86739574.44348  21182644.840                    21182646.260
     -2316.855       -1805.342          50.650          50.750    83125447.881 9
  21182647.980       -1730.229          55.150


 111772865.704 8  87095832.72447  21269639.620                    21269642.080
      2551.495        1988.181          48.950          47.300    83466870.605 8
  21269642.640        1905.335          52.400


 135462452.555 6 105555271.86646  25777616.980                    25777640.620
      3899.419        3038.598          38.950          39.050



 118853366.762 8  92613066.39047  22617025.400                    22617027.560
      1986.244        1547.725          48.800          46.800    88754217.624 8
  22617027.820        1483.123          51.100


 23 12  2 15 37 30.0000000  0 11G06G10G11G12G15G17G19G24G25G29G32
 127358477.608 7  99240399.39146  24235507.160                    24235508.960
      2091.211        1629.518          42.050          41.750    95105396.396 7
  24235511.400        1561.754          43.200


 129724587.271 6 101084110.35246  24685769.620                    24685777.140
     -2527.282       -1969.317          41.150          39.600    96872278.733 7
  24685776.280       -1887.201          44.100


 134057991.618 6 104460771.68246  25510387.280                    25510388.640
      2958.327        2305.197          40.500          36.950   100108275.469 6
  25510392.320        2209.018          41.750


 105740578.681 8  82395425.38348  20121694.460                    20121691.940
       280.806         218.811          52.650          52.650



 131671953.158 6 102601494.44546  25056358.440                    25056364.360
     -3946.271       -3075.034          40.250          40.350



 133405561.873 6 103952457.36046  25386202.640                    25386201.660
     -3263.796       -2543.216          37.850          38.900



 120370517.194 7  93795288.20046  22905712.840                    22905709.940
     -2368.060       -1845.241          45.050          40.850



 111385376.423 8  86793870.72248  21195904.620                    21195905.960
     -2328.607       -1814.499          51.300          51.100    83177481.812 9
  21195907.660       -1738.880          55.150


 111696478.033 8  87036309.96247  21255103.460                    21255106.120
      2540.611        1979.700          49.700          46.700    83409827.983 8
  21255106.520        1897.237          52.700


 135345433.625 6 105464091.08746  25755346.900                    25755369.660
      3901.533        3040.255          37.750          37.350



 118794015.080 8  92566818.39247  22605731.160                    22605733.360
      1970.425        1535.398          49.100          46.950    88709896.631 8
  22605733.280        1471.384          50.850


 23 12  2 15 38  0.0000000  0 11G06G10G11G12G15G17G19G24G25G29G32
 127295928.305 7  99191659.74447  24223604.580                    24223606.520
      2078.206        1619.383          42.650          42.100    95058687.581 7
  24223608.040        1551.848          42.900


 129800531.879 6 101143287.84946  24700221.500                    24700229.100
     -2536.222       -1976.283          41.300          40.650    96928990.483 7
  24700227.980       -1893.874          43.700


 133969276.370 6 104391643.04445  25493505.160                    25493505.740
      2955.647        2303.109          38.700          33.800   100042027.269 7
  25493510.000        2207.110          42.000


 105732393.535 8  82389047.38248  20120136.820                    20120134.280
       264.472         206.083          52.350          52.400



 131790328.615 6 102693734.49746  25078884.840                    25078890.600
     -3945.555       -3074.479          38.550          38.700



 133503560.000 6 104028819.72446  25404851.100                    25404850.100
     -3269.276       -2547.482          39.150          39.350



 120441791.030 7  93850826.28746  22919275.820                    22919272.780
     -2383.896       -1857.582          45.100          40.200



 111455413.512 8  86848445.07448  21209232.340                    21209233.660
     -2340.857       -1824.045          51.250          51.300    83229782.236 9
  21209235.160       -1748.070          54.950


 111620427.575 8  86977049.95747  21240631.540                    21240634.280
      2529.054        1970.694          49.650          46.900    83353037.173 8
  21240634.700        1888.551          52.800


 135228363.190 6 105372870.35346  25733067.240                    25733088.760
      3902.620        3041.103          38.100          38.350



 118735145.605 8  92520946.14447  22594528.700                    22594530.960
      1953.829        1522.467          49.300          46.950    88665935.735 8
  22594530.500        1459.006          50.550


 23 12  2 15 38 30.0000000  0 11G06G10G11G12G15G17G19G24G25G29G32
 127233770.154 7  99143224.92947  24211776.260                    24211778.580
      2065.313        1609.339          42.550          42.300    95012270.892 7
  24211779.400        1542.246          43.950


 129876736.775 7 101202668.15846  24714722.900                    24714730.580
     -2544.584       -1982.798          42.450          39.850    96985896.585 7
  24714729.180       -1900.102          43.950


 133880634.844 6 104322571.87145  25476637.080                    25476637.440
      2953.216        2301.209          39.600          35.150    99975834.086 6
  25476642.080        2205.429          41.950


 105724687.856 8  82383042.98748  20118670.400                    20118667.820
       248.780         193.856          51.900          51.900



 131908660.574 6 102785940.57647  25101403.120                    25101409.060
     -3943.636       -3072.982          41.300          42.100



 133601718.560 6 104105306.95046  25423530.040                    25423529.320
     -3274.854       -2551.833          39.550          39.850



 120513531.453 7  93906727.92347  22932927.580                    22932924.700
     -2399.333       -1869.608          44.550          42.000



 111525807.815 8  86903297.78348  21222628.000                    21222629.280
     -2352.446       -1833.075          51.200          50.900    83282349.414 9
  21222630.620       -1756.774          54.900


 111544716.721 8  86918054.59147  21226224.220                    21226226.980
      2517.944        1962.038          49.100          47.300    83296499.972 8
  21226227.540        1880.211          52.950


 135111244.998 6 105281612.49146  25710778.140                    25710798.460
      3905.103        3043.038          37.750          37.600



 118676761.841 8  92475452.36347  22583418.600                    22583420.940
      1937.816        1509.989          49.350          46.650    88622337.536 8
  22583420.220        1447.104          50.400


 23 12  2 15 39  0.0000000  0 12G06G10G11G12G15G17G19G24G25G28G29G32
 127172006.006 7  99095097.14547  24200022.900                    24200025.480
      2052.054        1599.007          42.350          42.300    94966148.437 7
  24200026.200        1532.486          44.800


 129953198.584 7 101262248.68246  24729273.160                    24729281.280
     -2552.820       -1989.214          42.700          38.400    97042994.554 7
  24729279.300       -1906.359          42.850


 133792070.018 6 104253560.54345  25459783.340                    25459783.900
      2950.940        2299.435          39.700          34.750    99909698.186 7
  25459788.820        2203.613          43.800


 105717461.181 8  82377411.83548  20117295.160                    20117292.540
       232.895         181.478          52.450          52.350



 132026946.735 6 102878111.03746  25123913.000                    25123918.980
     -3942.125       -3071.808          40.250          39.650



 133700035.542 6 104181917.70646  25442239.100                    25442238.440
     -3279.728       -2555.631          39.000          38.800



 120585736.270 7  93962991.42946  22946667.640                    22946665.140
     -2414.637       -1881.537          44.400          41.550



 111596558.326 8  86958428.06048  21236091.360                    21236092.620
     -2364.258       -1842.278          51.100          51.100    83335182.590 9
  21236093.940       -1765.488          54.850


 111469346.582 8  86859324.70747  21211881.700                    21211884.340
      2506.688        1953.267          49.200          47.250    83240217.186 8
  21211885.260        1871.860          52.900


 135341563.181 5                  25754641.960
      3462.821                          34.750                   101066794.871 5
  25754654.100        2585.784          35.450


 134994081.318 6 105190319.37246  25688480.360                    25688500.040
      3906.443        3044.092          38.850          39.350



 118618865.948 8  92430338.75047  22572401.380                    22572403.840
      1921.726        1497.451          50.000          47.100    88579103.659 8
  22572402.840        1435.101          50.350


 23 12  2 15 39 30.0000000  0 12G06G10G11G12G15G17G19G24G25G28G29G32
 127110642.145 7  99047281.27047  24188345.700                    24188348.420
      2038.940        1588.788          43.050          43.200    94920324.914 7
  24188349.060        1522.501          45.150


 130029918.229 7 101322030.11346  24743872.520                    24743880.560
     -2561.309       -1995.829          42.800          39.800    97100285.055 7
  24743878.620       -1912.888          43.300


 133703588.539 6 104184614.05145  25442945.500                    25442945.560
      2947.782        2296.980          38.150          35.600    99843624.514 7
  25442951.920        2201.388          44.400


 105710716.779 8  82372156.48148  20116011.780                    20116009.120
       216.713         168.868          52.800          52.800



 132145188.443 6 102970246.73146  25146414.040                    25146420.060
     -3940.704       -3070.699          41.350          41.550



 133798512.155 6 104258652.84246  25460978.440                    25460978.160
     -3285.094       -2559.806          39.800          40.250



 120658406.532 7  94019617.61846  22960496.260                    22960493.860
     -2430.109       -1893.591          44.550          41.750



 111667667.498 8  87013837.80448  21249622.960                    21249624.240
     -2376.297       -1851.660          51.050          51.000    83388283.599 9
  21249625.560       -1774.448          54.850


 111394321.704 8  86800863.85947  21197604.860                    21197607.260
      2494.978        1944.142          49.200          46.850    83184192.233 8
  21197608.520        1863.155          52.950


 135237674.937 6 105380029.80145  25734872.160                    25734875.580
      3463.397        2698.766          36.500          35.750   100989216.115 6
  25734883.800        2586.417          37.650


 134876877.960 6 105098995.36046  25666174.860                    25666193.740
      3907.688        3045.058          39.350          39.300



 118561463.588 8  92385609.70147  22561478.100                    22561480.540
      1905.110        1484.504          50.700          47.000    88536238.326 8
  22561479.520        1422.636          50.550


 23 12  2 15 40  0.0000000  0 12G06G10G11G12G15G17G19G24G25G28G29G32
 127049672.467 7  98999772.53847  24176743.640                    24176746.220
      2025.549        1578.353          43.750          43.900    94874795.727 7
  24176746.740        1512.578          45.050


 130106883.292 7 101382002.77946  24758518.700                    24758526.720
     -2569.966       -2002.572          43.850          39.800    97157758.818 7
  24758524.700       -1918.827          42.250


 133615184.533 6 104115727.90945  25426122.240                    25426122.600
      2945.172        2294.944          37.750          34.750    99777608.639 7
  25426129.760        2199.489          42.900


 105704445.835 8  82367270.06448  20114818.500                    20114815.880
       200.979         156.607          52.800          52.750



 132263374.180 6 103062338.87446  25168904.720                    25168910.400
     -3938.815       -3069.230          39.000          38.650



 133897137.240 6 104335503.66846  25479746.140                    25479746.040
     -3290.031       -2563.657          37.800          37.950



 120731530.973 7  94076597.73246  22974411.500                    22974409.100
     -2445.206       -1905.355          44.800          41.150



 111739125.362 8  87069519.26548  21263220.900                    21263222.100
     -2387.995       -1860.775          50.900          50.900    83441644.999 9
  21263223.620       -1783.143          54.600


 111319634.237 8  86742665.93547  21183392.200                    21183394.360
      2483.625        1935.296          49.700          46.800    83128419.226 8
  21183395.860        1854.812          52.400


 135133749.708 6 105299049.20445  25715095.440                    25715100.900
      3465.002        2700.001          38.300          33.650   100911609.701 6
  25715107.740        2587.282          41.500


 134759627.537 6 105007634.60146  25643860.360                    25643878.760
      3909.047        3046.115          40.500          40.550



 118504547.894 8  92341259.86947  22550647.420                    22550649.840
      1888.839        1471.824          50.550          46.750    88493736.416 8
  22550648.920        1410.540          50.450


 23 12  2 15 40 30.0000000  0 12G06G10G11G12G15G17G19G24G25G28G29G32
 126989104.381 7  98952576.73647  24165217.720                    24165220.380
      2012.606        1568.268          43.150          43.900    94829566.426 7
  24165220.980        1502.910          45.850


 130184095.788 7 101442168.23746  24773211.940                    24773220.040
     -2577.610       -2008.532          43.700          40.350    97215417.392 7
  24773217.740       -1924.817          42.000


 133526865.743 6 104046908.11545  25409315.440                    25409314.960
      2942.849        2293.131          38.800          34.800    99711656.366 7
  25409323.500        2197.456          45.050


 105698651.162 8  82362754.77048  20113715.800                    20113713.280
       185.461         144.516          52.300          52.300



 132381506.839 6 103154389.50446  25191385.040                    25191391.080
     -3936.900       -3067.740          41.250          40.950



 133995912.972 6 104412471.92746  25498542.340                    25498542.420
     -3294.860       -2567.409          38.450          38.250



 120805111.815 7  94133933.48146  22988413.540                    22988411.240
     -2460.003       -1916.885          44.550          41.400



 111810935.498 8  87125475.21548  21276885.800                    21276886.900
     -2399.227       -1869.527          50.400          50.400    83495269.463 9
  21276888.760       -1791.612          54.700


 111245289.865 8  86684735.35447  21169244.840                    21169246.820
      2472.862        1926.909          49.800          47.100    83072902.453 8
  21169248.380        1846.542          52.400


 135029792.939 6 105218044.04646  25695313.140                    25695320.000
      3465.512        2700.402          38.300          37.150   100833979.734 6
  25695325.400        2588.272          41.450


 134642337.232 6 104916242.58346  25621538.380                    25621556.100
      3910.747        3047.437          39.350          39.350



 118448125.666 8  92297294.55447  22539910.620                    22539913.000
      1872.801        1459.328          50.850          46.900    88451603.012 8
  22539912.260        1398.516          50.700


 23 12  2 15 41  0.0000000  0 12G06G10G11G12G15G17G19G24G25G28G29G32
 126928941.327 7  98905696.53847  24153768.860                    24153771.680
      1998.812        1557.520          43.250          43.250    94784639.600 7
  24153772.600        1492.445          46.950


 130261552.977 7 101502524.38646  24787951.720                    24787959.620
     -2585.915       -2015.001          44.250          38.200    97273258.668 7
  24787957.980       -1931.035          43.150


 133438635.918 6 103978157.59245  25392525.600                    25392525.440
      2939.544        2290.550          39.400          34.500    99645770.454 7
  25392534.640        2195.130          44.250


 105693333.721 8  82358611.33948  20112703.860                    20112701.360
       169.286         131.912          52.600          52.550



 132499584.619 6 103246397.39846  25213855.360                    25213861.000
     -3934.923       -3066.202          41.700          41.750



 134094837.906 6 104489556.38746  25517366.960                    25517367.280
     -3300.108       -2571.508          38.850          38.200



 120879147.392 7  94191623.56747  23002502.120                    23002500.060
     -2475.284       -1928.793          44.300          43.000



 111883097.532 8  87181705.38848  21290617.700                    21290618.700
     -2411.291       -1878.928          50.000          50.050    83549156.714 9
  21290620.900       -1800.662          54.750


 111171290.348 8  86627073.48947  21155163.100                    21155165.020
      2460.976        1917.646          49.850          47.400    83017643.177 8
  21155166.480        1837.693          52.600


 134925806.504 6 105137015.75246  25675525.120                    25675530.920
      3466.599        2701.248          40.500          38.800   100756327.686 7
  25675537.200        2588.727          43.400


 134525009.805 6 104824821.43446  25599209.100                    25599225.940
      3911.437        3047.962          38.950          37.950



 118392199.621 8  92253715.88547  22529268.140                    22529270.560
      1855.959        1446.204          50.400          47.250    88409840.137 8
  22529270.000        1385.923          50.900


 23 12  2 15 41 30.0000000  0 12G06G10G11G12G15G17G19G24G25G28G29G32
 126869185.331 7  98859133.51847  24142397.480                    24142400.720
      1984.216        1546.146          42.850          42.750    94740016.723 7
  24142401.800        1481.815          47.700


 130339251.215 7 101563068.35346  24802737.400                    24802745.220
     -2594.568       -2021.742          44.850          37.650    97331279.958 6
  24802743.820       -1937.526          41.800


 133350497.388 6 103909478.21845  25375752.980                    25375753.660
      2935.576        2287.459          38.950          30.550    99579952.676 7
  25375762.660        2192.257          44.900


 105688492.256 8  82354838.79448  20111782.480                    20111780.020
       152.656         118.954          52.250          52.400



 132617604.208 7 103338359.96147  25236314.360                    25236319.920
     -3933.789       -3065.316          42.650          42.600



 134193908.865 6 104566754.69046  25536219.360                    25536219.480
     -3305.808       -2575.947          38.750          39.700



 120953634.448 7  94249665.47447  23016676.660                    23016674.700
     -2491.146       -1941.151          44.150          42.200



 111955609.652 8  87238208.34048  21304416.220                    21304417.180
     -2423.764       -1888.647          49.850          49.750    83603305.378 9
  21304419.380       -1809.834          54.750


 111097635.941 8  86569680.55347  21141147.040                    21141148.980
      2448.505        1907.929          49.850          47.500    82962641.628 8
  21141150.280        1828.518          52.800


 134821790.440 6 105055964.39946  25655731.480                    25655737.680
      3466.724        2701.350          41.050          37.550   100678653.493 7
  25655743.640        2588.815          42.850


 134407646.596 6 104733372.10146  25576873.560                    25576889.220
      3911.965        3048.360          40.800          41.150



 118336771.120 8  92210524.91347  22518720.380                    22518722.760
      1838.500        1432.600          50.100          47.700    88368448.800 8
  22518722.340        1372.914          51.000


 23 12  2 15 42  0.0000000  0 12G06G10G11G12G15G17G19G24G25G28G29G32
 126809839.004 7  98812889.72447  24131104.080                    24131107.760
      1971.199        1536.004          43.100          43.150    94695699.787 7
  24131108.840        1471.954          47.900


 130417187.256 7 101623797.61946  24817568.420                    24817575.980
     -2601.639       -2027.257          44.550          37.500    97389478.846 7
  24817575.200       -1943.126          42.550


 133262453.126 6 103840872.24645  25358998.600                    25358999.820
      2933.011        2285.460          39.350          34.950    99514205.311 7
  25359008.740        2190.198          45.850


 105684126.496 8  82351436.93048  20110951.560                    20110949.240
       137.459         107.112          52.050          52.050



 132735563.488 7 103430275.42747  25258761.940                    25258767.840
     -3930.812       -3062.997          43.100          42.800



 134293123.382 6 104644064.92946  25555099.180                    25555099.540
     -3309.658       -2578.942          37.950          38.200



 121028570.445 7  94308057.20847  23030936.520                    23030934.740
     -2505.400       -1952.258          44.350          42.650



 112028470.582 8  87294983.08548  21318281.120                    21318282.140
     -2434.709       -1897.176          50.100          50.150    83657714.518 9
  21318284.100       -1818.124          54.600


 111024327.508 8  86512557.20347  21127196.900                    21127198.740
      2437.722        1899.526          50.350          47.100    82907898.433 8
  21127199.940        1820.301          52.750


 134717745.811 6 104974890.78046  25635932.420                    25635938.360
      3468.274        2702.559          40.150          38.500   100600957.948 7
  25635944.640        2589.936          42.850


 134290250.003 6 104641896.45746  25554531.860                    25554547.500
      3913.715        3049.714          39.200          38.150



 118281842.034 8  92167723.10647  22508267.600                    22508269.980
      1822.454        1420.097          50.400          46.650    88327430.417 8
  22508269.620        1360.868          50.750


 23 12  2 15 42 30.0000000  0 12G06G10G11G12G15G17G19G24G25G28G29G32
 126750907.147 7  98766968.88447  24119889.480                    24119893.580
      1957.056        1524.981          42.400          42.200    94651692.331 7
  24119894.640        1461.564          47.800


 130495360.457 7 101684711.71146  24832444.440                    24832451.820
     -2609.942       -2033.723          44.200          38.750    97447854.810 7
  24832451.440       -1948.958          42.050


 133174508.368 6 103772343.86245  25342263.280                    25342265.060
      2929.700        2282.885          39.200          31.200    99448532.225 7
  25342273.640        2187.581          44.200


 105680238.057 8  82348406.99548  20110211.400                    20110209.260
       121.336          94.548          51.650          51.650



 132853462.069 6 103522143.47446  25281197.940                    25281204.280
     -3929.103       -3061.674          41.000          40.500



 134392481.392 6 104721486.87346  25574006.340                    25574006.840
     -3314.660       -2582.842          38.350          38.650



 121103955.072 7  94366798.50047  23045281.740                    23045280.240
     -2520.513       -1964.036          45.050          42.550



 112101681.382 8  87352030.45748  21332212.660                    21332213.620
     -2446.452       -1906.326          50.300          50.250    83712384.915 9
  21332215.660       -1826.870          54.700


 110951368.183 8  86455705.87747  21113313.240                    21113314.920
      2425.904        1890.318          50.150          47.950    82853415.924 8
  21113316.060        1811.573          52.750


 134613675.748 6 104893797.37446  25616128.560                    25616134.360
      3469.067        2703.175          40.500          36.150   100523243.464 7
  25616140.740        2590.646          43.800


 134172823.902 6 104550397.51046  25532184.880                    25532199.900
      3914.608        3050.402          38.050          38.400



 118227416.480 8  92125313.65547  22497910.660                    22497913.020
      1805.437        1406.836          50.100          47.200    88286788.039 8
  22497912.540        1348.245          50.500


 23 12  2 15 43  0.0000000  0 12G06G10G11G12G15G17G19G24G25G28G29G32
 126692387.392 7  98721369.17446  24108753.380                    24108757.680
      1943.541        1514.450          42.050          41.700    94607992.636 7
  24108758.540        1451.364          47.600


 130573761.963 7 101745803.71245  24847363.840                    24847371.060
     -2617.359       -2039.503          44.250          34.950    97506401.308 7
  24847370.960       -1954.558          42.600


 133086661.183 6 103703891.41545  25325546.820                    25325548.600
      2926.582        2280.453          39.700          32.200    99382931.990 7
  25325556.720        2185.238          43.500


 105676820.647 8  82345744.10948  20109560.980                    20109558.820
       105.772          82.421          51.800          51.850



 132971292.642 7 103613958.56747  25303621.200                    25303627.760
     -3927.141       -3060.139          43.400          43.000



 134491975.443 6 104799014.92546  25592939.220                    25592939.360
     -3319.088       -2586.297          39.300          38.950



 121179780.916 7  94425883.62147  23059710.940                    23059709.740
     -2535.159       -1975.447          43.900          43.250



 112175235.824 8  87409345.60948  21346209.660                    21346210.640
     -2457.803       -1915.171          50.750          50.600    83767311.940 9
  21346212.680       -1835.440          55.000


 110878753.924 8  86399123.43047  21099495.260                    21099496.680
      2414.351        1881.315          50.250          47.000    82799191.100 8
  21099497.920        1802.925          52.900


 134509576.152 6 104812680.96345  25596319.000                    25596324.880
      3470.252        2704.096          40.400          35.750   100445506.935 7
  25596331.080        2591.319          44.450


 134055365.811 6 104458873.25046  25509832.080                    25509846.320
      3915.422        3051.024          40.650          40.650



 118173491.440 8  92083294.22547  22487649.020                    22487651.320
      1788.899        1393.951          50.750          46.750    88246519.426 8
  22487650.520        1335.820          50.250


 23 12  2 15 43 30.0000000  0 12G06G10G11G12G15G17G19G24G25G28G29G32
 126634288.495 6  98676097.39246  24097697.400                    24097701.720
      1928.936        1503.069          41.750          41.600    94564607.222 7
  24097702.400        1440.518          47.400


 130652395.274 7 101807076.35646  24862327.320                    24862334.260
     -2625.221       -2045.627          43.600          37.700    97565120.876 7
  24862334.700       -1960.707          42.800


 132998920.646 6 103635522.18046  25308850.460                    25308852.040
      2922.121        2276.982          40.500          36.750    99317411.486 7
  25308860.220        2182.157          42.600


 105673880.210 8  82343452.88648  20109001.400                    20108999.120
        89.446          69.699          52.050          51.900



 133089058.940 6 103705723.43546  25326031.980                    25326038.980
     -3925.131       -3058.583          41.250          41.250



 134591609.331 6 104876651.85646  25611898.760                    25611898.680
     -3323.904       -2590.052          40.050          40.500



 121256051.072 7  94485314.94447  23074224.600                    23074223.700
     -2550.250       -1987.206          44.550          42.300



 112249138.870 8  87466932.40048  21360273.080                    21360274.100
     -2469.822       -1924.537          50.800          50.800    83822499.283 9
  21360275.960       -1844.395          54.800


 110806491.713 8  86342815.30047  21085744.240                    21085745.500
      2402.301        1871.926          50.300          46.950    82745229.164 8
  21085746.760        1793.876          52.700


 134405454.201 6 104731547.15946  25576505.180                    25576510.740
      3470.687        2704.435          39.200          38.200   100367753.767 7
  25576517.360        2591.588          44.500


 133937884.207 6 104367330.45346  25487475.160                    25487488.900
      3915.699        3051.236          39.950          39.750



 118120074.916 8  92041671.02547  22477484.200                    22477486.400
      1771.470        1380.367          50.900          46.600    88206630.532 8
  22477485.200        1322.830          49.850


 23 12  2 15 44  0.0000000  0 12G06G10G11G12G15G17G19G24G25G28G29G32
 126576606.974 7  98631150.85946  24086720.920                    24086725.140
      1915.541        1492.632          42.250          41.900    94521533.474 7
  24086725.840        1430.630          47.700


 130731251.040 7 101868522.32646  24877333.000                    24877340.120
     -2632.052       -2050.947          42.600          37.550    97624006.576 7
  24877340.620       -1965.584          42.400


 132911283.689 6 103567233.65445  25292174.000                    25292175.620
      2919.738        2275.117          39.700          33.050    99251968.329 7
  25292183.160        2180.223          43.600


 105671410.207 8  82341528.23748  20108531.440                    20108529.120
        74.716          58.221          51.950          51.800



 133206752.506 7 103797431.63347  25348429.240                    25348436.280
     -3921.957       -3056.105          43.650          43.100



 134691374.737 6 104954391.35046  25630883.340                    25630883.340
     -3327.299       -2592.692          37.350          37.200



 121332757.164 7  94545085.93947  23088821.260                    23088820.580
     -2563.994       -1997.917          43.750          43.600



 112323383.170 8  87524785.09748  21374401.440                    21374402.320
     -2480.326       -1932.723          50.500          50.550    83877941.445 9
  21374404.180       -1852.282          54.850


 110734576.348 8  86286777.43547  21072059.140                    21072060.400
      2391.495        1863.507          50.300          46.750    82691526.233 8
  21072061.600        1785.794          52.650


 134301304.695 6 104650391.94246  25556686.100                    25556691.720
      3472.484        2705.842          39.300          36.600   100289980.052 7
  25556698.080        2592.844          43.550


 133820375.376 6 104275766.23246  25465113.140                    25465126.780
      3917.687        3052.777          39.850          40.350



 118067162.694 8  92000440.79247  22467415.420                    22467417.480
      1755.429        1367.869          51.400          46.300    88167118.236 8
  22467415.840        1310.817          49.700


 23 12  2 15 44 30.0000000  0 12G06G10G11G12G15G17G19G24G25G28G29G32
 126519348.597 6  98586534.06846  24075824.800                    24075829.080
      1901.188        1481.450          41.700          41.850    94478775.744 7
  24075829.820        1419.795          47.400


 130810329.240 7 101930141.59646  24892381.040                    24892388.160
     -2640.111       -2057.230          42.950          36.350    97683058.376 7
  24892388.900       -1971.258          42.800


 132823756.591 7 103499030.80245  25275518.520                    25275519.900
      2915.348        2271.702          42.600          34.000    99186607.234 7
  25275527.000        2177.133          43.200


 105669413.385 8  82339972.29948  20108151.500                    20108149.200
        58.249          45.390          52.100          52.050



 133324374.570 7 103889084.11447  25370812.780                    25370819.780
     -3919.865       -3054.478          42.550          42.600



 134791272.633 6 105032234.03246  25649893.120                    25649892.920
     -3332.575       -2596.805          39.450          39.300



 121409900.494 7  94605197.66447  23103501.160                    23103500.520
     -2579.088       -2009.678          44.600          43.400



 112397970.765 8  87582905.29348  21388595.100                    21388595.840
     -2492.302       -1942.054          50.300          50.400    83933639.958 9
  21388597.640       -1861.104          54.700


 110663011.979 8  86231013.07847  21058440.800                    21058442.160
      2379.206        1853.929          50.550          46.800    82638085.393 8
  21058443.220        1776.792          52.600


 134197131.933 6 104569218.58246  25536862.360                    25536867.800
      3472.772        2706.068          39.200          37.300   100212188.965 7
  25536874.300        2593.068          42.800


 133702844.991 6 104184185.09146  25442747.320                    25442760.480
      3917.649        3052.741          39.050          39.550



 118014759.909 8  91959607.52047  22457443.520                    22457445.500
      1737.886        1354.198          51.300          46.300    88127986.358 8
  22457443.560        1297.802          49.750


 23 12  2 15 45  0.0000000  0 12G06G10G11G12G15G17G19G24G25G28G29G32
 126462518.914 7  98542251.33847  24065010.340                    24065014.580
      1887.059        1470.440          42.700          42.800    94436338.155 7
  24065015.240        1409.217          47.600


 130889629.562 7 101991933.96846  24907471.380                    24907478.300
     -2646.945       -2062.559          42.600          38.350    97742276.030 7
  24907479.140       -1976.608          43.350


 132736345.295 6 103430918.17445  25258884.840                    25258885.980
      2911.691        2268.856          41.750          34.850    99121332.704 7
  25258893.060        2174.482          42.550


 105667891.624 8  82338786.54648  20107861.960                    20107859.660
        42.841          33.384          52.000          52.100



 133441925.331 7 103980680.88147  25393182.800                    25393190.480
     -3916.973       -3052.229          43.150          43.100



 134891303.232 6 105110180.15246  25668928.080                    25668927.720
     -3336.565       -2599.914          40.050          39.750



 121487480.627 7  94665649.72847  23118264.220                    23118263.440
     -2593.211       -2020.685          44.500          43.800



 112472903.422 8  87641294.36048  21402854.400                    21402855.060
     -2503.489       -1950.771          50.500          50.400    83989596.146 9
  21402856.880       -1869.492          54.550


 110591802.460 8  86175525.22247  21044890.020                    21044891.460
      2367.730        1844.987          50.500          46.750    82584909.559 8
  21044892.360        1768.133          52.700


 134092940.124 6 104488030.42146  25517035.120                    25517040.280
      3474.051        2707.063          38.200          36.300   100134383.719 7
  25517047.080        2593.848          43.950


 133585298.206 6 104092591.01246  25420378.500                    25420390.820
      3918.495        3053.396          38.750          38.650



 117962871.400 8  91919174.99047  22447569.420                    22447571.360
      1721.073        1341.099          51.300          45.850    88089238.524 8
  22447569.440        1285.266          49.950


 23 12  2 15 45 30.0000000  0 12G06G10G11G12G15G17G19G24G25G28G29G32
 126406114.296 7  98498299.82247  24054276.780                    24054280.940
      1873.007        1459.489          42.100          42.000    94394217.990 7
  24054281.520        1398.548          47.950


 130969142.891 7 102053892.34146  24922602.300                    24922609.360
     -2654.472       -2068.420          42.200          38.900    97801652.763 7
  24922610.280       -1982.015          43.000


 132649046.630 6 103362893.35346  25242272.580                    25242273.840
      2907.834        2265.852          41.100          37.050    99056142.286 7
  25242280.040        2171.398          42.950


 105666838.531 8  82337965.97648  20107661.600                    20107659.340
        27.026          21.061          52.150          52.250



 133559396.475 6 104072215.56446  25415537.580                    25415545.840
     -3914.784       -3050.523          41.350          40.400



 134991458.417 6 105188223.29746  25687986.860                    25687986.420
     -3340.878       -2603.277          36.900          36.800



 121565488.975 7  94726435.49047  23133108.660                    23133107.700
     -2607.795       -2032.047          44.850          44.000



 112548173.747 8  87699946.55948  21417177.860                    21417178.500
     -2514.844       -1959.619          50.250          50.400    84045804.497 9
  21417180.320       -1877.922          54.650


 110520942.563 8  86120309.79647  21031405.800                    21031407.180
      2355.872        1835.746          50.650          46.950    82531994.791 8
  21031408.060        1759.301          53.100


 133988723.989 6 104406823.31045  25497203.300                    25497208.340
      3474.050        2707.064          38.250          34.300   100056560.280 7
  25497215.380        2594.327          42.800


 133467731.026 6 104000981.03346  25398005.700                    25398017.720
      3918.953        3053.754          40.200          39.700



 117911492.855 8  91879139.83847  22437792.280                    22437794.220
      1703.871        1327.694          50.900          46.100    88050871.531 8
  22437792.560        1272.306          50.550


 23 12  2 15 46  0.0000000  0 12G06G10G11G12G15G17G19G24G25G28G29G32
 126350144.750 7  98454687.33246  24043626.080                    24043630.100
      1858.440        1448.141          42.050          41.800    94352422.712 8
  24043630.780        1387.710          48.050


 131048873.180 7 102116019.74346  24937774.440                    24937781.600
     -2661.524       -2073.914          42.300          37.100    97861191.483 7
  24937782.540       -1987.281          43.500


 132561871.044 7 103294964.50146  25225683.640                    25225685.200
      2903.909        2262.794          42.850          36.700    98991043.801 7
  25225690.200        2168.479          42.850


 105666260.640 8  82337515.69048  20107551.620                    20107549.440
        11.315           8.817          52.150          52.000



 133676793.240 6 104163692.21546  25437878.360                    25437887.100
     -3912.001       -3048.357          41.700          41.000



 135091742.962 6 105266367.31346  25707070.120                    25707069.720
     -3344.840       -2606.361          39.300          38.900



 121643930.511 7  94787558.76947  23148035.600                    23148034.400
     -2621.927       -2043.060          45.050          43.450



 112623788.013 8  87758866.76348  21431566.680                    21431567.440
     -2526.292       -1968.539          50.300          50.100    84102269.696 9
  21431569.240       -1886.455          54.250


 110450440.605 8  86065373.27947  21017989.660                    21017991.020
      2344.078        1826.556          50.650          47.350    82479347.318 8
  21017991.980        1750.442          53.000


 133884492.056 6 104325603.90045  25477368.360                    25477373.220
      3474.816        2707.659          38.350          35.300    99978725.073 7
  25477380.340        2594.588          43.400


 133350153.585 6 103909362.92246  25375631.300                    25375642.380
      3919.185        3053.933          40.200          39.500



 117860633.586 8  91839509.31047  22428113.920                    22428115.860
      1686.591        1314.229          50.550          46.250    88012892.299 8
  22428114.620        1259.412          50.650


 23 12  2 15 46 30.0000000  0 12G06G10G11G12G15G17G19G24G25G28G29G32
 126294606.203 7  98411410.67447  24033057.480                    24033061.440
      1844.063        1436.938          42.700          42.850    94310949.278 8
  24033062.180        1377.107          48.300


 131128810.869 6 102178308.74746  24952986.040                    24952993.640
     -2667.837       -2078.838          41.800          36.200    97920885.112 7
  24952994.220       -1992.147          43.250


 132474815.233 6 103227128.98746  25209117.320                    25209119.120
      2899.882        2259.655          41.950          37.500    98926034.789 7
  25209123.200        2165.316          42.650


 105666150.599 8  82337429.97148  20107530.680                    20107528.460
        -4.153          -3.235          52.250          52.200



 133794106.368 6 104255103.59146  25460203.220                    25460212.420
     -3908.928       -3045.969          41.200          40.350



 135192148.505 6 105344605.59946  25726176.440                    25726176.080
     -3349.473       -2609.971          37.800          37.250



 121722796.002 7  94849012.41947  23163043.220                    23163041.820
     -2635.931       -2053.973          45.450          43.400



 112699738.366 8  87818048.85548  21446019.440                    21446020.300
     -2537.231       -1977.063          49.950          50.200    84158985.860 9
  21446022.220       -1894.635          54.300


 110380290.885 8  86010711.23147  21004640.540                    21004641.860
      2332.482        1817.521          50.700          47.550    82426962.874 8
  21004643.020        1741.837          53.100


 133780238.826 6 104244367.88346  25457529.380                    25457534.100
      3475.444        2708.146          41.050          36.350    99900873.918 7
  25457541.420        2595.368          43.100


 133232561.418 6 103817733.43946  25353253.920                    25353264.680
      3920.034        3054.596          41.300          41.300



 117810288.815 8  91800279.70047  22418533.480                    22418535.360
      1669.620        1301.006          50.300          46.100    87975297.277 8
  22418534.640        1246.836          50.850


 23 12  2 15 47  0.0000000  0 12G06G10G11G12G15G17G19G24G25G28G29G32
 126239503.888 7  98368473.94147  24022572.000                    24022575.960
      1829.304        1425.436          43.350          43.350    94269801.611 8
  24022576.800        1365.902          48.250


 131208955.381 6 102240758.91846  24968237.020                    24968244.760
     -2675.085       -2084.489          40.600          38.700    97980733.167 6
  24968245.340       -1997.670          41.900


 132387884.679 6 103159391.03546  25192574.700                    25192576.720
      2895.391        2256.151          41.500          37.250    98861119.353 7
  25192580.380        2162.179          43.300


 105666510.824 8  82337710.69648  20107599.180                    20107596.840
       -20.053         -15.625          51.800          51.800



 133911336.209 6 104346450.03046  25482512.420                    25482521.760
     -3906.527       -3044.098          41.650          41.400



 135292675.313 6 105422938.32846  25745305.940                    25745305.440
     -3352.999       -2612.719          40.100          40.250



 121802085.722 7  94910796.62947  23178131.580                    23178130.140
     -2650.174       -2065.070          45.550          44.000



 112776026.301 8  87877493.99448  21460536.420                    21460537.340
     -2548.735       -1986.027          49.650          49.500    84215954.112 9
  21460539.460       -1903.274          54.150


 110310496.982 8  85956326.44047  20991359.000                    20991360.420
      2320.196        1807.947          50.350          47.250    82374844.128 8
  20991361.740        1732.659          53.200


 133675967.999 6 104163118.08946  25437687.160                    25437691.920
      3475.954        2708.544          40.750          37.850    99823009.611 7
  25437698.900        2595.588          42.900


 133114959.631 6 103726096.47846  25330874.500                    25330885.120
      3920.036        3054.602          40.300          40.250



 117760463.083 8  91761454.53047  22409051.780                    22409053.540
      1652.014        1287.286          50.300          45.850    87938089.851 8
  22409053.360        1233.597          50.950


 23 12  2 15 47 30.0000000  0 12G06G10G11G12G15G17G19G24G25G28G29G32
 126184841.137 7  98325879.70547  24012170.240                    24012173.960
      1814.532        1413.924          44.200          44.150    94228982.137 8
  24012175.020        1355.281          48.100


 131289304.682 6 102303368.64246  24983526.820                    24983535.140
     -2681.812       -2089.729          40.400          37.900    98040734.152 7
  24983535.420       -2002.525          42.450


 132301083.285 6 103091753.76646  25176056.660                    25176058.940
      2891.123        2252.825          41.250          38.200    98796300.327 6
  25176061.660        2159.021          41.900


 105667341.545 8  82338358.03648  20107757.240                    20107754.780
       -35.504         -27.665          51.950          51.850



 134028481.444 6 104437730.48846  25504805.560                    25504815.460
     -3903.493       -3041.733          41.300          41.600



 135393321.802 6 105501364.39746  25764458.080                    25764457.320
     -3357.054       -2615.877          38.550          38.100



 121881797.655 7  94972909.82547  23193300.280                    23193298.780
     -2664.062       -2075.893          45.850          43.800



 112852651.387 8  87937201.85348  21475117.600                    21475118.700
     -2559.689       -1994.563          49.700          49.800    84273174.144 9
  21475120.780       -1911.510          54.400


 110241060.528 8  85902220.18347  20978145.520                    20978146.980
      2308.652        1798.952          50.050          47.850    82322992.318 8
  20978148.640        1724.027          53.450


 133571681.555 6 104081856.16446  25417842.000                    25417846.500
      3476.383        2708.878          40.950          36.500    99745133.635 7
  25417853.420        2596.147          43.700


 132997351.403 6 103634454.63546  25308493.740                    25308504.340
      3920.348        3054.847          39.850          39.650



 117711158.963 8  91723035.81247  22399669.380                    22399670.880
      1634.672        1273.771          49.950          45.800    87901271.937 8
  22399671.280        1220.813          51.350


 23 12  2 15 48  0.0000000  0 12G06G10G11G12G15G17G19G24G25G28G29G32
 126130617.850 7  98283627.90447  24001852.100                    24001855.360
      1800.335        1402.861          43.650          44.000    94188490.882 7
  24001856.660        1344.238          47.650


 131369852.591 6 102366133.14245  24998854.560                    24998862.860
     -2688.283       -2094.770          41.400          34.450    98100883.420 7
  24998863.580       -2007.379          43.300


 132214411.491 6 103024217.52446  25159563.200                    25159565.920
      2886.903        2249.541          40.650          38.250    98731578.152 7
  25159568.000        2155.979          42.850


 105668639.300 8  82339369.30248  20108004.260                    20108001.740
       -50.947         -39.698          52.550          52.600



 134145537.361 6 104528941.25346  25527081.680                    25527091.800
     -3900.290       -3039.241          41.500          41.800



 135494083.150 6 105579879.88746  25783632.200                    25783631.320
     -3360.474       -2618.545          38.950          39.050



 121961926.688 7  95035348.01047  23208548.280                    23208546.800
     -2677.661       -2086.489          45.900          43.950



 112929609.831 8  87997169.46848  21489762.220                    21489763.600
     -2570.687       -2003.132          49.600          49.700    84330643.108 9
  21489765.520       -1919.680          54.100


 110171979.891 8  85848391.18347  20964999.780                    20965001.300
      2296.869        1789.771          49.950          47.700    82271406.205 8
  20965003.200        1715.225          53.400


 133467378.114 6 104000580.99945  25397993.720                    25397998.160
      3477.196        2709.517          40.750          34.050    99667245.007 7
  25398004.820        2596.614          42.350


 132879736.431 6 103542807.51646  25286111.800                    25286121.960
      3920.725        3055.142          40.050          40.350



 117662375.728 8  91685022.97947  22390386.180                    22390387.380
      1617.543        1260.426          50.300          45.700    87864843.000 8
  22390388.220        1207.862          51.300


 23 12  2 15 48 30.0000000  0 12G06G10G11G12G15G17G19G24G25G28G29G32
 126076838.082 7  98241721.68747  23991618.100                    23991621.160
      1785.344        1391.180          43.300          43.250    94148330.778 7
  23991622.560        1333.127          47.700


 131450597.764 6 102429051.33346  25014219.980                    25014228.340
     -2694.529       -2099.634          41.500          37.950    98161179.977 7
  25014229.420       -2012.320          42.300


 132127873.858 6 102956785.82446  25143095.260                    25143098.000
      2882.571        2246.165          39.150          38.150    98666956.170 7
  25143099.880        2152.359          42.800


 105670404.779 8  82340745.03748  20108340.280                    20108337.760
       -66.437         -51.768          52.100          52.200



 134262503.168 6 104620081.77846  25549340.920                    25549350.940
     -3897.296       -3036.911          40.250          40.800



 135594958.566 6 105658484.32446  25802827.940                    25802827.120
     -3364.496       -2621.680          38.450          38.350



 122042471.652 7  95098110.31647  23223875.520                    23223873.980
     -2691.694       -2097.424          45.450          44.750



 113006901.947 8  88057397.07648  21504470.420                    21504472.000
     -2581.805       -2011.796          49.500          49.350    84388361.234 9
  21504473.700       -1927.983          54.150


 110103257.472 8  85794841.30247  20951922.360                    20951923.720
      2285.034        1780.549          50.100          47.550    82220087.590 8
  20951925.780        1706.237          53.600


 133363060.376 6 103919294.68746  25378142.640                    25378147.080
      3477.533        2709.771          39.900          37.000    99589345.690 7
  25378153.400        2596.944          42.000


 132762118.312 6 103451158.00746  25263729.180                    25263739.100
      3920.782        3055.187          39.650          38.900



 117614116.696 8  91647418.60447  22381202.760                    22381203.660
      1600.058        1246.800          50.200          46.400    87828805.499 8
  22381204.820        1194.816          51.400


 23 12  2 15 49  0.0000000  0 12G06G10G11G12G15G17G19G24G25G28G29G32
 126023506.362 7  98200164.61947  23981469.500                    23981472.360
      1769.978        1379.207          43.100          42.900    94108505.256 7
  23981473.620        1321.775          47.850


 131531538.981 6 102492122.26646  25029622.840                    25029631.040
     -2701.560       -2105.116          41.500          36.550    98221622.929 7
  25029632.220       -2017.294          42.650


 132041475.568 6 102889462.70046  25126654.040                    25126656.420
      2877.027        2241.843          39.850          36.200    98602438.210 6
  25126658.440        2148.596          41.850


 105672639.328 8  82342486.26648  20108765.460                    20108762.880
       -82.520         -64.301          52.000          52.050



 134379378.641 6 104711151.77346  25571582.940                    25571593.180
     -3894.469       -3034.712          39.600          40.150



 135695948.177 6 105737177.73146  25822045.440                    25822044.520
     -3368.453       -2624.763          38.650          38.950



 122123432.013 7  95161196.29146  23239281.800                    23239280.180
     -2705.786       -2108.405          45.950          41.950



 113084528.566 8  88117885.34448  21519242.300                    21519243.880
     -2593.389       -2020.822          49.350          49.300    84446329.156 8
  21519245.380       -1936.565          53.750


 110034896.214 8  85741572.84447  20938913.700                    20938914.900
      2272.349        1770.663          50.550          46.950    82169038.651 8
  20938917.020        1696.980          53.450


 133258731.534 6 103837999.77245  25358289.140                    25358293.640
      3477.584        2709.812          39.650          34.200    99511438.130 7
  25358300.080        2596.775          43.300


 132644501.482 6 103359509.43346  25241346.720                    25241355.880
      3920.352        3054.850          41.150          40.800



 117566385.708 8  91610225.69447  22372119.860                    22372120.540
      1581.959        1232.697          50.500          45.450    87793162.308 8
  22372121.900        1181.344          51.150


 23 12  2 15 49 30.0000000  0 12G06G10G11G12G15G17G19G24G25G28G29G32
 125970621.196 7  98158955.50547  23971405.620                    23971408.740
      1755.882        1368.223          42.450          42.450    94069013.194 8
  23971409.820        1311.120          48.250


 131612668.804 6 102555340.16746  25045061.520                    25045069.400
     -2707.026       -2109.376          41.250          36.600    98282206.711 7
  25045071.020       -2021.500          42.950


 131955215.574 6 102822247.38846  25110239.200                    25110241.360
      2873.547        2239.140          39.700          39.050    98538023.550 7
  25110243.700        2145.633          42.750


 105675338.572 8  82344589.58748  20109279.120                    20109276.440
       -97.262         -75.788          52.700          52.700



 134496157.682 6 104802146.63546  25593806.640                    25593817.360
     -3890.584       -3031.684          40.800          40.700



 135797045.506 6 105815955.06046  25841283.720                    25841282.560
     -3371.201       -2626.901          39.050          39.500



 122204801.439 7  95224601.03747  23254765.840                    23254764.200
     -2718.736       -2118.496          46.000          42.350



 113162484.405 8  88178630.14448  21534076.880                    21534078.380
     -2603.510       -2028.709          49.900          49.800    84504542.935 8
  21534079.780       -1944.214          53.700


 109966892.983 8  85688583.36247  20925973.180                    20925974.260
      2261.152        1761.938          50.500          47.550    82118257.079 8
  20925976.320        1688.530          53.450


 133154388.729 6 103756693.99246  25338433.160                    25338437.960
      3478.789        2710.752          39.350          37.050    99433520.084 7
  25338443.940        2597.728          42.600


 132526884.079 6 103267860.42846  25218964.160                    25218973.000
      3921.484        3055.730          40.550          39.350



 117519180.515 8  91573442.49047  22363136.980                    22363137.640
      1565.190        1219.631          50.550          46.050    87757911.759 8
  22363138.960        1168.730          51.250


 23 12  2 15 50  0.0000000  0 12G06G10G11G12G15G17G19G24G25G28G29G32
 125918188.835 6  98118099.21347  23961427.800                    23961431.200
      1739.934        1355.795          41.950          42.350    94029859.265 8
  23961432.180        1299.313          48.100


 131693988.399 7 102618705.95246  25060536.640                    25060543.700
     -2714.006       -2114.812          42.500          37.650    98342932.198 6
  25060545.740       -2026.496          41.500


 131869100.790 6 102755145.12946  25093852.060                    25093853.860
      2867.992        2234.804          40.300          38.000    98473717.307 7
  25093856.700        2141.465          42.550


 105678505.611 8  82347057.43348  20109881.840                    20109879.040
      -113.512         -88.449          52.600          52.400



 134612841.595 6 104893067.31246  25616012.360                    25616023.560
     -3888.229       -3029.852          39.600          39.250



 135898252.260 6 105894817.66546  25860542.680                    25860541.020
     -3375.414       -2630.186          37.800          37.950



 122286581.079 7  95288325.41347  23270327.880                    23270326.260
     -2732.890       -2129.525          45.550          42.050



 113240772.116 8  88239633.55548  21548974.660                    21548975.920
     -2615.351       -2037.936          50.150          50.100    84563004.531 8
  21548977.520       -1952.986          53.750


 109899252.437 8  85635876.48848  20913101.620                    20913102.640
      2248.483        1752.066          50.100          48.300    82067746.338 8
  20913104.640        1679.070          53.600


 133050036.952 6 103675381.18145  25318575.360                    25318580.200
      3478.646        2710.647          37.700          35.600    99355595.381 7
  25318586.240        2597.344          42.750


 132409272.347 6 103176215.78446  25196582.640                    25196590.760
      3919.968        3054.549          41.000          41.600



 117472506.659 8  91537073.32147  22354255.180                    22354256.000
      1546.763        1205.271          50.750          46.550    87723057.984 8
  22354257.120        1155.052          51.200


 23 12  2 15 50 30.0000000  0 12G06G10G11G12G15G17G19G24G25G28G29G32
 125866216.447 7  98077601.33447  23951537.520                    23951541.060
      1724.704        1343.927          42.350          42.200    93991048.831 8
  23951542.080        1287.964          48.350


 131775499.349 7 102682220.80446  25076048.020                    25076054.680
     -2720.150       -2119.604          42.250          38.100    98403800.600 7
  25076056.620       -2031.152          43.300


 131783139.072 7 102688162.18146  25077494.200                    25077495.220
      2862.619        2230.618          42.600          37.300    98409525.317 7
  25077499.220        2137.918          43.700


 105682144.174 8  82349892.70148  20110574.300                    20110571.220
      -129.188        -100.665          52.600          52.650



 134729433.370 6 104983916.10846  25638200.480                    25638212.220
     -3884.867       -3027.232          41.500          41.650



 135999571.049 5 105973767.56145  25879823.000                    25879821.340
     -3379.319       -2633.228          34.000          34.750



 122368773.039 7  95352371.07447  23285968.420                    23285966.800
     -2746.679       -2140.271          45.300          42.550



 113319395.106 8  88300898.23348  21563936.240                    21563937.120
     -2626.328       -2046.489          49.900          50.150    84621716.514 9
  21563938.920       -1961.196          54.100


 109831980.174 8  85583456.58648  20900300.120                    20900301.100
      2236.339        1742.604          50.350          48.350    82017510.614 9
  20900303.060        1669.993          54.100


 132945682.132 6 103594065.96246  25298716.900                    25298722.240
      3478.165        2710.264          39.550          36.950    99277668.367 7
  25298728.040        2597.642          42.200


 132291673.626 6 103084581.36546  25174203.580                    25174211.900
      3919.595        3054.262          41.650          41.550



 117426370.593 8  91501123.20347  22345475.740                    22345476.820
      1528.820        1191.290          51.000          46.500    87688605.797 8
  22345477.600        1141.707          51.650


 23 12  2 15 51  0.0000000  0 12G06G10G11G12G15G17G19G24G25G28G29G32
 125814691.852 6  98037452.35046  23941732.440                    23941735.980
      1709.623        1332.176          41.850          41.650    93952572.755 8
  23941737.020        1276.622          48.050


 131857183.765 6 102745870.83345  25091592.340                    25091598.420
     -2725.919       -2124.101          41.900          33.350    98464798.528 7
  25091600.800       -2035.794          43.200


 131697318.776 6 102621289.44646  25061163.260                    25061163.860
      2857.898        2226.940          41.800          37.600    98345438.965 7
  25061168.500        2134.108          44.300


 105686239.827 8  82353084.15448  20111353.660                    20111350.340
      -144.396        -112.516          52.000          51.700



 134845915.795 6 105074679.70046  25660367.860                    25660379.980
     -3881.033       -3024.247          41.250          40.800



 136100985.422 5 106052791.92044  25899121.420                    25899119.780
     -3382.148       -2635.438          31.500          29.850



 122451359.811 7  95416724.39247  23301684.020                    23301682.460
     -2759.829       -2150.517          44.300          42.250



 113398337.528 8  88362411.81548  21578958.500                    21578959.060
     -2637.042       -2054.837          49.450          49.500    84680667.036 9
  21578961.200       -1969.297          54.150


 109765062.452 8  85531312.95847  20887566.060                    20887567.080
      2224.285        1733.211          50.700          47.700    81967539.641 9
  20887569.040        1660.946          54.350


 132841310.900 6 103512737.95846  25278855.520                    25278860.800
      3478.886        2710.830          38.900          36.400    99199729.088 6
  25278866.640        2597.824          41.650


 132174075.497 7 102992947.37047  25151824.640                    25151832.660
      3919.484        3054.174          42.350          42.550



 117380759.410 8  91465582.08347  22336796.200                    22336797.500
      1511.340        1177.669          50.900          46.900    87654545.579 8
  22336797.960        1128.453          51.700


 23 12  2 15 51 30.0000000  0 11G06G10G11G12G15G19G24G25G28G29G32
 125763626.202 6  97997660.98446  23932014.660                    23932018.740
      1694.105        1320.084          41.450          40.800    93914439.382 7
  23932019.180        1265.208          47.350


 131939046.970 6 102809660.20645  25107170.580                    25107176.280
     -2732.187       -2128.978          41.350          35.500    98525929.938 7
  25107178.780       -2040.126          42.400


 131611651.779 7 102554536.08546  25044861.460                    25044861.500
      2852.558        2222.779          43.050          38.750    98281467.018 7
  25044867.000        2130.278          44.850


 105690799.506 8  82356637.17148  20112221.220                    20112217.960
      -159.977        -124.656          52.100          52.000



 134962295.755 6 105165363.45246  25682515.920                    25682528.180
     -3877.958       -3021.849          39.900          39.800



 122534347.838 7  95481390.36746  23317475.920                    23317474.460
     -2773.178       -2160.919          44.950          41.050



 113477606.911 8  88424180.16948  21594042.900                    21594043.240
     -2648.049       -2063.414          49.400          49.350    84739861.709 8
  21594045.680       -1977.435          53.700


 109698508.794 8  85479453.01848  20874901.260                    20874902.400
      2212.029        1723.661          50.850          48.050    81917840.544 8
  20874904.340        1651.916          53.850


 132736933.149 6 103431404.93745  25258992.700                    25258998.000
      3479.019        2710.935          38.200          32.200    99121784.964 6
  25259004.080        2598.097          41.150


 132056489.125 6 102901322.52947  25129448.140                    25129455.660
      3919.058        3053.844          41.950          42.300



 117335683.537 8  91430458.09147  22328218.540                    22328220.060
      1493.275        1163.593          50.900          46.800    87620885.089 8
  22328220.220        1115.133          50.950


 23 12  2 15 52  0.0000000  0 11G06G10G11G12G15G19G24G25G28G29G32
 125713022.226 6  97958229.41946  23922384.620                    23922389.480
      1679.715        1308.872          40.650          40.650    93876650.848 7
  23922389.300        1254.132          47.350


 132021086.516 6 102873586.97346  25122782.300                    25122788.540
     -2737.195       -2132.880          41.500          38.300    98587193.032 7
  25122790.560       -2043.873          43.200


 131526141.513 7 102487904.83446  25028589.340                    25028589.100
      2848.087        2219.290          43.250          36.750    98217612.099 7
  25028595.200        2126.810          45.300


 105695823.630 8  82360552.08748  20113177.200                    20113174.180
      -174.777        -136.189          52.400          52.300



 135078570.974 6 105255965.52546  25704643.760                    25704656.700
     -3873.481       -3018.363          39.650          39.850



 122617734.517 7  95546366.99646  23333343.740                    23333342.400
     -2785.909       -2170.838          43.800          41.800



 113557202.335 8  88486202.57148  21609189.360                    21609189.480
     -2658.134       -2071.273          49.650          49.400    84799299.846 9
  21609192.320       -1985.012          54.000


 109632320.511 8  85427877.78447  20862306.040                    20862307.240
      2200.560        1714.723          51.000          47.850    81868414.291 8
  20862309.100        1643.270          53.900


 132632550.591 6 103350068.16545  25239129.080                    25239134.600
      3479.958        2711.667          38.500          34.150    99043837.281 6
  25239140.540        2598.524          41.350


 131938916.924 6 102809708.77146  25107074.140                    25107081.220
      3919.221        3053.968          40.900          40.900



 117291145.067 8  91395752.85247  22319743.120                    22319744.880
      1476.064        1150.182          50.900          47.050    87587625.909 8
  22319744.760        1102.259          51.250


 23 12  2 15 52 30.0000000  0 11G06G10G11G12G15G19G24G25G28G29G32
 125662876.967 6  97919155.32646  23912841.860                    23912847.360
      1663.299        1296.083          40.950          41.300    93839204.842 7
  23912846.800        1242.021          47.400


 132103293.774 6 102937644.40546  25138425.780                    25138432.220
     -2743.715       -2137.964          41.100          37.100    98648581.435 7
  25138433.980       -2048.816          43.500


 131440785.627 6 102421393.87146  25012346.420                    25012346.280
      2841.967        2214.522          41.450          38.000    98153872.473 7
  25012352.660        2122.111          45.300


 105701305.510 8  82364823.69248  20114220.380                    20114217.500
      -190.982        -148.816          52.600          52.650



 135194733.930 6 105346480.12846  25726750.240                    25726763.640
     -3870.569       -3016.095          40.300          40.150



 122701511.901 7  95611648.05846  23349286.020                    23349284.620
     -2799.536       -2181.457          43.850          41.150



 113637117.217 8  88548473.90848  21624396.640                    21624396.620
     -2669.761       -2080.333          49.700          49.400    84858976.544 9
  21624399.860       -1993.689          54.150


 109566493.026 8  85376583.69548  20849779.480                    20849780.520
      2187.713        1704.713          51.300          48.300    81819257.464 8
  20849782.380        1633.562          53.650


 132528159.025 6 103268724.35045  25219264.000                    25219269.280
      3479.146        2711.033          38.600          34.150    98965882.875 6
  25219275.220        2598.204          41.500


 131821356.081 6 102718103.92546  25084702.300                    25084709.120
      3918.097        3053.097          40.650          40.800



 117247140.317 8  91361463.49547  22311369.260                    22311371.180
      1457.245        1135.518          50.800          47.700    87554765.279 8
  22311370.900        1088.177          51.100


 23 12  2 15 53  0.0000000  0 11G06G10G11G12G15G19G24G25G28G29G32
 125613209.225 6  97880453.26146  23903390.260                    23903395.860
      1647.861        1284.051          41.900          41.650    93802115.405 7
  23903395.280        1230.490          47.350


 132185681.813 6 103001842.77046  25154103.620                    25154110.500
     -2748.645       -2141.801          38.950          37.150    98710104.825 7
  25154111.700       -2052.709          42.950


 131355603.623 6 102355018.37746  24996136.620                    24996136.860
      2836.757        2210.464          41.500          39.700    98090262.609 7
  24996143.020        2118.351          45.600


 105707260.852 8  82369464.23548  20115353.620                    20115350.760
      -206.100        -160.597          52.250          52.250



 135310799.181 6 105436918.53046  25748838.320                    25748852.100
     -3866.437       -3012.876          40.150          41.050



 122785693.775 7  95677244.32946  23365305.400                    23365303.780
     -2812.406       -2191.486          44.000          40.100



 113717366.583 8  88611005.88548  21639667.620                    21639667.520
     -2680.165       -2088.440          49.600          49.550    84918903.024 9
  21639670.960       -2001.558          54.550


 109501043.558 8  85325584.16148  20837324.940                    20837325.780
      2175.771        1695.407          51.550          48.350    81770382.920 8
  20837327.420        1624.598          53.550


 132423776.095 6 103187387.24046  25199400.500                    25199405.520
      3479.548        2711.340          40.200          37.950    98887934.888 6
  25199411.140        2598.290          41.300


 131703825.379 7 102626522.57146  25062336.280                    25062342.940
      3917.382        3052.539          42.250          41.850



 117203687.248 8  91327604.01547  22303100.340                    22303102.360
      1439.571        1121.746          50.750          47.600    87522316.620 8
  22303102.040        1074.842          51.250


 23 12  2 15 53 30.0000000  0 11G06G10G11G12G15G19G24G25G28G29G32
 125564002.059 7  97842110.07846  23894026.640                    23894031.820
      1632.623        1272.176          42.250          41.950    93765369.895 7
  23894031.640        1218.950          47.500


 132268228.427 6 103066164.66046  25169811.300                    25169818.960
     -2754.244       -2146.167          38.350          38.200    98771746.658 7
  25169819.420       -2056.956          43.050


 131270579.309 6 102288765.73546  24979956.620                    24979957.600
      2831.320        2206.227          41.150          37.300    98026770.489 7
  24979963.240        2114.301          45.950


 105713669.809 8  82374458.24248  20116573.180                    20116570.340
      -221.406        -172.523          52.200          52.400



 135426745.165 6 105527263.97346  25770903.620                    25770917.680
     -3862.547       -3009.846          38.050          38.850



 122870258.068 7  95743138.58646  23381397.600                    23381395.860
     -2825.337       -2201.562          43.550          41.550



 113797930.021 8  88673782.59048  21654998.340                    21654998.280
     -2690.752       -2096.690          49.800          49.900    84979064.029 9
  21655001.740       -2009.341          54.600


 109435953.701 8  85274864.84348  20824938.780                    20824939.600
      2163.550        1685.886          51.250          48.550    81721776.907 8
  20824940.740        1615.597          53.400


 132319383.801 6 103106042.87846  25179535.280                    25179540.080
      3479.770        2711.516          40.200          37.500    98809979.926 7
  25179545.480        2598.555          42.400


 131586307.686 7 102534951.39447  25039972.740                    25039979.720
      3916.866        3052.140          42.650          42.850



 117160768.320 8  91294160.74347  22294933.020                    22294935.080
      1421.548        1107.701          50.300          47.300    87490266.822 8
  22294934.780        1061.492          51.200


 23 12  2 15 54  0.0000000  0 11G06G10G11G12G15G19G24G25G28G29G32
 125515266.628 7  97804134.47547  23884752.780                    23884757.480
      1616.623        1259.708          42.350          42.250    93728976.623 7
  23884757.780        1207.212          46.700


 132350939.459 6 103130614.73546  25185550.480                    25185558.640
     -2759.641       -2150.372          37.750          38.250    98833511.248 6
  25185558.100       -2060.737          41.000


 131185724.580 6 102222645.19546  24963809.080                    24963810.560
      2826.002        2202.083          39.950          39.350    97963405.008 7
  24963815.920        2110.090          45.300


 105720540.773 8  82379812.26048  20117880.700                    20117877.940
      -236.696        -184.438          52.350          52.300



 135542578.375 6 105617521.48046  25792947.500                    25792961.920
     -3858.717       -3006.862          39.850          39.700



 122955211.445 7  95809336.01846  23397563.820                    23397562.160
     -2838.259       -2211.632          43.850          41.200



 113878815.006 8  88736809.86448  21670390.220                    21670390.320
     -2701.498       -2105.063          49.650          49.750    85039465.162 8
  21670393.540       -2017.347          53.900


 109371233.086 8  85224433.25048  20812622.780                    20812623.680
      2151.209        1676.269          51.200          48.700    81673446.631 8
  20812624.500        1606.414          53.000


 132214992.235 6 103024699.06045  25159670.020                    25159674.800
      3479.637        2711.413          41.150          33.500    98732025.512 6
  25159679.900        2598.584          41.100


 131468814.307 7 102443399.13647  25017613.640                    25017620.520
      3916.231        3051.641          42.950          42.950



 117118393.905 8  91261141.77247  22286869.280                    22286871.340
      1403.423        1093.577          49.750          47.800    87458623.645 8
  22286871.120        1047.937          50.700


 23 12  2 15 54 30.0000000  0 11G06G10G11G12G15G19G24G25G28G29G32
 125467003.713 7  97766527.07847  23875568.880                    23875573.060
      1600.671        1247.278          43.950          44.000    93692936.209 7
  23875573.780        1195.205          46.650


 132433810.021 6 103195189.10845  25201319.980                    25201328.360
     -2764.872       -2154.447          38.150          35.900    98895395.044 6
  25201327.500       -2064.897          40.100


 131101041.013 6 102156658.00046  24947694.240                    24947696.020
      2819.652        2197.132          40.650          40.300    97900167.289 7
  24947701.120        2105.646          44.600


 105727871.367 8  82385524.41748  20119275.700                    20119272.860
      -252.149        -196.479          52.450          52.550



 135658295.186 6 105707688.19446  25814969.360                    25814984.060
     -3855.458       -3004.330          40.850          40.050



 123040549.358 7  95875833.10646  23413803.200                    23413801.660
     -2851.089       -2221.627          44.000          41.100



 113960018.689 8  88800085.46348  21685842.740                    21685843.020
     -2712.232       -2113.428          49.600          49.450    85100104.280 8
  21685845.880       -2025.389          53.550


 109306880.960 8  85174288.79948  20800376.800                    20800377.960
      2138.784        1666.588          50.850          48.350    81625391.542 8
  20800378.600        1597.120          53.000


 132110601.106 6 102943355.59346  25139804.900                    25139809.680
      3479.638        2711.414          41.500          36.550    98654071.415 6
  25139814.600        2598.387          41.250


 131351345.615 6 102351866.14046  24995259.220                    24995266.260
      3914.994        3050.676          41.750          41.100



 117076564.107 8  91228547.17547  22278909.100                    22278911.240
      1385.048        1079.260          49.250          47.650    87427387.164 8
  22278911.040        1034.242          50.500


 23 12  2 15 55  0.0000000  0 11G06G10G11G12G15G19G24G25G28G29G32
 125419214.284 7  97729288.62347  23866474.960                    23866478.560
      1584.844        1234.943          43.400          42.450    93657249.360 7
  23866480.040        1183.540          47.100


 132516835.535 6 103259884.28546  25217119.340                    25217127.640
     -2770.084       -2158.509          39.050          37.650    98957394.583 6
  25217126.420       -2068.674          41.650


 131016530.368 6 102090805.50746  24931612.580                    24931614.760
      2813.785        2192.560          41.200          40.200    97837058.633 7
  24931619.180        2101.298          44.750


 105735659.450 8  82391593.06648  20120757.760                    20120754.880
      -267.325        -208.305          52.700          52.700



 135773892.398 6 105797761.64646  25836968.440                    25836983.520
     -3851.757       -3001.449          39.300          38.850



 123126267.881 7  95942626.77846  23430114.980                    23430113.680
     -2863.673       -2231.432          43.800          40.950



 114041538.486 8  88863607.38648  21701355.440                    21701355.980
     -2722.672       -2121.562          49.550          49.550    85160979.454 8
  21701358.300       -2033.206          53.500


 109242896.796 8  85124431.07948  20788200.880                    20788202.240
      2126.561        1657.063          50.650          48.950    81577611.233 8
  20788202.940        1587.999          53.550


 132006210.299 6 102862012.40646  25119939.840                    25119944.480
      3479.398        2711.231          41.500          37.150    98576117.536 7
  25119949.420        2598.311          42.350


 131233903.073 7 102260353.43046  24972909.940                    24972916.980
      3914.289        3050.128          42.000          41.650



 117035279.085 8  91196377.08747  22271052.700                    22271054.820
      1367.062        1065.244          49.600          47.650    87396557.505 8
  22271054.600        1020.778          50.850


 23 12  2 15 55 30.0000000  0 11G06G10G11G12G15G19G24G25G28G29G32
 125371903.168 7  97692422.90347  23857471.940                    23857475.100
      1568.979        1222.583          43.050          43.500    93621919.738 7
  23857477.320        1171.660          47.150


 132600015.704 6 103324699.95946  25232948.120                    25232956.240
     -2775.066       -2162.391          38.850          37.850    99019509.578 7
  25232955.060       -2072.516          42.250


 130932198.239 7 102025092.15646  24915564.760                    24915567.160
      2808.132        2188.155          42.650          40.150    97774083.337 7
  24915571.340        2096.903          45.050


 105743906.004 8  82398018.96848  20122327.080                    20122324.180
      -282.611        -220.216          52.850          52.800



 135889370.262 6 105887741.94746  25858944.840                    25858960.360
     -3847.214       -2997.916          37.000          37.300



 123212366.871 7  96009716.90846  23446499.120                    23446497.940
     -2876.318       -2241.286          43.650          41.350



 114123375.639 8  88927376.59548  21716928.500                    21716929.220
     -2733.245       -2129.802          49.650          49.850    85222091.615 8
  21716931.040       -2041.033          53.100


 109179283.990 8  85074862.72248  20776095.640                    20776097.060
      2114.183        1647.417          50.600          48.100    81530108.236 8
  20776098.060        1578.791          53.900


 131901823.720 6 102780672.41545  25100075.580                    25100080.140
      3479.779        2711.523          41.400          35.100    98498166.803 7
  25100085.040        2598.265          42.750


 131116491.503 7 102168864.75647  24950566.600                    24950573.480
      3913.109        3049.207          42.000          42.100



 116994543.072 8  91164634.79947  22263300.900                    22263302.880
      1348.531        1050.805          50.150          47.000    87366137.806 8
  22263302.580        1007.129          50.950


 23 12  2 15 56  0.0000000  0 11G06G10G11G12G15G19G24G25G28G29G32
 125325071.077 7  97655930.46547  23848559.980                    23848562.940
      1552.808        1209.983          42.400          42.250    93586947.846 7
  23848565.520        1159.497          47.050


 132683345.727 6 103389632.39546  25248805.580                    25248813.160
     -2780.357       -2166.517          40.850          36.150    99081736.486 7
  25248812.560       -2076.302          43.000


 130848046.219 7 101959519.07146  24899551.400                    24899553.620
      2801.806        2183.221          42.800          41.250    97711242.501 7
  24899557.940        2092.235          44.400


 105752608.936 8  82404800.48648  20123983.140                    20123980.280
      -298.030        -232.231          51.900          51.950



 136004724.794 6 105977625.98146  25880897.740                    25880913.760
     -3843.237       -2994.817          36.700          36.300



 123298841.992 7  96077100.12846  23462954.740                    23462953.660
     -2889.253       -2251.365          43.400          41.600



 114205527.296 8  88991390.86948  21732561.380                    21732562.320
     -2743.962       -2138.152          49.600          49.600    85283438.633 8
  21732563.600       -2049.059          52.800


 109116041.725 8  85025583.10248  20764060.920                    20764062.260
      2101.646        1637.648          50.550          49.050    81482881.943 8
  20764063.620        1569.319          53.900


 131797441.051 6 102699335.49646  25080212.140                    25080216.620
      3479.146        2711.029          41.000          36.900    98420218.940 7
  25080221.320        2598.013          42.750


 130999111.310 6 102077400.48647  24928229.360                    24928236.240
      3911.847        3048.219          41.800          42.000



 116954355.955 8  91133320.21047  22255653.540                    22255655.400
      1330.055        1036.407          50.400          47.350    87336128.011 8
  22255655.020         993.238          50.850


 23 12  2 15 56 30.0000000  0 11G06G10G11G12G15G19G24G25G28G29G32
 125278737.834 7  97619826.72347  23839742.960                    23839745.820
      1536.959        1197.634          43.700          43.400    93552348.462 7
  23839748.300        1147.749          46.950


 132766839.517 6 103454692.47345  25264693.960                    25264701.200
     -2784.989       -2170.120          40.300          33.950    99144085.749 7
  25264701.280       -2079.825          43.100


 130764094.868 7 101894102.42546  24883576.120                    24883578.520
      2795.754        2178.509          43.000          40.350    97648551.508 7
  24883582.400        2087.788          43.900


 105761785.350 8  82411950.95948  20125729.200                    20125726.320
      -312.895        -243.813          52.450          52.400



 136119971.348 6 106067425.79246  25902830.340                    25902846.660
     -3838.766       -2991.339          38.800          37.550



 123385708.031 7  96144787.95046  23479484.700                    23479483.540
     -2901.119       -2260.611          43.000          40.900



 114288009.665 8  89055662.84348  21748257.260                    21748258.320
     -2753.981       -2145.960          49.350          49.600    85345032.620 8
  21748259.200       -2056.597          52.850


 109053188.324 8  84976606.49247  20752100.140                    20752101.360
      2089.526        1628.204          50.300          47.950    81435946.043 9
  20752103.120        1560.344          54.000


 131693081.110 6 102618016.19846  25060353.060                    25060356.820
      3479.259        2711.115          41.100          38.100    98342288.007 7
  25060361.960        2597.955          43.150


 130881782.553 7 101985976.24347  24905902.060                    24905908.780
      3910.849        3047.441          42.650          42.600



 116914736.800 8  91102448.19247  22248114.320                    22248116.060
      1311.973        1022.317          50.700          47.300    87306542.341 8
  22248115.580         979.782          50.900


 23 12  2 15 57  0.0000000  0 11G06G10G11G12G15G19G24G25G28G29G32
 125232873.054 7  97584088.02747  23831015.260                    23831018.140
      1520.574        1184.866          43.800          43.800    93518098.920 7
  23831019.940        1135.497          47.150


 132850461.851 6 103519852.71246  25280606.900                    25280613.500
     -2789.981       -2174.014          38.850          37.600    99206530.961 7
  25280614.600       -2083.358          42.900


 130680314.744 7 101828819.18146  24867633.380                    24867635.700
      2789.380        2173.544          43.050          40.600    97585988.401 7
  24867639.620        2083.035          44.700


 105771401.823 8  82419444.33148  20127559.060                    20127556.040
      -328.158        -255.707          51.850          51.750



 136235075.708 6 106157114.73946  25924736.060                    25924752.740
     -3834.889       -2988.319          39.550          39.050



 123472929.935 7  96212753.07246  23496082.440                    23496081.080
     -2913.437       -2270.211          42.300          41.300



 114370788.868 8  89120166.11648  21764009.580                    21764010.740
     -2764.498       -2154.154          48.600          48.700    85406848.254 8
  21764011.600       -2064.494          53.200


 108990692.013 8  84927908.13448  20740207.320                    20740208.500
      2076.932        1618.390          50.000          48.000    81389276.800 9
  20740210.500        1550.933          54.250


 131588712.674 6 102536690.28646  25040492.240                    25040495.960
      3478.856        2710.802          40.900          38.550    98264350.725 7
  25040501.120        2597.669          43.700


 130764475.311 7 101894568.71447  24883578.820                    24883585.160
      3909.491        3046.380          42.750          42.900



 116875654.563 8  91071994.55247  22240677.280                    22240678.940
      1293.522        1007.941          50.300          47.650    87277357.610 8
  22240678.340         965.888          50.950


 23 12  2 15 57 30.0000000  0 11G06G10G11G12G15G19G24G25G28G29G32
 125187492.990 7  97548727.05747  23822379.820                    23822382.780
      1504.714        1172.509          44.300          44.500    93484211.344 7
  23822383.980        1123.664          46.950


 132934223.398 6 103585121.42645  25296546.060                    25296552.320
     -2794.258       -2177.347          38.100          35.550    99269080.148 7
  25296554.500       -2086.593          42.050


 130596722.929 7 101763682.70846  24851726.460                    24851728.840
      2783.454        2168.926          43.550          40.350    97523565.930 7
  24851732.660        2078.505          44.600


 105781471.951 8  82427291.20648  20129475.200                    20129472.240
      -343.047        -267.309          51.850          51.850



 136350049.689 6 106246701.93446  25946617.080                    25946634.180
     -3830.403       -2984.831          37.250          37.550



 123560518.809 7  96281004.14146  23512750.160                    23512748.300
     -2925.644       -2279.722          43.800          40.000



 114453877.658 8  89184910.62348  21779820.740                    21779822.060
     -2774.577       -2162.008          48.350          48.100    85468895.064 8
  21779823.100       -2071.914          53.450


 108928567.538 8  84879499.52848  20728385.300                    20728386.580
      2064.784        1608.925          50.350          48.050    81342885.235 9
  20728388.540        1541.866          54.200


 131484351.119 6 102455369.71946  25020632.740                    25020636.300
      3478.892        2710.826          40.700          38.050    98186418.547 7
  25020641.700        2597.675          44.400


 130647205.758 7 101803190.48047  24861262.740                    24861269.020
      3908.471        3045.585          43.850          43.750



 116837124.745 8  91041971.36447  22233345.280                    22233347.000
      1275.331         993.767          50.650          47.500    87248585.403 8
  22233346.280         952.299          50.850


 23 12  2 15 58  0.0000000  0 11G06G10G11G12G15G19G24G25G28G29G32
 125142602.333 7  97513747.43347  23813837.480                    23813840.040
      1488.110        1159.569          44.350          44.350    93450689.237 7
  23813841.140        1111.209          46.100


 133018123.691 6 103650498.33946  25312511.880                    25312518.180
     -2799.163       -2181.157          39.750          38.600    99331732.983 7
  25312520.520       -2090.230          44.000


 130513325.035 7 101698697.39046  24835856.320                    24835858.580
      2776.393        2163.426          43.550          39.750    97461288.315 7
  24835862.840        2073.400          45.350


 105791996.822 8  82435492.41748  20131477.840                    20131475.120
      -358.559        -279.396          51.700          51.750



 136464893.917 6 106336188.04046  25968473.540                    25968490.960
     -3825.856       -2981.288          38.300          37.900



 123648474.542 7  96349541.08846  23529487.800                    23529485.420
     -2938.164       -2289.478          44.650          40.150



 114537277.173 8  89249897.24648  21795691.040                    21795692.440
     -2785.354       -2170.406          48.700          48.450    85531173.909 8
  21795693.700       -2079.881          53.700


 108866818.260 8  84831383.27248  20716634.760                    20716636.060
      2051.878        1598.868          50.400          48.750    81296773.837 9
  20716637.860        1532.304          54.350


 131380000.285 6 102374057.51646  25000775.180                    25000778.860
      3477.952        2710.096          40.050          37.550    98108494.368 7
  25000784.400        2597.267          44.700


 130529978.807 7 101711845.34747  24838954.880                    24838960.720
      3906.704        3044.203          44.100          44.500



 116799151.344 8  91012381.75047  22226119.080                    22226120.920
      1256.330         978.960          50.350          47.600    87220228.687 8
  22226120.160         938.266          50.900


 23 12  2 15 58 30.0000000  0 11G06G10G11G12G15G19G24G25G28G29G32
 125098201.183 7  97479149.23047  23805388.180                    23805390.200
      1471.741        1146.813          44.600          44.350    93417532.638 7
  23805391.280        1099.115          45.300


 133102157.316 6 103715979.06345  25328503.040                    25328509.600
     -2803.271       -2184.367          40.750          35.750    99394485.339 7
  25328511.960       -2093.455          43.400


 130430122.016 7 101633863.90146  24820023.240                    24820025.500
      2769.906        2158.368          43.950          38.500    97399156.220 7
  24820029.780        2068.543          45.600


 105802973.380 8  82444045.60848  20133566.560                    20133563.960
      -373.556        -291.082          51.750          51.750



 136579604.507 6 106425569.71346  25990304.580                    25990322.700
     -3821.311       -2977.751          37.400          36.950



 123736792.452 7  96418360.27046  23546294.260                    23546291.580
     -2949.812       -2298.553          44.950          38.350



 114620983.981 8  89315123.31848  21811619.920                    21811621.340
     -2795.428       -2178.256          48.750          48.650    85593682.228 8
  21811622.820       -2087.551          53.650


 108805442.756 8  84783558.27248  20704955.320                    20704956.720
      2039.479        1589.207          50.000          48.750    81250941.567 9
  20704958.220        1522.973          54.300


 131275659.346 6 102292753.02346  24980919.620                    24980923.260
      3477.507        2709.747          40.700          39.350    98030577.578 7
  24980929.040        2597.009          44.950


 130412794.732 7 101620533.65447  24816655.100                    24816660.900
      3905.284        3043.096          44.300          43.800



 116761733.637 8  90983225.15247  22218998.560                    22219000.580
      1237.777         964.504          49.800          47.300    87192286.958 8
  22218999.840         924.338          50.850


 23 12  2 15 59  0.0000000  0 11G06G10G11G12G15G19G24G25G28G29G32
 125054296.139 7  97444937.59847  23797033.160                    23797034.880
      1455.101        1133.848          44.000          43.900    93384746.528 7
  23797035.860        1086.662          44.900


 133186325.550 6 103781564.71746  25344520.020                    25344526.400
     -2807.809       -2187.899          39.350          38.650    99457338.277 6
  25344528.520       -2096.687          41.700


 130347121.424 7 101569188.18746  24804228.720                    24804230.760
      2763.214        2153.155          44.650          39.250    97337175.367 7
  24804235.600        2063.538          46.250


 105814405.810 8  82452954.01548  20135742.120                    20135739.580
      -388.690        -302.875          52.450          52.400



 136694183.703 6 106514849.08946  26012110.720                    26012129.500
     -3817.299       -2974.620          37.250          36.650



 123825474.179 7  96487462.94946  23563169.940                    23563166.860
     -2962.135       -2308.156          44.900          40.300



 114705001.257 8  89380591.31548  21827607.960                    21827609.320
     -2805.754       -2186.303          48.550          48.450    85656422.394 8
  21827610.940       -2095.190          53.500


 108744446.285 8  84736028.62448  20693347.940                    20693349.400
      2026.933        1579.431          49.700          48.700    81205392.351 9
  20693350.740        1513.562          54.250


 131171334.151 6 102211460.77646  24961067.060                    24961070.780
      3477.270        2709.561          40.500          39.050    97952672.563 7
  24961076.700        2596.645          45.350


 130295660.407 7 101529260.69047  24794364.760                    24794370.280
      3903.892        3042.009          44.300          44.500



 116724877.548 8  90954506.18447  22211984.920                    22211986.980
      1219.283         950.092          49.900          47.350    87164764.634 8
  22211986.380         910.415          51.000


 23 12  2 15 59 30.0000000  0 11G06G10G11G12G15G19G24G25G28G29G32
 125010885.586 7  97411111.29647  23788772.160                    23788773.960
      1438.573        1120.970          44.000          44.000    93352329.680 7
  23788774.740        1074.184          44.800


 133270621.905 6 103847285.13145  25360560.860                    25360566.660
     -2811.914       -2191.102          40.500          34.250    99520286.761 7
  25360569.420       -2100.036          43.700


 130264322.633 7 101504669.71046  24788472.560                    24788474.560
      2756.262        2147.737          43.900          40.000    97275345.175 7
  24788479.480        2058.270          46.150


 105826289.084 8  82462213.73248  20138003.520                    20138001.040
      -403.763        -314.619          52.200          52.300



 136808626.349 6 106604021.95746  26033890.960                    26033910.600
     -3812.652       -2971.004          37.950          38.700



 123914513.411 7  96556844.18746  23580113.580                    23580110.420
     -2974.112       -2317.490          45.800          38.900



 114789323.874 8  89446297.23648  21843654.000                    21843655.460
     -2815.979       -2194.271          48.400          48.550    85719390.568 8
  21843657.020       -2102.831          53.300


 108683825.828 8  84688791.98248  20681812.180                    20681813.480
      2014.331        1569.611          50.200          48.300    81160123.917 9
  20681814.840        1504.146          54.000


 131067022.344 6 102130178.97346  24941217.220                    24941220.780
      3476.604        2709.047          40.700          39.400    97874777.493 7
  24941226.780        2596.195          45.800


 130178574.512 7 101438025.45247  24772083.740                    24772088.980
      3901.853        3040.420          44.650          44.850



 116688580.760 8  90926223.03447  22205077.860                    22205079.740
      1200.270         935.276          50.250          47.400    87137659.951 8
  22205079.360         896.354          50.900


                            4  1
RINEX FILE SPLICE; other post-header comments skipped       COMMENT
 23 12  2 16  0  0.0000000  0 11G06G10G11G12G15G19G24G25G28G29G32
 124967970.936 7  97377671.41947  23780605.580                    23780607.360
      1421.825        1107.920          43.850          43.650    93320283.147 7
  23780608.220        1061.970          44.750


 133355042.206 6 103913067.21246  25376625.620                    25376632.260
     -2816.410       -2194.602          37.550          37.350    99583327.957 7
  25376634.240       -2103.020          43.300


 130181727.922 7 101440310.29746  24772755.140                    24772756.940
      2749.599        2142.548          44.750          39.200    97213667.432 7
  24772762.280        2053.271          46.350


 105838622.064 8  82471823.86948  20140350.480                    20140348.060
      -418.724        -326.277          51.900          51.850



 136922929.167 6 106693085.86946  26055644.700                    26055665.060
     -3807.979       -2967.364          39.950          39.550



 124003906.533 7  96626501.21046  23597124.460                    23597121.400
     -2985.729       -2326.540          44.900          41.250



 114873949.788 8  89512239.49048  21859757.760                    21859759.260
     -2826.136       -2202.185          48.350          48.400    85782585.228 8
  21859760.760       -2110.295          53.500


 108623581.402 8  84641848.33748  20670348.200                    20670349.100
      2001.678        1559.751          51.250          48.600    81115136.270 9
  20670350.420        1494.827          54.050


 130962724.512 6 102048908.03346  24921369.980                    24921373.220
      3476.398        2708.888          40.800          38.500    97796892.878 7
  24921379.660        2595.969          46.100


 130061538.794 7 101346829.33647  24749812.040                    24749817.180
      3900.249        3039.173          44.000          43.950



 116652843.884 8  90898376.17247  22198277.460                    22198278.880
      1181.811         920.894          50.700          47.450    87110973.391 8
  22198278.860         882.583          51.300


 23 12  2 16  0 30.0000000  0 11G06G10G11G12G15G19G24G25G28G29G32
 124925556.433 7  97344621.25947  23772534.180                    23772535.840
      1405.440        1095.153          44.000          44.250    93288610.115 7
  23772536.900        1049.593          44.350


 133439585.729 6 103978945.17246  25392713.500                    25392720.500
     -2820.088       -2197.473          38.800          38.700    99646460.978 7
  25392722.320       -2105.938          43.750


 130099342.587 7 101376114.02846  24757077.560                    24757079.200
      2742.751        2137.211          43.700          39.700    97152146.049 7
  24757084.740        2048.042          46.150


 105851405.332 8  82481784.87748  20142783.060                    20142780.560
      -433.529        -337.813          52.050          52.000



 137037092.508 6 106782041.07246  26077371.780                    26077392.880
     -3803.114       -2963.571          40.050          40.150



 124093653.214 7  96696433.69346  23614202.560                    23614199.540
     -2997.556       -2335.759          44.400          40.350



 114958879.819 8  89578418.72148  21875919.440                    21875920.780
     -2836.097       -2209.946          49.200          49.250    85846006.989 8
  21875922.480       -2117.851          53.450


 108563715.925 8  84595199.97348  20658956.400                    20658957.020
      1989.313        1550.116          51.850          48.300    81070431.599 8
  20658958.200        1485.464          53.900


 130858444.279 6 101967650.79746  24901526.120                    24901529.220
      3475.618        2708.278          40.800          38.850    97719021.378 7
  24901535.820        2595.402          46.150


 129944557.603 7 101255675.71047  24727550.700                    24727555.660
      3898.582        3037.874          42.900          43.400



 116617670.523 8  90870968.40647  22191584.340                    22191585.240
      1163.038         906.266          51.350          46.600    87084707.632 8
  22191585.620         868.493          51.450


 23 12  2 16  1  0.0000000  0 10G06G10G11G12G19G24G25G28G29G32
 124883644.551 7  97311962.78147  23764558.240                    23764560.200
      1388.520        1081.968          42.800          42.450    93257312.416 7
  23764561.100        1036.866          44.050


 133524249.271 6 104044916.70646  25408824.240                    25408831.540
     -2824.326       -2200.776          39.550          37.050    99709683.685 7
  25408833.260       -2109.063          42.300


 130017170.007 7 101312083.57446  24741440.480                    24741441.900
      2735.425        2131.503          43.950          40.550    97090783.546 7
  24741447.700        2042.648          46.200


 105864639.243 8  82492097.04248  20145301.360                    20145298.720
      -448.700        -349.636          52.050          51.950



 124183750.786 7  96766639.62046  23631347.480                    23631344.360
     -3009.104       -2344.757          45.250          40.800



 115044112.973 8  89644834.14948  21892138.940                    21892140.000
     -2846.282       -2217.883          49.150          48.850    85909655.106 8
  21892141.740       -2125.546          53.450


 108504230.437 8  84548847.70648  20647636.760                    20647637.380
      1976.264        1539.947          51.600          48.350    81026010.678 9
  20647638.500        1475.864          54.200


 130754183.308 6 101886408.59546  24881685.720                    24881688.780
      3475.023        2707.813          40.150          38.050    97641164.295 7
  24881695.660        2594.860          46.750


 129827633.792 7 101164566.81747  24705300.320                    24705305.100
      3896.194        3036.015          43.200          43.200



 116583062.344 8  90844001.03947  22184998.780                    22184999.220
      1143.988         891.421          51.700          46.900    87058863.925 8
  22184999.960         854.254          51.650


 23 12  2 16  1 30.0000000  0 10G06G10G11G12G19G24G25G28G29G32
 124842234.824 7  97279695.59047  23756677.720                    23756680.100
      1371.856        1068.983          42.250          42.200    93226389.692 7
  23756681.000        1024.262          44.600


 133609027.792 6 104110977.85646  25424957.160                    25424965.260
     -2827.873       -2203.537          40.700          38.500    99772992.267 7
  25424966.380       -2111.926          42.650


 129935210.742 7 101248219.34746  24725843.980                    24725845.180
      2728.091        2125.792          43.100          39.900    97029580.348 7
  24725851.120        2037.284          46.300


 105878319.674 8  82502757.12748  20147904.600                    20147901.880
      -463.633        -361.271          52.250          52.200



 124274194.369 7  96837115.17246  23648558.180                    23648555.160
     -3020.924       -2353.966          44.950          41.900



 115129645.402 8  89711482.78548  21908415.380                    21908416.220
     -2856.336       -2225.717          49.700          49.750    85973526.701 8
  21908417.980       -2132.941          53.350


 108445123.164 8  84502790.14848  20636388.960                    20636389.800
      1963.686        1530.146          51.150          48.850    80981872.201 9
  20636391.000        1466.363          54.600


 130649940.560 6 101805180.60046  24861848.760                    24861851.700
      3474.309        2707.259          40.800          39.750    97563320.814 7
  24861858.920        2594.422          46.250


 129710767.276 7 101073502.56747  24683060.760                    24683065.280
      3894.429        3034.637          43.250          42.750



 116549018.130 8  90817473.12947  22178520.520                    22178520.580
      1125.157         876.747          52.050          46.900    87033441.359 8
  22178521.620         840.287          52.000


 23 12  2 16  2  0.0000000  0 10G06G10G11G12G19G24G25G28G29G32
 124801330.164 7  97247821.95847  23748893.700                    23748896.240
      1355.092        1055.919          42.900          42.750    93195844.112 7
  23748897.220        1012.084          45.200


 133693918.885 6 104177126.60045  25441111.520                    25441120.020
     -2831.630       -2206.471          40.100          34.150    99836384.783 6
  25441120.660       -2114.476          38.000


 129853468.734 7 101184524.42146  24710288.920                    24710290.000
      2721.101        2120.345          43.050          39.050    96968539.393 7
  24710296.120        2032.064          46.350


 105892446.741 8  82513765.24348  20150592.900                    20150590.120
      -478.330        -372.724          52.500          52.600



 124364981.636 7  96907858.50746  23665834.320                    23665831.380
     -3031.959       -2362.565          44.950          41.250



 115215476.587 8  89778364.22248  21924748.620                    21924749.300
     -2866.001       -2233.248          49.300          49.100    86037621.406 8
  21924751.120       -2140.111          53.300


 108386395.707 8  84457028.55048  20625213.380                    20625214.500
      1951.287        1520.484          51.150          48.350    80938017.343 9
  20625215.920        1457.209          54.800


 130545718.251 6 101723968.52846  24842015.840                    24842018.500
      3473.711        2706.792          40.050          36.200    97485492.623 7
  24842025.980        2594.088          46.300


 129593961.165 6 100982485.39946  24660832.700                    24660836.900
      3892.416        3033.071          41.900          41.250



 116515540.104 8  90791386.40147  22172149.980                    22172149.840
      1106.486         862.199          52.250          47.000    87008441.593 8
  22172151.040         826.309          52.100


 23 12  2 16  2 30.0000000  0 10G06G10G11G12G19G24G25G28G29G32
 124760935.250 7  97216345.49247  23741206.780                    23741209.100
      1337.645        1042.324          43.100          43.100    93165679.193 7
  23741210.800         998.978          46.400


 133778921.730 7 104243362.53646  25457287.240                    25457295.220
     -2835.448       -2209.440          42.750          37.950    99899860.866 7
  25457296.240       -2117.446          43.100


 129771949.634 7 101121003.19746  24694776.200                    24694777.240
      2713.438        2114.372          42.800          40.050    96907664.934 7
  24694783.480        2026.277          46.600


 105907022.276 8  82525122.82348  20153366.580                    20153363.740
      -493.508        -384.551          52.200          52.350



 124456112.619 7  96978869.71846  23683175.900                    23683172.920
     -3043.560       -2371.603          45.100          41.400



 115301607.817 8  89845479.46348  21941138.840                    21941139.500
     -2876.363       -2241.321          48.750          48.850    86101940.169 8
  21941141.400       -2147.817          53.000


 108328051.405 8  84411565.50148  20614110.740                    20614111.980
      1938.152        1510.251          51.050          48.550    80894448.601 9
  20614113.660        1447.377          54.950


 130441520.432 6 101642775.57846  24822187.500                    24822189.800
      3472.891        2706.157          40.550          39.650    97407682.742 7
  24822197.760        2593.199          45.950


 129477220.549 7 100891519.27647  24638617.180                    24638621.440
      3889.968        3031.161          42.200          42.400



 116482632.160 8  90765743.89447  22165887.820                    22165887.660
      1087.116         847.105          52.050          47.350    86983867.540 8
  22165888.940         811.880          52.200


 23 12  2 16  3  0.0000000  0 10G06G10G11G12G19G24G25G28G29G32
 124721048.367 7  97185264.89247  23733616.600                    23733618.480
      1321.151        1029.473          43.400          43.350    93135893.643 7
  23733621.220         986.513          47.100


 133864029.949 6 104309680.46345  25473483.180                    25473490.960
     -2838.885       -2212.121          40.950          35.100    99963415.556 7
  25473492.080       -2119.915          44.650


 129690652.845 7 101057655.21046  24679305.840                    24679306.840
      2705.866        2108.470          43.350          41.350    96846956.466 7
  24679313.240        2020.814          46.950


 105922041.409 8  82536826.06448  20156224.700                    20156221.760
      -508.148        -395.960          52.300          52.150



 124547580.968 7  97050143.78246  23700581.700                    23700578.740
     -3054.743       -2380.317          45.250          40.850



 115388033.998 8  89912824.54048  21957585.260                    21957585.900
     -2885.829       -2248.698          49.150          48.950    86166479.201 8
  21957587.780       -2155.010          52.650


 108270087.226 8  84366398.65348  20603080.440                    20603081.580
      1925.607        1500.476          50.600          48.950    80851163.709 9
  20603083.480        1438.001          54.650


 130337344.833 6 101561599.94646  24802363.520                    24802365.500
      3472.006        2705.467          41.000          37.850    97329889.444 7
  24802373.620        2592.694          45.650


 129360543.900 7 100800602.94547  24616413.900                    24616417.760
      3888.047        3029.665          42.950          43.150



 116450291.852 8  90740543.70347  22159733.640                    22159733.600
      1068.388         832.512          52.000          47.600    86959717.369 8
  22159734.840         797.788          52.050


 23 12  2 16  3 30.0000000  0 10G06G10G11G12G19G24G25G28G29G32
 124681673.416 7  97154583.16547  23726123.760                    23726125.400
      1303.742        1015.905          43.950          43.900    93106490.365 7
  23726128.920         973.604          47.800


 133949242.330 5 104376079.52845  25489698.760                    25489706.660
     -2842.415       -2214.883          35.900          35.850   100027047.884 7
  25489707.800       -2122.451          46.500


 129609583.289 7 100994484.30246  24663878.780                    24663879.780
      2698.298        2102.574          43.200          40.550    96786417.712 7
  24663886.120        2014.961          47.000


 105937505.764 8  82548876.22848  20159167.560                    20159164.520
      -523.084        -407.598          52.150          52.100



 124639386.001 7  97121680.17447  23718051.520                    23718048.780
     -3065.933       -2389.039          45.100          42.000



 115474755.647 8  89980399.85748  21974087.940                    21974088.740
     -2895.832       -2256.492          49.050          49.050    86231238.882 8
  21974090.000       -2162.454          52.250


 108212505.745 8  84321530.01448  20592122.980                    20592124.060
      1912.845        1490.530          50.750          48.900    80808164.602 9
  20592125.980        1428.405          54.450


 130233194.754 6 101480444.18246  24782544.440                    24782545.940
      3471.269        2704.887          40.950          39.350    97252115.238 7
  24782554.340        2591.987          45.450


 129243935.701 6 100709739.91546  24594223.840                    24594227.140
      3885.482        3027.666          41.700          41.750



 116418522.354 8  90715788.30547  22153688.060                    22153688.180
      1049.157         817.526          51.850          47.400    86935993.446 8
  22153689.320         783.522          52.000


 23 12  2 16  4  0.0000000  0 10G06G10G11G12G19G24G25G28G29G32
 124642811.267 7  97124301.04947  23718728.560                    23718730.160
      1287.256        1003.060          43.550          43.200    93077470.033 8
  23718734.080         961.180          48.650


 134034554.402 6 104442556.17546  25505933.340                    25505940.800
     -2844.638       -2216.608          38.700          37.700   100090754.670 7
  25505942.420       -2124.645          43.950


 129528742.977 7 100931492.02046  24648495.360                    24648496.360
      2690.982        2096.874          43.200          40.750    96726050.123 7
  24648502.500        2009.645          47.300


 105953412.418 8  82561271.04148  20162194.460                    20162191.640
      -537.160        -418.566          51.800          51.700



 124731523.844 7  97193475.91846  23735584.780                    23735582.120
     -3076.460       -2397.239          44.800          41.950



 115561770.329 8  90048203.49748  21990646.320                    21990647.300
     -2904.940       -2263.590          48.950          48.700    86296217.382 8
  21990648.140       -2169.395          52.400


 108155306.605 8  84276959.29248  20581238.360                    20581239.300
      1900.640        1481.020          50.800          49.250    80765451.000 9
  20581241.120        1419.250          54.700


 130129070.556 6 101399308.64046  24762730.160                    24762731.480
      3470.760        2704.497          41.050          39.350    97174360.372 7
  24762740.020        2591.687          45.000


 129127397.186 7 100618931.18647  24572046.900                    24572050.000
      3883.596        3026.194          42.450          42.100



 116387323.773 8  90691477.77447  22147751.160                    22147751.360
      1030.805         803.226          51.800          47.850    86912695.861 8
  22147752.420         769.689          52.350


 23 12  2 16  4 30.0000000  0 10G06G10G11G12G19G24G25G28G29G32
 124604463.747 7  97094419.97747  23711431.360                    23711432.900
      1269.037         988.863          43.900          43.800    93048834.010 8
  23711436.940         947.886          48.350


 134119963.492 6 104509108.52645  25522186.240                    25522193.880
     -2848.819       -2219.867          41.050          35.950   100154533.958 7
  25522195.540       -2127.558          42.000


 129448134.803 7 100868680.62046  24633156.080                    24633157.300
      2682.577        2090.325          43.700          40.800    96665855.913 7
  24633163.120        2003.312          47.150


 105969761.067 8  82574010.26448  20165305.440                    20165302.820
      -552.641        -430.628          51.950          52.050



 124823991.821 7  97265528.92046  23753180.900                    23753178.240
     -3088.147       -2406.347          44.600          40.250



 115649076.503 8  90116234.28248  22007260.120                    22007261.260
     -2915.368       -2271.716          48.650          48.850    86361413.551 8
  22007261.900       -2177.097          52.650


 108098490.381 8  84232686.93648  20570426.680                    20570427.520
      1887.200        1470.547          50.600          49.250    80723023.331 9
  20570429.140        1409.252          54.650


 130024973.569 6 101318194.30946  24742921.020                    24742922.320
      3468.907        2703.051          41.050          37.800    97096625.836 7
  24742930.880        2590.575          44.600


 129010930.474 7 100528178.37647  24549883.660                    24549886.420
      3880.732        3023.965          42.850          42.350



 116356697.230 8  90667612.98647  22141923.060                    22141923.340
      1011.001         787.794          51.600          47.300    86889825.437 8
  22141924.340         754.981          52.300


 23 12  2 16  5  0.0000000  0 10G06G10G11G12G19G24G25G28G29G32
 124566634.628 7  97064942.82047  23704232.920                    23704234.120
      1252.239         975.773          44.750          44.800    93020585.092 7
  23704238.060         935.265          47.650


 134205468.193 6 104575735.43045  25538457.400                    25538464.980
     -2851.439       -2221.904          37.300          35.500   100218384.651 6
  25538466.840       -2129.459          41.750


 129367763.660 7 100806053.91547  24617861.840                    24617863.340
      2675.178        2084.560          43.150          42.200    96605838.683 7
  24617868.640        1997.579          47.200


 105986552.508 8  82587094.51448  20168500.680                    20168497.960
      -567.059        -441.863          52.150          52.150



 124916788.396 7  97337837.92146  23770839.520                    23770836.920
     -3098.625       -2414.516          44.750          39.450



 115736674.670 8  90184492.57648  22023929.380                    22023930.700
     -2924.849       -2279.104          48.750          48.750    86426827.743 8
  22023931.440       -2184.018          52.900


 108042059.553 8  84188714.88948  20559688.240                    20559689.120
      1874.582        1460.714          50.700          49.550    80680883.447 9
  20559690.540        1399.894          54.750


 129920907.009 6 101237103.71046  24723117.740                    24723119.080
      3468.241        2702.535          41.700          38.000    97018914.057 7
  24723127.440        2590.049          44.500


 128894539.817 7 100437484.74947  24527735.100                    24527737.280
      3878.746        3022.414          42.700          42.750



 116326645.731 8  90644196.27947  22136204.320                    22136204.600
       992.047         773.024          51.750          47.000    86867384.434 8
  22136205.640         740.917          52.350


 23 12  2 16  5 30.0000000  0 10G06G10G11G12G19G24G25G28G29G32
 124529325.377 7  97035870.73347  23697133.300                    23697134.080
      1234.546         961.985          44.400          44.350    92992724.362 7
  23697137.840         922.052          47.100


 134291064.990 6 104642433.92946  25554746.000                    25554753.820
     -2854.628       -2224.403          39.550          38.550   100282304.057 7
  25554755.380       -2131.797          43.300


 129287632.149 7 100743613.94446  24602613.160                    24602615.020
      2666.834        2078.059          42.700          41.550    96546000.414 7
  24602619.840        1991.469          47.250


 106003784.939 8  82600522.40948  20171779.820                    20171777.140
      -581.876        -453.408          51.900          52.050



 125009910.641 7  97410400.72446  23788560.100                    23788557.500
     -3109.609       -2423.071          43.650          41.150



 115824562.884 8  90252976.88648  22040653.740                    22040655.140
     -2934.599       -2286.701          48.350          48.350    86492458.544 8
  22040656.340       -2191.385          53.200


 107986014.295 8  84145043.29048  20549023.080                    20549024.080
      1861.493        1450.515          50.500          48.850    80639031.506 9
  20549025.340        1390.176          54.750


 129816871.866 6 101156037.63146  24703320.260                    24703321.800
      3466.937        2701.520          41.900          36.800    96941225.773 7
  24703329.920        2589.119          44.750


 128778227.180 7 100346851.89647  24505601.240                    24505602.960
      3875.705        3020.043          42.600          43.050



 116297169.919 8  90621228.15947  22130595.120                    22130595.380
       972.602         757.873          51.700          46.700    86845373.331 8
  22130596.440         726.375          52.300


 23 12  2 16  6  0.0000000  0 10G06G10G11G12G19G24G25G28G29G32
 124492536.860 7  97007204.42647  23690132.720                    23690133.340
      1217.695         948.856          44.400          44.250    92965252.490 7
  23690136.880         909.357          46.700


 134376749.618 6 104709201.01546  25571051.460                    25571059.600
     -2857.222       -2226.413          37.500          36.600   100346289.048 7
  25571060.740       -2133.793          43.950


 129207742.362 6 100681362.33446  24587410.360                    24587412.720
      2658.896        2071.874          41.950          41.550    96486342.658 7
  24587416.900        1985.637          47.150


 106021456.690 8  82614292.63248  20175142.560                    20175140.020
      -596.288        -464.640          51.750          51.750



 125103355.329 7  97483214.78346  23806342.040                    23806339.280
     -3120.283       -2431.389          43.550          41.850



 115912738.851 8  90321685.40948  22057432.880                    22057434.320
     -2943.972       -2294.004          48.300          48.350    86558304.210 8
  22057435.920       -2198.331          52.950


 107930354.307 8  84101671.90648  20538431.200                    20538432.300
      1849.078        1440.842          50.500          49.100    80597467.272 9
  20538433.460        1380.829          54.450


 129712868.599 7 101074996.35246  24683528.920                    24683530.840
      3466.520        2701.193          42.000          38.900    96863561.320 7
  24683538.340        2588.504          44.000


 128661994.143 7 100256281.05747  24483482.460                    24483483.920
      3873.383        3018.230          43.550          43.350



 116268270.002 8  90598708.78147  22125095.560                    22125095.740
       953.783         743.209          51.950          46.400    86823792.275 8
  22125096.780         712.287          52.050


 23 12  2 16  6 30.0000000  0 10G06G10G11G12G19G24G25G28G29G32
 124456273.599 7  96978947.39947  23683232.060                    23683232.700
      1199.550         934.715          44.050          44.300    92938172.862 7
  23683236.140         895.909          46.800


 134462522.105 6 104776036.47845  25587373.420                    25587381.660
     -2860.800       -2229.203          37.700          35.550   100410339.670 6
  25587382.880       -2136.308          40.500


 129128099.948 6 100619303.49846  24572254.620                    24572257.420
      2650.233        2065.122          41.850          41.750    96426869.637 7
  24572261.000        1979.160          47.550


 106039569.539 8  82628406.56648  20178589.180                    20178586.740
      -611.419        -476.430          51.450          51.600



 125197121.810 7  97556279.57546  23824185.220                    23824182.300
     -3131.162       -2439.866          43.500          40.650



 116001203.707 8  90390619.06748  22074267.080                    22074268.520
     -2953.886       -2301.729          48.400          48.400    86624365.631 8
  22074270.480       -2205.893          53.250


 107875082.871 8  84058603.27548  20527913.320                    20527914.400
      1835.633        1430.363          50.600          49.100    80556193.186 9
  20527915.500        1370.695          54.850


 129608901.336 7 100993983.17045  24663744.500                    24663746.620
      3464.594        2699.693          42.450          35.950    96785923.714 7
  24663753.580        2587.233          43.800


 128545845.667 7 100165776.07247  24461379.920                    24461381.140
      3869.900        3015.516          42.850          43.550



 116239949.680 8  90576641.03547  22119706.340                    22119706.520
       934.074         727.852          52.100          46.650    86802644.032 8
  22119707.440         697.515          52.350


 23 12  2 16  7  0.0000000  0 10G06G10G11G12G19G24G25G28G29G32
 124420537.929 7  96951101.47147  23676431.660                    23676432.340
      1182.285         921.263          43.700          44.000    92911487.216 7
  23676435.860         882.930          46.000


 134548380.130 6 104842938.52246  25603711.760                    25603720.400
     -2863.320       -2231.170          41.350          37.750   100474454.166 7
  25603720.980       -2138.329          43.100


 129048708.477 7 100557440.21847  24557146.660                    24557150.000
      2642.250        2058.901          42.750          42.350    96367584.036 7
  24557152.720        1972.971          47.300


 106058122.886 8  82642863.73648  20182119.640                    20182117.280
      -625.854        -487.678          51.600          51.600



 125291207.831 7  97629593.37646  23842089.160                    23842086.080
     -3141.666       -2448.050          43.350          40.800



 116089956.637 8  90459777.18847  22091156.240                    22091157.600
     -2963.322       -2309.083          48.200          47.950    86690642.164 8
  22091159.580       -2212.948          52.750


 107820201.178 8  84015838.34448  20517469.660                    20517470.740
      1822.766        1420.337          51.200          49.000    80515210.126 9
  20517471.860        1361.133          54.500


 129504971.992 7 100912999.53446  24643967.200                    24643969.620
      3463.770        2699.050          43.250          37.300    96708314.457 7
  24643975.820        2586.561          43.300


 128429784.738 7 100075339.29647  24439293.840                    24439294.920
      3867.471        3013.621          42.300          42.200



 116212210.623 8  90555026.21947  22114427.760                    22114428.000
       914.878         712.893          52.250          47.100    86781929.848 8
  22114428.740         683.181          51.900


 23 12  2 16  7 30.0000000  0 10G06G10G11G12G19G24G25G28G29G32
 124385323.253 7  96923661.54047  23669730.160                    23669731.140
      1165.484         908.172          42.950          43.000    92885190.656 7
  23669734.880         870.199          46.000


                                  25620064.540
     -2866.036                          32.750                   100538623.278 5
  25620073.060       -2139.687          35.000


 128969562.553 7 100495768.24846  24542085.460                    24542089.160
      2634.332        2052.732          42.650          41.700    96308481.768 7
  24542091.360        1967.183          47.400


 106077107.253 8  82657656.77048  20185732.220                    20185729.880
      -639.795        -498.541          52.050          51.950



 125385602.365 7  97703147.60846  23860052.040                    23860048.560
     -3151.552       -2455.752          43.750          41.600



 116178987.716 8  90529152.04748  22108098.300                    22108099.760
     -2972.181       -2315.986          48.350          48.300    86757126.397 8
  22108101.600       -2219.407          52.650


 107765701.342 8  83973370.97448  20507098.660                    20507099.800
      1810.450        1410.741          51.100          49.100    80474512.236 9
  20507100.960        1352.007          54.750


 129401073.645 7 100832040.05146  24624195.920                    24624198.660
      3462.827        2698.317          42.750          36.900    96630728.340 7
  24624203.980        2586.050          43.050


 128313804.707 6  99984965.55346  24417223.120                    24417224.200
      3864.930        3011.646          41.400          41.200



 116185045.398 8  90533858.54547  22109258.440                    22109258.680
       896.180         698.323          52.150          47.100    86761644.173 8
  22109259.260         669.239          51.900


 23 12  2 16  8  0.0000000  0  9G06G11G12G19G24G25G28G29G32
 124350630.013 7  96896627.96747  23663128.180                    23663129.580
      1146.968         893.744          43.500          43.850    92859283.490 7
  23663133.140         856.521          45.850


 128890663.811 7 100434288.88246  24527071.380                    24527075.280
      2624.990        2045.449          42.800          41.750    96249564.086 7
  24527076.840        1960.316          47.000


 106096520.145 8  82672783.72848  20189426.380                    20189423.920
      -654.975        -510.368          51.600          51.450



 125480301.375 7  97776939.06946  23878072.760                    23878069.080
     -3162.348       -2464.168          43.700          39.350



 116268294.188 8  90598741.49148  22125092.860                    22125094.340
     -2982.211       -2323.802          48.600          48.550    86823816.287 8
  22125096.000       -2227.003          52.650


 107711582.706 8  83931200.64348  20496800.180                    20496801.440
      1796.907        1400.188          50.750          49.050    80434099.012 9
  20496802.620        1341.813          54.650


 129297206.419 7 100751104.82146  24604430.480                    24604433.160
      3460.921        2696.829          42.850          37.950    96553165.473 7
  24604437.980        2584.461          42.400


 128197907.139 6  99894656.02847  24395168.360                    24395169.400
      3861.280        3008.799          41.900          42.000



 116158453.728 8  90513137.80347  22104198.180                    22104198.540
       876.098         682.675          52.150          47.200    86741786.799 8
  22104198.980         654.255          51.650


 23 12  2 16  8 30.0000000  0  9G06G11G12G19G24G25G28G29G32
 124316479.290 7  96870017.11147  23656629.540                    23656631.080
      1129.307         879.984          43.350          43.350    92833781.433 7
  23656634.600         843.301          46.300


 128812034.562 7 100373019.53446  24512108.620                    24512112.640
      2616.406        2038.765          42.250          41.550    96190847.665 7
  24512113.720        1953.772          46.700


 106116380.162 8  82688259.08848  20193205.680                    20193203.100
      -669.466        -521.662          51.850          51.850



 125575321.266 7  97850980.59546  23896154.620                    23896150.740
     -3172.792       -2472.303          43.300          39.750



 116357893.893 8  90668559.43348  22142143.280                    22142144.760
     -2991.531       -2331.063          49.050          49.100    86890725.158 8
  22142146.140       -2233.905          52.800


 107657865.108 8  83889342.81348  20486577.960                    20486579.320
      1783.860        1390.021          50.750          48.850    80393985.267 9
  20486580.620        1332.092          54.850


 129193391.073 7 100670210.03946  24584674.760                    24584677.340
      3459.667        2695.854          43.200          36.700    96475641.340 7
  24584682.080        2583.560          42.950


 128082113.496 7  99804427.46347  24373133.360                    24373134.360
      3857.941        3006.195          42.100          42.500



 116132455.880 8  90492879.77247  22099250.840                    22099251.420
       856.747         667.597          51.850          47.550    86722372.866 8
  22099251.720         639.770          51.600


 23 12  2 16  9  0.0000000  0  9G06G11G12G19G24G25G28G29G32
 124282858.136 7  96843818.88447  23650231.740                    23650233.280
      1111.943         866.452          43.650          43.600    92808674.807 7
  23650236.900         830.227          46.300


 128733663.073 7 100311951.02246  24497194.820                    24497198.820
      2608.040        2032.246          42.550          41.600    96132323.729 7
  24497199.440        1947.397          46.500


 106136671.664 8  82704070.67448  20197067.100                    20197064.520
      -683.695        -532.749          51.850          51.700



 125670644.645 7  97925258.60746  23914294.160                    23914290.260
     -3182.736       -2480.053          42.850          40.200



 116447770.731 8  90738593.31848  22159246.460                    22159247.860
     -3000.765       -2338.259          49.150          49.100    86957840.968 8
  22159249.160       -2240.804          52.800


 107604534.517 8  83847786.54648  20476429.440                    20476430.740
      1770.989        1379.994          50.700          49.100    80354160.516 9
  20476432.200        1322.492          54.900


 129089614.356 7 100589345.35845  24564926.360                    24564928.920
      3458.306        2694.794          42.600          35.600    96398146.091 7
  24564933.980        2582.466          43.200


 127966411.728 7  99714270.45847  24351115.740                    24351116.820
      3855.158        3004.024          42.450          42.600



 116107038.190 8  90473073.82347  22094413.860                    22094414.680
       837.499         652.598          51.400          47.700    86703392.169 8
  22094414.880         625.354          51.350


 23 12  2 16  9 30.0000000  0  9G06G11G12G19G24G25G28G29G32
 124249770.052 7  96818036.05847  23643935.120                    23643936.960
      1093.715         852.249          43.200          43.300    92783966.291 7
  23643940.620         816.693          46.700


 128655554.249 6 100251087.19746  24482330.940                    24482335.000
      2598.802        2025.049          41.700          41.050    96073995.925 7
  24482335.560        1940.700          46.250


 106157395.012 8  82720218.76448  20201010.600                    20201008.020
      -698.242        -544.084          51.900          51.900



 125766270.510 7  97999772.35846  23932491.200                    23932487.300
     -3193.010       -2488.056          43.700          38.550



 116537925.034 8  90808843.42248  22176402.360                    22176403.620
     -3010.146       -2345.569          48.750          48.700    87025163.983 8
  22176404.940       -2247.825          52.800


 107551593.324 8  83806533.71148  20466355.040                    20466356.020
      1757.914        1369.805          50.650          49.100    80314626.565 9
  20466357.840        1312.661          54.850


 128985879.609 7 100508513.37646  24545185.740                    24545188.220
      3456.772        2693.599          42.200          36.750    96320682.170 7
  24545193.780        2581.286          43.200


 127850805.795 7  99624188.11447  24329116.480                    24329117.760
      3851.771        3001.387          42.650          43.700



 116082203.455 8  90453722.12848  22089687.760                    22089688.860
       817.687         637.160          50.900          48.350    86684846.797 8
  22089688.940         610.623          51.250


 23 12  2 16 10  0.0000000  0  9G06G11G12G19G24G25G28G29G32
 124217218.281 7  96792671.14647  23637740.640                    23637742.700
      1076.332         838.703          43.550          43.400    92759658.260 7
  23637746.380         803.646          46.700


 128577712.607 7 100190431.54246  24467518.000                    24467521.760
      2590.425        2018.518          42.300          40.750    96015867.624 7
  24467522.400        1934.372          46.200


 106178550.928 8  82736703.92548  20205036.360                    20205033.720
      -712.269        -555.014          51.100          51.100



 125862197.827 7  98074520.97246  23950745.600                    23950741.740
     -3202.484       -2495.439          45.100          38.150



 116628356.927 8  90879309.82848  22193610.960                    22193612.100
     -3019.161       -2352.593          48.300          48.200    87092694.281 8
  22193613.660       -2254.459          52.700


 107499043.663 8  83765585.96848  20456355.240                    20456355.780
      1745.206        1359.902          50.900          49.050    80275384.994 9
  20456357.840        1303.280          54.750


 128882189.906 6 100427716.46646  24525453.900                    24525456.040
      3455.600        2692.688          41.150          38.300    96243251.849 7
  24525462.440        2580.474          44.150


 127735299.748 7  99534183.58447  24307136.280                    24307137.820
      3848.670        2998.969          42.650          42.300



 116057954.120 8  90434826.58448  22085073.120                    22085074.320
       798.636         622.314          50.700          48.850    86666738.576 8
  22085074.420         596.375          51.250


 23 12  2 16 10 30.0000000  0  9G06G11G12G19G24G25G28G29G32
 124185205.023 7  96767725.80547  23631648.760                    23631650.640
      1057.843         824.295          44.600          44.500    92735752.321 7
  23631654.300         790.118          46.500


 128500141.591 7 100129986.75646  24452756.640                    24452759.900
      2581.034        2011.199          42.400          41.550    95957941.410 7
  24452760.860        1927.407          46.400


 106200138.895 8  82753525.74848  20209144.460                    20209141.760
      -726.866        -566.389          52.000          51.950



 125958423.914 7  98149502.39746  23969056.880                    23969052.860
     -3212.533       -2503.272          45.750          36.500



 116719065.350 8  90949991.71848  22210872.140                    22210873.080
     -3028.178       -2359.619          48.250          48.000    87160431.096 8
  22210874.900       -2261.397          52.650


 107446886.577 8  83724944.13848  20446430.160                    20446430.540
      1731.918        1349.549          51.000          49.350    80236436.595 9
  20446432.440        1293.322          54.800


 128778547.148 6 100346956.12646  24505730.880                    24505732.820
      3453.953        2691.401          41.050          36.500    96165856.607 7
  24505739.900        2579.159          44.350


 127619896.297 7  99444258.99147  24285175.620                    24285177.460
      3845.190        2996.256          43.300          42.750



 116034291.620 8  90416388.30747  22080570.300                    22080571.400
       778.897         606.934          51.650          47.850    86649068.575 8
  22080571.520         581.627          51.400


 23 12  2 16 11  0.0000000  0  9G06G11G12G19G24G25G28G29G32
 124153730.639 7  96743200.36747  23625659.480                    23625661.300
      1040.038         810.422          44.650          44.900    92712248.778 7
  23625664.600         776.772          46.600


 128422842.991 7 100069754.23346  24438047.220                    24438049.780
      2572.055        2004.204          42.850          40.350    95900218.596 7
  24438051.160        1920.803          46.650


 106222156.590 8  82770682.42248  20213334.340                    20213331.660
      -741.126        -577.499          51.750          51.750



 126054944.801 7  98224713.57246  23987424.200                    23987419.920
     -3222.305       -2510.885          44.850          37.500



 116810047.723 8  91020887.07848  22228185.420                    22228186.160
     -3037.297       -2366.725          48.050          48.000    87228372.467 8
  22228188.320       -2268.027          52.450


 107395121.435 8  83684607.72148  20436579.580                    20436579.960
      1718.904        1339.409          50.850          49.350    80197780.860 9
  20436581.660        1283.661          54.750


 128674951.720 6 100266232.64746  24486017.180                    24486018.980
      3452.337        2690.142          40.850          38.200    96088496.667 7
  24486026.260        2578.087          44.300


 127504596.901 7  99354415.43747  24263234.900                    24263236.740
      3841.418        2993.317          43.050          42.850



 116011215.643 8  90398407.05448  22076179.160                    22076180.100
       759.442         591.774          51.750          48.000    86631836.549 8
  22076180.220         567.170          51.450


 23 12  2 16 11 30.0000000  0  9G06G11G12G19G24G25G28G29G32
 124122796.432 7  96719095.82447  23619772.860                    23619774.800
      1021.925         796.307          43.850          44.100    92689148.603 7
  23619777.800         763.332          46.900


 128345819.469 7 100009736.01446  24423390.140                    24423391.700
      2562.810        1996.997          42.950          39.900    95842701.182 7
  24423394.000        1913.893          46.550


 106244602.727 8  82788172.93548  20217605.660                    20217602.900
      -755.278        -588.527          51.750          51.750



 126151757.560 7  98300152.19246  24005846.980                    24005842.420
     -3231.872       -2518.338          44.400          37.750



 116901302.205 8  91091994.47948  22245550.540                    22245551.040
     -3046.383       -2373.804          48.450          48.350    87296517.054 8
  22245553.460       -2274.803          52.400


 107343748.445 8  83644576.87948  20426803.580                    20426803.980
      1705.919        1329.289          50.900          49.350    80159417.982 9
  20426805.600        1273.930          54.850


 128571404.780 6 100185546.95546  24466312.740                    24466314.480
      3450.703        2688.864          40.950          36.500    96011172.936 7
  24466321.660        2576.960          44.900


 127389403.358 6  99264654.37346  24241314.220                    24241316.280
      3837.949        2990.620          41.600          41.900



 115988726.692 8  90380883.22348  22071899.760                    22071900.560
       739.964         576.597          51.850          48.250    86615042.896 8
  22071900.600         552.535          51.600


 23 12  2 16 12  0.0000000  0  9G06G11G12G19G24G25G28G29G32
 124092405.392 7  96695414.51147  23613989.460                    23613991.720
      1003.731         782.128          42.950          42.850    92666454.025 7
  23613994.540         749.673          47.150


 128269075.296 7  99949935.49346  24408786.200                    24408787.120
      2553.285        1989.575          43.050          40.850    95785392.377 7
  24408790.080        1906.651          46.400


 106267477.542 8  82805997.47848  20221958.480                    20221955.680
      -769.770        -599.820          51.550          51.400



 126248860.941 7  98375817.22246  24024325.100                    24024320.300
     -3241.623       -2525.937          44.650          36.050



 116992828.624 7  91163313.77547  22262967.460                    22262967.940
     -3055.529       -2380.932          47.850          47.850    87364864.714 8
  22262970.340       -2281.702          52.150


 107292769.511 8  83604853.09048  20417102.520                    20417102.820
      1692.554        1318.874          50.700          49.350    80121349.358 9
  20417104.660        1263.963          54.900


 128467909.164 6 100104901.26046  24446618.080                    24446619.960
      3448.815        2687.396          40.850          39.350    95933887.547 7
  24446626.760        2575.315          44.150


 127274319.434 7  99174978.71147  24219414.400                    24219416.780
      3834.213        2987.702          42.750          42.600



 115966826.947 8  90363818.51148  22067732.400                    22067733.240
       720.083         561.104          51.600          48.450    86598689.219 8
  22067733.080         537.716          51.450


