     2.11           OBSERVATION DATA    M (MIXED)           RINEX VERSION / TYPE
RTKCONV 2.4.2                           20230828 193015 UTC PGM / RUN BY / DATE 
log: C:\Users\oo\Desktop\divers\verniquet\Reseau\verniquet  COMMENT             
format: u-blox                                              COMMENT             
                                                            MARKER NAME         
                                                            MARKER NUMBER       
                                                            OBSERVER / AGENCY   
                                                            REC # / TYPE / VERS 
                                                            ANT # / TYPE        
  4199656.7266   174911.5537  4781301.9100                  APPROX POSITION XYZ 
        0.0000        0.0000        0.0000                  ANTENNA: DELTA H/E/N
     1     1                                                WAVELENGTH FACT L1/2
     4    C1    L1    D1    S1                              # / TYPES OF OBSERV 
  2023     8    28    11    39   27.9990000     GPS         TIME OF FIRST OBS   
  2023     8    28    13    22    0.9990000     GPS         TIME OF LAST OBS    
                                                            END OF HEADER       
 23  8 28 11 39 27.9990000  0  8G 3G 4G 6G17G19G 2G 9G31
  20248649.344   106407369.576       -1652.513          47.000  
  20190193.548   106100176.267        1165.760          41.000  
  21974433.182   115476426.179        2732.471          41.000  
  21514584.896   113059906.912       -1835.375          43.000  
  21029585.161   110511210.222        -498.287          41.000  
  23902722.286                       -3472.039          26.000  
  21525582.250   113117705.293        2798.345          35.000  
  22669563.744   119129363.888        -100.912          41.000  
 23  8 28 11 39 28.9990000  0  8G 3G 4G 6G17G19G 2G 9G31
  20248963.731   106409021.504       -1651.408          44.000  
  20189971.726   106099009.973        1166.712          39.000  
  21973913.488   115473693.283        2733.395          39.000  
  21514934.039   113061741.558       -1834.410          41.000  
  21029679.689   110511707.910        -497.769          36.000  
  23903380.896                       -3470.087          25.000  
  21525049.193   113114906.467        2799.162          36.000  
  22669582.922   119129464.480        -100.691          39.000  
 23  8 28 11 39 29.9990000  0  8G 3G 4G 6G17G19G 2G 9G31
  20249278.293   106410673.809       -1653.260          38.000  
  20189750.034   106097844.309        1164.742          35.000  
  21973393.349   115470960.410        2732.039          39.000  
  21515283.436   113063576.666       -1835.610          45.000  
  21029774.867   110512206.132        -499.248          42.000  
  23904039.625                       -3472.367          24.000  
  21524516.595   113112107.823        2797.705          36.000  
  22669602.104   119129565.552        -101.544          31.000  
 23  8 28 11 39 30.9990000  0  7G 3G 4G 6G17G19G 9G31
  20249593.265   106412327.195       -1652.916          37.000  
  20189528.939   106096679.927        1165.269          32.000  
  21972873.049   115468228.631        2732.168          40.000  
  21515633.169   113065413.089       -1836.177          45.000  
  21029870.498   110512705.968        -499.377          43.000  
  21523984.503   113109310.457        2797.080          35.000  
  22669621.879   119129668.099        -102.433          32.000  
 23  8 28 11 39 31.9990000  0  7G 3G 4G 6G17G19G 9G31
  20249907.369   106413980.311       -1653.934          41.000  
  20189307.400   106095515.545        1163.987          38.000  
  21972352.697   115465496.609        2731.119          43.000  
  21515982.798   113067249.508       -1837.066          42.000  
  21029965.877   110513205.876        -500.625          43.000  
  21523452.381   113106512.915        2797.665          35.000  
  22669641.559   119129770.836        -103.598          41.000  
 23  8 28 11 39 32.9990000  0  8G 3G 4G 6G17G19G 2G 9G31
  20250222.206   106415635.088       -1655.288          42.000  
  20189085.953   106094352.956        1161.722          40.000  
  21971832.964   115462766.012        2730.192          41.000  
  21516331.924   113069087.619       -1839.011          44.000  
  21030061.504   110513707.875        -502.620          43.000  
  23906025.132                       -3472.705          29.000  
  21522919.774   113103716.876        2795.367          37.000  
  22669661.539   119129875.540        -105.448          43.000  
 23  8 28 11 39 33.9990000  0  8G 3G 4G 6G17G19G 2G 9G31
  20250537.322   106417291.097       -1656.185          42.000  
  20188865.316   106093191.838        1160.713          40.000  
  21971313.480   115460036.531        2729.523          40.000  
  21516681.701   113070927.144       -1840.007          44.000  
  21030157.585   110514211.408        -503.939          43.000  
  23906684.367                       -3475.470          28.000  
  21522387.250   113100922.143        2794.167          38.000  
  22669681.873   119129981.718        -106.476          40.000  
 23  8 28 11 39 34.9990000  0  8G 3G 4G 6G17G19G 2G 9G31
  20250852.730   106418947.997       -1656.082          42.000  
  20188644.445   106092031.862        1159.890          38.000  
  21970794.057   115457307.884        2729.203          42.000  
  21517031.700   113072767.765       -1840.048          46.000  
  21030253.478   110514716.239        -504.641          43.000  
  23907333.798                       -3474.695          27.000  
  21521855.145   113098128.338        2793.590          37.000  
  22669702.460   119130089.091        -108.009          42.000  
 23  8 28 11 39 35.9990000  0  8G 3G 4G 6G17G19G 2G 9G31
  20251168.208   106420605.888       -1658.865          47.000  
  20188423.608   106090873.010        1157.752          42.000  
  21970275.057   115454579.956        2727.536          41.000  
  21517381.712   113074609.478       -1842.879          45.000  
  21030349.908   110515222.330        -507.015          45.000  
  23908013.934   125637460.5302      -3477.539          36.000  
  21521323.332   113095335.551        2791.068          36.000  
  22669722.558   119130197.675        -110.009          45.000  
 23  8 28 11 39 36.9990000  0  8G 3G 4G 6G17G19G 2G 9G31
  20251483.887   106422265.083       -1659.305          45.000  
  20188202.989   106089715.626        1157.661          42.000  
  21969756.458   115451854.461        2719.538          36.000  
  21517732.138   113076453.186       -1846.596          45.000  
  21030446.875   110515730.879        -512.811          40.000  
  23908677.448                       -3477.340          33.000  
  21520791.362   113092544.072        2790.848          41.000  
  22669745.732   119130308.248        -110.906          38.000  
 23  8 28 11 39 37.9990000  0  8G 3G 4G 6G17G19G 2G 9G31
  20251799.431   106423925.474       -1659.924          46.000  
  20187982.841   106088560.170        1156.027          39.000  
  21969237.824   115449130.051        2725.539          41.000  
  21518083.250   113078298.777       -1844.530          49.000  
  21030544.182   110516241.478        -509.312          47.000  
  23909344.862   125644454.8593      -3477.596          28.000  
  21520260.308   113089754.420        2791.459          32.000  
  22669763.841   119130419.799        -112.683          38.000  
 23  8 28 11 39 38.9990000  0  7G 3G 4G 6G17G19G 9G31
  20252115.254   106425586.428       -1662.108          49.000  
  20187763.021   106087405.116        1153.820          41.000  
  21968718.462   115446405.104        2723.835          38.000  
  21518434.597   113080144.202       -1846.893          49.000  
  21030641.951   110516751.935        -511.965          47.000  
  21519729.076   113086964.716        2788.653          35.000  
  22669785.401   119130532.559        -114.422          42.000  
 23  8 28 11 39 39.9990000  0  8G 3G 4G 6G17G19G 2G 9G31
  20252431.281   106427247.114       -1662.053          49.000  
  20187542.629   106086250.844        1152.512          44.000  
  21968200.239   115443680.485        2723.113          44.000  
  21518786.297   113081991.140       -1848.386          45.000  
  21030738.577   110517263.617        -513.368          45.000  
  23910661.271   125651372.1492      -3480.371          40.000  
  21519198.079   113084176.557        2786.831          39.000  
  22669805.294   119130645.260        -114.605          39.000  
 23  8 28 11 39 40.9990000  0  8G 3G 4G 6G17G19G 2G 9G31
  20252748.177   106428910.441       -1664.555          42.000  
  20187323.738   106085100.268        1151.056          40.000  
  21967684.685                        2719.625          32.000  
  21519138.975   113083842.298       -1854.033          43.000  
  21030836.809   110517779.944        -517.050          43.000  
  23911322.922   125654853.8542      -3482.530          31.000  
  21518668.116   113081391.756        2783.966          42.000  
  22669829.062   119130759.793        -119.578          35.000  
 23  8 28 11 39 41.9990000  0  8G 3G 4G 6G17G19G 2G 9G31
  20253065.064   106430575.635       -1664.921          39.000  
  20187105.510   106083950.700        1149.285          43.000  
  21967164.241   115438226.7973       2721.660          41.000  
  21519491.269   113085694.407       -1850.864          43.000  
  21030934.905   110518297.766        -515.984          45.000  
  23911984.726                       -3478.376          25.000  
  21518138.567   113078607.849        2783.896          41.000  
  22669848.702   119130858.8253       -117.195          37.000  
 23  8 28 11 39 42.9990000  0  8G 3G 4G 6G17G19G 2G 9G31
  20253382.065   106432241.496       -1668.915          46.000  
  20186886.798   106082802.090        1145.458          46.000  
  21966650.908                        2725.362          33.000  
  21519843.353   113087545.196       -1851.712          41.000  
  21031033.180   110518813.408        -517.334          38.000  
  23912649.798   125661822.1533      -3486.985          32.000  
  21517608.569   113075824.292        2782.535          45.000  
  22669872.390   119130979.4752       -122.045          41.000  
 23  8 28 11 39 43.9990000  0  8G 3G 4G 6G17G19G 2G 9G31
  20253699.847   106433910.253       -1668.553          45.000  
  20186668.565   106081655.803        1146.118          44.000  
  21966131.354   115432810.7892       2718.142          41.000  
  21520195.341   113089398.364       -1853.614          39.000  
  21031131.988   110519332.479        -519.945          40.000  
  23913321.147   125665308.2372      -3484.729          32.000  
  21517078.671   113073042.223        2781.990          42.000  
  22669898.478   119131102.3622       -122.410          41.000  
 23  8 28 11 39 44.9990000  0  8G 3G 4G 6G17G19G 2G 9G31
  20254017.759   106435578.640       -1669.010          45.000  
  20186450.272   106080509.541        1145.492          43.000  
  21965610.238   115430092.4972       2717.334          41.000  
  21520547.478   113091252.117       -1854.510          41.000  
  21031231.096   110519852.535        -521.189          42.000  
  23913980.207   125668793.0012      -3485.540          33.000  
  21516549.153   113070260.005        2781.880          43.000  
  22669921.727   119131224.5362       -122.621          41.000  
 23  8 28 11 39 45.9990000  0  9G 3G 4G 6G17G19G 2G 1G 9G31
  20254335.571   106437247.507       -1669.608          50.000  
  20186232.026   106079364.026        1144.513          47.000  
  21965095.260   115427374.6462       2717.264          47.000  
  21520900.893   113093106.626       -1855.167          46.000  
  21031329.341   110520373.493        -521.921          48.000  
  23914639.188   125672278.1652      -3485.473          36.000  
  22338091.859   117387464.6562      -3572.157          41.000  
  21516019.796   113067478.464        2780.993          48.000  
  22669945.577   119131347.5672       -123.851          45.000  
 23  8 28 11 39 46.9990000  0  9G 3G 4G 6G17G19G 2G 1G 9G31
  20254653.562   106438917.710       -1670.516          50.000  
  20186014.422   106078220.056        1143.595          47.000  
  21964579.175   115424658.0822       2716.397          47.000  
  21521254.495   113094962.650       -1856.346          47.000  
  21031428.493   110520896.180        -523.029          48.000  
  23915304.499   125675764.4532      -3486.909          38.000  
  22338767.256   117391037.1602      -3572.777          41.000  
  21515490.902   113064698.182        2780.171          48.000  
  22669970.356   119131472.2732       -125.010          43.000  
 23  8 28 11 39 47.9990000  0  9G 3G 4G 6G17G19G 2G 1G 9G31
  20254971.728   106440588.420       -1669.739          48.000  
  20185796.656   106077076.753        1143.917          45.000  
  21964062.125   115421941.9562       2717.272          44.000  
  21521607.984   113096819.235       -1855.892          46.000  
  21031528.365   110521419.749        -523.092          45.000  
  23915976.468   125679250.9352      -3485.085          38.000  
  22339445.961   117394610.0742      -3572.540          38.000  
  21514962.483   113061918.402        2780.728          46.000  
  22669992.561   119131597.7932       -124.548          42.000  
 23  8 28 11 39 48.9990000  0  9G 3G 4G 6G17G19G 2G 1G 9G31
  20255289.819   106442259.991       -1677.704          48.000  
  20185578.581   106075934.647        1136.168          45.000  
  21963546.065   115419226.6072       2709.539          43.000  
  21521960.959   113098677.045       -1863.971          44.000  
  21031628.206   110521944.602        -531.387          44.000  
  23916640.130   125682738.2722      -3493.193          36.000  
  22340123.670   117398183.7282      -3579.528          38.000  
  21514433.698   113059139.631        2772.340          47.000  
  22670016.507   119131724.593        -133.637          42.000  
 23  8 28 11 39 49.9990000  0  9G 3G 4G 6G17G19G 2G 1G 9G31
  20255609.564   106443938.162       -1674.624          50.000  
  20185362.412   106074799.354        1138.823          47.000  
  21963030.538   115416517.6542       2712.362          47.000  
  21522315.368   113100541.573       -1861.053          47.000  
  21031729.601   110522476.460        -528.632          48.000  
  23917297.576   125686232.0082      -3490.496          37.000  
  22340807.405   117401763.9772      -3576.398          42.000  
  21513906.457   113056367.445        2775.647          48.000  
  22670043.451   119131858.275        -130.270          43.000  
 23  8 28 11 39 50.9990000  0  9G 3G 4G 6G17G19G 2G 1G 9G31
  20255928.231   106445612.402       -1673.297          48.000  
  20185145.672   106073660.263        1139.979          45.000  
  21962513.536   115413804.7762       2713.929          43.000  
  21522669.429   113102402.206       -1859.859          44.000  
  21031830.612   110523004.638        -527.479          46.000  
  23917960.763   125689721.4442      -3488.186          37.000  
  22341488.552   117405340.0432      -3575.030          39.000  
  21513378.422   113053591.233        2777.181          48.000  
  22670068.247   119131988.322        -129.171          43.000  
 23  8 28 11 39 51.9990000  0  9G 3G 4G 6G17G19G 2G 1G 9G31
  20256247.421   106447289.492       -1677.173          44.000  
  20184929.280   106072524.281        1135.613          37.000  
  21961998.327   115411094.6632       2709.827          36.000  
  21523023.991   113104265.939       -1864.176          41.000  
  21031932.765   110523536.105        -531.970          41.000  
  23918626.659   125693213.6292      -3491.634          31.000  
  22342169.372   117408918.9832      -3578.931          36.000  
  21512850.614   113050817.895        2773.319          44.000  
  22670093.013   119132121.581        -133.710          40.000  
 23  8 28 11 39 52.9990000  0  9G 3G 4G 6G17G19G 2G 1G 9G31
  20256566.346   106448966.199       -1675.803          43.000  
  20184712.732   106071388.189        1136.732          39.000  
  21961482.878   115408383.8852       2711.220          34.000  
  21523378.431   113106129.454       -1862.992          42.000  
  21032034.229   110524067.552        -530.895          41.000  
  23919291.957   125696705.3582      -3491.316          30.000  
  22342850.441   117412497.4222      -3577.696          36.000  
  21512322.684   113048044.285        2774.396          45.000  
  22670117.976   119132254.795        -132.551          39.000  
 23  8 28 11 39 53.9990000  0  9G 3G 4G 6G17G19G 2G 1G 9G31
  20256885.161   106450642.100       -1676.851          45.000  
  20184496.620   106070251.484        1135.888          41.000  
  21960967.089   115405672.3532       2711.395          32.000  
  21523733.041   113107992.336       -1863.718          41.000  
  21032135.615   110524598.582        -532.195          39.000  
  23919961.744   125700195.9592      -3491.089          32.000  
  22343531.039   117416074.9312      -3578.729          33.000  
  21511795.234   113045269.882        2773.327          44.000  
  22670142.786   119132387.576        -133.775          39.000  
 23  8 28 11 39 54.9990000  0  9G 3G 4G 6G17G19G 2G 1G 9G31
  20257204.247   106452320.082       -1675.874          47.000  
  20184281.157   106069117.146        1136.450          45.000  
  21960450.850   115402962.1751       2712.062          44.000  
  21524088.424   113109857.562       -1862.718          45.000  
  21032237.865   110525132.174        -531.411          46.000  
  23920614.535   125703688.6072      -3490.373          33.000  
  22344212.610   117419654.5262      -3577.284          38.000  
  21511267.797   113042497.679        2774.484          47.000  
  22670169.166   119132522.774        -133.148          42.000  
 23  8 28 11 39 55.9990000  0  9G 3G 4G 6G17G19G 2G 1G 9G31
  20257524.293   106454002.211       -1685.605          48.000  
  20184066.568   106067987.129        1126.646          46.000  
  21959935.728   115400256.621        2702.459          44.000  
  21524444.556   113111727.031       -1872.685          46.000  
  21032340.254   110525670.205        -541.172          46.000  
  23921277.460   125707185.0632      -3499.145          34.000  
  22344895.123   117423238.0452      -3586.468          40.000  
  21510741.271   113039729.515        2765.052          46.000  
  22670196.236   119132662.398        -143.100          43.000  
 23  8 28 11 39 56.9990000  0  9G 3G 4G 6G17G19G 2G 1G 9G31
  20257844.548   106455685.212       -1682.916          47.000  
  20183852.017   106066858.209        1128.966          46.000  
  21959420.707   115397551.915        2704.387          42.000  
  21524800.750   113113597.532       -1870.348          45.000  
  21032442.922   110526209.507        -539.238          47.000  
  23921941.314   125710682.3202      -3497.253          34.000  
  22345577.544   117426822.3672      -3583.996          41.000  
  21510214.737   113036962.286        2767.422          47.000  
  22670223.419   119132803.253        -141.117          42.000  
 23  8 28 11 39 57.9990000  0  9G 3G 4G 6G17G19G 2G 1G 9G31
  20258164.659   106457366.494       -1681.298          43.000  
  20183636.695   106065727.789        1129.903          42.000  
  21958905.454   115394845.362        2706.994          37.000  
  21525156.704   113115466.457       -1868.656          42.000  
  21032545.682   110526747.435        -537.858          42.000  
  23922614.217   125714177.5182      -3495.652          30.000  
  22346258.936   117430404.8342      -3582.528          35.000  
  21509687.867   113034193.259        2768.988          43.000  
  22670250.092   119132942.624        -139.828          37.000  
 23  8 28 11 39 58.9990000  0  9G 3G 4G 6G17G19G 2G 1G 9G31
  20258484.247   106459047.019       -1679.711          48.000  
  20183421.372   106064596.886        1131.313          45.000  
  21958390.071   115392137.886        2708.261          44.000  
  21525512.348   113117334.947       -1867.851          45.000  
  21032648.076   110527285.097        -536.938          47.000  
  23923271.610   125717671.9072      -3493.312          33.000  
  22346940.554   117433986.5372      -3580.820          39.000  
  21509161.001   113031423.691        2770.179          46.000  
  22670276.407   119133081.724        -138.509          41.000  
 23  8 28 11 39 59.9990000  0  9G 3G 4G 6G17G19G 2G 1G 9G31
  20258803.442   106460726.070       -1678.248          48.000  
  20183205.945   106063464.696        1133.090          45.000  
  21957874.531   115389428.887        2710.037          45.000  
  21525868.137   113119202.048       -1866.311          45.000  
  21032749.954   110527821.605        -535.839          47.000  
  23923933.287   125721164.6052      -3491.124          35.000  
  22347622.404   117437566.6462      -3578.998          39.000  
  21508633.682   113028652.584        2771.984          46.000  
  22670302.673   119133219.653        -137.399          42.000  
 23  8 28 11 40  0.9990000  0  9G 3G 4G 6G17G19G 2G 1G 9G31
  20259123.174   106462406.748       -1682.642          48.000  
  20182991.093   106062334.348        1128.240          45.000  
  21957359.522   115386721.394        2705.452          45.000  
  21526223.881   113121070.917       -1870.990          45.000  
  21032852.379   110528360.081        -540.598          47.000  
  23924599.537   125724658.6682      -3495.408          34.000  
  22348304.044   117441148.252       -3583.796          39.000  
  21508106.607   113025883.097        2767.451          46.000  
  22670329.438   119133359.470        -141.906          42.000  
 23  8 28 11 40  1.9990000  0  9G 3G 4G 6G17G19G 2G 1G 9G31
  20259443.280   106464089.582       -1682.159          47.000  
  20182776.552   106061206.389        1128.573          45.000  
  21956844.898   115384015.967        2705.896          44.000  
  21526580.127   113122942.119       -1870.886          45.000  
  21032955.396   110528901.115        -540.651          46.000  
  23925267.828   125728154.7882      -3495.326          34.000  
  22348985.772   117444731.914       -3583.101          39.000  
  21507579.798   113023115.807        2767.827          45.000  
  22670356.616   119133501.821        -141.968          42.000  
 23  8 28 11 40  2.9990000  0  9G 3G 4G 6G17G19G 2G 1G 9G31
  20259763.431   106465772.637       -1683.087          47.000  
  20182562.032   106060078.894        1127.375          45.000  
  21956330.108   115381310.667        2705.286          45.000  
  21526936.487   113124813.710       -1871.796          45.000  
  21033058.575   110529442.757        -541.989          47.000  
  23925934.840   125731650.8952      -3496.001          33.000  
  22349667.953   117448315.708       -3583.799          39.000  
  21507053.028   113020348.768        2766.942          45.000  
  22670383.625   119133644.711        -143.276          42.000  
 23  8 28 11 40  3.9990000  0  9G 3G 4G 6G17G19G 2G 1G 9G31
  20260083.642   106467456.406       -1685.926          44.000  
  20182347.634   106058952.363        1124.329          43.000  
  21955815.496   115378606.017        2703.029          44.000  
  21527292.860   113126686.231       -1873.865          44.000  
  21033161.588   110529985.526        -544.755          45.000  
  23926596.915   125735147.4642      -3499.651          33.000  
  22350349.611   117451900.096       -3586.686          36.000  
  21506526.123   113017582.497        2764.441          41.000  
  22670410.856   119133788.668        -146.007          41.000  
 23  8 28 11 40  4.9990000  0  9G 3G 4G 6G17G19G 2G 1G 9G31
  20260405.163   106469143.766       -1687.041          44.000  
  20182133.629   106057829.588        1122.850          42.000  
  21955301.762   115375904.849        2701.546          42.000  
  21527649.385   113128562.523       -1876.309          41.000  
  21033265.294   110530532.204        -546.174          41.000  
  23927262.715   125738647.3882      -3498.615          32.000  
  22351031.705   117455487.997       -3587.707          33.000  
  21505999.620   113014819.794        2763.237          40.000  
  22670438.816   119133936.528        -147.630          39.000  
 23  8 28 11 40  5.9990000  0  9G 3G 4G 6G17G19G 2G 1G 9G31
  20260725.745   106470828.547       -1683.006          43.000  
  20181919.567   106056704.527        1126.718          41.000  
  21954787.317   115373200.995        2705.631          42.000  
  21528005.544   113130436.394       -1872.461          41.000  
  21033368.678   110531076.746        -543.046          40.000  
  23927926.477   125742144.7532      -3495.327          30.000  
  22351713.490   117459073.226       -3582.973          34.000  
  21505472.898   113012054.571        2766.637          40.000  
  22670466.291   119134082.196        -144.299          38.000  
 23  8 28 11 40  6.9990000  0  9G 3G 4G 6G17G19G 2G 1G 9G31
  20261046.236   106472512.089       -1684.402          43.000  
  20181705.209   106055578.385        1125.230          41.000  
  21954272.518   115370495.823        2704.211          42.000  
  21528361.869   113132309.132       -1873.857          42.000  
  21033472.031   110531620.402        -544.714          40.000  
  23928586.126   125745640.580       -3496.655          29.000  
  22352395.209   117462657.121       -3584.924          34.000  
  21504946.438   113009288.063        2765.689          40.000  
  22670493.579   119134226.927        -145.662          38.000  
 23  8 28 11 40  7.9990000  0 10G 3G 4G 6G17G19G 2G 1G21G 9G31
  20261366.914   106474197.015       -1686.511          43.000  
  20181491.395   106054453.900        1122.382          41.000  
  21953758.090   115367791.887        2702.325          42.000  
  21528718.294   113134183.430       -1876.066          42.000  
  21033575.533   110532165.777        -547.236          40.000  
  23929251.525   125749137.672       -3500.404          28.000  
  22353076.906   117466242.278       -3587.465          34.000  
  24688325.081   129738023.8002      -3377.087          26.000  
  21504420.017   113006522.989        2763.323          40.000  
  22670521.246   119134373.369        -148.452          38.000  
 23  8 28 11 40  8.9990000  0 10G 3G 4G 6G17G19G 2G 1G21G 9G31
  20261687.684   106475882.165       -1686.032          43.000  
  20181277.355   106053329.839        1122.766          41.000  
  21953243.435   115365088.079        2702.741          42.000  
  21529075.098   113136058.121       -1875.619          42.000  
  21033679.244   110532711.764        -547.109          41.000  
  23929912.613                       -3498.995          28.000  
  22353758.939   117469827.524       -3585.877          34.000  
  24688969.151                       -3375.037          26.000  
  21503894.146   113003758.143        2764.069          40.000  
  22670549.140   119134520.384        -147.884          38.000  
 23  8 28 11 40  9.9990000  0 10G 3G 4G 6G17G19G 2G 1G21G 9G31
  20262008.624   106477569.520       -1684.159          42.000  
  20181063.717   106052208.211        1125.098          42.000  
  21952729.351   115362386.394        2704.900          43.000  
  21529432.300   113137935.238       -1874.224          42.000  
  21033783.321   110533260.375        -545.697          43.000  
  23930568.641                       -3496.313          27.000  
  22354441.234   117473414.907       -3584.426          34.000  
  24689609.544                       -3372.941          25.000  
  21503368.842   113000995.587        2765.565          39.000  
  22670577.514   119134669.910        -146.617          40.000  
 23  8 28 11 40 10.9990000  0 10G 3G 4G 6G17G19G 2G 1G21G 9G31
  20262329.110   106479252.042       -1684.170          44.000  
  20180849.794   106051081.983        1124.534          42.000  
  21952214.661   115359679.762        2704.899          44.000  
  21529788.590   113139807.628       -1873.924          43.000  
  21033887.063   110533804.499        -545.841          44.000  
  23931242.307   125759627.950       -3495.506          30.000  
  22355122.796   117476997.386       -3584.411          36.000  
  24690246.673                       -3370.753          25.000  
  21502842.230   112998228.166        2765.950          37.000  
  22670604.946   119134814.928        -146.866          40.000  
 23  8 28 11 40 11.9990000  0  9G 3G 4G 6G17G19G 2G 1G 9G31
  20262650.085   106480937.754       -1679.455          41.000  
  20180635.907   106049959.169        1128.492          40.000  
  21951700.635   115356976.222        2709.676          43.000  
  21530145.573   113141683.378       -1869.565          40.000  
  21033990.962   110534352.154        -541.547          41.000  
  23931907.980                       -3491.506          29.000  
  22355804.837   117480582.939       -3579.609          35.000  
  21502316.236   112995463.883        2770.461          39.000  
  22670633.006   119134963.527        -142.899          38.000  
 23  8 28 11 40 12.9990000  0  9G 3G 4G 6G17G19G 2G 1G 9G31
  20262970.057   106482618.970       -1682.798          43.000  
  20180421.619   106048832.083        1124.899          41.000  
  21951185.356   115354268.135        2706.271          43.000  
  21530501.688   113143554.867       -1873.313          37.000  
  21034094.219   110534895.756        -545.479          39.000  
  23932575.032                       -3493.367          28.000  
  22356485.902   117484163.889       -3582.501          35.000  
  21501789.567   112992695.254        2766.284          39.000  
  22670660.669   119135107.910        -146.065          38.000  
 23  8 28 11 40 13.9990000  0  9G 3G 4G 6G17G19G 2G 1G 9G31
  20263290.639   106484303.994       -1684.050          46.000  
  20180208.451   106047709.067        1123.879          45.000  
  21950670.623   115351563.696        2705.802          44.000  
  21530858.785   113145430.311       -1874.266          42.000  
  21034198.235   110535443.541        -546.753          44.000  
  23933228.072                       -3495.437          28.000  
  22357167.721   117487748.610       -3584.023          37.000  
  21501263.613   112989930.444        2766.185          42.000  
  22670688.960   119135256.497        -147.781          41.000  
 23  8 28 11 40 14.9990000  0  9G 3G 4G 6G17G19G 2G 1G 9G31
  20263610.462   106485987.273       -1681.890          46.000  
  20179994.411   106046584.490        1125.893          46.000  
  21950155.588   115348857.419        2707.632          45.000  
  21531215.930   113147304.162       -1872.386          45.000  
  21034301.811   110535989.927        -545.101          45.000  
  23933898.055   125773455.5473      -3491.072          28.000  
  22357849.209   117491331.418       -3581.110          38.000  
  21500737.018   112987163.886        2768.163          44.000  
  22670716.924   119135403.581        -145.976          41.000  
 23  8 28 11 40 15.9990000  0  8G 3G 4G 6G17G19G 1G 9G31
  20263930.508   106487671.597       -1685.918          47.000  
  20179780.903   106045461.190        1121.681          45.000  
  21949640.336   115346152.114        2703.917          45.000  
  21531573.010   113149179.261       -1876.747          45.000  
  21034405.810   110536537.760        -549.451          45.000  
  22358531.120   117494915.192       -3585.178          38.000  
  21500210.584   112984398.429        2763.913          44.000  
  22670744.705   119135552.081        -150.329          41.000  
 23  8 28 11 40 16.9990000  0  9G 3G 4G 6G17G19G 2G 1G 9G31
  20264251.592   106489358.758       -1686.777          47.000  
  20179567.705   106044340.984        1120.392          45.000  
  21949125.886   115343449.575        2702.888          45.000  
  21531930.351   113151057.370       -1878.001          45.000  
  21034510.455   110537088.827        -550.997          45.000  
  23935222.863   125780445.0833      -3496.341          27.000  
  22359213.506   117498501.714       -3586.286          38.000  
  21499684.482   112981635.820        2762.696          44.000  
  22670773.559   119135703.776        -151.656          41.000  
 23  8 28 11 40 17.9990000  0  9G 3G 4G 6G17G19G 2G 1G 9G31
  20264571.873   106491042.317       -1680.064          47.000  
  20179353.997   106043217.398        1127.016          45.000  
  21948610.912   115340743.336        2709.777          45.000  
  21532286.924   113152932.073       -1871.412          45.000  
  21034614.576   110537636.684        -544.644          45.000  
  23935887.131   125783939.0232      -3491.701          27.000  
  22359895.203   117502084.534       -3579.310          38.000  
  21499157.921   112978869.644        2769.627          44.000  
  22670802.081   119135852.211        -145.105          41.000  
 23  8 28 11 40 18.9990000  0  9G 3G 4G 6G17G19G 2G 1G 9G31
  20264891.025   106492720.1343      -1677.792          47.000  
  20179138.862   106042089.7943       1129.032          46.000  
  21948094.730   115338015.7533       2712.255          46.000  
  21532642.224   113154798.1813      -1868.970          45.000  
  21034717.576   110538186.1323       -542.224          46.000  
  23936548.652                       -3487.025          27.000  
  22360575.461   117505616.9693      -3576.425          38.000  
  21498630.096   112976062.7503       2771.899          44.000  
  22670828.815   119136009.2093       -142.890          41.000  
 23  8 28 11 40 19.9990000  0  9G 3G 4G 6G17G19G 2G 1G 9G31
  20265211.110   106494403.0042      -1686.801          47.000  
  20178925.075   106040965.9572       1120.062          46.000  
  21947579.508   115335308.6142       2703.553          45.000  
  21532998.671   113156672.5052      -1877.965          44.000  
  21034821.854   110538734.0602       -551.783          46.000  
  23937210.460                       -3495.238          27.000  
  22361257.040   117509198.9012      -3585.930          38.000  
  21498103.619   112973295.9122       2763.088          44.000  
  22670856.906   119136157.6122       -152.505          41.000  
 23  8 28 11 40 20.9990000  0  9G 3G 4G 6G17G19G 2G 1G 9G31
  20265532.124   106496088.9142      -1686.136          47.000  
  20178711.720   106039845.4192       1120.385          46.000  
  21947064.989   115332604.4622       2704.020          45.000  
  21533355.872   113158550.1042      -1877.997          44.000  
  21034926.651   110539285.4092       -551.614          46.000  
  23937876.635   125794384.6483      -3495.485          28.000  
  22361938.995   117512783.7742      -3584.709          38.000  
  21497577.643   112970532.1762       2763.620          43.000  
  22670885.733   119136309.4082       -152.106          41.000  
 23  8 28 11 40 21.9990000  0  9G 3G 4G 6G17G19G 2G 1G 9G31
  20265853.395   106497775.0642      -1686.207          47.000  
  20178498.596   106038725.3462       1119.860          46.000  
  21946550.360   115329900.4352       2704.009          45.000  
  21533713.061   113160428.0642      -1878.000          44.000  
  21035031.623   110539837.3872       -552.170          45.000  
  23938542.658   125797880.2982      -3495.286          28.000  
  22362621.246   117516368.7802      -3584.803          38.000  
  21497051.528   112967768.6982       2763.389          44.000  
  22670914.688   119136461.7462       -152.603          41.000  
 23  8 28 11 40 22.9990000  0  9G 3G 4G 6G17G19G 2G 1G 9G31
  20266174.458   106499461.6302      -1686.901          46.000  
  20178285.725   106037605.8522       1119.238          46.000  
  21946035.749   115327196.7122       2703.096          43.000  
  21534070.568   113162306.5422      -1878.575          45.000  
  21035137.048   110540390.0862       -553.124          45.000  
  23939223.199   125801376.1122      -3496.001          29.000  
  22363303.767   117519954.0572      -3585.210          39.000  
  21496525.399   112965005.6312       2762.795          44.000  
  22670943.925   119136614.8522       -154.010          39.000  
 23  8 28 11 40 23.9990000  0  9G 3G 4G 6G17G19G 2G 1G 9G31
  20266495.324   106501148.9662      -1687.472          41.000  
  20178072.475   106036487.4242       1118.291          39.000  
  21945521.696   115324493.4672       2704.008          28.000  
  21534428.371   113164186.0452      -1879.754          39.000  
  21035242.570   110540943.9052       -553.812          38.000  
  23939878.969                       -3501.440          16.000  
  22363986.900   117523539.9282      -3585.658          34.000  
  21495999.916   112962243.3442       2762.364          43.000  
  22670973.556   119136769.0082       -154.122          37.000  
 23  8 28 11 40 24.9990000  0  9G 3G 4G 6G17G19G 2G 1G 9G31
  20266816.002   106502836.6732      -1688.014          41.000  
  20177859.700   106035369.5742       1117.606          39.000  
  21945005.828   115321790.8742       2702.103          28.000  
  21534786.576   113166066.0732      -1880.151          40.000  
  21035348.388   110541498.5792       -554.938          38.000  
  23940545.127                       -3501.440          16.000  
  22364670.019   117527126.1732      -3585.713          34.000  
  21495474.647   112959481.4922       2762.015          43.000  
  22671003.335   119136923.9032       -154.854          38.000  
 23  8 28 11 40 25.9990000  0  9G 3G 4G 6G17G19G 2G 1G 9G31
  20267137.003   106504524.7312      -1688.494          42.000  
  20177646.537   106034252.3262       1116.829          39.000  
  21944490.222   115319088.3222       2702.627          28.000  
  21535144.624   113167946.6102      -1880.542          40.000  
  21035454.315   110542053.9672       -555.531          39.000  
  23941200.570                       -3494.589          17.000  
  22365352.872   117530712.7372      -3586.519          33.000  
  21494949.247   112956720.0442       2761.167          42.000  
  22671033.384   119137079.5192       -156.219          38.000  
 23  8 28 11 40 26.9990000  0  9G 3G 4G 6G17G19G 2G 1G 9G31
  20267457.991   106506212.4132      -1684.449          41.000  
  20177433.766   106033134.9012       1120.680          39.000  
  21943981.819   115316385.3892       2706.077          33.000  
  21535502.498   113169826.9862      -1876.905          40.000  
  21035560.168   110542609.3752       -551.903          39.000  
  23941873.594                       -3495.707          16.000  
  22366035.577   117534298.7492      -3582.465          34.000  
  21494424.201   112953958.2182       2765.190          44.000  
  22671063.141   119137235.0572       -152.290          37.000  
 23  8 28 11 40 27.9990000  0  9G 3G 4G 6G17G19G 2G 1G 9G31
  20267779.852   106507902.1612      -1691.195          45.000  
  20177221.358   106032019.7852       1113.399          42.000  
  21943464.939   115313684.4452       2699.269          38.000  
  21535860.807   113171709.6072      -1884.927          42.000  
  21035666.741   110543167.3022       -560.480          41.000  
  23942534.185                       -3495.707          15.000  
  22366718.304   117537886.7982      -3590.056          34.000  
  21493899.093   112951198.4852       2757.900          45.000  
  22671093.452   119137393.0332       -159.885          38.000  
 23  8 28 11 40 28.9990000  0  9G 3G 4G 6G17G19G 2G 1G 9G31
  20268101.594   106509592.2422      -1690.302          47.000  
  20177009.652   106030905.2602       1114.214          46.000  
  21942950.581   115310983.6402       2700.487          45.000  
  21536219.043   113173592.7552      -1883.602          45.000  
  21035772.978   110543725.9082       -558.932          46.000  
  23943203.576                       -3496.964          24.000  
  22367400.664   117541475.0332      -3588.365          38.000  
  21493373.501   112948439.1412       2759.314          44.000  
  22671123.737   119137551.6582       -159.118          40.000  
 23  8 28 11 40 29.9990000  0  9G 3G 4G 6G17G19G 2G 1G 9G31
  20268423.307   106511281.6632      -1693.359          47.000  
  20176797.797   106029790.2782       1110.735          46.000  
  21942437.588   115308282.1252       2697.562          45.000  
  21536577.230   113175475.3542      -1886.372          45.000  
  21035879.411   110544284.1932       -562.310          46.000  
  23943868.625   125825881.0863      -3500.513          27.000  
  22368082.841   117545062.5432      -3591.310          39.000  
  21492847.513   112945679.1412       2756.282          44.000  
  22671153.738   119137709.9492       -162.660          41.000  
 23  8 28 11 40 30.9990000  0  9G 3G 4G 6G17G19G 2G 1G 9G31
  20268745.154   106512973.0121      -1691.295          47.000  
  20176586.401   106028677.931        1112.547          46.000  
  21941922.287   115305582.918        2699.628          45.000  
  21536935.911   113177360.0591      -1884.895          45.000  
  21035985.997   110544844.7801       -560.740          45.000  
  23944534.766   125829380.7082      -3498.542          27.000  
  22368765.895   117548652.345       -3589.239          38.000  
  21492322.553   112942921.0871       2758.183          44.000  
  22671184.381   119137870.4791       -160.408          42.000  
 23  8 28 11 40 31.9990000  0  9G 3G 4G 6G17G19G 2G 1G 9G31
  20269067.333   106514664.776       -1692.136          47.000  
  20176374.944   106027565.731        1111.789          46.000  
  21941408.636   115302883.550        2698.876          45.000  
  21537294.823   113179245.353       -1886.030          45.000  
  21036093.067   110545406.167        -562.017          46.000  
  23945198.834   125832880.1172      -3498.862          27.000  
  22369448.966   117552241.986       -3590.114          38.000  
  21491797.926   112940163.471        2757.264          44.000  
  22671214.823   119138031.794        -161.803          42.000  
 23  8 28 11 40 32.9990000  0  9G 3G 4G 6G17G19G 2G 1G 9G31
  20269389.495   106516357.030       -1692.408          47.000  
  20176163.560   106026454.258        1111.317          46.000  
  21940895.992   115300184.551        2698.988          45.000  
  21537653.791   113181131.277       -1886.091          45.000  
  21036200.390   110545968.423        -562.498          46.000  
  23945865.044   125836379.8222      -3499.857          27.000  
  22370132.234   117555831.979       -3589.717          38.000  
  21491273.176   112937406.365        2757.158          44.000  
  22671245.749   119138193.918        -162.231          42.000  
 23  8 28 11 40 33.9990000  0  9G 3G 4G 6G17G19G 2G 1G 9G31
  20269711.364   106518049.854       -1692.969          46.000  
  20175952.504   106025343.561        1110.725          46.000  
  21940381.909   115297486.047        2698.421          44.000  
  21538012.938   113183017.994       -1887.202          44.000  
  21036307.932   110546531.642        -563.708          46.000  
  23946531.808   125839879.8412      -3499.615          27.000  
  22370815.667   117559422.501       -3590.671          38.000  
  21490748.596   112934649.879        2756.394          44.000  
  22671276.784   119138356.950        -163.533          42.000  
 23  8 28 11 40 34.9990000  0  9G 3G 4G 6G17G19G 2G 1G 9G31
  20270033.473   106519743.193       -1693.617          46.000  
  20175741.230   106024233.657        1109.446          46.000  
  21939868.366   115294787.984        2697.787          44.000  
  21538372.077   113184905.366       -1887.678          45.000  
  21036415.251   110547095.751        -564.564          46.000  
  23947200.278   125843380.3022      -3500.484          27.000  
  22371499.197   117563013.440       -3591.831          38.000  
  21490224.091   112931893.918        2755.874          44.000  
  22671307.754   119138520.811        -164.256          42.000  
 23  8 28 11 40 35.9990000  0  9G 3G 4G 6G17G19G 2G 1G 9G31
  20270355.870   106521436.851       -1693.717          47.000  
  20175530.056   106023124.272        1109.224          46.000  
  21939355.230   115292090.141        2697.647          45.000  
  21538731.469   113186793.226       -1888.150          45.000  
  21036522.600   110547660.552        -565.060          46.000  
  23947870.911   125846880.8372      -3500.663          28.000  
  22372182.556   117566604.524       -3591.056          38.000  
  21489699.917   112929138.309        2755.515          44.000  
  22671338.889   119138685.379        -165.208          42.000  
 23  8 28 11 40 36.9990000  0  9G 3G 4G 6G17G19G 2G 1G 9G31
  20270677.927   106523130.622       -1694.171          47.000  
  20175319.040   106022015.251        1108.274          46.000  
  21938841.914   115289392.306        2697.382          45.000  
  21539091.013   113188681.363       -1888.545          45.000  
  21036630.351   110548225.852        -565.891          46.000  
  23948538.513   125850381.278       -3501.139          29.000  
  22372865.815   117570195.694       -3591.667          38.000  
  21489175.721   112926382.845        2754.934          44.000  
  22671370.112   119138850.329        -165.436          42.000  
 23  8 28 11 40 37.9990000  0  9G 3G 4G 6G17G19G 2G 1G 9G31
  20271000.285   106524825.290       -1695.007          46.000  
  20175108.123   106020907.328        1107.095          46.000  
  21938328.603   115286695.272        2696.328          45.000  
  21539450.732   113190570.615       -1890.103          45.000  
  21036738.149   110548792.436        -567.339          46.000  
  23949204.396   125853882.392       -3501.528          29.000  
  22373549.061   117573787.625       -3592.395          38.000  
  21488651.800   112923628.300        2753.750          44.000  
  22671401.544   119139016.561        -166.922          42.000  
 23  8 28 11 40 38.9990000  0 10G 3G 4G 6G17G19G 2G 1G21G 9G31
  20271322.874   106526520.811       -1695.557          46.000  
  20174897.612   106019800.491        1106.795          46.000  
  21937815.562   115283998.994        2696.352          45.000  
  21539810.634   113192460.845       -1890.223          45.000  
  21036845.721   110549360.264        -567.930          45.000  
  23949883.929   125857384.286       -3501.925          31.000  
  22374232.839   117577380.286       -3592.266          38.000  
  24708184.446                       -3376.092          25.000  
  21488127.914   112920874.629        2753.523          44.000  
  22671433.600   119139183.965        -167.729          44.000  
 23  8 28 11 40 39.9990000  0 10G 3G 4G 6G17G19G 2G 1G21G 9G31
  20271645.659   106528217.034       -1696.799          46.000  
  20174686.744   106018694.567        1105.386          46.000  
  21937302.600   115281303.303        2695.250          44.000  
  21540170.457   113194351.950       -1891.820          45.000  
  21036953.987   110549929.133        -569.640          45.000  
  23950555.200   125860886.625       -3503.922          31.000  
  22374916.438   117580973.567       -3593.807          38.000  
  24708823.712                       -3375.768          26.000  
  21487604.307   112918121.651        2752.456          44.000  
  22671465.390   119139352.364        -168.934          42.000  
 23  8 28 11 40 40.9990000  0 10G 3G 4G 6G17G19G 2G 1G21G 9G31
  20271968.523   106529913.772       -1697.250          46.000  
  20174476.286   106017589.419        1104.501          46.000  
  21936789.738   115278608.065        2694.776          44.000  
  21540530.673   113196243.769       -1892.546          46.000  
  21037062.361   110550498.950        -570.820          45.000  
  23951220.289   125864389.311       -3503.629          31.000  
  22375599.950   117584567.297       -3594.326          37.000  
  24709467.996                       -3376.066          26.000  
  21487080.984   112915369.271        2751.904          44.000  
  22671497.520   119139521.711        -170.333          42.000  
 23  8 28 11 40 41.9990000  0 10G 3G 4G 6G17G19G 2G 1G21G 9G31
  20272291.636   106531610.962       -1697.433          46.000  
  20174265.989   106016484.948        1104.222          46.000  
  21936276.946   115275913.200        2694.650          44.000  
  21540890.702   113198136.199       -1892.641          45.000  
  21037170.273   110551069.578        -571.000          45.000  
  23951887.249   125867892.155       -3502.433          32.000  
  22376283.575   117588161.363       -3594.422          38.000  
  24710108.323                       -3376.332          25.000  
  21486557.481   112912617.358        2751.717          45.000  
  22671530.052   119139691.780        -170.609          42.000  
 23  8 28 11 40 42.9990000  0 10G 3G 4G 6G17G19G 2G 1G21G 9G31
  20272614.858   106533308.651       -1698.062          47.000  
  20174055.910   106015381.207        1103.385          46.000  
  21935763.940   115273218.696        2694.384          44.000  
  21541251.088   113200029.309       -1893.723          45.000  
  21037279.010   110551641.083        -572.052          45.000  
  23952552.355   125871395.406       -3503.573          31.000  
  22376967.432   117591755.857       -3594.563          37.000  
  24710749.636                       -3378.397          26.000  
  21486034.258   112909865.967        2751.100          45.000  
  22671562.780   119139862.684        -171.228          43.000  
 23  8 28 11 40 43.9990000  0 10G 3G 4G 6G17G19G 2G 1G21G 9G31
  20272937.979   106535006.903       -1698.568          47.000  
  20173846.097   106014278.243        1102.635          46.000  
  21935251.449   115270524.690        2693.740          45.000  
  21541611.457   113201923.116       -1894.184          46.000  
  21037387.904   110552213.507        -572.997          45.000  
  23953218.819   125874899.034       -3503.909          33.000  
  22377651.777   117595350.759       -3594.670          38.000  
  24711393.178                       -3376.727          26.000  
  21485510.843   112907115.160        2750.479          46.000  
  22671595.787   119140034.481        -172.289          43.000  
 23  8 28 11 40 44.9990000  0 10G 3G 4G 6G17G19G 2G 1G21G 9G31
  20273261.414   106536705.606       -1698.881          47.000  
  20173636.289   106013175.984        1101.874          45.000  
  21934738.875   115267831.054        2693.085          45.000  
  21541972.122   113203817.609       -1895.046          46.000  
  21037496.920   110552786.813        -573.988          45.000  
  23953888.658   125878402.918       -3503.765          34.000  
  22378336.227   117598946.045       -3595.360          38.000  
  24712036.058                       -3376.345          26.000  
  21484987.930   112904364.861        2750.000          45.000  
  22671628.764   119140207.093        -173.066          43.000  
 23  8 28 11 40 45.9990000  0  9G 3G 4G 6G17G19G 2G 1G 9G31
  20273584.592   106538405.082       -1699.727          47.000  
  20173426.817   106012074.706        1100.865          45.000  
  21934226.292   115265138.077        2692.525          45.000  
  21542332.749   113205712.995       -1895.756          46.000  
  21037606.088   110553361.242        -574.960          45.000  
  23954554.999   125881907.374       -3504.624          34.000  
  22379021.235   117602542.019       -3596.509          38.000  
  21484464.812   112901615.347        2748.950          45.000  
  22671662.054   119140380.787        -173.922          43.000  
 23  8 28 11 40 46.9990000  0 10G 3G 4G 6G17G19G 2G 1G21G 9G31
  20273908.146   106540104.640       -1699.766          47.000  
  20173217.292   106010973.743        1100.563          45.000  
  21933713.757   115262445.108        2692.609          45.000  
  21542693.427   113207608.645       -1896.200          46.000  
  21037715.348   110553936.118        -575.336          45.000  
  23955223.295   125885411.774       -3504.526          35.000  
  22379705.628   117606137.907       -3595.784          39.000  
  24713326.475                       -3377.976          25.000  
  21483941.471   112898865.901        2749.118          45.000  
  22671694.887   119140554.934        -174.533          42.000  
 23  8 28 11 40 47.9990000  0 10G 3G 4G 6G17G19G 2G 1G21G 9G31
  20274231.520   106541804.697       -1700.519          46.000  
  20173007.907   106009873.513        1099.639          45.000  
  21933201.707   115259752.533        2691.964          45.000  
  21543054.245   113209504.969       -1897.047          46.000  
  21037824.744   110554511.917        -576.765          45.000  
  23955889.792   125888916.455       -3505.477          35.000  
  22380390.305   117609734.282       -3597.049          39.000  
  24713966.798                       -3378.640          26.000  
  21483418.650   112896117.029        2748.275          46.000  
  22671727.759   119140729.906        -175.923          41.000  
 23  8 28 11 40 48.9990000  0 10G 3G 4G 6G17G19G 2G 1G21G 9G31
  20274555.200   106543505.913       -1702.024          46.000  
  20172798.918   106008774.686        1097.842          45.000  
  21932689.560   115257061.023        2690.609          45.000  
  21543415.351   113211402.597       -1898.498          46.000  
  21037934.349   110555089.211        -578.546          45.000  
  23956557.329   125892422.045       -3506.023          36.000  
  22381075.370   117613331.649       -3597.947          39.000  
  24714607.666   129876149.7462      -3379.321          26.000  
  21482895.915   112893369.335        2746.738          45.000  
  22671761.075   119140906.364        -177.363          41.000  
 23  8 28 11 40 49.9990000  0 10G 3G 4G 6G17G19G 2G 1G21G 9G31
  20274879.067   106545207.667       -1701.906          47.000  
  20172589.660   106007676.588        1097.763          45.000  
  21932177.676   115254369.949        2690.823          45.000  
  21543776.540   113213300.956       -1898.463          45.000  
  21038044.359   110555667.436        -578.533          45.000  
  23957224.791   125895928.049       -3505.755          35.000  
  22381760.248   117616929.489       -3598.220          39.000  
  24715251.500   129879528.4432      -3379.086          26.000  
  21482373.233   112890622.180        2746.863          46.000  
  22671794.890   119141083.659        -177.852          42.000  
 23  8 28 11 40 50.9990000  0 10G 3G 4G 6G17G19G 2G 1G21G 9G31
  20275202.895   106546909.868       -1702.423          47.000  
  20172380.711   106006579.183        1097.014          45.000  
  21931665.634   115251679.235        2690.773          45.000  
  21544137.930   113215199.935       -1899.282          45.000  
  21038154.431   110556246.501        -579.501          45.000  
  23957891.586   125899434.306       -3506.573          34.000  
  22382445.138   117620527.646       -3598.281          39.000  
  24715896.216   129882907.5182      -3379.377          27.000  
  21481850.935   112887875.511        2746.517          45.000  
  22671828.778   119141261.793        -178.676          42.000  
 23  8 28 11 40 51.9990000  0 10G 3G 4G 6G17G19G 2G 1G21G 9G31
  20275526.850   106548612.836       -1703.156          47.000  
  20172171.993   106005482.781        1096.035          46.000  
  21931153.575   115248989.235        2689.847          44.000  
  21544499.464   113217099.875       -1900.444          45.000  
  21038264.520   110556826.732        -580.602          45.000  
  23958559.017   125902941.140       -3506.453          34.000  
  22383130.260   117624126.495       -3598.969          39.000  
  24716542.301   129886286.8122      -3379.424          27.000  
  21481328.419   112885129.669        2745.525          45.000  
  22671862.697   119141440.996        -179.601          41.000  
 23  8 28 11 40 52.9990000  0 10G 3G 4G 6G17G19G 2G 1G21G 9G31
  20275850.970   106550316.022       -1703.777          47.000  
  20171963.681   106004386.837        1095.253          46.000  
  21930641.394   115246299.314        2689.377          44.000  
  21544861.137   113219000.163       -1900.937          45.000  
  21038374.565   110557407.543        -581.470          45.000  
  23959226.505   125906447.978       -3507.187          34.000  
  22383815.063   117627725.437       -3599.300          39.000  
  24717186.459   129889666.1392      -3379.084          28.000  
  21480805.724   112882384.040        2745.264          45.000  
  22671896.947   119141620.776        -180.565          41.000  
 23  8 28 11 40 53.9990000  0 10G 3G 4G 6G17G19G 2G 1G21G 9G31
  20276175.308   106552019.947       -1704.379          47.000  
  20171755.417   106003291.857        1094.240          46.000  
  21930129.958   115243610.038        2688.747          45.000  
  21545222.888   113220901.357       -1901.745          45.000  
  21038485.208   110557989.479        -582.677          45.000  
  23959893.924   125909955.404       -3508.374          34.000  
  22384500.198   117631325.044       -3600.162          39.000  
  24717831.096   129893045.9252      -3379.997          28.000  
  21480283.125   112879639.211        2743.947          45.000  
  22671931.442   119141801.629        -181.746          42.000  
 23  8 28 11 40 54.9990000  0 10G 3G 4G 6G17G19G 2G 1G21G 9G31
  20276499.477   106553724.438       -1704.622          46.000  
  20171547.332   106002197.660        1093.974          46.000  
  21929618.274   115240921.259        2688.738          45.000  
  21545584.789   113222803.297       -1902.057          45.000  
  21038595.817   110558572.351        -583.414          45.000  
  23960561.168   125913463.203       -3508.611          34.000  
  22385185.826   117634925.112       -3599.960          39.000  
  24718476.427   129896426.0182      -3379.520          29.000  
  21479761.075   112876894.942        2744.045          45.000  
  22671965.924   119141983.377        -182.010          41.000  
 23  8 28 11 40 55.9990000  0 10G 3G 4G 6G17G19G 2G 1G21G 9G31
  20276824.007   106555429.322       -1705.474          47.000  
  20171339.256   106001104.090        1092.922          46.000  
  21929106.848   115238232.788        2688.014          45.000  
  21545947.103   113224705.807       -1903.020          46.000  
  21038706.735   110559156.005        -584.417          45.000  
  23961228.927   125916971.193       -3508.573          35.000  
  22385871.231   117638525.489       -3600.680          39.000  
  24719113.766   129899806.2452      -3380.123          28.000  
  21479239.113   112874151.131        2743.354          46.000  
  22672000.754   119142165.866        -183.223          42.000  
 23  8 28 11 40 56.9990000  0 10G 3G 4G 6G17G19G 2G 1G21G 9G31
  20277148.481   106557134.570       -1705.417          46.000  
  20171131.280   106000011.100        1092.992          46.000  
  21928595.220   115235544.538        2688.460          45.000  
  21546309.496   113226608.828       -1903.260          46.000  
  21038817.482   110559740.380        -584.573          44.000  
  23961896.537   125920479.301       -3507.722          34.000  
  22386556.593   117642126.107       -3600.334          39.000  
  24719754.647   129903186.4892      -3380.066          28.000  
  21478717.256   112871407.667        2743.461          45.000  
  22672035.393   119142349.055        -183.720          42.000  
 23  8 28 11 40 57.9990000  0 10G 3G 4G 6G17G19G 2G 1G21G 9G31
  20277472.989   106558840.377       -1706.134          46.000  
  20170923.256   105998918.915        1091.839          46.000  
  21928084.060   115232856.818        2687.373          45.000  
  21546671.767   113228512.623       -1904.322          46.000  
  21038928.841   110560325.735        -585.865          44.000  
  23962563.833   125923987.863       -3508.827          32.000  
  22387242.185   117645727.186       -3601.034          39.000  
  24720395.318   129906567.0582      -3380.660          28.000  
  21478195.080   112868664.821        2742.665          45.000  
  22672070.603   119142533.145        -184.475          43.000  
 23  8 28 11 40 58.9990000  0 10G 3G 4G 6G17G19G 2G 1G21G 9G31
  20277797.681   106560547.012       -1707.014          46.000  
  20170715.781   105997827.825        1090.507          46.000  
  21927572.912   115230169.816        2686.703          45.000  
  21547034.374   113230417.407       -1905.255          45.000  
  21039040.431   110560912.304        -587.133          44.000  
  23963231.815   125927497.051       -3509.181          32.000  
  22387927.800   117649329.030       -3602.266          39.000  
  24721040.261   129909948.1732      -3381.088          28.000  
  21477673.637   112865922.850        2741.733          45.000  
  22672105.626   119142718.390        -185.768          43.000  
 23  8 28 11 40 59.9990000  0 10G 3G 4G 6G17G19G 2G 1G21G 9G31
  20278122.539   106562254.324       -1707.651          46.000  
  20170508.669   105996737.601        1089.880          46.000  
  21927061.686   115227483.390        2686.117          45.000  
  21547397.129   113232323.007       -1905.870          45.000  
  21039151.859   110561499.904        -588.062          44.000  
  23963896.332   125931006.688       -3509.332          32.000  
  22388613.485   117652931.433       -3602.894          39.000  
  24721680.165   129913329.7132      -3381.674          29.000  
  21477151.871   112863181.576        2740.833          45.000  
  22672141.063   119142904.631        -186.631          43.000  
 23  8 28 11 41  0.9990000  0 10G 3G 4G 6G17G19G 2G 1G21G 9G31
  20278447.807   106563962.212       -1708.033          46.000  
  20170301.893   105995648.192        1088.955          46.000  
  21926550.652   115224797.455        2685.902          45.000  
  21547760.259   113234229.406       -1906.793          46.000  
  21039264.055   110562088.474        -588.921          44.000  
  23964566.883   125934516.747       -3509.994          33.000  
  22389299.357   117656534.317       -3603.112          39.000  
  24722325.077   129916711.0411      -3381.783          28.000  
  21476630.231   112860440.898        2740.448          45.000  
  22672176.391   119143091.816        -187.472          43.000  
 23  8 28 11 41  1.9990000  0 10G 3G 4G 6G17G19G 2G 1G21G 9G31
  20278772.799   106565670.506       -1708.645          46.000  
  20170094.820   105994559.400        1088.512          46.000  
  21926039.871   115222111.833        2685.325          45.000  
  21548123.123   113236136.349       -1907.688          46.000  
  21039376.347   110562677.814        -589.991          44.000  
  23965228.665   125938027.004       -3510.610          30.000  
  22389985.290   117660137.482       -3603.449          39.000  
  24722960.470   129920093.065       -3382.626          28.000  
  21476108.300   112857700.622        2739.923          45.000  
  22672212.050   119143279.714        -188.424          43.000  
 23  8 28 11 41  2.9990000  0 10G 3G 4G 6G17G19G 2G 1G21G 9G31
  20279098.106   106567379.487       -1709.291          46.000  
  20169888.056   105993471.545        1087.640          46.000  
  21925528.990   115219426.819        2684.599          45.000  
  21548486.193   113238044.151       -1908.384          45.000  
  21039488.679   110563268.251        -591.080          44.000  
  23965905.764   125941537.741       -3510.262          32.000  
  22390671.502   117663741.237       -3604.149          39.000  
  24723601.682   129923475.345       -3382.617          27.000  
  21475586.556   112854961.098        2739.122          44.000  
  22672247.662   119143468.650        -189.345          43.000  
 23  8 28 11 41  3.9990000  0 10G 3G 4G 6G17G19G 2G 1G21G 9G31
  20279423.409   106569088.951       -1709.609          46.000  
  20169681.358   105992384.392        1087.128          46.000  
  21925018.118   115216742.178        2684.640          45.000  
  21548849.305   113239952.605       -1908.766          46.000  
  21039601.119   110563859.517        -591.400          44.000  
  23966574.164   125945048.834       -3511.422          33.000  
  22391358.138   117667345.382       -3604.134          39.000  
  24724244.937   129926857.911       -3382.495          26.000  
  21475065.217   112852222.087        2738.939          44.000  
  22672283.552   119143658.415        -190.137          43.000  
 23  8 28 11 41  4.9990000  0 10G 3G 4G 6G17G19G 2G 1G21G 9G31
  20279748.703   106570798.983       -1710.046          46.000  
  20169474.543   105991298.052        1086.336          46.000  
  21924507.140   115214058.024        2684.189          45.000  
  21549212.654   113241861.797       -1909.494          46.000  
  21039714.101   110564451.757        -592.456          45.000  
  23967233.145   125948560.267       -3511.980          31.000  
  22392044.935   117670950.010       -3604.668          39.000  
  24724887.257   129930240.883       -3384.218          25.000  
  21474544.119   112849483.669        2738.386          44.000  
  22672320.250   119143849.077        -190.848          43.000  
 23  8 28 11 41  5.9990000  0 10G 3G 4G 6G17G19G 2G 1G21G 9G31
  20280074.193   106572509.434       -1710.756          46.000  
  20169267.806   105990212.354        1085.319          46.000  
  21923996.399   115211374.186        2683.619          45.000  
  21549576.059   113243771.571       -1910.176          46.000  
  21039827.191   110565044.784        -593.594          45.000  
  23967894.242   125952071.944       -3511.856          30.000  
  22392731.553   117674554.935       -3605.204          39.000  
  24725526.184                       -3382.801          23.000  
  21474022.628   112846745.684        2737.677          44.000  
  22672356.398   119144040.495        -191.798          43.000  
 23  8 28 11 41  6.9990000  0 10G 3G 4G 6G17G19G 2G 1G21G 9G31
  20280399.770   106574220.097       -1710.509          47.000  
  20169061.134   105989127.113        1085.007          46.000  
  21923485.823   115208690.487        2683.646          45.000  
  21549939.613   113245681.733       -1910.092          46.000  
  21039940.208   110565638.416        -593.737          45.000  
  23968567.799   125955583.582       -3511.385          30.000  
  22393417.578   117678159.991       -3604.943          39.000  
  24726166.494                       -3383.370          23.000  
  21473501.639   112844007.969        2737.766          45.000  
  22672392.673   119144232.476        -192.103          41.000  
 23  8 28 11 41  7.9990000  0 10G 3G 4G 6G17G19G 2G 1G21G 9G31
  20280725.483   106575931.015       -1711.789          47.000  
  20168854.785   105988042.352        1083.558          46.000  
  21922975.142   115206006.957        2682.445          45.000  
  21550303.087   113247592.326       -1911.788          46.000  
  21040053.721   110566232.710        -595.778          45.000  
  23969240.666   125959095.393       -3512.984          31.000  
  22394103.328   117681765.188       -3606.194          39.000  
  24726808.016                       -3383.320          25.000  
  21472980.606   112841270.523        2736.447          44.000  
  22672429.087   119144425.047        -193.683          41.000  
 23  8 28 11 41  8.9990000  0 10G 3G 4G 6G17G19G 2G 1G21G 9G31
  20281050.965   106577643.027       -1712.483          47.000  
  20168648.598   105986958.894        1083.094          46.000  
  21922464.531   115203324.406        2682.153          44.000  
  21550667.051   113249504.160       -1912.314          46.000  
  21040167.261   110566828.425        -596.400          45.000  
  23969914.589   125962608.081       -3513.091          32.000  
  22394789.466   117685371.370       -3606.354          39.000  
  24727451.680                       -3383.249          26.000  
  21472459.747   112838534.205        2735.987          44.000  
  22672465.776   119144619.027        -194.600          41.000  
 23  8 28 11 41  9.9990000  0 10G 3G 4G 6G17G19G 2G 1G21G 9G31
  20281377.061   106579355.587       -1713.059          47.000  
  20168442.432   105985876.236        1082.021          46.000  
  21921954.108   115200642.329        2681.726          44.000  
  21551030.971   113251416.744       -1913.216          46.000  
  21040281.163   110567425.092        -597.361          45.000  
  23970579.839   125966121.064       -3513.096          32.000  
  22395475.818   117688978.029       -3606.926          39.000  
  24728094.197                       -3383.415          25.000  
  21471939.286   112835798.470        2735.330          44.000  
  22672503.076   119144813.909        -195.577          41.000  
 23  8 28 11 41 10.9990000  0 10G 3G 4G 6G17G19G 2G 1G21G 9G31
  20281703.009   106581068.861       -1713.403          47.000  
  20168236.310   105984794.514        1081.266          46.000  
  21921443.711   115197960.897        2681.095          44.000  
  21551395.170   113253330.179       -1913.510          46.000  
  21040395.322   110568022.863        -598.163          45.000  
  23971249.862   125969634.621       -3513.366          32.000  
  22396162.436   117692585.275       -3607.303          39.000  
  24728739.607                       -3384.829          25.000  
  21471418.610   112833063.487        2734.579          44.000  
  22672540.114   119145009.826        -196.235          41.000  
 23  8 28 11 41 11.9990000  0 10G 3G 4G 6G17G19G 2G 1G21G 9G31
  20282029.080   106582782.728       -1713.970          47.000  
  20168030.507   105983713.622        1080.695          46.000  
  21920933.567   115195279.932        2680.811          44.000  
  21551759.195   113255244.410       -1914.654          46.000  
  21040509.490   110568621.606        -599.211          45.000  
  23971913.381   125973148.579       -3513.631          31.000  
  22396848.866   117696193.030       -3607.734          39.000  
  24729383.284                       -3384.677          26.000  
  21470897.918   112830329.118        2734.152          44.000  
  22672577.885   119145206.698        -197.089          41.000  
 23  8 28 11 41 12.9990000  0 10G 3G 4G 6G17G19G 2G 1G21G 9G31
  20282355.412   106584497.129       -1714.691          47.000  
  20167825.009   105982633.498        1079.700          46.000  
  21920423.510   115192599.419        2680.257          44.000  
  21552123.398   113257159.323       -1915.396          46.000  
  21040623.964   110569221.261        -600.403          45.000  
  23972587.103   125976662.900       -3515.236          32.000  
  22397535.144   117699801.218       -3608.573          38.000  
  24730025.557   129957170.9443      -3385.009          27.000  
  21470377.491   112827595.304        2733.367          44.000  
  22672615.591   119145404.423        -198.311          42.000  
 23  8 28 11 41 13.9990000  0 10G 3G 4G 6G17G19G 2G 1G21G 9G31
  20282681.709   106586212.027       -1715.192          47.000  
  20167619.764   105981554.087        1078.898          46.000  
  21919913.392   115189919.309        2679.918          44.000  
  21552487.868   113259074.898       -1915.993          46.000  
  21040738.472   110569821.787        -600.973          45.000  
  23973261.960   125980177.505       -3514.637          33.000  
  22398221.788   117703409.788       -3608.959          39.000  
  24730670.325   129960556.1162      -3384.742          27.000  
  21469857.187   112824862.013        2733.063          44.000  
  22672653.772   119145602.981        -199.041          42.000  
 23  8 28 11 41 14.9990000  0 10G 3G 4G 6G17G19G 2G 1G21G 9G31
  20283008.438   106587927.377       -1715.633          47.000  
  20167414.523   105980475.362        1078.385          46.000  
  21919403.266   115187239.586        2679.292          43.000  
  21552852.211   113260991.084       -1916.206          46.000  
  21040853.090   110570423.143        -601.783          45.000  
  23973928.667   125983692.349       -3514.447          33.000  
  22398908.751   117707018.732       -3609.119          39.000  
  24731319.486   129963941.6182      -3385.892          27.000  
  21469336.878   112822129.229        2732.148          44.000  
  22672691.765   119145802.319        -199.714          42.000  
 23  8 28 11 41 15.9990000  0 10G 3G 4G 6G17G19G 2G 1G21G 9G31
  20283335.159   106589643.220       -1716.048          47.000  
  20167209.435   105979397.368        1077.714          46.000  
  21918893.375   115184560.256        2679.262          44.000  
  21553217.012   113262907.963       -1916.929          46.000  
  21040967.842   110571025.374        -602.380          46.000  
  23974597.626   125987207.550       -3515.544          33.000  
  22399595.391   117710628.065       -3609.986          38.000  
  24731967.727   129967327.1622      -3385.170          28.000  
  21468816.635   112819396.939        2731.999          44.000  
  22672730.047   119146002.505        -200.737          42.000  
 23  8 28 11 41 16.9990000  0 10G 3G 4G 6G17G19G 2G 1G21G 9G31
  20283661.687   106591359.569       -1715.915          47.000  
  20167004.316   105978320.114        1077.492          46.000  
  21918383.645   115181881.339        2679.146          44.000  
  21553581.639   113264825.523       -1917.550          45.000  
  21041082.673   110571628.518        -602.994          46.000  
  23975267.182   125990723.053       -3514.961          33.000  
  22400281.590   117714237.753       -3609.126          38.000  
  24732612.892   129970713.0142      -3385.825          27.000  
  21468296.640   112816665.209        2732.077          44.000  
  22672768.437   119146203.525        -200.785          42.000  
 23  8 28 11 41 17.9990000  0 10G 3G 4G 6G17G19G 2G 1G21G 9G31
  20283988.076   106593075.791       -1716.523          47.000  
  20166799.424   105977242.962        1076.627          46.000  
  21917873.998   115179202.211        2678.590          44.000  
  21553946.732   113266743.106       -1918.113          45.000  
  21041197.474   110572231.915        -604.170          46.000  
  23975936.563   125994238.260       -3515.523          34.000  
  22400968.038   117717847.283       -3610.029          38.000  
  24733257.054   129974098.4442      -3385.569          28.000  
  21467776.741   112813933.389        2731.266          44.000  
  22672806.780   119146404.763        -201.757          42.000  
 23  8 28 11 41 18.9990000  0 10G 3G 4G 6G17G19G 2G 1G21G 9G31
  20284314.849   106594793.134       -1717.903          47.000  
  20166594.899   105976167.153        1075.163          46.000  
  21917364.247   115176524.096        2677.683          44.000  
  21554311.756   113268661.985       -1919.669          45.000  
  21041312.842   110572836.783        -605.785          45.000  
  23976605.875   125997754.309       -3516.294          33.000  
  22401654.713   117721457.774       -3610.687          37.000  
  24733898.253   129977484.2411      -3386.611          28.000  
  21467256.808   112811202.698        2729.992          43.000  
  22672845.480   119146607.448        -203.388          42.000  
 23  8 28 11 41 19.9990000  0 10G 3G 4G 6G17G19G 2G 1G21G 9G31
  20284641.744   106596511.177       -1718.245          47.000  
  20166390.034   105975092.272        1074.701          46.000  
  21916854.962   115173846.603        2677.148          44.000  
  21554676.971   113270581.718       -1919.991          45.000  
  21041427.935   110573442.748        -606.407          45.000  
  23977275.074   126001270.994       -3516.935          32.000  
  22402341.117   117725068.895       -3611.183          37.000  
  24734543.457   129980870.920       -3386.368          28.000  
  21466737.760   112808472.746        2729.640          44.000  
  22672884.307   119146811.173        -204.164          42.000  
 23  8 28 11 41 20.9990000  0 10G 3G 4G 6G17G19G 2G 1G21G 9G31
  20284968.735   106598229.617       -1719.054          47.000  
  20166185.556   105974018.040        1073.464          46.000  
  21916345.377   115171169.418        2676.652          44.000  
  21555042.344   113272502.031       -1921.006          45.000  
  21041543.691   110574049.495        -607.500          46.000  
  23977943.906   126004787.779       -3516.923          31.000  
  22403027.644   117728680.310       -3611.675          36.000  
  24735186.415   129984257.825       -3387.454          28.000  
  21466218.393   112805743.212        2729.031          44.000  
  22672923.308   119147015.637        -205.325          42.000  
 23  8 28 11 41 21.9990000  0 10G 3G 4G 6G17G19G 2G 1G21G 9G31
  20285295.586   106599948.728       -1719.350          47.000  
  20165981.306   105972944.697        1072.922          46.000  
  21915836.101   115168492.816        2676.449          43.000  
  21555407.948   113274423.166       -1921.419          45.000  
  21041659.355   110574657.296        -608.372          46.000  
  23978614.330   126008305.106       -3517.916          31.000  
  22403714.432   117732292.305       -3612.164          37.000  
  24735828.033   129987644.960       -3386.830          27.000  
  21465699.376   112803014.403        2728.527          44.000  
  22672962.615   119147221.110        -205.859          42.000  
 23  8 28 11 41 22.9990000  0 10G 3G 4G 6G17G19G 2G 1G21G 9G31
  20285622.856   106601668.277       -1719.700          47.000  
  20165777.287   105971872.031        1072.327          46.000  
  21915326.965   115165816.565        2676.173          44.000  
  21555773.561   113276344.918       -1921.904          45.000  
  21041775.316   110575265.913        -609.027          46.000  
  23979287.995   126011822.670       -3517.381          32.000  
  22404401.299   117735904.627       -3612.521          36.000  
  24736473.111   129991032.399       -3387.815          27.000  
  21465180.380   112800286.062        2728.130          44.000  
  22673001.869   119147427.359        -206.576          42.000  
 23  8 28 11 41 23.9990000  0 10G 3G 4G 6G17G19G 2G 1G21G 9G31
  20285950.109   106603388.127       -1720.493          46.000  
  20165573.363   105970799.874        1071.365          46.000  
  21914817.894   115163140.522        2675.583          44.000  
  21556139.400   113278267.133       -1922.755          45.000  
  21041891.312   110575875.210        -609.972          46.000  
  23979953.717   126015340.315       -3518.075          31.000  
  22405088.519   117739517.131       -3612.944          36.000  
  24737119.646   129994419.796       -3388.065          26.000  
  21464661.411   112797558.045        2727.427          44.000  
  22673041.228   119147634.220        -207.601          43.000  
 23  8 28 11 41 24.9990000  0 10G 3G 4G 6G17G19G 2G 1G21G 9G31
  20286277.545   106605108.680       -1720.833          46.000  
  20165369.785   105969728.691        1070.732          46.000  
  21914308.631   115160465.119        2675.114          44.000  
  21556505.213   113280190.246       -1923.484          45.000  
  21042006.959   110576485.588        -610.685          46.000  
  23980619.390   126018858.513       -3519.002          31.000  
  22405775.769   117743130.267       -3613.361          36.000  
  24737767.219   129997807.584       -3387.984          26.000  
  21464142.799   112794830.750        2727.258          44.000  
  22673081.158   119147842.149        -208.086          43.000  
 23  8 28 11 41 25.9990000  0 10G 3G 4G 6G17G19G 2G 1G21G 9G31
  20286604.933   106606829.645       -1721.440          46.000  
  20165165.840   105968658.122        1069.862          46.000  
  21913799.325   115157790.011        2674.669          44.000  
  21556871.166   113282113.910       -1924.100          45.000  
  21042123.287   110577096.766        -611.814          46.000  
  23981286.909   126022376.887       -3519.028          30.000  
  22406462.763   117746743.673       -3613.773          36.000  
  24738414.204   130001195.583       -3388.057          27.000  
  21463624.061   112792103.919        2726.121          44.000  
  22673120.962   119148050.818        -209.482          43.000  
 23  8 28 11 41 26.9990000  0 10G 3G 4G 6G17G19G 2G 1G21G 9G31
  20286932.438   106608551.073       -1721.409          46.000  
  20164962.117   105967588.260        1069.697          46.000  
  21913290.498   115155115.293        2674.830          43.000  
  21557237.320   113284038.232       -1924.467          45.000  
  21042239.570   110577708.792        -612.288          45.000  
  23981958.869   126025895.561       -3518.385          30.000  
  22407149.643   117750357.488       -3613.706          36.000  
  24739061.332   130004583.758       -3388.287          28.000  
  21463105.414   112789377.599        2726.080          44.000  
  22673160.862   119148260.307        -209.770          43.000  
 23  8 28 11 41 27.9990000  0 10G 3G 4G 6G17G19G 2G 1G21G 9G31
  20287259.879   106610272.475       -1721.343          46.000  
  20164758.604   105966518.597        1069.710          46.000  
  21912781.397   115152440.449        2675.016          43.000  
  21557603.395   113285962.694       -1924.556          45.000  
  21042356.038   110578321.141        -612.428          45.000  
  23982630.563   126029414.077       -3518.622          30.000  
  22407836.915   117753971.124       -3613.345          35.000  
  24739706.724   130007971.648       -3388.887          28.000  
  21462586.767   112786651.244        2726.365          44.000  
  22673200.382   119148470.096        -209.990          43.000  
 23  8 28 11 41 28.9990000  0 10G 3G 4G 6G17G19G 2G 1G21G 9G31
  20287587.611   106611994.578       -1722.703          47.000  
  20164555.305   105965449.867        1067.970          46.000  
  21912272.644   115149766.244        2673.510          44.000  
  21557969.924   113287888.031       -1925.925          45.000  
  21042472.692   110578934.584        -614.279          45.000  
  23983302.296   126032933.059       -3519.714          30.000  
  22408524.013   117757585.418       -3614.683          35.000  
  24740351.427   130011359.789       -3388.038          28.000  
  21462068.025   112783925.633        2724.922          44.000  
  22673240.535   119148680.907        -211.421          43.000  
 23  8 28 11 41 29.9990000  0 10G 3G 4G 6G17G19G 2G 1G21G 9G31
  20287915.435   106613717.479       -1723.156          47.000  
  20164352.031   105964382.176        1067.069          46.000  
  21911763.970   115147092.702        2673.392          44.000  
  21558336.470   113289814.333       -1926.845          45.000  
  21042589.652   110579549.195        -615.184          45.000  
  23983969.488   126036452.651       -3520.072          30.000  
  22409211.451   117761200.438       -3615.621          34.000  
  24740997.128   130014748.645       -3388.941          28.000  
  21461549.505   112781200.863        2724.297          44.000  
  22673280.963   119148892.873        -212.341          43.000  
 23  8 28 11 41 30.9990000  0 10G 3G 4G 6G17G19G 2G 1G21G 9G31
  20288243.726   106615441.011       -1723.480          47.000  
  20164149.020   105963315.339        1066.890          46.000  
  21911255.345   115144419.761        2672.920          44.000  
  21558703.356   113291741.433       -1927.173          45.000  
  21042706.586   110580164.832        -615.894          45.000  
  23984635.863   126039972.692       -3520.254          30.000  
  22409898.981   117764815.903       -3615.900          34.000  
  24741646.630   130018137.846       -3389.193          30.000  
  21461031.102   112778476.764        2724.047          44.000  
  22673321.003   119149105.834        -213.331          42.000  
 23  8 28 11 41 31.9990000  0 10G 3G 4G 6G17G19G 2G 1G21G 9G31
  20288571.659   106617164.959       -1724.360          47.000  
  20163946.061   105962249.167        1065.482          46.000  
  21910746.584   115141747.114        2672.180          44.000  
  21559070.190   113293669.117       -1928.136          45.000  
  21042823.603   110580781.261        -617.002          45.000  
  23985305.097   126043492.943       -3521.021          30.000  
  22410586.764   117768431.660       -3616.230          35.000  
  24742290.709   130021527.091       -3389.249          29.000  
  21460512.874   112775753.105        2723.186          44.000  
  22673361.758   119149319.505        -214.323          43.000  
 23  8 28 11 41 32.9990000  0 10G 3G 4G 6G17G19G 2G 1G21G 9G31
  20288899.828   106618889.501       -1724.800          46.000  
  20163743.058   105961183.800        1064.908          46.000  
  21910237.888   115139074.978        2671.950          44.000  
  21559437.103   113295597.564       -1928.707          45.000  
  21042940.581   110581398.673        -617.764          45.000  
  23985973.850   126047013.656       -3521.588          29.000  
  22411274.604   117772047.999       -3616.557          35.000  
  24742941.157   130024916.708       -3389.512          29.000  
  21459994.633   112773030.052        2722.884          44.000  
  22673402.574   119149534.114        -214.987          43.000  
 23  8 28 11 41 33.9990000  0 10G 3G 4G 6G17G19G 2G 1G21G 9G31
  20289227.927   106620614.473       -1725.115          46.000  
  20163540.623   105960119.103        1064.441          46.000  
  21909729.358   115136403.186        2671.652          43.000  
  21559804.177   113297526.622       -1929.299          45.000  
  21043058.125   110582016.920        -618.678          45.000  
  23986645.003   126050534.548       -3521.458          29.000  
  22411962.609   117775664.659       -3616.932          35.000  
  24743583.525   130028306.429       -3388.840          30.000  
  21459476.624   112770307.470        2722.710          44.000  
  22673443.573   119149749.507        -215.729          43.000  
 23  8 28 11 41 34.9990000  0 10G 3G 4G 6G17G19G 2G 1G21G 9G31
  20289556.214   106622339.904       -1725.826          46.000  
  20163337.916   105959055.102        1063.591          46.000  
  21909221.225   115133731.760        2671.094          44.000  
  21560171.465   113299456.303       -1930.182          45.000  
  21043175.748   110582635.988        -619.702          45.000  
  23987314.568   126054055.726       -3521.718          29.000  
  22412650.902   117779281.648       -3617.161          34.000  
  24744229.759   130031696.377       -3389.720          29.000  
  21458958.719   112767585.409        2721.551          44.000  
  22673484.402   119149965.690        -216.560          43.000  
 23  8 28 11 41 35.9990000  0 10G 3G 4G 6G17G19G 2G 1G21G 9G31
  20289884.697   106624065.904       -1726.438          46.000  
  20163135.585   105957991.898        1062.797          46.000  
  21908712.730   115131060.818        2670.690          44.000  
  21560538.722   113301386.705       -1930.859          45.000  
  21043293.324   110583256.004        -620.719          45.000  
  23987984.730   126057577.206       -3521.298          29.000  
  22413339.161   117782899.109       -3617.974          34.000  
  24744871.583   130035086.603       -3390.691          30.000  
  21458440.923   112764863.930        2721.028          44.000  
  22673525.593   119150182.804        -217.831          43.000  
 23  8 28 11 41 36.9990000  0 10G 3G 4G 6G17G19G 2G 1G21G 9G31
  20290213.363   106625792.261       -1726.421          46.000  
  20162933.215   105956929.288        1062.303          45.000  
  21908204.475   115128390.156        2670.468          43.000  
  21560905.979   113303317.650       -1931.186          45.000  
  21043411.313   110583876.774        -621.174          45.000  
  23988655.796   126061098.925       -3521.587          29.000  
  22414027.410   117786516.794       -3617.600          35.000  
  24745520.172   130038476.953       -3390.354          30.000  
  21457923.179   112762142.845        2720.945          44.000  
  22673567.125   119150400.587        -217.990          43.000  
 23  8 28 11 41 37.9990000  0 10G 3G 4G 6G17G19G 2G 1G21G 9G31
  20290541.828   106627518.594       -1726.588          46.000  
  20162730.540   105955866.867        1062.028          45.000  
  21907696.268   115125719.359        2670.444          43.000  
  21561273.232   113305248.721       -1931.538          44.000  
  21043529.146   110584497.875        -621.608          45.000  
  23989328.026   126064620.438       -3521.746          30.000  
  22414715.708   117790134.409       -3617.729          35.000  
  24746165.390   130041866.951       -3389.893          30.000  
  21457405.340   112759421.758        2720.582          44.000  
  22673608.495   119150618.664        -218.619          43.000  
 23  8 28 11 41 38.9990000  0 10G 3G 4G 6G17G19G 2G 1G21G 9G31
  20290870.320   106629245.545       -1727.517          46.000  
  20162528.471   105954805.315        1060.980          45.000  
  21907188.214   115123049.106        2669.607          43.000  
  21561640.590   113307180.579       -1932.459          44.000  
  21043646.961   110585119.994        -622.747          45.000  
  23989996.998   126068142.345       -3522.803          30.000  
  22415404.433   117793752.518       -3618.103          35.000  
  24746809.770   130045257.327       -3390.756          30.000  
  21456887.557   112756701.326        2719.832          44.000  
  22673650.201   119150837.740        -219.852          43.000  
 23  8 28 11 41 39.9990000  0 10G 3G 4G 6G17G19G 2G 1G21G 9G31
  20291199.073   106630973.327       -1728.058          46.000  
  20162326.550   105953744.828        1059.965          45.000  
  21906680.146   115120379.598        2669.177          43.000  
  21562008.179   113309113.473       -1933.344          44.000  
  21043765.095   110585743.345        -624.054          44.000  
  23990665.681   126071664.910       -3522.685          30.000  
  22416093.616   117797371.357       -3618.512          35.000  
  24747456.091   130048648.256       -3391.399          30.000  
  21456370.062   112753981.761        2719.364          44.000  
  22673691.977   119151057.983        -220.780          43.000  
 23  8 28 11 41 40.9990000  0 10G 3G 4G 6G17G19G 2G 1G21G 9G31
  20291527.761   106632701.827       -1728.920          46.000  
  20162125.087   105952685.277        1059.099          45.000  
  21906172.362   115117710.730        2668.417          43.000  
  21562375.920   113311047.229       -1934.301          44.000  
  21043883.582   110586367.755        -624.783          44.000  
  23991335.608   126075188.039       -3523.407          30.000  
  22416782.699   117800990.844       -3619.657          35.000  
  24748099.764   130052039.570       -3391.234          30.000  
  21455852.610   112751262.958        2718.295          44.000  
  22673733.871   119151279.273        -221.963          43.000  
 23  8 28 11 41 41.9990000  0 10G 3G 4G 6G17G19G 2G 1G21G 9G31
  20291856.803   106634430.785       -1729.275          46.000  
  20161923.629   105951626.438        1058.353          45.000  
  21905664.456   115115042.243        2668.226          43.000  
  21562743.867   113312981.608       -1934.696          44.000  
  21044002.439   110586993.043        -625.729          44.000  
  23992006.081   126078711.422       -3523.979          30.000  
  22417471.390   117804610.684       -3620.070          35.000  
  24748742.813   130055431.082       -3391.171          29.000  
  21455335.390   112748544.628        2718.206          44.000  
  22673776.087   119151501.364        -222.578          43.000  
 23  8 28 11 41 42.9990000  0 10G 3G 4G 6G17G19G 2G 1G21G 9G31
  20292186.018   106636160.191       -1729.726          46.000  
  20161722.336   105950568.257        1057.799          45.000  
  21905156.834   115112374.088        2667.893          43.000  
  21563112.045   113314916.595       -1935.257          44.000  
  21044121.415   110587619.143        -626.790          44.000  
  23992678.398   126082235.008       -3524.231          30.000  
  22418160.586   117808230.821       -3620.256          35.000  
  24749392.367   130058822.793       -3392.620          30.000  
  21454818.223   112745826.789        2717.509          44.000  
  22673818.487   119151724.232        -223.293          43.000  
 23  8 28 11 41 43.9990000  0 10G 3G 4G 6G17G19G 2G 1G21G 9G31
  20292515.561   106637890.080       -1730.123          46.000  
  20161520.795   105949510.814        1057.052          45.000  
  21904649.386   115109706.349        2667.464          43.000  
  21563479.991   113316852.253       -1935.966          44.000  
  21044240.993   110588246.112        -627.310          44.000  
  23993348.273   126085758.897       -3523.666          30.000  
  22418849.822   117811851.412       -3620.603          36.000  
  24750036.450   130062214.708       -3392.080          30.000  
  21454300.614   112743109.474        2717.287          44.000  
  22673860.812   119151947.938        -224.135          43.000  
 23  8 28 11 41 44.9990000  0 10G 3G 4G 6G17G19G 2G 1G21G 9G31
  20292844.664   106639620.305       -1730.481          46.000  
  20161319.742   105948453.930        1056.457          45.000  
  21904141.933   115107038.860        2667.287          43.000  
  21563848.313   113318788.418       -1936.567          44.000  
  21044360.361   110588873.800        -628.303          44.000  
  23994025.032   126089282.991       -3523.795          30.000  
  22419539.110   117815472.150       -3620.209          36.000  
  24750686.130   130065606.654       -3391.390          30.000  
  21453783.420   112740392.519        2716.802          44.000  
  22673903.604   119152172.293        -224.674          43.000  
 23  8 28 11 41 45.9990000  0 10G 3G 4G 6G17G19G 2G 1G21G 9G31
  20293173.823   106641350.966       -1731.173          46.000  
  20161118.606   105947397.706        1055.656          45.000  
  21903634.398   115104371.711        2666.708          44.000  
  21564216.735   113320725.172       -1937.188          44.000  
  21044480.174   110589502.295        -629.191          45.000  
  23994691.412   126092807.357       -3524.812          30.000  
  22420228.515   117819093.306       -3621.943          36.000  
  24751324.490   130068998.740       -3392.781          29.000  
  21453266.667   112737676.037        2715.904          44.000  
  22673946.593   119152397.438        -225.727          43.000  
 23  8 28 11 41 46.9990000  0 10G 3G 4G 6G17G19G 2G 1G21G 9G31
  20293503.379   106643082.436       -1731.758          46.000  
  20160917.506   105946342.520        1054.987          45.000  
  21903126.863   115101705.276        2666.371          43.000  
  21564585.244   113322662.921       -1937.847          44.000  
  21044600.057   110590131.977        -629.967          44.000  
  23995363.241   126096332.279       -3525.071          30.000  
  22420918.519   117822715.104       -3621.776          37.000  
  24751969.223   130072391.435       -3392.908          29.000  
  21452749.783   112734960.374        2715.542          44.000  
  22673989.298   119152623.714        -226.407          43.000  
 23  8 28 11 41 47.9990000  0 10G 3G 4G 6G17G19G 2G 1G21G 9G31
  20293832.935   106644813.771       -1731.245          46.000  
  20160716.610   105945287.463        1054.769          45.000  
  21902619.638   115099038.637        2666.642          43.000  
  21564953.893   113324600.709       -1937.928          44.000  
  21044720.119   110590761.938        -630.298          44.000  
  23996041.823   126099856.903       -3524.272          30.000  
  22421608.055   117826336.712       -3621.461          36.000  
  24752606.453   130075783.634       -3391.671          28.000  
  21452232.934   112732244.648        2715.742          44.000  
  22674032.692   119152850.234        -226.938          43.000  
 23  8 28 11 41 48.9990000  0 10G 3G 4G 6G17G19G 2G 1G21G 9G31
  20294162.517   106646545.677       -1732.382          46.000  
  20160515.758   105944233.193        1053.758          45.000  
  21902112.242   115096372.489        2665.957          43.000  
  21565322.717   113326539.227       -1938.998          44.000  
  21044840.277   110591392.828        -631.401          45.000  
  23996713.028   126103381.883       -3525.419          30.000  
  22422297.697   117829958.760       -3622.107          36.000  
  24753259.815   130079176.254       -3393.197          29.000  
  21451716.198   112729529.507        2714.661          44.000  
  22674076.030   119153077.625        -227.922          43.000  
 23  8 28 11 41 49.9990000  0 10G 3G 4G 6G17G19G 2G 1G21G 9G31
  20294492.374   106648278.382       -1732.965          46.000  
  20160315.268   105943179.953        1052.657          45.000  
  21901605.117   115093707.065        2664.910          43.000  
  21565692.055   113328478.731       -1940.194          44.000  
  21044960.962   110592024.908        -632.637          45.000  
  23997375.290   126106907.439       -3525.990          30.000  
  22422987.552   117833581.550       -3623.261          36.000  
  24753901.141   130082569.323       -3393.575          28.000  
  21451199.684   112726815.225        2713.691          44.000  
  22674119.459   119153306.188        -229.214          43.000  
 23  8 28 11 41 50.9990000  0 10G 3G 4G 6G17G19G 2G 1G21G 9G31
  20294822.275   106650011.526       -1733.308          46.000  
  20160115.110   105942127.381        1052.225          45.000  
  21901097.874   115091041.959        2664.896          43.000  
  21566061.336   113330418.811       -1940.572          44.000  
  21045081.731   110592657.817        -633.263          44.000  
  23998051.067   126110433.297       -3525.980          31.000  
  22423677.411   117837204.645       -3623.431          36.000  
  24754549.443   130085962.461       -3392.457          28.000  
  21450683.245   112724101.394        2713.500          44.000  
  22674163.255   119153535.512        -229.757          44.000  
 23  8 28 11 41 51.9990000  0 10G 3G 4G 6G17G19G 2G 1G21G 9G31
  20295152.259   106651745.038       -1733.914          46.000  
  20159915.209   105941075.408        1051.610          45.000  
  21900590.683   115088377.132        2664.815          43.000  
  21566430.618   113332359.435       -1941.223          44.000  
  21045202.377   110593291.460        -634.072          45.000  
  23998718.739   126113959.322       -3526.367          30.000  
  22424367.249   117840827.997       -3623.842          36.000  
  24755201.182   130089355.780       -3393.278          29.000  
  21450166.422   112721387.956        2713.031          43.000  
  22674207.134   119153765.529        -230.686          44.000  
 23  8 28 11 41 52.9990000  0 10G 3G 4G 6G17G19G 2G 1G21G 9G31
  20295481.911   106653479.131       -1734.364          46.000  
  20159715.312   105940024.263        1050.738          45.000  
  21900083.593   115085712.846        2664.418          43.000  
  21566800.009   113334300.808       -1941.644          44.000  
  21045323.273   110593926.088        -635.093          45.000  
  23999388.727   126117485.729       -3526.609          30.000  
  22425056.759   117844451.821       -3624.100          36.000  
  24755852.267   130092749.350       -3392.794          30.000  
  21449650.027   112718675.153        2712.462          44.000  
  22674251.178   119153996.486        -231.291          44.000  
 23  8 28 11 41 53.9990000  0 10G 3G 4G 6G17G19G 2G 1G21G 9G31
  20295812.121   106655213.570       -1734.503          46.000  
  20159515.551   105938973.702        1050.194          45.000  
  21899576.464   115083048.810        2663.979          43.000  
  21567169.652   113336242.717       -1942.167          44.000  
  21045444.290   110594561.433        -635.721          45.000  
  24000062.410   126121012.309       -3526.587          31.000  
  22425746.060   117848075.901       -3624.327          36.000  
  24756501.071   130096143.134       -3394.638          31.000  
  21449133.736   112715962.726        2712.421          43.000  
  22674295.200   119154228.124        -232.061          44.000  
 23  8 28 11 41 54.9990000  0 10G 3G 4G 6G17G19G 2G 1G21G 9G31
  20296142.445   106656948.455       -1735.133          46.000  
  20159315.794   105937923.804        1049.406          45.000  
  21899069.552   115080385.113        2663.547          43.000  
  21567539.680   113338185.229       -1942.878          44.000  
  21045565.455   110595197.598        -636.764          45.000  
  24000739.182   126124539.155       -3527.112          32.000  
  22426435.776   117851700.349       -3624.660          36.000  
  24757140.120   130099536.914       -3394.544          30.000  
  21448617.266   112713250.790        2711.368          43.000  
  22674339.607   119154460.545        -232.857          44.000  
 23  8 28 11 41 55.9990000  0 10G 3G 4G 6G17G19G 2G 1G21G 9G31
  20296472.677   106658683.786       -1735.073          46.000  
  20159116.063   105936874.580        1049.362          45.000  
  21898562.588   115077721.775        2663.547          43.000  
  21567909.694   113340128.346       -1943.206          44.000  
  21045686.918   110595834.607        -637.133          45.000  
  24001408.463   126128066.233       -3526.653          31.000  
  22427125.614   117855325.103       -3623.975          36.000  
  24757794.293   130102930.932       -3394.338          31.000  
  21448101.237   112710539.300        2711.732          43.000  
  22674384.432   119154693.736        -233.147          44.000  
 23  8 28 11 41 56.9990000  0 10G 3G 4G 6G17G19G 2G 1G21G 9G31
  20296803.080   106660419.444       -1736.177          46.000  
  20158916.568   105935825.923        1047.866          45.000  
  21898055.808   115075058.708        2662.244          43.000  
  21568279.477   113342071.947       -1944.302          44.000  
  21045808.576   110596472.316        -638.572          45.000  
  24002074.843   126131593.435       -3527.010          30.000  
  22427815.508   117858950.094       -3625.562          35.000  
  24758435.519   130106324.937       -3394.716          30.000  
  21447585.474   112707828.193        2710.726          43.000  
  22674429.000   119154927.600        -234.663          44.000  
 23  8 28 11 41 57.9990000  0 10G 3G 4G 6G17G19G 2G 1G21G 9G31
  20297133.225   106662155.372       -1736.178          46.000  
  20158716.998   105934777.762        1047.880          45.000  
  21897549.132   115072395.799        2662.704          43.000  
  21568649.339   113344016.005       -1944.365          44.000  
  21045930.230   110597110.668        -638.782          45.000  
  24002744.282   126135120.815       -3527.674          30.000  
  22428505.433   117862575.275       -3625.267          35.000  
  24759078.677   130109718.961       -3393.767          30.000  
  21447069.331   112705117.377        2710.771          43.000  
  22674473.891   119155162.083        -234.893          44.000  
 23  8 28 11 41 58.9990000  0 10G 3G 4G 6G17G19G 2G 1G21G 9G31
  20297463.636   106663891.755       -1736.965          46.000  
  20158517.617   105933730.313        1046.750          45.000  
  21897042.430   115069733.253        2662.244          43.000  
  21569019.615   113345960.675       -1945.282          44.000  
  21046052.111   110597749.865        -639.961          46.000  
  24003415.740   126138648.363       -3528.201          31.000  
  22429195.707   117866200.802       -3626.308          36.000  
  24759722.058   130113113.235       -3395.114          30.000  
  21446553.730   112702407.067        2709.867          43.000  
  22674518.886   119155397.357        -236.013          44.000  
 23  8 28 11 41 59.9990000  0 10G 3G 4G 6G17G19G 2G 1G21G 9G31
  20297794.344   106665628.817       -1737.737          46.000  
  20158318.322   105932683.762        1045.957          45.000  
  21896535.846   115067071.329        2661.491          43.000  
  21569390.075   113347906.187       -1946.045          45.000  
  21046174.176   110598390.126        -640.947          46.000  
  24004087.521   126142176.392       -3527.936          31.000  
  22429885.649   117869826.874       -3626.336          35.000  
  24760371.219   130116507.851       -3395.678          30.000  
  21446038.167   112699697.486        2709.029          44.000  
  22674563.969   119155633.653        -236.948          45.000  
 23  8 28 11 42  0.9990000  0 10G 3G 4G 6G17G19G 2G 1G21G 9G31
  20298125.039   106667366.699       -1738.011          47.000  
  20158119.302   105931638.264        1045.221          45.000  
  21896029.537   115064410.126        2661.121          43.000  
  21569760.517   113349852.703       -1946.863          45.000  
  21046296.493   110599031.595        -641.887          46.000  
  24004759.097   126145705.117       -3528.683          31.000  
  22430575.735   117873453.697       -3626.816          35.000  
  24761015.734                       -3394.780          29.000  
  21445523.155   112696988.737        2708.480          44.000  
  22674609.134   119155871.126        -238.011          45.000  
 23  8 28 11 42  1.9990000  0 10G 3G 4G 6G17G19G 2G 1G21G 9G31
  20298455.912   106669104.948       -1738.201          47.000  
  20157920.728   105930593.375        1044.800          45.000  
  21895523.110   115061749.225        2661.096          43.000  
  21570131.251   113351799.739       -1946.953          45.000  
  21046418.579   110599673.808        -642.404          46.000  
  24005431.009   126149233.991       -3529.252          32.000  
  22431265.643   117877080.804       -3627.109          35.000  
  24761662.714   130123410.8123      -3395.410          28.000  
  21445007.859   112694280.407        2708.346          44.000  
  22674654.679   119156109.304        -238.365          45.000  
 23  8 28 11 42  2.9990000  0 10G 3G 4G 6G17G19G 2G 1G21G 9G31
  20298786.698   106670843.617       -1739.106          47.000  
  20157722.048   105929549.131        1043.854          45.000  
  21895016.914   115059088.641        2660.342          43.000  
  21570501.845   113353747.378       -1948.130          45.000  
  21046540.962   110600316.814        -643.700          46.000  
  24006102.877   126152763.069       -3529.547          31.000  
  22431955.354   117880708.196       -3627.476          34.000  
  24762308.167   130126806.1582      -3395.722          29.000  
  21444492.501   112691572.506        2707.588          44.000  
  22674699.976   119156348.216        -239.444          45.000  
 23  8 28 11 42  3.9990000  0 10G 3G 4G 6G17G19G 2G 1G21G 9G31
  20299117.856   106672582.768       -1739.331          47.000  
  20157523.696   105928505.609        1043.337          45.000  
  21894510.779   115056428.468        2659.916          42.000  
  21570872.693   113355695.675       -1948.810          45.000  
  21046663.550   110600960.692        -644.213          46.000  
  24006774.832   126156292.431       -3528.594          31.000  
  22432645.244   117884335.950       -3627.587          34.000  
  24762953.974   130130201.7612      -3395.879          29.000  
  21443977.222   112688865.145        2707.148          44.000  
  22674745.739   119156587.974        -240.137          45.000  
 23  8 28 11 42  4.9990000  0 10G 3G 4G 6G17G19G 2G 1G21G 9G31
  20299449.052   106674322.193       -1739.662          47.000  
  20157325.165   105927462.590        1042.544          45.000  
  21894004.583   115053768.470        2659.674          42.000  
  21571243.772   113357644.390       -1949.334          45.000  
  21046786.238   110601605.230        -645.110          46.000  
  24007446.901   126159821.914       -3529.696          32.000  
  22433335.173   117887963.930       -3628.184          34.000  
  24763594.536   130133597.3672      -3395.759          28.000  
  21443462.349   112686158.101        2706.609          44.000  
  22674791.624   119156828.337        -241.066          45.000  
 23  8 28 11 42  5.9990000  0 10G 3G 4G 6G17G19G 2G 1G21G 9G31
  20299780.183   106676062.159       -1739.953          47.000  
  20157127.140   105926420.354        1042.201          45.000  
  21893498.457   115051108.932        2659.792          42.000  
  21571615.121   113359593.821       -1949.313          45.000  
  21046909.231   110602250.688        -645.610          46.000  
  24008118.757   126163351.747       -3530.189          32.000  
  22434025.255   117891592.356       -3628.591          34.000  
  24764246.559   130136993.2322      -3395.557          29.000  
  21442947.280   112683451.623        2706.456          44.000  
  22674837.579   119157069.581        -241.190          45.000  
 23  8 28 11 42  6.9990000  0 10G 3G 4G 6G17G19G 2G 1G21G 9G31
  20300111.384   106677802.491       -1740.417          47.000  
  20156928.748   105925378.711        1041.338          45.000  
  21892992.605   115048449.683        2659.141          42.000  
  21571986.266   113361543.807       -1950.397          45.000  
  21047032.281   110602896.881        -646.643          46.000  
  24008794.534   126166881.775       -3530.066          32.000  
  22434715.189   117895220.995       -3629.104          33.000  
  24764892.859   130140389.1812      -3395.709          30.000  
  21442432.433   112680745.570        2705.631          44.000  
  22674883.495   119157311.537        -242.433          45.000  
 23  8 28 11 42  7.9990000  0 10G 3G 4G 6G17G19G 2G 1G21G 9G31
  20300442.502   106679542.863       -1739.812          47.000  
  20156730.562   105924337.352        1041.502          45.000  
  21892486.492   115045790.408        2659.808          42.000  
  21572357.397   113363493.978       -1949.852          45.000  
  21047155.358   110603543.513        -646.299          46.000  
  24009464.064   126170411.542       -3528.502          32.000  
  22435404.782   117898849.565       -3627.779          33.000  
  24765540.026   130143784.8962      -3395.105          29.000  
  21441917.338   112678039.558        2706.456          44.000  
  22674929.717   119157553.851        -242.041          45.000  
 23  8 28 11 42  8.9990000  0 10G 3G 4G 6G17G19G 2G 1G21G 9G31
  20300773.947   106681283.677       -1741.138          47.000  
  20156532.571   105923296.649        1040.320          45.000  
  21891980.275   115043131.474        2658.492          42.000  
  21572728.698   113365444.782       -1951.311          45.000  
  21047278.652   110604190.983        -648.158          46.000  
  24010124.703   126173941.662       -3530.475          30.000  
  22436094.973   117902478.483       -3628.733          33.000  
  24766182.617   130147180.7402      -3395.820          28.000  
  21441402.373   112675334.031        2705.170          44.000  
  22674976.169   119157796.956        -243.567          45.000  
 23  8 28 11 42  9.9990000  0 10G 3G 4G 6G17G19G 2G 1G21G 9G31
  20301105.335   106683025.452       -1742.154          47.000  
  20156334.917   105922257.153        1039.177          45.000  
  21891474.358   115040473.417        2657.635          42.000  
  21573100.270   113367396.717       -1952.401          45.000  
  21047401.964   110604839.777        -649.331          46.000  
  24010795.568   126177472.542       -3531.245          29.000  
  22436785.522   117906108.344       -3630.699          33.000  
  24766827.822   130150577.4052      -3396.819          28.000  
  21440887.675   112672629.514        2704.074          44.000  
  22675022.792   119158041.369        -244.936          45.000  
 23  8 28 11 42 10.9990000  0 10G 3G 4G 6G17G19G 2G 1G21G 9G31
  20301436.601   106684767.907       -1742.811          47.000  
  20156137.298   105921218.575        1038.090          45.000  
  21890968.816   115037815.945        2656.993          42.000  
  21573472.108   113369349.490       -1953.432          45.000  
  21047525.765   110605489.639        -650.466          46.000  
  24011467.968   126181003.944       -3531.628          29.000  
  22437476.123   117909738.689       -3630.272          33.000  
  24767479.971   130153974.3552      -3397.680          30.000  
  21440373.015   112669925.710        2703.237          44.000  
  22675069.445   119158286.803        -246.169          45.000  
 23  8 28 11 42 11.9990000  0 10G 3G 4G 6G17G19G 2G 1G21G 9G31
  20301767.902   106686510.863       -1743.061          46.000  
  20155939.783   105920180.728        1037.775          45.000  
  21890463.201   115035158.890        2657.394          42.000  
  21573844.003   113371302.913       -1953.549          45.000  
  21047649.797   110606140.378        -650.907          46.000  
  24012147.541   126184535.581       -3531.875          30.000  
  22438166.100   117913369.479       -3630.517          32.000  
  24768128.548   130157371.4902      -3397.114          30.000  
  21439858.574   112667222.404        2703.539          44.000  
  22675116.390   119158533.052        -246.594          45.000  
 23  8 28 11 42 12.9990000  0 10G 3G 4G 6G17G19G 2G 1G21G 9G31
  20302099.587   106688254.132       -1743.341          46.000  
  20155742.011   105919143.442        1036.911          45.000  
  21889957.489   115032502.081        2656.676          41.000  
  21574216.194   113373256.840       -1954.173          45.000  
  21047773.933   110606791.812        -651.738          46.000  
  24012825.085   126188067.410       -3532.378          31.000  
  22438847.557   117917000.468       -3630.854          32.000  
  24768773.006   130160768.2351      -3397.061          31.000  
  21439344.704   112664519.493        2702.865          44.000  
  22675163.218   119158779.963        -247.208          45.000  
 23  8 28 11 42 13.9990000  0 10G 3G 4G 6G17G19G 2G 1G21G 9G31
  20302431.203   106689997.877       -1743.948          46.000  
  20155544.584   105918106.852        1036.308          45.000  
  21889452.131   115029845.666        2656.391          41.000  
  21574588.141   113375211.403       -1954.978          45.000  
  21047897.930   110607444.108        -652.623          46.000  
  24013497.725   126191599.473       -3532.732          32.000  
  22439542.447   117920631.793       -3630.988          32.000  
  24769421.605   130164165.674       -3397.675          31.000  
  21438830.669   112661817.100        2701.947          44.000  
  22675210.822   119159027.699        -248.186          45.000  
 23  8 28 11 42 14.9990000  0 10G 3G 4G 6G17G19G 2G 1G21G 9G31
  20302762.840   106691742.109       -1744.465          46.000  
  20155347.418   105917070.962        1035.540          45.000  
  21888946.768   115027189.640        2655.716          41.000  
  21574959.948   113377166.590       -1955.409          45.000  
  21048021.944   110608097.270        -653.458          46.000  
  24014166.282   126195131.784       -3532.653          31.000  
  22440235.945   117924263.533       -3631.766          32.000  
  24770065.129   130167563.255       -3397.573          31.000  
  21438316.686   112659115.181        2701.773          44.000  
  22675257.789   119159276.236        -248.699          45.000  
 23  8 28 11 42 15.9990000  0 10G 3G 4G 6G17G19G 2G 1G21G 9G31
  20303094.682   106693486.781       -1744.745          46.000  
  20155150.396   105916035.765        1035.010          45.000  
  21888441.449   115024533.973        2655.446          41.000  
  21575332.053   113379122.420       -1956.067          45.000  
  21048146.460   110608751.244        -654.329          47.000  
  24014837.466   126198664.397       -3531.861          31.000  
  22440926.463   117927895.611       -3632.225          32.000  
  24770714.208   130170961.059       -3398.723          31.000  
  21437802.633   112656413.783        2701.178          44.000  
  22675305.206   119159525.577        -249.667          45.000  
 23  8 28 11 42 16.9990000  0 10G 3G 4G 6G17G19G 2G 1G21G 9G31
  20303426.663   106695231.998       -1745.792          46.000  
  20154953.479   105915001.369        1033.638          45.000  
  21887936.091   115021878.773        2654.894          41.000  
  21575704.405   113381078.957       -1957.375          45.000  
  21048271.256   110609406.159        -655.652          46.000  
  24015510.507   126202197.367       -3532.720          31.000  
  22441616.078   117931528.144       -3633.366          32.000  
  24771363.120   130174359.072       -3398.039          31.000  
  21437288.838   112653712.956        2700.287          44.000  
  22675352.662   119159775.805        -250.962          45.000  
 23  8 28 11 42 17.9990000  0 10G 3G 4G 6G17G19G 2G 1G21G 9G31
  20303758.571   106696977.730       -1745.748          46.000  
  20154756.728   105913967.700        1033.605          45.000  
  21887430.837   115019224.038        2654.658          40.000  
  21576076.845   113383036.178       -1957.368          45.000  
  21048395.850   110610061.968        -655.773          46.000  
  24016183.305   126205730.722       -3533.387          31.000  
  22442309.445   117935161.052       -3633.267          32.000  
  24772009.455   130177757.370       -3397.952          32.000  
  21436774.916   112651012.677        2700.385          44.000  
  22675400.087   119160026.883        -251.341          45.000  
 23  8 28 11 42 18.9990000  0 10G 3G 4G 6G17G19G 2G 1G21G 9G31
  20304090.893   106698723.348       -1746.323          46.000  
  20154559.833   105912934.173        1032.767          45.000  
  21886925.457   115016569.079        2654.351          40.000  
  21576449.015   113384993.449       -1958.061          45.000  
  21048520.632   110610718.063        -656.968          46.000  
  24016855.553   126209263.723       -3534.393          30.000  
  22443000.107   117938793.797       -3633.536          33.000  
  24772656.181   130181155.282       -3397.760          31.000  
  21436261.177   112648312.335        2699.666          44.000  
  22675447.927   119160278.189        -252.029          44.000  
 23  8 28 11 42 19.9990000  0 10G 3G 4G 6G17G19G 2G 1G21G 9G31
  20304423.123   106700470.024       -1747.262          46.000  
  20154363.331   105911901.908        1031.707          45.000  
  21886420.382   115013915.084        2653.237          40.000  
  21576821.442   113386951.923       -1959.161          45.000  
  21048645.672   110611375.574        -658.461          46.000  
  24017527.090   126212797.547       -3534.485          31.000  
  22443692.445   117942427.459       -3634.510          33.000  
  24773302.996   130184553.976       -3398.772          31.000  
  21435747.617   112645613.079        2698.530          44.000  
  22675496.233   119160530.888        -253.728          44.000  
 23  8 28 11 42 20.9990000  0 10G 3G 4G 6G17G19G 2G 1G21G 9G31
  20304755.511   106702217.148       -1747.680          46.000  
  20154166.950   105910870.351        1030.885          45.000  
  21885915.626   115011261.450        2653.241          40.000  
  21577193.934   113388911.057       -1959.799          45.000  
  21048770.790   110612033.926        -659.014          46.000  
  24018198.356   126216331.724       -3534.403          30.000  
  22444384.385   117946061.470       -3634.424          34.000  
  24773949.578   130187952.852       -3399.174          30.000  
  21435234.293   112642914.310        2698.388          44.000  
  22675544.571   119160784.389        -254.284          45.000  
 23  8 28 11 42 21.9990000  0 10G 3G 4G 6G17G19G 2G 1G21G 9G31
  20305088.186   106703964.669       -1747.522          46.000  
  20153970.491   105909839.431        1030.705          44.000  
  21885410.800   115008608.173        2653.263          40.000  
  21577566.640   113390870.733       -1959.869          45.000  
  21048895.899   110612693.064        -659.438          46.000  
  24018872.126   126219866.103       -3534.207          30.000  
  22445076.461   117949695.828       -3634.509          34.000  
  24774594.757   130191351.849       -3399.312          30.000  
  21434720.558   112640215.991        2698.076          44.000  
  22675592.934   119161038.621        -254.465          44.000  
 23  8 28 11 42 22.9990000  0 10G 3G 4G 6G17G19G 2G 1G21G 9G31
  20305420.818   106705712.806       -1748.297          46.000  
  20153774.333   105908809.351        1029.767          44.000  
  21884905.682   115005955.384        2652.917          40.000  
  21577939.569   113392831.195       -1960.822          45.000  
  21049021.379   110613353.182        -660.496          46.000  
  24019547.266   126223400.888       -3534.540          30.000  
  22445768.658   117953330.671       -3635.378          34.000  
  24775240.655   130194751.113       -3399.185          31.000  
  21434207.199   112637518.307        2697.375          44.000  
  22675641.319   119161293.807        -255.591          44.000  
 23  8 28 11 42 23.9990000  0 10G 3G 4G 6G17G19G 2G 1G21G 9G31
  20305753.406   106707461.188       -1748.630          46.000  
  20153578.572   105907779.734        1029.282          45.000  
  21884400.882   115003302.814        2652.417          40.000  
  21578312.580   113394792.070       -1961.268          45.000  
  21049147.056   110614013.935        -661.431          46.000  
  24020219.815   126226935.621       -3534.072          30.000  
  22446460.760   117956965.598       -3635.249          34.000  
  24775887.146   130198150.376       -3398.893          31.000  
  21433693.979   112634820.895        2697.054          44.000  
  22675689.774   119161549.572        -256.257          45.000  
 23  8 28 11 42 24.9990000  0 10G 3G 4G 6G17G19G 2G 1G21G 9G31
  20306086.434   106709210.026       -1748.949          46.000  
  20153382.742   105906750.836        1028.626          44.000  
  21883895.960   115000650.590        2652.038          40.000  
  21578685.657   113396753.557       -1961.790          45.000  
  21049272.719   110614675.522        -662.075          46.000  
  24020894.881   126230470.725       -3534.230          31.000  
  22447152.936   117960600.938       -3635.342          34.000  
  24776535.029   130201549.798       -3397.912          31.000  
  21433180.690   112632123.985        2696.860          43.000  
  22675738.696   119161806.148        -256.998          44.000  
 23  8 28 11 42 25.9990000  0 10G 3G 4G 6G17G19G 2G 1G21G 9G31
  20306419.288   106710959.328       -1749.266          46.000  
  20153187.112   105905722.614        1028.175          44.000  
  21883391.360   114997998.722        2652.022          40.000  
  21579058.747   113398715.667       -1962.144          45.000  
  21049398.758   110615337.951        -662.782          46.000  
  24021567.238   126234006.084       -3534.862          30.000  
  22447845.269   117964236.619       -3635.631          34.000  
  24777179.644   130204949.459       -3399.474          31.000  
  21432667.662   112629427.577        2696.298          43.000  
  22675787.674   119162063.506        -257.682          44.000  
 23  8 28 11 42 26.9990000  0 10G 3G 4G 6G17G19G 2G 1G21G 9G31
  20306752.365   106712709.081       -1749.940          46.000  
  20152991.582   105904695.087        1027.146          45.000  
  21882886.752   114995347.245        2651.168          39.000  
  21579431.842   113400678.403       -1963.091          45.000  
  21049524.866   110616001.206        -663.749          46.000  
  24022234.404   126237541.665       -3535.223          29.000  
  22448537.393   117967872.634       -3636.518          34.000  
  24777827.471   130208349.241       -3400.120          31.000  
  21432154.539   112626731.670        2695.548          44.000  
  22675836.417   119162321.652        -258.709          45.000  
 23  8 28 11 42 27.9990000  0 10G 3G 4G 6G17G19G 2G 1G21G 9G31
  20307085.538   106714459.251       -1750.491          46.000  
  20152795.987   105903668.221        1026.611          45.000  
  21882382.236   114992696.118        2650.741          39.000  
  21579804.993   113402641.729       -1963.516          44.000  
  21049651.206   110616665.289        -664.515          46.000  
  24022907.912   126241077.546       -3535.330          27.000  
  22449229.787   117971508.977       -3635.931          34.000  
  24778475.572   130211749.212       -3400.245          31.000  
  21431641.633   112624036.217        2695.154          44.000  
  22675885.919   119162580.577        -259.295          46.000  
 23  8 28 11 42 28.9990000  0 10G 3G 4G 6G17G19G 2G 1G21G 9G31
  20307418.767   106716209.544       -1750.729          46.000  
  20152600.405   105902641.703        1026.159          44.000  
  21881877.510   114990044.999        2650.919          39.000  
  21580178.039   113404605.335       -1963.902          44.000  
  21049777.681   110617329.848        -665.056          46.000  
  24023573.319   126244613.274       -3535.149          26.000  
  22449922.321   117975145.349       -3636.911          35.000  
  24779122.630   130215148.954       -3400.074          31.000  
  21431128.885   112621340.911        2694.822          44.000  
  22675935.298   119162839.943        -259.808          45.000  
 23  8 28 11 42 29.9990000  0 10G 3G 4G 6G17G19G 2G 1G21G 9G31
  20307752.263   106717960.552       -1751.700          46.000  
  20152405.338   105901616.167        1024.735          44.000  
  21881372.998   114987394.548        2649.960          39.000  
  21580551.304   113406569.832       -1965.122          44.000  
  21049904.121   110617995.526        -666.361          45.000  
  24024245.519   126248149.667       -3536.653          26.000  
  22450614.793   117978782.311       -3636.890          35.000  
  24779770.391   130218549.186       -3400.951          31.000  
  21430616.250   112618646.366        2694.009          44.000  
  22675985.045   119163100.392        -261.224          45.000  
 23  8 28 11 42 30.9990000  0 10G 3G 4G 6G17G19G 2G 1G21G 9G31
  20308085.509   106719712.459       -1752.260          46.000  
  20152210.423   105900591.732        1023.849          44.000  
  21880868.709   114984744.927        2649.234          39.000  
  21580924.839   113408535.412       -1966.030          44.000  
  21050031.145   110618662.473        -667.322          46.000  
  24024920.084                       -3536.736          26.000  
  22451307.318   117982420.121       -3638.350          35.000  
  24780417.633   130221949.999       -3400.949          31.000  
  21430103.667   112615952.754        2693.130          44.000  
  22676034.743   119163362.075        -262.209          45.000  
 23  8 28 11 42 31.9990000  0 10G 3G 4G 6G17G19G 2G 1G21G 9G31
  20308419.127   106721464.789       -1752.023          46.000  
  20152015.670   105899567.975        1023.676          44.000  
  21880364.049   114982095.598        2649.638          38.000  
  21581298.862   113410501.569       -1965.851          44.000  
  21050158.292   110619330.247        -667.700          46.000  
  24025596.816                       -3537.107          25.000  
  22452000.079   117986058.203       -3637.721          36.000  
  24781064.852   130225351.021       -3400.725          31.000  
  21429591.280   112613259.606        2693.371          44.000  
  22676084.594   119163624.526        -262.478          44.000  
 23  8 28 11 42 32.9990000  0 10G 3G 4G 6G17G19G 2G 1G21G 9G31
  20308752.762   106723217.568       -1753.054          48.000  
  20151820.943   105898544.875        1022.734          45.000  
  21879859.742   114979446.692        2648.726          39.000  
  21581673.139   113412468.343       -1967.164          45.000  
  21050285.578   110619998.824        -668.881          47.000  
  24026268.113                       -3537.306          25.000  
  22452693.358   117989696.650       -3638.441          37.000  
  24781711.963   130228752.157       -3400.947          32.000  
  21429079.064   112610566.944        2692.651          45.000  
  22676134.183   119163887.749        -263.445          46.000  
 23  8 28 11 42 33.9990000  0 10G 3G 4G 6G17G19G 2G 1G21G 9G31
  20309086.685   106724970.744       -1753.254          48.000  
  20151626.587   105897522.404        1022.511          46.000  
  21879355.666   114976798.060        2648.819          40.000  
  21582047.494   113414435.686       -1967.705          45.000  
  21050413.226   110620668.197        -669.486          47.000  
  24026940.566                       -3539.997          24.000  
  22453386.499   117993335.416       -3638.915          37.000  
  24782358.974   130232153.430       -3401.118          32.000  
  21428566.992   112607874.724        2692.073          45.000  
  22676184.291   119164151.704        -264.149          46.000  
 23  8 28 11 42 34.9990000  0 10G 3G 4G 6G17G19G 2G 1G21G 9G31
  20309420.525   106726724.277       -1753.607          48.000  
  20151431.960   105896500.568        1021.767          46.000  
  21878851.507   114974149.739        2648.283          40.000  
  21582421.827   113416403.544       -1968.133          45.000  
  21050540.840   110621338.313        -670.314          47.000  
  24027617.377                       -3547.056          23.000  
  22454079.512   117996974.420       -3639.259          37.000  
  24783006.023   130235554.826       -3401.521          32.000  
  21428054.924   112605182.887        2691.794          45.000  
  22676234.618   119164416.377        -264.903          46.000  
 23  8 28 11 42 35.9990000  0 10G 3G 4G 6G17G19G 2G 1G21G 9G31
  20309754.296   106728478.308       -1754.410          48.000  
  20151237.626   105895479.444        1020.762          46.000  
  21878347.135   114971501.808        2647.667          40.000  
  21582796.632   113418372.053       -1968.638          45.000  
  21050668.789   110622009.303        -671.433          47.000  
  24028291.793                       -3534.419          22.000  
  22454772.024   118000613.800       -3639.712          37.000  
  24783653.243   130238956.382       -3401.486          32.000  
  21427542.559   112602491.601        2691.030          45.000  
  22676285.053   119164681.890        -266.068          46.000  
 23  8 28 11 42 36.9990000  0 10G 3G 4G 6G17G19G 2G 1G21G 9G31
  20310088.306   106730232.695       -1754.266          47.000  
  20151043.239   105894458.916        1020.508          45.000  
  21877843.238   114968854.174        2647.656          40.000  
  21583171.353   113420341.118       -1969.139          45.000  
  21050796.848   110622681.038        -672.014          46.000  
  24028964.241                       -3537.346          20.000  
  22455464.754   118004253.464       -3639.659          37.000  
  24784300.070   130242358.062       -3401.871          31.000  
  21427030.605   112599800.725        2690.736          44.000  
  22676335.825   119164948.108        -266.457          45.000  
 23  8 28 11 42 37.9990000  0 10G 3G 4G 6G17G19G 2G 1G21G 9G31
  20310422.334   106731987.336       -1754.733          47.000  
  20150848.883   105893438.859        1019.950          45.000  
  21877339.533   114966206.688        2647.526          40.000  
  21583546.036   113422310.576       -1969.446          45.000  
  21050924.989   110623353.396        -672.545          46.000  
  24029637.733                       -3542.701          21.000  
  22456157.427   118007893.243       -3639.680          37.000  
  24784947.055   130245759.700       -3401.801          31.000  
  21426518.720   112597110.116        2690.500          45.000  
  22676386.631   119165214.882        -266.955          45.000  
 23  8 28 11 42 38.9990000  0 10G 3G 4G 6G17G19G 2G 1G21G 9G31
  20310756.326   106733742.151       -1755.247          47.000  
  20150655.277   105892419.239        1019.119          45.000  
  21876835.898   114963559.311        2647.222          39.000  
  21583921.032   113424280.384       -1970.151          45.000  
  21051052.977   110624026.309        -673.239          46.000  
  24030309.178                       -3537.658          21.000  
  22456850.877   118011533.113       -3640.124          37.000  
  24785593.895   130249161.208       -3401.693          31.000  
  21426006.940   112594419.727        2689.992          45.000  
  22676437.084   119165482.194        -267.900          45.000  
 23  8 28 11 42 39.9990000  0 10G 3G 4G 6G17G19G 2G 1G21G 9G31
  20311090.280   106735497.694       -1755.351          47.000  
  20150461.252   105891400.563        1018.764          45.000  
  21876332.058   114960912.595        2647.022          40.000  
  21584296.448   113426251.095       -1970.713          45.000  
  21051181.093   110624700.356        -674.070          46.000  
  24030987.795                       -3541.505          21.000  
  22457543.991   118015173.600       -3640.212          37.000  
  24786240.984   130252563.202       -3401.187          31.000  
  21425495.330   112591730.114        2689.656          45.000  
  22676487.825   119165750.577        -268.403          45.000  
 23  8 28 11 42 40.9990000  0 10G 3G 4G 6G17G19G 2G 1G21G 9G31
  20311424.696   106737253.703       -1756.213          47.000  
  20150267.359   105890382.611        1017.590          45.000  
  21875828.497   114958266.240        2646.351          39.000  
  21584671.985   113428222.433       -1971.529          45.000  
  21051309.522   110625375.246        -675.332          46.000  
  24031663.594                       -3542.990          22.000  
  22458236.817   118018814.466       -3641.113          37.000  
  24786888.195   130255965.364       -3402.913          31.000  
  21424983.712   112589040.991        2688.795          45.000  
  22676539.024   119166019.771        -269.691          45.000  
 23  8 28 11 42 41.9990000  0 10G 3G 4G 6G17G19G 2G 1G21G 9G31
  20311759.107   106739010.443       -1757.235          48.000  
  20150073.749   105889365.615        1016.187          45.000  
  21875325.102   114955620.562        2645.132          39.000  
  21585047.108   113430194.664       -1972.892          45.000  
  21051438.208   110626051.235        -676.725          46.000  
  24032335.322                       -3535.958          22.000  
  22458930.149   118022455.973       -3642.209          37.000  
  24787533.888   130259367.961       -3402.831          30.000  
  21424472.246   112586352.635        2687.611          45.000  
  22676590.419   119166290.017        -271.031          45.000  
 23  8 28 11 42 42.9990000  0 10G 3G 4G 6G17G19G 2G 1G21G 9G31
  20312093.768   106740767.519       -1757.167          48.000  
  20149880.492   105888349.190        1015.987          45.000  
  21874821.345   114952975.132        2645.445          39.000  
  21585422.776   113432167.400       -1972.902          45.000  
  21051567.144   110626727.949        -677.146          46.000  
  24033010.284                       -3545.140          22.000  
  22459623.477   118026097.684       -3641.996          37.000  
  24788175.026   130262770.603       -3401.929          30.000  
  21423960.776   112583664.661        2687.773          45.000  
  22676642.298   119166560.958        -271.531          45.000  
 23  8 28 11 42 43.9990000  0 10G 3G 4G 6G17G19G 2G 1G21G 9G31
  20312428.262   106742525.067       -1757.462          48.000  
  20149687.126   105887333.465        1015.539          45.000  
  21874317.902   114950330.087        2644.838          39.000  
  21585798.850   113434140.776       -1973.792          45.000  
  21051696.354   110627405.514        -677.906          47.000  
  24033685.433                       -3541.511          23.000  
  22460316.709   118029739.797       -3642.456          37.000  
  24788819.363   130266173.589       -3403.026          29.000  
  21423449.663   112580977.204        2687.451          45.000  
  22676694.099   119166832.681        -271.923          45.000  
 23  8 28 11 42 44.9990000  0 10G 3G 4G 6G17G19G 2G 1G21G 9G31
  20312762.578   106744283.096       -1758.314          48.000  
  20149494.157   105886318.465        1014.604          45.000  
  21873814.550   114947685.474        2644.255          39.000  
  21586174.772   113436114.801       -1974.327          45.000  
  21051825.385   110628083.949        -679.127          46.000  
  24034359.173                       -3540.729          24.000  
  22461009.766   118033382.248       -3642.662          36.000  
  24789470.020   130269576.607       -3403.252          29.000  
  21422938.860   112578290.269        2686.573          45.000  
  22676745.778   119167105.266        -273.136          45.000  
 23  8 28 11 42 45.9990000  0 10G 3G 4G 6G17G19G 2G 1G21G 9G31
  20313097.055   106746041.512       -1759.006          47.000  
  20149301.092   105885304.090        1013.680          44.000  
  21873310.950   114945041.124        2644.163          38.000  
  21586550.745   113438089.386       -1975.216          45.000  
  21051954.726   110628763.146        -679.999          46.000  
  24035036.132                       -3543.211          23.000  
  22461703.072   118037024.989       -3642.946          36.000  
  24790117.812   130272979.821       -3403.723          29.000  
  21422427.691   112575603.757        2685.797          44.000  
  22676798.347   119167378.557        -273.933          45.000  
 23  8 28 11 42 46.9990000  0 10G 3G 4G 6G17G19G 2G 1G21G 9G31
  20313431.720   106747800.297       -1759.166          47.000  
  20149108.193   105884290.316        1013.172          44.000  
  21872807.563   114942397.075        2643.944          38.000  
  21586926.763   113440064.484       -1975.473          45.000  
  21052084.141   110629443.092        -680.613          46.000  
  24035709.418                       -3537.469          22.000  
  22462396.456   118040668.023       -3643.181          36.000  
  24790767.383   130276383.126       -3404.049          30.000  
  21421916.618   112572917.646        2685.774          44.000  
  22676850.541   119167652.548        -274.500          45.000  
 23  8 28 11 42 47.9990000  0 10G 3G 4G 6G17G19G 2G 1G21G 9G31
  20313766.218   106749559.633       -1759.436          47.000  
  20148915.530   105883277.319        1012.923          45.000  
  21872304.447   114939753.505        2643.698          38.000  
  21587302.898   113442040.325       -1976.171          45.000  
  21052213.482   110630123.960        -681.179          45.000  
  24036382.809                       -3543.013          21.000  
  22463089.046   118044311.488       -3643.465          35.000  
  24791413.691   130279786.610       -3402.955          30.000  
  21421405.431   112570232.141        2685.546          44.000  
  22676902.808   119167927.452        -275.327          45.000  
 23  8 28 11 42 48.9990000  0 10G 3G 4G 6G17G19G 2G 1G21G 9G31
  20314101.058   106751318.849       -1759.398          47.000  
  20148722.439   105882264.457        1012.543          45.000  
  21871801.545   114937109.745        2643.947          38.000  
  21587678.963   113444016.197       -1976.328          45.000  
  21052343.137   110630805.113        -681.716          45.000  
  24037058.019                       -3537.364          20.000  
  22463781.977   118047954.720       -3642.963          35.000  
  24792062.569   130283189.804       -3404.150          31.000  
  21420894.184   112567546.560        2685.431          44.000  
  22676954.749   119168202.562        -275.337          44.000  
 23  8 28 11 42 49.9990000  0 10G 3G 4G 6G17G19G 2G 1G21G 9G31
  20314435.635   106753078.723       -1760.383          47.000  
  20148530.024   105881252.479        1011.431          44.000  
  21871298.333   114934466.561        2642.769          37.000  
  21588055.316   113445992.886       -1977.302          45.000  
  21052472.745   110631487.295        -682.932          45.000  
  24037733.962                       -3537.428          19.000  
  22464475.580   118051598.548       -3644.600          35.000  
  24792706.944   130286593.296       -3403.837          30.000  
  21420383.372   112564861.655        2684.551          44.000  
  22677007.601   119168478.691        -276.914          44.000  
 23  8 28 11 42 50.9990000  0 10G 3G 4G 6G17G19G 2G 1G21G 9G31
  20314771.015   106754839.479       -1760.864          47.000  
  20148337.783   105880241.627        1010.502          45.000  
  21870795.627   114931824.193        2641.909          37.000  
  21588431.861   113447970.639       -1978.078          45.000  
  21052602.923   110632170.747        -683.987          45.000  
  24038401.629                       -3537.428          17.000  
  22465168.615   118055243.117       -3644.821          35.000  
  24793355.176   130289997.442       -3404.266          30.000  
  21419872.329   112562177.713        2683.714          44.000  
  22677060.379   119168756.034        -277.841          44.000  
 23  8 28 11 42 51.9990000  0 10G 3G 4G 6G17G19G 2G 1G21G 9G31
  20315105.898   106756600.654       -1761.735          47.000  
  20148145.521   105879231.435        1009.450          44.000  
  21870292.477   114929182.160        2641.266          38.000  
  21588808.590   113449948.959       -1978.852          45.000  
  21052733.028   110632854.995        -684.963          45.000  
  24039074.601                       -3537.428          14.000  
  22465861.960   118058888.007       -3645.891          35.000  
  24794008.307   130293401.689       -3404.106          30.000  
  21419361.492   112559494.196        2682.979          44.000  
  22677113.088   119169034.140        -278.780          45.000  
 23  8 28 11 42 52.9990000  0 10G 3G 4G 6G17G19G 2G 1G21G 9G31
  20315441.029   106758362.225       -1761.946          47.000  
  20147953.407   105878221.858        1009.073          45.000  
  21869789.745   114926540.430        2641.628          38.000  
  21589185.165   113451927.852       -1979.313          45.000  
  21052863.315   110633540.024        -685.414          45.000  
  24039739.371                       -3543.312          15.000  
  22466555.336   118062533.193       -3645.223          35.000  
  24794655.924   130296806.116       -3405.335          31.000  
  21418851.143   112556811.119        2682.757          45.000  
  22677166.097   119169312.979        -279.392          44.000  
 23  8 28 11 42 53.9990000  0 10G 3G 4G 6G17G19G 2G 1G21G 9G31
  20315776.462   106760124.293       -1762.546          47.000  
  20147761.817   105877213.031        1008.285          45.000  
  21869286.668   114923899.109        2641.018          37.000  
  21589561.902   113453907.411       -1980.050          45.000  
  21052993.367   110634225.928        -686.433          45.000  
  24040410.441                       -3545.814          16.000  
  22467249.004   118066178.741       -3645.648          35.000  
  24795307.720   130300210.706       -3405.026          31.000  
  21418340.475   112554128.597        2682.085          45.000  
  22677219.285   119169592.658        -280.155          45.000  
 23  8 28 11 42 54.9990000  0 10G 3G 4G 6G17G19G 2G 1G21G 9G31
  20316111.986   106761886.829       -1762.904          47.000  
  20147569.974   105876204.881        1007.578          45.000  
  21868783.652   114921258.207        2640.197          36.000  
  21589939.010   113455887.586       -1980.647          45.000  
  21053124.083   110634912.677        -687.399          45.000  
  24041081.930                       -3542.293          20.000  
  22467942.763   118069824.704       -3646.345          35.000  
  24795953.492   130303615.481       -3405.379          31.000  
  21417829.951   112551446.568        2681.417          45.000  
  22677272.430   119169873.173        -281.188          45.000  
 23  8 28 11 42 55.9990000  0 10G 3G 4G 6G17G19G 2G 1G21G 9G31
  20316447.654   106763649.787       -1763.039          47.000  
  20147378.083   105875197.428        1007.249          45.000  
  21868280.720   114918617.639        2640.478          36.000  
  21590316.254   113457868.367       -1980.737          45.000  
  21053255.108   110635600.246        -687.903          45.000  
  24041753.179                       -3533.929          21.000  
  22468636.628   118073470.958       -3646.053          35.000  
  24796601.955   130307020.451       -3405.466          31.000  
  21417319.053   112548764.993        2681.505          45.000  
  22677325.736   119170154.420        -281.402          45.000  
 23  8 28 11 42 56.9990000  0 10G 3G 4G 6G17G19G 2G 1G21G 9G31
  20316783.269   106765413.033       -1763.742          47.000  
  20147186.627   105874190.482        1006.320          45.000  
  21867777.961   114915977.249        2640.031          36.000  
  21590693.248   113459849.611       -1981.748          45.000  
  21053385.906   110636288.488        -688.916          45.000  
  24042428.402                       -3541.800          22.000  
  22469330.370   118077117.418       -3646.665          35.000  
  24797247.338   130310425.364       -3405.812          30.000  
  21416808.372   112546083.749        2680.745          45.000  
  22677379.880   119170436.325        -282.340          46.000  
 23  8 28 11 42 57.9990000  0 10G 3G 4G 6G17G19G 2G 1G21G 9G31
  20317118.680   106767176.768       -1763.922          47.000  
  20146994.989   105873184.261        1005.864          45.000  
  21867275.539   114913337.294        2639.777          36.000  
  21591070.570   113461831.498       -1982.276          45.000  
  21053516.839   110636977.594        -689.580          45.000  
  24043105.252                       -3544.129          22.000  
  22470024.365   118080764.235       -3646.679          35.000  
  24797893.986   130313830.487       -3405.147          30.000  
  21416298.062   112543403.053        2680.563          45.000  
  22677434.028   119170719.045        -283.090          45.000  
 23  8 28 11 42 58.9990000  0 10G 3G 4G 6G17G19G 2G 1G21G 9G31
  20317454.195   106768940.602       -1763.807          47.000  
  20146803.517   105872178.391        1005.779          45.000  
  21866773.082   114910697.393        2639.774          37.000  
  21591447.822   113463813.657       -1982.243          45.000  
  21053648.165   110637667.181        -689.729          45.000  
  24043784.048                       -3538.545          22.000  
  22470718.552   118084411.077       -3646.615          36.000  
  24798542.035   130317235.484       -3405.256          30.000  
  21415787.840   112540722.497        2680.480          45.000  
  22677487.897   119171002.222        -283.454          45.000  
 23  8 28 11 42 59.9990000  0 10G 3G 4G 6G17G19G 2G 1G21G 9G31
  20317789.986   106770704.972       -1764.414          47.000  
  20146612.336   105871173.283        1004.903          45.000  
  21866270.454   114908057.915        2639.501          36.000  
  21591825.196   113465796.515       -1983.266          45.000  
  21053779.421   110638357.684        -690.663          45.000  
  24044462.783                       -3546.474          23.000  
  22471412.752   118088058.356       -3647.307          36.000  
  24799193.325   130320640.658       -3404.915          30.000  
  21415277.713   112538042.513        2679.949          45.000  
  22677542.106   119171286.268        -284.418          45.000  
 23  8 28 11 43  0.9990000  0 10G 3G 4G 6G17G19G 2G 1G21G 9G31
  20318126.003   106772470.138       -1765.620          47.000  
  20146421.566   105870169.203        1003.612          45.000  
  21865768.228   114905419.174        2638.352          36.000  
  21592202.496   113467780.327       -1984.255          45.000  
  21053911.000   110639049.377        -692.377          45.000  
  24045141.274                       -3530.687          23.000  
  22472107.254   118091706.314       -3648.198          37.000  
  24799833.438   130324046.452       -3405.842          29.000  
  21414767.975   112535363.366        2678.779          45.000  
  22677596.188   119171571.436        -285.613          45.000  
 23  8 28 11 43  1.9990000  0 10G 3G 4G 6G17G19G 2G 1G21G 9G31
  20318461.557   106774235.731       -1765.632          47.000  
  20146230.342   105869165.808        1003.209          45.000  
  21865265.924   114902780.817        2638.040          36.000  
  21592580.014   113469764.752       -1984.532          45.000  
  21054042.950   110639741.889        -693.055          45.000  
  24045815.659                       -3543.692          21.000  
  22472801.214   118095354.616       -3648.519          36.000  
  24800481.478   130327452.358       -3405.914          29.000  
  21414257.826   112532684.702        2678.535          45.000  
  22677650.882   119171857.395        -286.308          45.000  
 23  8 28 11 43  2.9990000  0 10G 3G 4G 6G17G19G 2G 1G21G 9G31
  20318797.670   106776001.790       -1766.438          47.000  
  20146039.904   105868163.093        1002.122          45.000  
  21864763.702   114900142.801        2637.829          36.000  
  21592957.924   113471749.798       -1985.701          45.000  
  21054174.756   110640435.214        -694.005          45.000  
  24046494.429                       -3541.810          20.000  
  22473495.558   118099003.227       -3648.841          36.000  
  24801138.270   130330858.480       -3406.340          29.000  
  21413747.953   112530006.526        2677.775          44.000  
  22677705.422   119172144.156        -287.469          46.000  
 23  8 28 11 43  3.9990000  0 10G 3G 4G 6G17G19G 2G 1G21G 9G31
  20319133.801   106777768.342       -1766.768          47.000  
  20145849.081   105867161.115        1001.695          45.000  
  21864261.926   114897505.211        2637.663          37.000  
  21593335.861   113473735.496       -1985.732          45.000  
  21054306.819   110641129.416        -694.482          45.000  
  24047168.077                       -3541.833          19.000  
  22474189.898   118102652.257       -3648.951          36.000  
  24801782.327   130334264.798       -3406.102          29.000  
  21413238.267   112527328.866        2677.858          44.000  
  22677760.364   119172431.730        -287.781          46.000  
 23  8 28 11 43  4.9990000  0 10G 3G 4G 6G17G19G 2G 1G21G 9G31
  20319470.162   106779535.226       -1766.950          47.000  
  20145658.481   105866159.708        1001.102          45.000  
  21863760.254   114894867.868        2637.036          37.000  
  21593713.990   113475721.684       -1986.279          45.000  
  21054438.904   110641824.339        -695.231          45.000  
  24047849.255                       -3545.233          22.000  
  22474884.395   118106301.517       -3649.199          35.000  
  24802436.108   130337671.121       -3406.318          30.000  
  21412728.777   112524651.610        2676.988          44.000  
  22677815.197   119172719.994        -288.719          46.000  
 23  8 28 11 43  5.9990000  0 10G 3G 4G 6G17G19G 2G 1G21G 9G31
  20319806.398   106781302.385       -1767.415          47.000  
  20145468.147   105865158.818        1000.364          45.000  
  21863258.460   114892230.728        2636.648          37.000  
  21594092.018   113477708.312       -1987.071          45.000  
  21054571.412   110642519.946        -696.257          45.000  
  24048527.833                       -3547.223          24.000  
  22475579.049   118109950.955       -3649.913          36.000  
  24803086.316   130341077.444       -3405.852          30.000  
  21412219.593   112521974.666        2676.697          44.000  
  22677870.179   119173008.887        -289.605          46.000  
 23  8 28 11 43  6.9990000  0 10G 3G 4G 6G17G19G 2G 1G21G 9G31
  20320142.606   106783070.178       -1768.006          46.000  
  20145278.019   105864158.778         999.676          45.000  
  21862756.766   114889594.113        2636.945          36.000  
  21594470.282   113479695.758       -1987.963          45.000  
  21054704.148   110643216.557        -697.383          45.000  
  24049204.937                       -3543.155          23.000  
  22476273.502   118113600.903       -3650.167          36.000  
  24803724.427   130344484.209       -3407.161          30.000  
  21411710.208   112519298.406        2675.732          44.000  
  22677925.701   119173298.729        -290.199          46.000  
 23  8 28 11 43  7.9990000  0 10G 3G 4G 6G17G19G 2G 1G21G 9G31
  20320478.514   106784838.243       -1768.140          46.000  
  20145087.724   105863159.263         999.426          45.000  
  21862255.055   114886957.730        2636.336          36.000  
  21594848.668   113481683.627       -1988.094          45.000  
  21054837.123   110643913.796        -697.473          45.000  
  24049883.000                       -3544.295          23.000  
  22476968.269   118117251.039       -3650.474          36.000  
  24804369.457   130347890.833       -3406.344          29.000  
  21411200.714   112516622.424        2676.040          44.000  
  22677981.110   119173589.211        -290.952          46.000  
 23  8 28 11 43  8.9990000  0 10G 3G 4G 6G17G19G 2G 1G21G 9G31
  20320814.693   106786606.445       -1768.330          46.000  
  20144897.499   105862160.105         999.141          45.000  
  21861753.326   114884321.412        2636.522          35.000  
  21595226.592   113483671.798       -1988.316          45.000  
  21054970.010   110644611.574        -697.924          45.000  
  24050557.848                       -3545.947          25.000  
  22477663.036   118120901.215       -3650.555          36.000  
  24805016.166   130351297.465       -3406.475          29.000  
  21410691.172   112513946.649        2676.017          44.000  
  22678036.693   119173880.145        -291.069          46.000  
 23  8 28 11 43  9.9990000  0 10G 3G 4G 6G17G19G 2G 1G21G 9G31
  20321151.212   106788375.176       -1769.209          46.000  
  20144707.170   105861161.751         997.733          45.000  
  21861251.698   114881685.558        2635.441          36.000  
  21595604.852   113485660.668       -1989.395          45.000  
  21055102.815   110645310.271        -699.502          45.000  
  24051231.976   126390080.0883      -3545.778          26.000  
  22478357.734   118124551.766       -3650.530          36.000  
  24805671.191   130354704.230       -3406.982          29.000  
  21410182.114   112511271.451        2674.647          44.000  
  22678092.084   119174171.982        -292.550          46.000  
 23  8 28 11 43 10.9990000  0 10G 3G 4G 6G17G19G 2G 1G21G 9G31
  20321488.018   106790144.605       -1770.164          46.000  
  20144517.586   105860164.310         996.337          45.000  
  21860749.690   114879050.240        2634.595          35.000  
  21595983.648   113487650.386       -1990.504          45.000  
  21055236.013   110646010.052        -701.040          45.000  
  24051905.223                       -3546.782          26.000  
  22479052.637   118128202.995       -3652.230          36.000  
  24806322.865   130358111.463       -3407.999          30.000  
  21409673.009   112508596.982        2673.435          44.000  
  22678147.829   119174464.831        -293.793          45.000  
 23  8 28 11 43 11.9990000  0 10G 3G 4G 6G17G19G 2G 1G21G 9G31
  20321824.777   106791914.670       -1770.337          46.000  
  20144328.286   105859167.748         996.315          46.000  
  21860248.258   114876415.564        2634.329          35.000  
  21596362.401   113489640.929       -1990.831          45.000  
  21055369.075   110646710.842        -701.180          45.000  
  24052578.037                       -3546.464          26.000  
  22479748.102   118131854.676       -3651.685          36.000  
  24806974.879   130361519.059       -3407.879          31.000  
  21409164.160   112505923.177        2673.801          44.000  
  22678203.914   119174758.661        -293.984          45.000  
 23  8 28 11 43 12.9990000  0 10G 3G 4G 6G17G19G 2G 1G21G 9G31
  20322161.723   106793684.944       -1770.324          46.000  
  20144138.929   105858171.651         995.974          45.000  
  21859746.904   114873781.017        2634.370          35.000  
  21596741.118   113491631.868       -1991.400          45.000  
  21055502.360   110647412.257        -701.974          45.000  
  24053252.772                       -3547.792          25.000  
  22480443.209   118135506.516       -3651.698          36.000  
  24807626.073   130364926.595       -3407.203          32.000  
  21408655.277   112503249.674        2673.390          44.000  
  22678260.474   119175053.091        -294.627          46.000  
 23  8 28 11 43 13.9990000  0 10G 3G 4G 6G17G19G 2G 1G21G 9G31
  20322498.434   106795455.555       -1770.832          46.000  
  20143949.778   105857176.097         995.442          46.000  
  21859245.669   114871146.710        2634.021          36.000  
  21597119.923   113493623.253       -1991.465          45.000  
  21055636.216   110648114.332        -702.321          45.000  
  24053928.950                       -3547.350          25.000  
  22481138.335   118139158.559       -3652.000          36.000  
  24808270.536   130368334.175       -3407.455          32.000  
  21408146.341   112500576.519        2672.836          44.000  
  22678316.472   119175348.155        -295.301          46.000  
 23  8 28 11 43 14.9990000  0 10G 3G 4G 6G17G19G 2G 1G21G 9G31
  20322835.594   106797226.493       -1771.144          46.000  
  20143760.905   105856181.122         994.628          46.000  
  21858744.416   114868512.665        2633.767          36.000  
  21597499.007   113495615.138       -1991.994          45.000  
  21055769.824   110648817.147        -703.073          45.000  
  24054606.119                       -3555.129          24.000  
  22481833.377   118142810.849       -3652.446          35.000  
  24808923.283   130371741.755       -3407.461          32.000  
  21407637.842   112497903.709        2672.544          44.000  
  22678372.527   119175643.909        -296.109          46.000  
 23  8 28 11 43 15.9990000  0 10G 3G 4G 6G17G19G 2G 1G21G 9G31
  20323172.741   106798997.897       -1772.010          46.000  
  20143571.728   105855186.843         993.645          46.000  
  21858243.197   114865878.999        2633.788          36.000  
  21597878.336   113497607.696       -1993.155          46.000  
  21055903.894   110649520.833        -704.547          45.000  
  24055281.805                       -3549.444          24.000  
  22482528.563   118146463.497       -3653.040          35.000  
  24809573.797   130375149.547       -3407.325          33.000  
  21407129.465   112495231.450        2671.709          44.000  
  22678428.847   119175940.460        -297.323          46.000  
 23  8 28 11 43 16.9990000  0 10G 3G 4G 6G17G19G 2G 1G21G 9G31
  20323510.071   106800769.733       -1771.965          46.000  
  20143382.990   105854193.245         993.305          46.000  
  21857741.892   114863245.691        2633.051          36.000  
  21598257.529   113499600.826       -1993.558          45.000  
  21056038.007   110650225.316        -704.899          45.000  
  24055955.100                       -3548.150          26.000  
  22483224.033   118150116.453       -3653.002          35.000  
  24810222.700   130378557.541       -3407.953          32.000  
  21406621.236   112492559.639        2671.560          44.000  
  22678485.465   119176237.796        -297.929          46.000  
 23  8 28 11 43 17.9990000  0 10G 3G 4G 6G17G19G 2G 1G21G 9G31
  20323847.310   106802541.930       -1772.257          46.000  
  20143194.244   105853200.243         992.792          46.000  
  21857240.543   114860612.678        2632.899          35.000  
  21598637.002   113501594.480       -1993.583          45.000  
  21056172.383   110650930.528        -705.168          45.000  
  24056625.624   126418420.8653      -3546.118          28.000  
  22483919.201   118153769.691       -3652.987          35.000  
  24810870.204   130381965.558       -3407.197          32.000  
  21406112.606   112489888.251        2671.147          44.000  
  22678542.104   119176535.821        -298.163          46.000  
 23  8 28 11 43 18.9990000  0 10G 3G 4G 6G17G19G 2G 1G21G 9G31
  20324184.757   106804314.141       -1772.497          46.000  
  20143005.765   105852207.495         992.667          46.000  
  21856739.324   114857979.611        2633.242          32.000  
  21599016.334   113503588.322       -1993.898          45.000  
  21056306.662   110651636.174        -706.051          45.000  
  24057287.533   126421968.9872      -3547.144          27.000  
  22484614.261   118157422.832       -3652.966          35.000  
  24811518.641   130385373.387       -3407.854          33.000  
  21405604.560   112487216.895        2671.191          44.000  
  22678599.031   119176834.207        -298.480          46.000  
 23  8 28 11 43 19.9990000  0 10G 3G 4G 6G17G19G 2G 1G21G 9G31
  20324522.035   106806086.876       -1773.251          46.000  
  20142816.940   105851215.512         991.416          46.000  
  21856238.477   114855346.980        2631.877          34.000  
  21599395.432   113505582.852       -1994.935          45.000  
  21056441.421   110652342.702        -706.978          45.000  
  24057958.987   126425517.5182      -3549.456          28.000  
  22485309.425   118161076.412       -3654.263          35.000  
  24812167.169   130388781.381       -3408.003          32.000  
  21405096.244   112484546.119        2670.583          44.000  
  22678655.984   119177133.452        -299.801          46.000  
 23  8 28 11 43 20.9990000  0 10G 3G 4G 6G17G19G 2G 1G21G 9G31
  20324859.680   106807860.312       -1773.629          46.000  
  20142628.818   105850224.479         990.566          46.000  
  21855737.534   114852714.999        2631.801          34.000  
  21599775.009   113507578.255       -1996.019          45.000  
  21056575.849   110653050.329        -708.202          45.000  
  24058643.777   126429066.5602      -3549.526          27.000  
  22486004.576   118164730.557       -3654.154          35.000  
  24812815.955   130392189.854       -3409.229          32.000  
  21404588.643   112481876.105        2670.020          44.000  
  22678712.884   119177433.767        -300.824          45.000  
 23  8 28 11 43 21.9990000  0 10G 3G 4G 6G17G19G 2G 1G21G 9G31
  20325197.001   106809634.033       -1774.075          46.000  
  20142440.836   105849233.959         990.135          46.000  
  21855236.455   114850083.182        2631.542          35.000  
  21600154.651   113509574.084       -1996.051          45.000  
  21056710.718   110653758.604        -708.581          46.000  
  24059330.853   126432615.6242      -3549.633          27.000  
  22486699.793   118168384.891       -3654.596          34.000  
  24813464.484   130395598.282       -3408.458          32.000  
  21404080.894   112479206.401        2669.688          45.000  
  22678769.986   119177734.692        -301.349          45.000  
 23  8 28 11 43 22.9990000  0 10G 3G 4G 6G17G19G 2G 1G21G 9G31
  20325534.523   106811408.170       -1774.594          46.000  
  20142252.522   105848244.080         989.507          46.000  
  21854735.664   114847451.711        2631.569          35.000  
  21600534.368   113511570.513       -1996.960          45.000  
  21056845.289   110654467.684        -709.658          45.000  
  24059993.778   126436164.8592      -3549.436          26.000  
  22487395.228   118172039.571       -3655.036          34.000  
  24814113.235   130399006.914       -3408.981          32.000  
  21403573.132   112476537.174        2668.889          44.000  
  22678827.550   119178036.368        -302.156          45.000  
 23  8 28 11 43 23.9990000  0 10G 3G 4G 6G17G19G 2G 1G21G 9G31
  20325872.102   106813182.746       -1774.914          46.000  
  20142064.513   105847254.901         988.425          47.000  
  21854234.372   114844820.645        2630.978          35.000  
  21600914.486   113513567.542       -1997.443          45.000  
  21056980.022   110655177.582        -710.526          45.000  
  24060669.490   126439714.4092      -3549.704          26.000  
  22488090.711   118175694.517       -3655.341          34.000  
  24814762.008   130402415.641       -3409.048          32.000  
  21403065.636   112473868.430        2668.042          45.000  
  22678885.301   119178338.841        -303.237          45.000  
 23  8 28 11 43 24.9990000  0 10G 3G 4G 6G17G19G 2G 1G21G 9G31
  20326209.890   106814957.551       -1774.990          46.000  
  20141876.469   105846266.170         988.337          47.000  
  21853733.202   114842189.728        2630.863          34.000  
  21601294.234   113515565.006       -1997.700          45.000  
  21057115.126   110655888.089        -711.002          45.000  
  24061338.431   126443263.996       -3548.424          26.000  
  22488786.207   118179349.649       -3655.098          34.000  
  24815410.977   130405824.323       -3408.281          33.000  
  21402557.905   112471199.934        2668.477          45.000  
  22678942.795   119178641.876        -303.298          45.000  
 23  8 28 11 43 25.9990000  0 10G 3G 4G 6G17G19G 2G 1G21G 9G31
  20326547.691   106816732.875       -1775.795          46.000  
  20141688.880   105845278.210         987.394          47.000  
  21853232.537   114839559.229        2630.538          35.000  
  21601674.535   113517563.170       -1998.821          45.000  
  21057250.536   110656599.513        -712.190          45.000  
  24062012.698   126446813.989       -3550.044          26.000  
  22489481.506   118183005.141       -3655.228          33.000  
  24816060.139   130409233.311       -3409.392          33.000  
  21402050.426   112468532.026        2667.361          45.000  
  22679000.342   119178945.789        -304.534          45.000  
 23  8 28 11 43 26.9990000  0 10G 3G 4G 6G17G19G 2G 1G21G 9G31
  20326885.567   106818508.656       -1776.155          46.000  
  20141501.089   105844290.941         986.667          47.000  
  21852731.943   114836929.130        2630.046          35.000  
  21602054.836   113519561.925       -1999.448          45.000  
  21057386.006   110657311.769        -713.002          45.000  
  24062687.642   126450364.210       -3550.597          27.000  
  22490176.644   118186661.063       -3655.963          33.000  
  24816708.802   130412642.456       -3409.528          32.000  
  21401543.279   112465864.594        2666.990          45.000  
  22679058.168   119179250.495        -305.468          45.000  
 23  8 28 11 43 27.9990000  0 10G 3G 4G 6G17G19G 2G 1G21G 9G31
  20327223.512   106820284.889       -1776.712          46.000  
  20141313.299   105843304.349         985.976          47.000  
  21852231.911   114834299.439        2628.789          35.000  
  21602435.072   113521561.286       -2000.015          44.000  
  21057521.429   110658024.846        -713.804          45.000  
  24063364.462   126453914.631       -3550.526          27.000  
  22490872.245   118190317.317       -3656.599          32.000  
  24817357.357   130416051.737       -3409.790          31.000  
  21401036.163   112463197.669        2666.415          45.000  
  22679116.416   119179555.980        -306.108          45.000  
 23  8 28 11 43 28.9990000  0 10G 3G 4G 6G17G19G 2G 1G21G 9G31
  20327561.449   106822061.254       -1776.263          46.000  
  20141125.888   105842318.132         986.336          47.000  
  21851731.810   114831669.768        2629.629          35.000  
  21602815.452   113523560.950       -1999.742          44.000  
  21057657.466   110658738.444        -713.870          45.000  
  24064041.736   126457465.014       -3550.391          28.000  
  22491567.558   118193973.539       -3655.834          32.000  
  24818005.847   130419460.880       -3409.114          31.000  
  21400529.016   112460530.925        2666.726          45.000  
  22679174.892   119179861.954        -305.963          45.000  
 23  8 28 11 43 29.9990000  0 10G 3G 4G 6G17G19G 2G 1G21G 9G31
  20327899.612   106823837.927       -1776.948          46.000  
  20140938.778   105841332.473         985.216          47.000  
  21851231.229   114829040.301        2629.021          35.000  
  21603196.115   113525561.075       -2000.604          45.000  
  21057793.678   110659452.732        -714.774          45.000  
  24064719.101   126461015.482       -3550.660          28.000  
  22492262.722   118197630.029       -3656.688          32.000  
  24818654.183   130422870.025       -3408.889          31.000  
  21400021.900   112457864.516        2665.996          45.000  
  22679232.984   119180168.575        -307.033          45.000  
 23  8 28 11 43 30.9990000  0 10G 3G 4G 6G17G19G 2G 1G21G 9G31
  20328238.111   106825615.166       -1778.094          46.000  
  20140751.585   105840347.621         983.887          47.000  
  21850731.158   114826411.371        2627.982          35.000  
  21603576.984   113527561.960       -2001.834          44.000  
  21057929.493   110660167.967        -716.263          45.000  
  24065397.465   126464566.338       -3551.083          28.000  
  22492957.891   118201286.956       -3658.523          31.000  
  24819302.690   130426279.496       -3409.450          31.000  
  21399514.744   112455198.732        2665.022          45.000  
  22679291.560   119180476.116        -308.460          45.000  
 23  8 28 11 43 31.9990000  0 10G 3G 4G 6G17G19G 2G 1G21G 9G31
  20328576.510   106827393.200       -1778.057          46.000  
  20140564.231   105839363.793         983.555          47.000  
  21850230.960   114823783.146        2628.124          36.000  
  21603957.900   113529563.777       -2001.860          44.000  
  21058065.862   110660884.384        -716.736          45.000  
  24066079.192   126468117.855       -3551.204          29.000  
  22493653.225   118204944.466       -3657.007          30.000  
  24819951.581   130429689.493       -3409.790          31.000  
  21399007.632   112452533.789        2664.813          45.000  
  22679349.909   119180784.797        -308.994          45.000  
 23  8 28 11 43 32.9990000  0 11G 3G 4G 6G17G19G 2G 1G21G 9G31G12
  20328914.905   106829171.354       -1778.182          46.000  
  20140376.815   105838380.319         983.385          47.000  
  21849731.156   114821154.949        2628.242          35.000  
  21604338.900   113531565.886       -2002.112          44.000  
  21058202.567   110661601.280        -716.923          45.000  
  24066757.862   126471669.222       -3550.548          30.000  
  22494344.114   118208602.143       -3657.870          30.000  
  24820600.755   130433099.300       -3409.467          32.000  
  21398500.590   112449868.994        2664.799          45.000  
  22679408.341   119181093.921        -309.250          45.000  
  25122364.949                       -1216.582          30.000  
 23  8 28 11 43 33.9990000  0 11G 3G 4G 6G17G19G 2G 1G21G 9G31G12
  20329253.649   106830950.028       -1778.901          46.000  
  20140189.649   105837397.612         982.440          47.000  
  21849231.045   114818527.217        2627.805          35.000  
  21604720.143   113533568.693       -2003.087          44.000  
  21058339.512   110662319.119        -718.146          46.000  
  24067432.422   126475220.997       -3551.795          28.000  
  22495028.490   118212260.150       -3658.142          29.000  
  24821249.964   130436509.327       -3408.646          31.000  
  21397993.656   112447204.776        2664.008          45.000  
  22679467.249   119181403.940        -310.567          45.000  
  25122602.019                       -1224.773          28.000  
 23  8 28 11 43 34.9990000  0 11G 3G 4G 6G17G19G 2G 1G21G 9G31G12
  20329592.357   106832729.035       -1779.282          46.000  
  20140002.835   105836415.493         981.710          47.000  
  21848730.970   114815899.755        2627.290          35.000  
  21605101.252   113535571.981       -2003.568          44.000  
  21058476.457   110663037.678        -719.127          46.000  
  24068112.156   126478772.872       -3551.527          29.000  
  22495720.020   118215918.446       -3658.281          29.000  
  24821903.244   130439919.540       -3410.859          32.000  
  21397486.309   112444540.936        2663.574          45.000  
  22679526.217   119181714.613        -311.103          45.000  
  25122830.543                       -1224.719          27.000  
 23  8 28 11 43 35.9990000  0 11G 3G 4G 6G17G19G 2G 1G21G 9G31G12
  20329931.162   106834508.453       -1779.905          46.000  
  20139816.397   105835434.010         980.936          47.000  
  21848231.178   114813272.644        2626.714          35.000  
  21605482.465   113537575.869       -2004.539          44.000  
  21058613.638   110663757.024        -720.090          46.000  
  24068788.688   126482325.068       -3552.134          30.000  
  22496409.500   118219577.061       -3659.484          28.000  
  24822556.466   130443329.774       -3410.052          33.000  
  21396979.219   112441877.572        2662.964          45.000  
  22679585.295   119182026.067        -312.112          45.000  
  25123060.052                       -1225.603          27.000  
 23  8 28 11 43 36.9990000  0 11G 3G 4G 6G17G19G 2G 1G21G 9G31G12
  20330270.141   106836288.438       -1780.126          46.000  
  20139629.784   105834453.336         980.315          47.000  
  21847731.352   114810645.991        2626.803          35.000  
  21605864.110   113539580.457       -2004.876          44.000  
  21058750.975   110664477.310        -720.657          46.000  
  24069464.059   126485877.528       -3552.531          30.000  
  22497100.210   118223236.049       -3659.510          27.000  
  24823202.089   130446740.335       -3409.986          34.000  
  21396472.285   112439214.789        2662.552          45.000  
  22679644.748   119182338.387        -312.522          45.000  
  25123292.777   132023796.0012      -1224.448          27.000  
 23  8 28 11 43 37.9990000  0 11G 3G 4G 6G17G19G 2G 1G21G 9G31G12
  20330608.968   106838068.780       -1780.659          47.000  
  20139443.185   105833473.237         979.809          47.000  
  21847231.887   114808019.621        2626.704          36.000  
  21606245.694   113541585.570       -2005.466          44.000  
  21058888.370   110665198.323        -721.565          46.000  
  24070148.265   126489430.031       -3551.799          29.000  
  22497794.175   118226895.321       -3659.543          27.000  
  24823850.954   130450150.944       -3410.810          33.000  
  21395965.775   112436552.412        2662.056          45.000  
  22679704.218   119182651.429        -313.613          45.000  
  25123520.996   132025021.8712      -1225.854          27.000  
 23  8 28 11 43 38.9990000  0 11G 3G 4G 6G17G19G 2G 1G21G 9G31G12
  20330947.650   106839849.393       -1780.462          46.000  
  20139256.577   105832493.680         979.528          47.000  
  21846732.632   114805393.471        2626.736          36.000  
  21606627.304   113543591.131       -2005.815          44.000  
  21059026.462   110665920.019        -721.788          47.000  
  24070812.403   126492982.868       -3552.888          27.000  
  22498490.517   118230554.773       -3659.047          27.000  
  24824493.297   130453561.613       -3410.636          33.000  
  21395459.370   112433890.359        2661.973          45.000  
  22679764.068   119182965.101        -313.815          45.000  
  25123757.594   132026248.2462      -1226.022          27.000  
 23  8 28 11 43 39.9990000  0 11G 3G 4G 6G17G19G 2G 1G21G 9G31G12
  20331286.599   106841630.416       -1781.361          46.000  
  20139070.038   105831514.776         978.263          47.000  
  21846233.046   114802767.697        2625.588          35.000  
  21607009.420   113545597.241       -2006.478          44.000  
  21059164.214   110666642.510        -723.204          47.000  
  24071498.506   126496535.803       -3553.229          26.000  
  22499189.669   118234214.541       -3660.117          28.000  
  24825143.042   130456972.293       -3410.415          33.000  
  21394952.703   112431228.773        2661.146          45.000  
  22679823.709   119183279.515        -314.921          44.000  
  25123986.559   132027475.2222      -1227.279          26.000  
 23  8 28 11 43 40.9990000  0 11G 3G 4G 6G17G19G 2G 1G21G 9G31G12
  20331625.509   106843412.062       -1782.145          46.000  
  20138883.879   105830536.679         977.474          46.000  
  21845733.442   114800142.432        2625.203          35.000  
  21607391.654   113547604.157       -2007.621          44.000  
  21059301.634   110667365.984        -724.249          47.000  
  24072167.403                       -3551.684          24.000  
  22499889.536   118237874.777       -3660.152          28.000  
  24825793.168   130460383.364       -3410.961          32.000  
  21394446.193   112428567.816        2660.449          45.000  
  22679883.301   119183594.862        -315.847          44.000  
  25124221.391   132028703.0662      -1228.216          26.000  
 23  8 28 11 43 41.9990000  0 11G 3G 4G 6G17G19G 2G 1G21G 9G31G12
  20331964.797   106845194.098       -1782.492          46.000  
  20138697.341   105829559.263         976.841          46.000  
  21845234.234   114797517.472        2624.224          35.000  
  21607773.992   113549611.622       -2007.949          44.000  
  21059439.386   110668090.237        -724.893          47.000  
  24072849.663                       -3553.796          24.000  
  22500585.211   118241535.338       -3660.838          27.000  
  24826440.610   130463794.604       -3411.960          32.000  
  21393939.478   112425907.342        2660.197          44.000  
  22679943.548   119183911.002        -316.777          45.000  
  25124452.650   132029931.5252      -1228.994          26.000  
 23  8 28 11 43 42.9990000  0 11G 3G 4G 6G17G19G 2G 1G21G 9G31G12
  20332303.934   106846976.715       -1782.810          46.000  
  20138511.269   105828582.640         976.406          46.000  
  21844735.363   114794893.017        2624.010          37.000  
  21608156.392   113551619.822       -2008.228          45.000  
  21059577.260   110668815.438        -725.496          47.000  
  24073519.682                       -3553.750          25.000  
  22501287.865   118245196.423       -3661.089          27.000  
  24827089.802   130467206.095       -3411.814          32.000  
  21393433.330   112423247.462        2659.827          44.000  
  22680004.105   119184228.022        -317.418          45.000  
  25124684.580                       -1226.406          25.000  
 23  8 28 11 43 43.9990000  0 11G 3G 4G 6G17G19G 2G 1G21G 9G31G12
  20332643.162   106848759.694       -1783.277          47.000  
  20138325.245   105827606.642         975.683          46.000  
  21844236.370   114792268.848        2623.801          37.000  
  21608538.805   113553628.582       -2009.054          44.000  
  21059715.606   110669541.400        -726.395          47.000  
  24074198.124   126510764.3963      -3554.161          27.000  
  22501988.095   118248857.677       -3661.523          28.000  
  24827738.854   130470617.681       -3412.106          33.000  
  21392926.785   112420588.008        2659.028          45.000  
  22680064.818   119184545.762        -317.968          45.000  
  25124919.726                       -1231.233          25.000  
 23  8 28 11 43 44.9990000  0 11G 3G 4G 6G17G19G 2G 1G21G 9G31G12
  20332982.621   106850543.204       -1783.637          46.000  
  20138139.401   105826631.410         974.993          46.000  
  21843737.302   114789645.119        2623.984          37.000  
  21608921.414   113555638.009       -2009.586          45.000  
  21059853.742   110670268.264        -727.036          46.000  
  24074874.948   126514318.8662      -3554.047          26.000  
  22502699.505   118252519.400       -3661.865          33.000  
  24828387.902   130474029.477       -3411.873          33.000  
  21392420.934   112417929.115        2658.918          45.000  
  22680125.689   119184864.378        -318.874          45.000  
  25125151.465                       -1228.517          25.000  
 23  8 28 11 43 45.9990000  0 11G 3G 4G 6G17G19G 2G 1G21G 9G31G12
  20333322.294   106852327.140       -1784.063          47.000  
  20137953.874   105825656.844         974.038          46.000  
  21843238.309   114787021.794        2623.112          37.000  
  21609304.198   113557648.030       -2010.391          44.000  
  21059992.327   110670995.961        -728.127          46.000  
  24075548.972   126517873.5102      -3554.742          26.000  
  22503405.388   118256181.452       -3661.672          32.000  
  24829037.198   130477441.482       -3412.500          33.000  
  21391914.777   112415270.706        2658.129          44.000  
  22680186.529   119185183.756        -319.879          45.000  
  25125386.494                       -1231.277          25.000  
 23  8 28 11 43 46.9990000  0 11G 3G 4G 6G17G19G 2G 1G21G 9G31G12
  20333661.482   106854111.203       -1784.521          46.000  
  20137767.838   105824682.632         973.782          46.000  
  21842739.482   114784398.486        2623.200          37.000  
  21609686.650   113559658.353       -2010.923          45.000  
  21060130.829   110671724.162        -728.748          46.000  
  24076220.805   126521428.2372      -3555.108          25.000  
  22504100.583   118259843.523       -3662.813          31.000  
  24829686.586   130480853.307       -3411.982          33.000  
  21391408.699   112412612.453        2658.013          44.000  
  22680247.496   119185503.609        -320.443          45.000  
  25125623.393                       -1233.393          25.000  
 23  8 28 11 43 47.9990000  0 11G 3G 4G 6G17G19G 2G 1G21G 9G31G12
  20334000.784   106855895.817       -1784.421          46.000  
  20137582.538   105823709.230         973.218          46.000  
  21842240.100   114781775.691        2622.891          35.000  
  21610069.529   113561669.372       -2011.110          44.000  
  21060269.236   110672453.283        -729.326          46.000  
  24076903.091   126524983.1952      -3555.025          26.000  
  22504798.535   118263506.068       -3662.837          32.000  
  24830335.983   130484265.339       -3411.400          33.000  
  21390903.022   112409954.809        2657.832          44.000  
  22680308.249   119185824.354        -320.793          45.000  
  25125857.558                       -1233.820          24.000  
 23  8 28 11 43 48.9990000  0 11G 3G 4G 6G17G19G 2G 1G21G 9G31G12
  20334340.265   106857680.521       -1784.467          46.000  
  20137397.282   105822736.136         973.150          46.000  
  21841740.902   114779152.916        2622.792          36.000  
  21610452.108   113563680.635       -2010.984          44.000  
  21060408.092   110673182.879        -729.523          46.000  
  24077581.783   126528538.0492      -3554.435          27.000  
  22505500.527   118267168.539       -3662.408          33.000  
  24830985.576   130487677.277       -3411.212          33.000  
  21390397.175   112407297.312        2657.605          44.000  
  22680369.578   119186145.541        -321.285          45.000  
  25126095.470                       -1233.842          25.000  
 23  8 28 11 43 49.9990000  0 11G 3G 4G 6G17G19G 2G 1G21G 9G31G12
  20334680.230   106859465.580       -1785.770          46.000  
  20137211.895   105821763.637         971.626          46.000  
  21841242.323   114776530.382        2621.802          37.000  
  21610835.005   113565692.426       -2012.664          44.000  
  21060547.061   110673913.217        -731.190          46.000  
  24078253.852   126532093.0412      -3555.139          27.000  
  22506202.972   118270831.269       -3663.338          33.000  
  24831635.173   130491089.258       -3412.658          33.000  
  21389891.468   112404640.200        2656.241          45.000  
  22680431.277   119186467.404        -322.664          45.000  
  25126331.946                       -1235.039          24.000  
 23  8 28 11 43 50.9990000  0 10G 3G 4G 6G17G19G 2G 1G21G 9G31
  20335020.030   106861251.490       -1786.125          46.000  
  20137027.041   105820792.253         970.929          46.000  
  21840743.246   114773908.666        2621.436          37.000  
  21611217.640   113567705.263       -2013.435          44.000  
  21060685.912   110674644.807        -732.422          46.000  
  24078929.707   126535648.7712      -3555.901          27.000  
  22506901.539   118274494.779       -3663.993          34.000  
  24832284.701   130494501.841       -3413.241          33.000  
  21389386.193   112401983.994        2655.789          45.000  
  22680493.103   119186790.492        -323.744          45.000  
 23  8 28 11 43 51.9990000  0 10G 3G 4G 6G17G19G 2G 1G21G 9G31
  20335359.772   106863037.953       -1786.769          46.000  
  20136842.060   105819821.642         970.417          46.000  
  21840244.698   114771287.422        2620.985          37.000  
  21611600.781   113569718.802       -2013.976          44.000  
  21060825.383   110675377.308        -732.760          47.000  
  24079607.016   126539204.8962      -3556.097          27.000  
  22507598.977   118278158.702       -3663.681          32.000  
  24832934.237   130497914.643       -3412.701          32.000  
  21388880.668   112399328.374        2655.432          45.000  
  22680554.720   119187114.457        -324.510          45.000  
 23  8 28 11 43 52.9990000  0 10G 3G 4G 6G17G19G 2G 1G21G 9G31
  20335699.916   106864824.785       -1786.728          46.000  
  20136657.585   105818851.653         969.868          46.000  
  21839746.185   114768666.503        2620.383          37.000  
  21611984.145   113571732.870       -2014.216          44.000  
  21060964.876   110676110.597        -733.542          47.000  
  24080285.982   126542761.2172      -3556.658          29.000  
  22508296.514   118281822.964       -3664.290          32.000  
  24833584.035   130501327.595       -3413.066          33.000  
  21388375.515   112396673.183        2655.295          44.000  
  22680616.350   119187439.159        -324.922          45.000  
 23  8 28 11 43 53.9990000  0 10G 3G 4G 6G17G19G 2G 1G21G 9G31
  20336039.929   106866612.066       -1787.650          46.000  
  20136473.241   105817882.349         968.961          46.000  
  21839247.409   114766045.905        2620.500          36.000  
  21612367.618   113573747.545       -2015.000          44.000  
  21061104.312   110676844.687        -734.562          46.000  
  24080979.493   126546317.7122      -3557.388          30.000  
  22508994.034   118285487.530       -3665.129          33.000  
  24834234.183   130504740.692       -3414.181          33.000  
  21387870.484   112394018.479        2654.632          45.000  
  22680677.827   119187764.644        -325.981          45.000  
 23  8 28 11 43 54.9990000  0 10G 3G 4G 6G17G19G 2G 1G21G 9G31
  20336380.025   106868399.574       -1787.332          47.000  
  20136288.840   105816913.521         968.536          46.000  
  21838748.551   114763425.515        2620.411          36.000  
  21612750.960   113575762.632       -2015.317          44.000  
  21061244.476   110677579.385        -734.866          46.000  
  24081652.085   126549873.7251      -3556.860          30.000  
  22509691.672   118289152.182       -3664.587          33.000  
  24834883.854   130508153.720       -3412.745          32.000  
  21387365.702   112391364.075        2654.323          45.000  
  22680739.797   119188090.669        -326.204          45.000  
 23  8 28 11 43 55.9990000  0 10G 3G 4G 6G17G19G 2G 1G21G 9G31
  20336720.152   106870187.436       -1788.013          46.000  
  20136104.548   105815945.278         968.049          46.000  
  21838249.955   114760805.365        2620.200          37.000  
  21613134.629   113577778.209       -2015.728          44.000  
  21061384.344   110678314.808        -735.762          46.000  
  24082326.916   126553430.341       -3555.704          30.000  
  22510389.000   118292817.138       -3665.115          32.000  
  24835533.888   130511566.836       -3413.475          32.000  
  21386860.937   112388710.055        2653.861          45.000  
  22680802.025   119188417.429        -327.323          45.000  
 23  8 28 11 43 56.9990000  0 10G 3G 4G 6G17G19G 2G 1G21G 9G31
  20337060.632   106871975.713       -1788.471          46.000  
  20135920.544   105814977.700         967.254          46.000  
  21837751.747   114758185.584        2619.719          37.000  
  21613518.360   113579794.403       -2016.699          44.000  
  21061524.408   110679051.065        -736.790          46.000  
  24083009.922   126556987.367       -3556.846          30.000  
  22511085.844   118296482.401       -3664.820          32.000  
  24836183.368   130514980.088       -3413.564          32.000  
  21386356.207   112386056.504        2653.500          45.000  
  22680864.906   119188744.951        -328.053          45.000  
 23  8 28 11 43 57.9990000  0 10G 3G 4G 6G17G19G 2G 1G21G 9G31
  20337401.160   106873764.362       -1789.052          46.000  
  20135736.170   105814010.716         966.583          45.000  
  21837253.277   114755566.094        2619.534          37.000  
  21613901.776   113581811.109       -2017.210          44.000  
  21061664.263   110679788.039        -737.529          46.000  
  24083686.872   126560544.481       -3557.499          32.000  
  22511783.251   118300147.926       -3665.917          31.000  
  24836833.166   130518393.457       -3414.516          32.000  
  21385851.311   112383403.361        2652.712          45.000  
  22680927.540   119189073.176        -328.616          44.000  
 23  8 28 11 43 58.9990000  0 10G 3G 4G 6G17G19G 2G 1G21G 9G31
  20337741.657   106875553.477       -1789.075          46.000  
  20135552.358   105813044.443         966.235          45.000  
  21836755.226   114752946.979        2619.350          37.000  
  21614285.380   113583828.481       -2017.629          44.000  
  21061804.336   110680525.895        -737.888          46.000  
  24084350.971   126564101.864       -3557.298          32.000  
  22512480.832   118303813.752       -3665.322          31.000  
  24837482.257   130521806.931       -3413.005          32.000  
  21385346.912   112380750.729        2652.779          45.000  
  22680989.662   119189402.208        -329.214          44.000  
 23  8 28 11 43 59.9990000  0 10G 3G 4G 6G17G19G 2G 1G21G 9G31
  20338082.272   106877342.919       -1789.907          47.000  
  20135368.437   105812078.746         965.127          46.000  
  21836256.813   114750328.159        2618.762          37.000  
  21614669.075   113585846.309       -2018.077          44.000  
  21061944.579   110681264.430        -739.291          46.000  
  24085032.938   126567659.365       -3557.633          32.000  
  22513179.290   118307479.922       -3667.003          31.000  
  24838131.820   130525220.491       -3413.409          32.000  
  21384842.108   112378098.483        2651.719          45.000  
  22681052.470   119189731.922        -330.210          44.000  
 23  8 28 11 44  0.9990000  0 10G 3G 4G 6G17G19G 2G 1G21G 9G31
  20338422.556   106879132.964       -1790.112          46.000  
  20135184.861   105811113.890         964.771          45.000  
  21835758.714   114747709.887        2618.515          37.000  
  21615053.259   113587864.923       -2018.707          45.000  
  21062085.328   110682003.974        -739.752          46.000  
  24085707.241   126571217.291       -3557.800          33.000  
  22513876.858   118311146.560       -3667.151          30.000  
  24838781.849   130528634.424       -3414.076          33.000  
  21384337.666   112375446.886        2651.480          45.000  
  22681115.779   119190062.566        -330.615          45.000  
 23  8 28 11 44  1.9990000  0 10G 3G 4G 6G17G19G 2G 1G21G 9G31
  20338763.210   106880923.612       -1790.794          46.000  
  20135001.660   105810149.885         963.678          46.000  
  21835260.593   114745092.130        2617.592          37.000  
  21615437.639   113589884.296       -2019.549          45.000  
  21062225.833   110682744.508        -740.913          46.000  
  24086386.552   126574775.645       -3558.237          33.000  
  22514579.674   118314813.591       -3666.661          31.000  
  24839431.717   130532048.652       -3414.521          33.000  
  21383833.359   112372795.942        2650.993          46.000  
  22681178.971   119190394.198        -332.072          45.000  
 23  8 28 11 44  2.9990000  0 10G 3G 4G 6G17G19G 2G 1G21G 9G31
  20339103.852   106882714.728       -1791.175          46.000  
  20134818.397   105809186.578         963.269          46.000  
  21834762.346   114742474.751        2617.385          38.000  
  21615822.002   113591904.317       -2020.262          44.000  
  21062366.857   110683485.870        -741.454          45.000  
  24087063.908   126578334.255       -3558.335          32.000  
  22515274.023   118318481.045       -3666.973          31.000  
  24840081.432   130535463.018       -3413.949          33.000  
  21383328.869   112370145.512        2650.615          46.000  
  22681242.075   119190726.604        -332.522          44.000  
 23  8 28 11 44  3.9990000  0 10G 3G 4G 6G17G19G 2G 1G21G 9G31
  20339444.777   106884506.163       -1791.915          46.000  
  20134635.484   105808223.828         962.248          46.000  
  21834264.378   114739857.665        2616.415          38.000  
  21616206.457   113593924.792       -2021.242          44.000  
  21062507.942   110684227.954        -742.728          45.000  
  24087740.187   126581892.968       -3559.281          33.000  
  22515968.267   118322148.742       -3667.688          31.000  
  24840736.356   130538877.412       -3413.902          33.000  
  21382824.601   112367495.453        2649.448          46.000  
  22681305.494   119191059.683        -333.773          44.000  
 23  8 28 11 44  4.9990000  0 10G 3G 4G 6G17G19G 2G 1G21G 9G31
  20339785.950   106886298.180       -1792.298          46.000  
  20134452.165   105807261.922         961.516          46.000  
  21833766.392   114737241.076        2616.096          37.000  
  21616591.116   113595946.025       -2021.731          44.000  
  21062649.048   110684971.007        -743.569          45.000  
  24088416.544   126585452.127       -3558.936          34.000  
  22516665.154   118325816.873       -3667.667          29.000  
  24841393.265   130542292.203       -3415.010          33.000  
  21382320.420   112364846.029        2649.005          46.000  
  22681369.013   119191393.696        -334.522          44.000  
 23  8 28 11 44  5.9990000  0 10G 3G 4G 6G17G19G 2G 1G21G 9G31
  20340127.089   106888090.544       -1792.603          46.000  
  20134269.034   105806300.589         960.905          46.000  
  21833268.350   114734624.761        2615.888          37.000  
  21616975.972   113597967.765       -2022.064          44.000  
  21062790.269   110685714.794        -744.340          45.000  
  24089094.097   126589011.458       -3559.440          33.000  
  22517375.836   118329485.317       -3669.317          31.000  
  24842029.016   130545706.994       -3415.344          32.000  
  21381816.506   112362196.980        2648.754          46.000  
  22681432.470   119191728.400        -335.130          44.000  
 23  8 28 11 44  6.9990000  0 10G 3G 4G 6G17G19G 2G 1G21G 9G31
  20340468.345   106889883.212       -1793.112          46.000  
  20134086.640   105805339.810         960.209          46.000  
  21832770.844   114732008.657        2615.952          38.000  
  21617360.440   113599989.964       -2022.681          44.000  
  21062931.969   110686459.243        -745.100          45.000  
  24089771.353   126592570.845       -3559.889          31.000  
  22518069.722   118333153.881       -3668.907          31.000  
  24842676.441   130549121.791       -3415.061          32.000  
  21381312.191   112359548.293        2648.195          46.000  
  22681496.046   119192063.745        -335.953          44.000  
 23  8 28 11 44  7.9990000  0 10G 3G 4G 6G17G19G 2G 1G21G 9G31
  20340809.863   106891676.190       -1793.103          46.000  
  20133904.150   105804379.573         959.954          46.000  
  21832273.015   114729392.784        2615.944          37.000  
  21617745.418   113602012.641       -2022.787          44.000  
  21063073.551   110687204.403        -745.493          45.000  
  24090447.392   126596130.304       -3558.141          31.000  
  22518768.407   118336822.746       -3668.431          31.000  
  24843325.777   130552536.709       -3415.472          33.000  
  21380807.805   112356899.966        2648.184          45.000  
  22681559.931   119192399.734        -336.109          44.000  
 23  8 28 11 44  8.9990000  0 10G 3G 4G 6G17G19G 2G 1G21G 9G31
  20341151.041   106893469.460       -1793.454          46.000  
  20133721.839   105803419.867         959.396          46.000  
  21831775.479   114726777.162        2615.271          37.000  
  21618130.090   113604035.762       -2023.088          44.000  
  21063215.736   110687950.223        -745.999          45.000  
  24091124.617   126599689.950       -3559.451          30.000  
  22519468.043   118340491.742       -3668.703          31.000  
  24843979.431   130555951.586       -3414.856          32.000  
  21380303.598   112354251.958        2647.881          45.000  
  22681623.847   119192736.374        -336.903          44.000  
 23  8 28 11 44  9.9990000  0 10G 3G 4G 6G17G19G 2G 1G21G 9G31
  20341492.193   106895263.240       -1793.638          46.000  
  20133539.026   105802460.931         958.573          45.000  
  21831278.078   114724161.980        2614.919          38.000  
  21618515.304   113606059.569       -2023.728          44.000  
  21063358.055   110688696.969        -747.268          45.000  
  24091806.223   126603249.983       -3560.358          29.000  
  22520167.657   118344161.155       -3669.667          32.000  
  24844627.794   130559366.694       -3414.480          32.000  
  21379799.710   112351604.538        2647.231          45.000  
  22681687.758   119193073.883        -337.729          44.000  
 23  8 28 11 44 10.9990000  0 10G 3G 4G 6G17G19G 2G 1G21G 9G31
  20341833.829   106897057.398       -1794.631          47.000  
  20133356.715   105801502.580         957.884          45.000  
  21830780.398   114721547.070        2614.721          38.000  
  21618899.998   113608083.928       -2024.974          44.000  
  21063500.562   110689444.431        -748.022          45.000  
  24092471.901   126606810.042       -3560.007          29.000  
  22520869.741   118347830.732       -3669.344          31.000  
  24845276.724   130562781.901       -3415.138          32.000  
  21379295.661   112348957.520        2646.512          45.000  
  22681751.958   119193412.088        -338.908          44.000  
 23  8 28 11 44 11.9990000  0 10G 3G 4G 6G17G19G 2G 1G21G 9G31
  20342175.613   106898852.135       -1795.276          47.000  
  20133174.726   105800545.062         956.902          45.000  
  21830282.936   114718932.711        2614.032          38.000  
  21619285.295   113610108.990       -2025.676          45.000  
  21063642.851   110690192.884        -749.124          45.000  
  24093149.632   126610370.527       -3560.629          28.000  
  22521563.574   118351500.944       -3670.987          31.000  
  24845926.526   130566197.442       -3416.146          32.000  
  21378791.847   112346311.117        2645.831          45.000  
  22681816.654   119193751.220        -340.025          44.000  
 23  8 28 11 44 12.9990000  0 10G 3G 4G 6G17G19G 2G 1G21G 9G31
  20342517.324   106900647.537       -1795.593          47.000  
  20132992.655   105799588.459         956.237          46.000  
  21829785.906   114716318.954        2613.213          38.000  
  21619671.027   113612134.914       -2026.224          45.000  
  21063785.463   110690942.362        -749.827          45.000  
  24093819.106   126613931.459       -3561.062          27.000  
  22522261.679   118355171.624       -3670.495          31.000  
  24846576.303   130569613.331       -3415.840          31.000  
  21378288.299   112343665.455        2645.460          45.000  
  22681881.268   119194091.361        -340.450          43.000  
 23  8 28 11 44 13.9990000  0 10G 3G 4G 6G17G19G 2G 1G21G 9G31
  20342858.903   106902443.162       -1796.048          47.000  
  20132810.977   105798632.321         955.667          46.000  
  21829288.697   114713705.277        2613.789          39.000  
  21620056.642   113614161.212       -2026.673          45.000  
  21063928.525   110691692.478        -750.687          45.000  
  24094498.443                       -3564.045          25.000  
  22522956.870   118358842.472       -3671.229          31.000  
  24847225.499   130573029.178       -3415.667          30.000  
  21377784.891   112341020.071        2645.101          45.000  
  22681945.991   119194432.103        -341.343          43.000  
 23  8 28 11 44 14.9990000  0 10G 3G 4G 6G17G19G 2G 1G21G 9G31
  20343200.735   106904239.154       -1796.052          47.000  
  20132629.390   105797676.783         955.286          46.000  
  21828791.745   114711091.966        2612.789          38.000  
  21620442.292   113616188.060       -2027.305          44.000  
  21064071.721   110692443.332        -751.246          45.000  
  24095180.340                       -3557.816          23.000  
  22523654.089   118362513.561       -3670.754          31.000  
  24847876.392   130576445.088       -3415.504          30.000  
  21377281.509   112338375.100        2644.764          45.000  
  22682010.915   119194773.505        -341.580          44.000  
 23  8 28 11 44 15.9990000  0 10G 3G 4G 6G17G19G 2G 1G21G 9G31
  20343542.655   106906035.694       -1796.833          47.000  
  20132447.737   105796722.042         954.467          46.000  
  21828294.449   114708479.136        2613.009          38.000  
  21620827.889   113618215.582       -2027.854          45.000  
  21064214.974   110693195.095        -752.106          45.000  
  24095851.432                       -3561.314          30.000  
  22524352.097   118366185.032       -3671.794          31.000  
  24848525.941   130579861.325       -3417.254          30.000  
  21376778.092   112335730.707        2644.304          45.000  
  22682076.353   119195115.829        -342.656          43.000  
 23  8 28 11 44 16.9990000  0 10G 3G 4G 6G17G19G 2G 1G21G 9G31
  20343884.452   106907832.486       -1796.937          47.000  
  20132266.002   105795767.801         953.867          45.000  
  21827797.401   114705866.473        2612.413          38.000  
  21621213.858   113620243.542       -2028.098          45.000  
  21064358.712   110693947.527        -752.843          46.000  
  24096528.531   126628111.2333      -3561.532          29.000  
  22525050.407   118369856.709       -3672.463          31.000  
  24849178.767   130583277.435       -3415.560          30.000  
  21376274.902   112333086.636        2643.787          45.000  
  22682141.529   119195458.755        -343.442          43.000  
 23  8 28 11 44 17.9990000  0 10G 3G 4G 6G17G19G 2G 1G21G 9G31
  20344226.367   106909629.760       -1797.832          47.000  
  20132084.476   105794814.267         953.105          46.000  
  21827300.223   114703254.209        2612.002          39.000  
  21621600.027   113622272.119       -2028.933          44.000  
  21064502.266   110694700.796        -753.677          46.000  
  24097200.853                       -3561.874          28.000  
  22525748.817   118373528.712       -3672.241          31.000  
  24849825.922   130586693.789       -3417.155          30.000  
  21375771.951   112330443.075        2642.958          45.000  
  22682206.741   119195802.503        -344.135          43.000  
 23  8 28 11 44 18.9990000  0 10G 3G 4G 6G17G19G 2G 1G21G 9G31
  20344568.453   106911427.288       -1797.499          47.000  
  20131903.103   105793861.230         953.081          46.000  
  21826803.280   114700642.147        2612.436          38.000  
  21621986.030   113624301.154       -2028.973          44.000  
  21064646.091   110695454.725        -753.945          46.000  
  24097864.049                       -3566.009          26.000  
  22526447.437   118377200.946       -3672.175          31.000  
  24850472.622   130590110.134       -3415.977          29.000  
  21375268.840   112327799.844        2643.476          45.000  
  22682272.192   119196146.853        -344.322          42.000  
 23  8 28 11 44 19.9990000  0 10G 3G 4G 6G17G19G 2G 1G21G 9G31
  20344910.298   106913224.866       -1798.026          47.000  
  20131721.686   105792908.495         952.088          45.000  
  21826306.206   114698030.070        2611.698          38.000  
  21622372.059   113626330.357       -2029.544          44.000  
  21064789.697   110696209.081        -754.984          46.000  
  24098548.115                       -3560.058          23.000  
  22527145.821   118380873.070       -3673.309          31.000  
  24851125.343   130593526.280       -3416.176          30.000  
  21374765.698   112325156.698        2642.625          45.000  
  22682337.469   119196491.588        -345.185          42.000  
 23  8 28 11 44 20.9990000  0 10G 3G 4G 6G17G19G 2G 1G21G 9G31
  20345252.567   106915023.304       -1799.038          47.000  
  20131540.610   105791956.855         951.072          46.000  
  21825809.511   114695418.819        2610.568          38.000  
  21622758.769   113628360.617       -2030.924          44.000  
  21064933.413   110696964.689        -756.365          46.000  
  24099219.721                       -3562.903          25.000  
  22527844.370   118384545.916       -3673.961          30.000  
  24851778.370   130596943.024       -3417.020          30.000  
  21374262.739   112322514.460        2641.695          45.000  
  22682403.252   119196837.548        -346.585          42.000  
 23  8 28 11 44 21.9990000  0 10G 3G 4G 6G17G19G 2G 1G21G 9G31
  20345595.014   106916822.319       -1799.042          47.000  
  20131359.764   105791006.030         950.788          45.000  
  21825312.713   114692808.032        2610.940          38.000  
  21623145.558   113630391.589       -2031.110          44.000  
  21065077.525   110697721.237        -756.481          46.000  
  24099893.395                       -3563.200          26.000  
  22528543.705   118388219.290       -3672.475          31.000  
  24852423.810   130600359.971       -3417.630          30.000  
  21373760.260   112319872.859        2641.515          45.000  
  22682469.114   119197184.428        -346.981          42.000  
 23  8 28 11 44 22.9990000  0 10G 3G 4G 6G17G19G 2G 1G21G 9G31
  20345937.549   106918621.656       -1799.661          47.000  
  20131178.723   105790055.793         949.617          45.000  
  21824816.057   114690197.500        2610.221          38.000  
  21623532.329   113632423.065       -2031.963          45.000  
  21065221.642   110698478.507        -757.758          46.000  
  24100565.848                       -3563.158          25.000  
  22529242.704   118391892.854       -3673.933          31.000  
  24853077.600   130603777.029       -3416.942          30.000  
  21373257.724   112317231.620        2640.845          45.000  
  22682535.185   119197531.979        -348.174          42.000  
 23  8 28 11 44 23.9990000  0 10G 3G 4G 6G17G19G 2G 1G21G 9G31
  20346280.293   106920421.610       -1800.448          47.000  
  20130997.524   105789106.393         948.893          45.000  
  21824319.298   114687587.537        2609.267          38.000  
  21623919.156   113634455.296       -2032.699          44.000  
  21065365.951   110699236.771        -758.889          46.000  
  24101252.083                       -3568.198          23.000  
  22529941.725   118395566.914       -3673.333          31.000  
  24853730.355   130607194.360       -3416.666          32.000  
  21372755.167   112314591.047        2640.076          45.000  
  22682601.456   119197880.464        -349.007          42.000  
 23  8 28 11 44 24.9990000  0 10G 3G 4G 6G17G19G 2G 1G21G 9G31
  20346622.710   106922221.717       -1800.345          47.000  
  20130816.932   105788157.381         948.747          45.000  
  21823822.944   114684977.664        2609.439          39.000  
  21624305.844   113636487.867       -2032.923          45.000  
  21065509.833   110699995.569        -759.276          45.000  
  24101933.954                       -3567.694          22.000  
  22530638.979   118399241.040       -3673.626          30.000  
  24854384.023   130610611.599       -3416.881          31.000  
  21372252.906   112311950.680        2640.059          45.000  
  22682668.072   119198229.458        -349.279          42.000  
 23  8 28 11 44 25.9990000  0 10G 3G 4G 6G17G19G 2G 1G21G 9G31
  20346965.506   106924022.175       -1800.740          47.000  
  20130636.496   105787208.976         947.953          45.000  
  21823326.537   114682368.044        2609.065          39.000  
  21624692.890   113638520.927       -2033.409          45.000  
  21065654.220   110700755.105        -759.988          45.000  
  24102616.842                       -3564.223          24.000  
  22531335.923   118402915.414       -3674.127          30.000  
  24855028.673   130614028.890       -3415.972          30.000  
  21371750.505   112309310.698        2639.817          45.000  
  22682734.850   119198579.158        -350.216          42.000  
 23  8 28 11 44 26.9990000  0 10G 3G 4G 6G17G19G 2G 1G21G 9G31
  20347308.146   106925823.062       -1800.892          47.000  
  20130456.161   105786261.227         947.692          45.000  
  21822830.319   114679758.776        2609.180          39.000  
  21625079.897   113640554.599       -2033.796          45.000  
  21065798.891   110701515.436        -760.343          46.000  
  24103294.949                       -3562.973          25.000  
  22532031.650   118406590.172       -3674.904          30.000  
  24855675.885   130617446.365       -3417.227          30.000  
  21371248.270   112306671.202        2639.651          45.000  
  22682802.151   119198929.629        -350.707          42.000  
 23  8 28 11 44 27.9990000  0 10G 3G 4G 6G17G19G 2G 1G21G 9G31
  20347651.016   106927624.273       -1801.417          47.000  
  20130275.617   105785314.072         946.714          45.000  
  21822333.838   114677149.800        2609.021          39.000  
  21625466.960   113642588.760       -2034.421          45.000  
  21065943.780   110702276.502        -761.415          46.000  
  24103974.526   126667240.6252      -3564.229          27.000  
  22532724.036   118410265.098       -3675.413          29.000  
  24856325.569   130620863.863       -3417.735          29.000  
  21370745.325   112304032.093        2638.903          44.000  
  22682868.933   119199280.794        -351.611          42.000  
 23  8 28 11 44 28.9990000  0 10G 3G 4G 6G17G19G 2G 1G21G 9G31
  20347994.035   106929425.914       -1801.768          48.000  
  20130095.570   105784367.560         946.259          45.000  
  21821837.694   114674541.173        2608.505          39.000  
  21625853.897   113644623.497       -2035.002          45.000  
  21066088.722   110703038.376        -762.263          46.000  
  24104662.174   126670804.7892      -3564.434          28.000  
  22533418.223   118413940.319       -3675.283          28.000  
  24856969.849   130624281.464       -3417.494          28.000  
  21370243.164   112301393.470        2638.216          44.000  
  22682936.020   119199632.722        -352.390          42.000  
 23  8 28 11 44 29.9990000  0 10G 3G 4G 6G17G19G 2G 1G21G 9G31
  20348337.508   106931228.105       -1802.079          48.000  
  20129915.493   105783421.855         945.698          45.000  
  21821341.335   114671933.019        2608.477          39.000  
  21626241.379   113646658.950       -2035.491          45.000  
  21066234.047   110703801.160        -762.789          45.000  
  24105344.097   126674369.2692      -3564.312          27.000  
  22534121.004   118417616.032       -3675.779          28.000  
  24857616.597   130627699.482       -3418.030          28.000  
  21369741.182   112298755.427        2638.189          44.000  
  22683003.025   119199985.540        -353.037          42.000  
 23  8 28 11 44 30.9990000  0 10G 3G 4G 6G17G19G 2G 1G21G 9G31
  20348680.317   106933030.231       -1802.640          48.000  
  20129735.485   105782476.334         944.858          45.000  
  21820845.077   114669324.762        2607.606          39.000  
  21626629.319   113648694.500       -2036.202          45.000  
  21066379.028   110704564.289        -763.860          46.000  
  24106026.562   126677933.4452      -3563.153          29.000  
  22534818.638   118421291.554       -3675.957          29.000  
  24858269.519   130631117.044       -3418.013          27.000  
  21369239.449   112296117.372        2637.563          45.000  
  22683070.103   119200338.646        -353.770          42.000  
 23  8 28 11 44 31.9990000  0 10G 3G 4G 6G17G19G 2G 1G21G 9G31
  20349023.528   106934833.008       -1803.266          48.000  
  20129555.381   105781531.699         943.937          45.000  
  21820348.671   114666717.063        2607.125          39.000  
  21627016.941   113650730.872       -2037.227          45.000  
  21066524.515   110705328.428        -764.923          46.000  
  24106705.398   126681498.1242      -3565.125          31.000  
  22535520.385   118424967.629       -3676.814          28.000  
  24858922.153   130634535.066       -3418.814          26.000  
  21368737.577   112293480.033        2636.639          45.000  
  22683137.618   119200692.738        -354.597          42.000  
 23  8 28 11 44 32.9990000  0 10G 3G 4G 6G17G19G 2G 1G21G 9G31
  20349366.792   106936636.446       -1803.729          48.000  
  20129375.858   105780587.968         943.181          45.000  
  21819852.413   114664109.967        2606.798          39.000  
  21627404.165   113652768.037       -2037.562          45.000  
  21066670.146   110706093.625        -765.909          46.000  
  24107393.137   126685063.3302      -3565.799          30.000  
  22536226.434   118428644.301       -3676.963          27.000  
  24859569.395   130637953.437       -3419.031          26.000  
  21368235.578   112290843.383        2636.386          45.000  
  22683205.487   119201047.840        -355.593          42.000  
 23  8 28 11 44 33.9990000  0 10G 3G 4G 6G17G19G 2G 1G21G 9G31
  20349710.042   106938440.315       -1804.034          48.000  
  20129196.339   105779644.910         942.570          45.000  
  21819356.486   114661503.236        2607.013          39.000  
  21627791.800   113654805.827       -2038.338          45.000  
  21066815.480   110706859.652        -766.436          46.000  
  24108056.106   126688628.6902      -3566.075          29.000  
  22536926.353   118432321.167       -3677.196          26.000  
  24860222.687                       -3417.069          25.000  
  21367733.644   112288207.243        2635.938          45.000  
  22683273.224   119201403.728        -356.098          43.000  
 23  8 28 11 44 34.9990000  0 10G 3G 4G 6G17G19G 2G 1G21G 9G31
  20350053.340   106940244.724       -1804.806          48.000  
  20129016.894   105778702.634         941.789          45.000  
  21818860.399   114658896.975        2606.344          39.000  
  21628180.225   113656844.293       -2038.880          45.000  
  21066960.897   110707626.572        -767.390          45.000  
  24108732.149   126692194.4062      -3565.696          29.000  
  22537623.346   118435998.581       -3677.650          26.000  
  24860871.264                       -3416.981          24.000  
  21367232.234   112285571.663        2635.444          45.000  
  22683341.175   119201760.481        -357.303          42.000  
 23  8 28 11 44 35.9990000  0 10G 3G 4G 6G17G19G 2G 1G21G 9G31
  20350397.131   106942049.522       -1804.724          48.000  
  20128837.750   105777760.982         941.897          45.000  
  21818364.332   114656291.061        2605.888          39.000  
  21628568.204   113658883.351       -2039.221          45.000  
  21067107.060   110708394.298        -767.880          45.000  
  24109401.779   126695760.3302      -3565.907          28.000  
  22538317.747   118439676.147       -3677.544          26.000  
  24861521.345                       -3418.439          23.000  
  21366731.251   112282936.549        2635.163          45.000  
  22683409.475   119202118.002        -357.801          42.000  
 23  8 28 11 44 36.9990000  0 10G 3G 4G 6G17G19G 2G 1G21G 9G31
  20350740.503   106943854.504       -1805.022          48.000  
  20128658.039   105776819.773         941.147          45.000  
  21817868.485   114653685.229        2605.809          39.000  
  21628956.118   113660922.710       -2039.409          45.000  
  21067253.040   110709162.558        -768.315          45.000  
  24110087.259   126699326.266       -3566.869          27.000  
  22539018.268   118443353.998       -3677.730          25.000  
  24862173.896                       -3419.590          24.000  
  21366229.980   112280301.676        2634.887          45.000  
  22683477.540   119202476.023        -357.963          42.000  
 23  8 28 11 44 37.9990000  0 10G 3G 4G 6G17G19G 2G 1G21G 9G31
  20351084.059   106945659.960       -1805.873          48.000  
  20128479.235   105775879.273         939.971          45.000  
  21817372.606   114651079.824        2604.989          39.000  
  21629344.198   113662962.723       -2040.562          45.000  
  21067399.259   110709931.688        -769.705          45.000  
  24110766.120   126702892.401       -3566.382          28.000  
  22539724.208                       -3678.047          22.000  
  24862827.704                       -3419.011          24.000  
  21365728.736   112277667.292        2634.054          45.000  
  22683545.522   119202834.880        -359.423          42.000  
 23  8 28 11 44 38.9990000  0 10G 3G 4G 6G17G19G 2G 1G21G 9G31
  20351427.784   106947465.742       -1805.788          48.000  
  20128300.222   105774939.341         939.958          44.000  
  21816876.806   114648474.687        2605.064          39.000  
  21629732.378   113665003.234       -2040.691          45.000  
  21067545.680   110710701.539        -769.971          45.000  
  24111446.090   126706458.729       -3565.474          27.000  
  22540417.872                       -3672.642          21.000  
  24863483.212                       -3418.997          25.000  
  21365227.858   112275033.309        2634.072          46.000  
  22683613.778   119203194.408        -359.958          41.000  
 23  8 28 11 44 39.9990000  0 10G 3G 4G 6G17G19G 2G 1G21G 9G31
  20351771.244   106949271.683       -1806.238          48.000  
  20128121.497   105773999.818         939.104          45.000  
  21816380.936   114645869.646        2604.738          40.000  
  21630120.606   113667044.059       -2041.288          45.000  
  21067691.908   110711471.932        -771.040          45.000  
  24112130.095                       -3566.647          25.000  
  22541108.067                       -3686.387          22.000  
  24864136.077                       -3419.224          25.000  
  21364727.032   112272399.545        2633.383          46.000  
  22683682.218   119203554.417        -360.317          42.000  
 23  8 28 11 44 40.9990000  0 10G 3G 4G 6G17G19G 2G 1G21G 9G31
  20352114.952   106951078.409       -1807.192          47.000  
  20127943.173   105773061.320         937.801          45.000  
  21815885.560   114643265.296        2603.585          40.000  
  21630509.200   113669085.837       -2042.332          45.000  
  21067838.761   110712243.472        -772.141          45.000  
  24112818.842   126713718.1193      -3567.453          26.000  
  22541802.555                       -3677.732          22.000  
  24864786.770                       -3419.868          25.000  
  21364226.011   112269766.595        2632.573          46.000  
  22683750.719   119203915.597        -361.947          41.000  
 23  8 28 11 44 41.9990000  0  9G 3G 4G 6G17G19G 2G 1G 9G31
  20352458.887   106952885.571       -1807.529          47.000  
  20127764.640   105772123.490         937.393          45.000  
  21815390.375   114640661.331        2603.591          39.000  
  21630897.939   113671128.193       -2042.506          45.000  
  21067985.604   110713015.834        -772.720          45.000  
  24113506.969   126717285.2282      -3566.906          27.000  
  22542497.392                       -3674.500          23.000  
  21363724.788   112267134.131        2632.259          45.000  
  22683819.246   119204277.539        -362.487          41.000  
 23  8 28 11 44 42.9990000  0  9G 3G 4G 6G17G19G 2G 1G 9G31
  20352802.569   106954693.111       -1807.732          48.000  
  20127586.355   105771186.282         937.020          45.000  
  21814894.933   114638057.679        2603.419          40.000  
  21631286.376   113673171.104       -2043.294          44.000  
  21068132.609   110713788.993        -773.740          45.000  
  24114189.971   126720852.5042      -3567.727          27.000  
  22543196.060                       -3674.458          25.000  
  21363223.993   112264502.129        2631.624          45.000  
  22683888.253   119204640.199        -362.798          41.000  
 23  8 28 11 44 43.9990000  0  9G 3G 4G 6G17G19G 2G 1G 9G31
  20353146.465   106956501.179       -1808.130          47.000  
  20127408.193   105770249.857         936.255          45.000  
  21814399.870   114635454.477        2603.176          40.000  
  21631675.412   113675214.703       -2043.785          45.000  
  21068279.771   110714563.037        -774.446          45.000  
  24114867.262   126724420.0772      -3567.373          26.000  
  22543890.635                       -3680.207          24.000  
  21362723.076   112261870.663        2631.602          46.000  
  22683957.403   119205003.739        -363.613          41.000  
 23  8 28 11 44 44.9990000  0  9G 3G 4G 6G17G19G 2G 1G 9G31
  20353490.134   106958309.397       -1808.486          47.000  
  20127230.135   105769313.818         935.612          45.000  
  21813904.659   114632851.391        2602.827          40.000  
  21632064.551   113677258.621       -2044.318          45.000  
  21068427.130   110715337.612        -775.005          45.000  
  24115546.258   126727987.7662      -3567.832          26.000  
  22544589.678                       -3679.258          24.000  
  21362222.398   112259239.434        2630.909          46.000  
  22684026.864   119205367.784        -364.522          41.000  
 23  8 28 11 44 45.9990000  0  9G 3G 4G 6G17G19G 2G 1G 9G31
  20353834.331   106960118.085       -1808.869          47.000  
  20127052.370   105768378.498         934.842          45.000  
  21813409.474   114630248.695        2602.434          40.000  
  21632453.552   113679303.164       -2044.813          45.000  
  21068574.684   110716113.048        -775.980          45.000  
  24116228.344   126731555.6532      -3567.790          27.000  
  22545285.104                       -3656.613          22.000  
  21361721.804   112256608.727        2630.295          45.000  
  22684096.111   119205732.645        -365.418          41.000  
 23  8 28 11 44 46.9990000  0  9G 3G 4G 6G17G19G 2G 1G 9G31
  20354178.471   106961927.106       -1808.813          47.000  
  20126874.378   105767443.756         934.717          45.000  
  21812914.381   114627646.271        2602.760          40.000  
  21632842.744   113681348.206       -2044.768          45.000  
  21068722.414   110716889.210        -776.343          45.000  
  24116907.702   126735123.6552      -3567.535          28.000  
  22545982.672                       -3681.154          21.000  
  21361220.987   112253978.388        2630.456          45.000  
  22684165.729   119206098.184        -365.398          41.000  
 23  8 28 11 44 47.9990000  0  9G 3G 4G 6G17G19G 2G 1G 9G31
  20354522.847   106963736.381       -1809.307          47.000  
  20126696.961   105766509.489         934.033          45.000  
  21812419.192   114625044.029        2601.924          40.000  
  21633231.940   113683393.649       -2045.462          45.000  
  21068870.265   110717665.982        -777.209          45.000  
  24117585.534   126738691.7172      -3568.104          28.000  
  22546680.183                       -3688.197          19.000  
  21360720.781   112251348.353        2629.939          45.000  
  22684234.906   119206464.314        -366.323          41.000  
 23  8 28 11 44 48.9990000  0  9G 3G 4G 6G17G19G 2G 1G 9G31
  20354867.340   106965546.334       -1810.194          47.000  
  20126519.724   105765576.148         932.926          45.000  
  21811924.046   114622442.374        2601.522          40.000  
  21633621.338   113685439.938       -2046.554          45.000  
  21069018.365   110718443.817        -778.373          45.000  
  24118262.751   126742260.351       -3568.680          28.000  
  22547382.956                       -3685.884          21.000  
  21360220.627   112248719.054        2628.858          45.000  
  22684304.410   119206831.481        -367.211          40.000  
 23  8 28 11 44 49.9990000  0  9G 3G 4G 6G17G19G 2G 1G 9G31
  20355211.485   106967356.330       -1810.538          47.000  
  20126342.382   105764643.115         932.586          45.000  
  21811429.001   114619840.764        2600.981          40.000  
  21634010.735   113687486.459       -2047.135          44.000  
  21069166.831   110719222.094        -778.998          45.000  
  24118936.264   126745828.728       -3569.063          30.000  
  22548085.231                       -3678.332          22.000  
  21359720.438   112246089.852        2628.741          45.000  
  22684374.363   119207199.025        -368.102          40.000  
 23  8 28 11 44 50.9990000  0  9G 3G 4G 6G17G19G 2G 1G 9G31
  20355556.218   106969166.982       -1810.797          47.000  
  20126164.808   105763710.961         931.866          45.000  
  21810933.938   114617239.688        2600.997          40.000  
  21634400.128   113689533.769       -2047.684          45.000  
  21069315.337   110720001.402        -779.705          45.000  
  24119607.635   126749397.655       -3569.295          29.000  
  22548785.914                       -3677.937          21.000  
  21359220.276   112243461.362        2628.132          46.000  
  22684444.282   119207567.603        -369.351          40.000  
 23  8 28 11 44 51.9990000  0  9G 3G 4G 6G17G19G 2G 1G 9G31
  20355901.344   106970978.319       -1811.493          47.000  
  20125987.798   105762779.752         930.889          45.000  
  21810438.928   114614639.268        2600.376          40.000  
  21634789.900   113691581.953       -2048.467          45.000  
  21069464.039   110720781.790        -780.590          45.000  
  24120283.578   126752966.992       -3569.428          29.000  
  22549487.775                       -3692.235          22.000  
  21358720.842   112240833.613        2627.570          46.000  
  22684514.423   119207937.174        -369.769          40.000  
 23  8 28 11 44 52.9990000  0  9G 3G 4G 6G17G19G 2G 1G 9G31
  20356246.082   106972789.974       -1811.807          48.000  
  20125810.726   105761849.084         930.276          45.000  
  21809944.262   114612039.074        2600.263          40.000  
  21635179.284   113693630.584       -2048.660          44.000  
  21069612.837   110721562.863        -781.234          45.000  
  24120975.427   126756536.547       -3569.466          29.000  
  22550188.301                       -3683.615          23.000  
  21358220.575   112238206.212        2627.248          45.000  
  22684584.713   119208307.423        -370.633          40.000  
 23  8 28 11 44 53.9990000  0  9G 3G 4G 6G17G19G 2G 1G 9G31
  20356590.907   106974602.053       -1811.734          48.000  
  20125633.881   105760919.098         930.159          45.000  
  21809449.618   114609439.260        2600.128          41.000  
  21635569.449   113695679.819       -2049.024          44.000  
  21069761.626   110722344.747        -781.693          46.000  
  24121658.555   126760106.354       -3569.981          28.000  
  22550893.809                       -3683.385          25.000  
  21357720.491   112235579.301        2627.295          45.000  
  22684655.469   119208678.433        -370.861          40.000  
 23  8 28 11 44 54.9990000  0  9G 3G 4G 6G17G19G 2G 1G 9G31
  20356935.518   106976414.422       -1812.458          48.000  
  20125457.385   105759989.630         929.315          45.000  
  21808954.957   114606839.634        2599.891          40.000  
  21635959.649   113697729.487       -2049.755          45.000  
  21069910.629   110723127.307        -782.764          45.000  
  24122355.290   126763676.250       -3570.320          27.000  
  22551594.182                       -3683.633          25.000  
  21357220.608   112232952.733        2626.519          45.000  
  22684726.413   119209050.093        -371.800          40.000  
 23  8 28 11 44 55.9990000  0  9G 3G 4G 6G17G19G 2G 1G 9G31
  20357280.474   106978227.076       -1812.535          48.000  
  20125280.593   105759060.712         928.685          45.000  
  21808460.130   114604240.239        2599.577          40.000  
  21636349.723   113699779.638       -2050.294          45.000  
  21070059.851   110723910.552        -783.459          45.000  
  24123024.815   126767246.050       -3569.977          28.000  
  22552299.280                       -3682.302          25.000  
  21356721.126   112230326.511        2626.259          45.000  
  22684797.736   119209422.384        -372.469          40.000  
 23  8 28 11 44 56.9990000  0  9G 3G 4G 6G17G19G 2G 1G 9G31
  20357625.644   106980040.147       -1812.871          48.000  
  20125104.119   105758132.435         928.370          45.000  
  21807965.185   114601641.213        2599.312          40.000  
  21636739.639   113701830.316       -2050.385          44.000  
  21070209.168   110724694.561        -783.982          45.000  
  24123700.147   126770816.127       -3569.810          28.000  
  22553006.271   118516847.8393      -3683.769          26.000  
  21356221.382   112227700.736        2626.060          45.000  
  22684868.684   119209795.422        -372.993          40.000  
 23  8 28 11 44 57.9990000  0  9G 3G 4G 6G17G19G 2G 1G 9G31
  20357970.796   106981853.639       -1814.162          48.000  
  20124927.535   105757204.831         926.877          45.000  
  21807470.563   114599042.539        2598.306          40.000  
  21637129.953   113703881.614       -2051.877          44.000  
  21070358.755   110725479.386        -785.471          45.000  
  24124380.640   126774386.529       -3570.011          28.000  
  22553709.454   118520531.7802      -3684.221          27.000  
  21355721.983   112225075.462        2624.713          45.000  
  22684939.763   119210169.258        -374.741          40.000  
 23  8 28 11 44 58.9990000  0  9G 3G 4G 6G17G19G 2G 1G 9G31
  20358315.865   106983667.390       -1813.778          48.000  
  20124751.201   105756277.747         926.926          45.000  
  21806976.181   114596444.099        2598.379          40.000  
  21637520.519   113705933.352       -2052.043          44.000  
  21070508.326   110726264.876        -785.837          45.000  
  24125058.555   126777957.015       -3570.685          26.000  
  22554416.358   118524215.9702      -3683.652          28.000  
  21355222.034   112222450.501        2624.883          45.000  
  22685010.982   119210543.704        -374.640          40.000  
 23  8 28 11 44 59.9990000  0  9G 3G 4G 6G17G19G 2G 1G 9G31
  20358661.017   106985481.401       -1814.474          47.000  
  20124574.618   105755351.161         925.980          45.000  
  21806482.087   114593845.818        2597.924          41.000  
  21637911.094   113707985.483       -2052.640          44.000  
  21070657.621   110727051.005        -786.738          45.000  
  24125733.482   126781527.467       -3570.703          27.000  
  22555127.716   118527900.3212      -3684.734          29.000  
  21354722.565   112219825.840        2624.222          46.000  
  22685082.188   119210918.735        -375.609          40.000  
 23  8 28 11 45  0.9990000  0  9G 3G 4G 6G17G19G 2G 1G 9G31
  20359006.139   106987295.883       -1814.822          47.000  
  20124398.227   105754425.272         925.363          45.000  
  21805987.814   114591247.939        2597.532          41.000  
  21638301.669   113710038.252       -2053.193          44.000  
  21070807.592   110727837.967        -787.302          45.000  
  24126414.729   126785098.272       -3571.025          27.000  
  22555835.261   118531584.9982      -3685.442          30.000  
  21354223.271   112217201.695        2623.755          46.000  
  22685153.939   119211294.583        -376.243          40.000  
 23  8 28 11 45  1.9990000  0  9G 3G 4G 6G17G19G 2G 1G 9G31
  20359351.479   106989110.813       -1815.024          47.000  
  20124221.870   105753500.086         924.948          45.000  
  21805493.645   114588650.479        2597.154          41.000  
  21638693.169   113712091.632       -2053.632          45.000  
  21070957.285   110728625.778        -788.243          45.000  
  24127092.378   126788669.348       -3571.671          26.000  
  22556539.613   118535269.9772      -3684.750          31.000  
  21353723.549   112214578.075        2623.405          46.000  
  22685225.973   119211671.237        -377.003          40.000  
 23  8 28 11 45  2.9990000  0  9G 3G 4G 6G17G19G 2G 1G 9G31
  20359697.032   106990926.192       -1815.436          47.000  
  20124045.846   105752575.588         924.371          45.000  
  21804999.285   114586053.372        2596.811          42.000  
  21639084.050   113714145.615       -2054.159          44.000  
  21071107.221   110729414.398        -788.882          45.000  
  24127777.378   126792240.648       -3571.213          27.000  
  22557238.071   118538955.3872      -3686.028          30.000  
  21353224.342   112211954.936        2623.196          45.000  
  22685297.654   119212048.692        -377.745          40.000  
 23  8 28 11 45  3.9990000  0  9G 3G 4G 6G17G19G 2G 1G 9G31
  20360042.207   106992741.863       -1815.992          47.000  
  20123869.703   105751651.636         923.534          44.000  
  21804505.095   114583456.514        2596.377          42.000  
  21639475.262   113716200.063       -2054.852          44.000  
  21071257.634   110730203.722        -790.038          45.000  
  24128459.742   126795812.077       -3571.949          27.000  
  22557934.854   118542640.9082      -3686.136          30.000  
  21352725.100   112209332.157        2622.506          45.000  
  22685369.732   119212426.755        -378.570          40.000  
 23  8 28 11 45  4.9990000  0  9G 3G 4G 6G17G19G 2G 1G 9G31
  20360387.839   106994557.997       -1816.302          47.000  
  20123693.748   105750728.369         923.152          44.000  
  21804011.088   114580860.024        2596.393          42.000  
  21639866.016   113718255.124       -2055.340          44.000  
  21071407.941   110730993.868        -790.494          45.000  
  24129139.271   126799383.726       -3572.523          26.000  
  22558642.037   118546326.8182      -3686.045          30.000  
  21352225.557   112206709.901        2622.067          45.000  
  22685441.619   119212805.660        -379.431          40.000  
 23  8 28 11 45  5.9990000  0  9G 3G 4G 6G17G19G 2G 1G 9G31
  20360733.811   106996374.539       -1816.965          47.000  
  20123518.099   105749805.782         922.159          44.000  
  21803517.233   114578263.889        2595.967          42.000  
  21640257.394   113720310.755       -2056.226          44.000  
  21071558.597   110731784.836        -791.627          45.000  
  24129818.970                       -3571.378          24.000  
  22559347.375   118550013.0452      -3686.531          32.000  
  21351726.389   112204088.085        2621.519          45.000  
  22685513.849   119213185.304        -380.239          40.000  
 23  8 28 11 45  6.9990000  0  9G 3G 4G 6G17G19G 2G 1G 9G31
  20361079.583   106998191.440       -1817.165          47.000  
  20123342.366   105748883.788         921.524          44.000  
  21803023.144   114575668.060        2595.709          42.000  
  21640648.706   113722366.918       -2056.756          45.000  
  21071709.066   110732576.515        -792.231          45.000  
  24130502.513                       -3572.019          25.000  
  22560048.621   118553699.0011      -3685.949          32.000  
  21351227.989   112201466.689        2620.978          45.000  
  22685586.207   119213565.656        -380.890          40.000  
 23  8 28 11 45  7.9990000  0  9G 3G 4G 6G17G19G 2G 1G 9G31
  20361425.503   107000008.607       -1817.193          47.000  
  20123166.922   105747962.311         921.425          44.000  
  21802528.940   114573072.435        2595.575          42.000  
  21641040.110   113724423.492       -2056.780          44.000  
  21071860.233   110733368.858        -792.519          45.000  
  24131173.015                       -3571.924          24.000  
  22560745.787   118557385.662       -3686.215          31.000  
  21350729.109   112198845.624        2621.055          45.000  
  22685659.184   119213946.600        -381.001          41.000  
 23  8 28 11 45  8.9990000  0  9G 3G 4G 6G17G19G 2G 1G 9G31
  20361771.336   107001826.163       -1817.507          47.000  
  20122991.521   105747041.458         920.657          44.000  
  21802034.855   114570477.143        2595.282          42.000  
  21641431.737   113726480.616       -2057.208          44.000  
  21072011.282   110734161.967        -793.066          46.000  
  24131853.535                       -3578.193          22.000  
  22561443.656   118561072.533       -3686.703          30.000  
  21350230.465   112196224.993        2620.542          45.000  
  22685732.300   119214328.315        -381.979          41.000  
 23  8 28 11 45  9.9990000  0 10G 3G 4G 6G17G19G 2G 1G 9G31G12
  20362117.439   107003643.886       -1817.804          47.000  
  20122816.268   105746121.000         920.337          44.000  
  21801541.180   114567881.934        2595.507          42.000  
  21641822.918   113728538.081       -2057.683          44.000  
  21072162.104   110734955.637        -793.937          46.000  
  24132520.718                       -3574.336          22.000  
  22562146.769   118564759.513       -3687.205          30.000  
  21349731.842   112193604.575        2620.293          45.000  
  22685805.286   119214710.527        -382.547          41.000  
  25145502.031                       -1287.000          20.000  
 23  8 28 11 45 10.9990000  0 10G 3G 4G 6G17G19G 2G 1G 9G31G12
  20362463.285   107005462.049       -1818.624          47.000  
  20122641.138   105745201.258         919.107          44.000  
  21801047.509   114565287.127        2594.583          42.000  
  21642214.623   113730596.151       -2058.445          44.000  
  21072313.206   110735750.130        -794.977          45.000  
  24133189.205                       -3578.990          21.000  
  22562846.999   118568446.828       -3687.010          31.000  
  21349233.438   112190984.677        2619.388          46.000  
  22685878.267   119215093.540        -383.225          41.000  
  25145750.269                       -1287.000          20.000  
 23  8 28 11 45 11.9990000  0 10G 3G 4G 6G17G19G 2G 1G 9G31G12
  20362809.497   107007280.905       -1818.915          47.000  
  20122466.165   105744282.422         918.627          44.000  
  21800553.737   114562692.927        2594.287          42.000  
  21642606.468   113732655.075       -2059.275          45.000  
  21072464.661   110736545.689        -796.020          45.000  
  24133869.423                       -3578.830          21.000  
  22563547.917   118572134.702       -3688.154          31.000  
  21348735.212   112188365.482        2619.141          46.000  
  22685951.182   119215477.605        -384.567          40.000  
  25145991.231                       -1287.000          20.000  
 23  8 28 11 45 12.9990000  0 10G 3G 4G 6G17G19G 2G 1G 9G31G12
  20363155.914   107009100.060       -1819.381          48.000  
  20122291.056   105743364.159         917.837          44.000  
  21800060.066   114560098.981        2593.875          42.000  
  21642998.435   113734714.447       -2059.589          44.000  
  21072616.111   110737341.935        -796.754          45.000  
  24134543.355                       -3573.642          20.000  
  22564257.700   118575822.795       -3688.002          32.000  
  21348236.825   112185746.678        2618.648          45.000  
  22686024.456   119215862.284        -384.962          40.000  
  25146241.026                       -1287.000          20.000  
 23  8 28 11 45 13.9990000  0 10G 3G 4G 6G17G19G 2G 1G 9G31G12
  20363502.048   107010919.711       -1819.831          47.000  
  20122116.379   105742446.633         916.928          44.000  
  21799566.365   114557505.481        2593.234          42.000  
  21643390.371   113736774.487       -2060.389          44.000  
  21072767.692   110738139.059        -797.568          45.000  
  24135221.261                       -3570.198          21.000  
  22564957.694   118579511.231       -3688.038          32.000  
  21347738.718   112183128.419        2617.928          46.000  
  22686097.524   119216247.834        -386.125          40.000  
  25146485.133                       -1287.000          20.000  
 23  8 28 11 45 14.9990000  0 10G 3G 4G 6G17G19G 2G 1G 9G31G12
  20363848.422   107012739.629       -1820.359          47.000  
  20121941.681   105741529.598         916.575          44.000  
  21799073.021   114554912.179        2592.809          42.000  
  21643782.469   113738834.956       -2060.921          44.000  
  21072919.431   110738936.837        -798.224          46.000  
  24135908.171                       -3575.313          20.000  
  22565658.726   118583199.942       -3689.039          32.000  
  21347240.571   112180510.493        2617.641          46.000  
  22686170.759   119216633.982        -386.772          40.000  
  25146737.031                       -1287.000          19.000  
 23  8 28 11 45 15.9990000  0 10G 3G 4G 6G17G19G 2G 1G 9G31G12
  20364194.769   107014559.916       -1820.639          47.000  
  20121767.192   105740613.188         916.174          44.000  
  21798579.742   114552319.184        2592.691          42.000  
  21644174.754   113740895.932       -2061.306          44.000  
  21073070.982   110739735.360        -798.820          45.000  
  24136582.513                       -3576.168          22.000  
  22566362.746   118586888.804       -3689.521          31.000  
  21346742.162   112177892.975        2617.232          46.000  
  22686244.281   119217020.858        -387.623          40.000  
  25146980.248                       -1287.000          20.000  
 23  8 28 11 45 16.9990000  0 10G 3G 4G 6G17G19G 2G 1G 9G31G12
  20364541.222   107016380.720       -1820.788          47.000  
  20121593.047   105739697.530         915.717          44.000  
  21798086.726   114549726.603        2593.049          42.000  
  21644567.192   113742957.590       -2061.570          44.000  
  21073223.021   110740534.788        -799.491          45.000  
  24137258.801                       -3575.004          24.000  
  22567056.759   118590578.052       -3689.102          30.000  
  21346244.351   112175276.007        2616.908          46.000  
  22686318.270   119217408.550        -387.779          41.000  
  25147225.424                       -1287.000          20.000  
 23  8 28 11 45 17.9990000  0  9G 3G 4G 6G17G19G 2G 1G 9G31
  20364887.643   107018201.754       -1820.977          47.000  
  20121418.973   105738782.382         915.045          44.000  
  21797593.207   114547134.256        2592.187          42.000  
  21644959.272   113745019.663       -2062.192          44.000  
  21073375.209   110741334.840        -800.229          45.000  
  24137942.033                       -3574.203          26.000  
  22567763.148   118594267.510       -3689.074          31.000  
  21345746.374   112172659.360        2616.533          46.000  
  22686392.258   119217796.888        -388.580          41.000  
 23  8 28 11 45 18.9990000  0  9G 3G 4G 6G17G19G 2G 1G 9G31
  20365234.528   107020023.424       -1822.085          47.000  
  20121244.942   105737868.089         913.847          44.000  
  21797099.933   114544542.458        2591.576          42.000  
  21645351.614   113747082.509       -2063.072          44.000  
  21073527.514   110742135.891        -801.547          45.000  
  24138627.875   126849315.8813      -3574.485          27.000  
  22568465.454   118597957.463       -3689.978          32.000  
  21345248.746   112170043.394        2615.523          46.000  
  22686466.295   119218186.169        -389.932          40.000  
 23  8 28 11 45 19.9990000  0  9G 3G 4G 6G17G19G 2G 1G 9G31
  20365581.180   107021845.333       -1822.231          47.000  
  20121071.229   105736954.275         913.524          44.000  
  21796606.734   114541950.835        2591.491          42.000  
  21645744.248   113749145.772       -2063.784          44.000  
  21073680.256   110742937.585        -802.291          45.000  
  24139307.927   126852890.3912      -3574.486          27.000  
  22569164.523   118601647.527       -3690.193          30.000  
  21344751.345   112167427.719        2615.411          46.000  
  22686540.402   119218576.062        -390.466          41.000  
 23  8 28 11 45 20.9990000  0  9G 3G 4G 6G17G19G 2G 1G 9G31
  20365927.737   107023667.259       -1822.059          47.000  
  20120897.800   105736040.740         913.366          44.000  
  21796113.468   114539359.169        2591.425          42.000  
  21646137.027   113751209.215       -2063.588          44.000  
  21073832.767   110743739.686        -802.545          45.000  
  24139988.477   126856464.7522      -3574.431          28.000  
  22569863.033   118605337.552       -3690.053          30.000  
  21344253.879   112164812.126        2615.407          46.000  
  22686614.858   119218966.313        -390.799          41.000  
 23  8 28 11 45 21.9990000  0  9G 3G 4G 6G17G19G 2G 1G 9G31
  20366274.622   107025489.886       -1822.890          47.000  
  20120724.114   105735128.129         912.241          44.000  
  21795620.635   114536768.130        2590.691          42.000  
  21646529.460   113753273.518       -2064.764          44.000  
  21073985.801   110744542.831        -803.606          45.000  
  24140668.874   126860039.6522      -3575.183          27.000  
  22570566.338   118609028.111       -3690.822          29.000  
  21343756.504   112162197.258        2614.586          46.000  
  22686689.222   119219357.584        -391.568          41.000  
 23  8 28 11 45 22.9990000  0  9G 3G 4G 6G17G19G 2G 1G 9G31
  20366621.466   107027313.090       -1823.322          47.000  
  20120551.043   105734216.365         911.652          45.000  
  21795127.614   114534177.629        2590.463          42.000  
  21646922.164   113755338.555       -2065.327          44.000  
  21074138.782   110745346.964        -804.569          45.000  
  24141364.850   126863614.8162      -3575.073          28.000  
  22571262.807   118612719.151       -3690.851          29.000  
  21343259.055   112159583.051        2614.157          46.000  
  22686764.048   119219749.833        -392.735          41.000  
 23  8 28 11 45 23.9990000  0  9G 3G 4G 6G17G19G 2G 1G 9G31
  20366968.290   107029136.640       -1823.861          47.000  
  20120378.094   105733305.175         910.684          44.000  
  21794634.737   114531587.399        2589.945          42.000  
  21647314.964   113757404.088       -2066.165          44.000  
  21074292.017   110746151.832        -805.323          45.000  
  24142041.796   126867190.2422      -3575.626          30.000  
  22571970.845   118616410.491       -3691.797          29.000  
  21342761.885   112156969.263        2613.283          46.000  
  22686838.919   119220142.717        -393.368          41.000  
 23  8 28 11 45 24.9990000  0  9G 3G 4G 6G17G19G 2G 1G 9G31
  20367315.501   107030960.608       -1824.042          47.000  
  20120204.595   105732394.648         910.334          45.000  
  21794142.025   114528997.520        2589.804          43.000  
  21647707.825   113759470.189       -2066.185          44.000  
  21074445.239   110746957.480        -805.886          45.000  
  24142723.454   126870765.829       -3575.086          30.000  
  22572673.242   118620101.989       -3690.737          29.000  
  21342264.414   112154355.904        2613.297          46.000  
  22686913.911   119220536.392        -393.673          41.000  
 23  8 28 11 45 25.9990000  0  9G 3G 4G 6G17G19G 2G 1G 9G31
  20367662.634   107032784.743       -1823.925          47.000  
  20120031.811   105731484.546         910.101          45.000  
  21793649.436   114526407.782        2589.856          42.000  
  21648100.830   113761536.644       -2066.357          44.000  
  21074599.023   110747763.703        -806.282          45.000  
  24143412.834   126874341.483       -3575.413          30.000  
  22573378.262   118623793.718       -3692.168          30.000  
  21341766.826   112151742.793        2613.242          46.000  
  22686989.261   119220930.599        -394.244          41.000  
 23  8 28 11 45 26.9990000  0  9G 3G 4G 6G17G19G 2G 1G 9G31
  20368009.793   107034609.208       -1824.620          47.000  
  20119858.526   105730575.005         909.080          45.000  
  21793156.411   114523818.263        2589.444          42.000  
  21648493.875   113763603.574       -2067.255          44.000  
  21074752.480   110748570.650        -807.507          45.000  
  24144087.272   126877917.245       -3576.108          30.000  
  22574079.608   118627485.602       -3691.460          30.000  
  21341269.420   112149130.061        2612.432          46.000  
  22687064.227   119221325.479        -395.396          41.000  
 23  8 28 11 45 27.9990000  0 10G 3G 4G 6G17G19G 2G 1G21G 9G31
  20368357.131   107036434.124       -1825.356          47.000  
  20119685.974   105729666.172         908.305          45.000  
  21792663.700   114521229.165        2588.779          43.000  
  21648886.862   113765671.115       -2067.766          44.000  
  21074906.369   110749378.403        -808.345          46.000  
  24144765.544   126881493.163       -3575.918          31.000  
  22574786.075   118631177.813       -3692.429          30.000  
  24895479.919                       -3425.680          26.000  
  21340772.141   112146517.832        2611.957          46.000  
  22687139.717   119221721.162        -396.333          41.000  
 23  8 28 11 45 28.9990000  0  9G 3G 4G 6G17G19G 2G 1G 9G31
  20368705.031   107038259.487       -1825.348          47.000  
  20119513.309   105728758.012         908.050          45.000  
  21792170.801   114518640.460        2588.605          43.000  
  21649280.186   113767739.268       -2068.158          43.000  
  21075060.939   110750186.991        -808.855          46.000  
  24145451.124   126885069.424       -3575.415          31.000  
  22575493.010   118634870.416       -3693.289          31.000  
  21340275.473   112143906.126        2611.544          46.000  
  22687215.054   119222117.601        -396.407          41.000  
 23  8 28 11 45 29.9990000  0  9G 3G 4G 6G17G19G 2G 1G 9G31
  20369052.225   107040085.153       -1825.665          48.000  
  20119340.630   105727850.419         907.316          45.000  
  21791678.513   114516051.976        2588.612          43.000  
  21649673.178   113769807.894       -2068.696          43.000  
  21075214.859   110750996.276        -809.360          45.000  
  24146134.043   126888645.775       -3576.855          31.000  
  22576208.726   118638563.141       -3692.460          33.000  
  21339778.539   112141294.761        2611.499          46.000  
  22687290.561   119222514.740        -397.406          41.000  
 23  8 28 11 45 30.9990000  0  9G 3G 4G 6G17G19G 2G 1G 9G31
  20369399.593   107041910.897       -1826.084          48.000  
  20119168.091   105726943.138         906.881          45.000  
  21791185.802   114513463.531        2587.883          43.000  
  21650066.776   113771876.766       -2069.526          43.000  
  21075369.267   110751806.012        -810.256          46.000  
  24146811.730   126892222.024       -3576.465          31.000  
  22576908.563   118642255.918       -3693.350          33.000  
  21339281.622   112138683.548        2610.662          46.000  
  22687366.321   119222912.269        -398.049          41.000  
 23  8 28 11 45 31.9990000  0  9G 3G 4G 6G17G19G 2G 1G 9G31
  20369747.193   107043737.210       -1826.636          48.000  
  20118995.783   105726036.687         906.060          45.000  
  21790693.274   114510875.580        2587.812          43.000  
  21650460.130   113773946.328       -2070.212          43.000  
  21075523.627   110752616.727        -811.327          46.000  
  24147495.190   126895798.674       -3577.739          31.000  
  22577607.165   118645949.121       -3693.138          33.000  
  21338784.967   112136072.951        2610.266          46.000  
  22687442.500   119223310.763        -399.153          41.000  
 23  8 28 11 45 32.9990000  0  9G 3G 4G 6G17G19G 2G 1G 9G31
  20370094.775   107045564.280       -1827.061          47.000  
  20118823.907   105725131.234         905.101          45.000  
  21790200.837   114508288.350        2587.270          43.000  
  21650854.361   113776016.816       -2070.661          43.000  
  21075678.777   110753428.547        -812.025          46.000  
  24148180.168   126899375.775       -3576.749          32.000  
  22578308.463   118649642.968       -3693.515          34.000  
  21338288.334   112133463.171        2609.651          46.000  
  22687518.692   119223710.291        -399.889          41.000  
 23  8 28 11 45 33.9990000  0  9G 3G 4G 6G17G19G 2G 1G 9G31
  20370442.589   107047391.787       -1827.995          47.000  
  20118651.704   105724226.457         904.029          45.000  
  21789708.453   114505701.466        2586.421          43.000  
  21651248.505   113778087.926       -2071.933          43.000  
  21075833.430   110754241.220        -813.402          46.000  
  24148860.517   126902953.205       -3577.626          32.000  
  22579012.954   118653337.166       -3694.330          34.000  
  21337791.727   112130853.872        2608.622          46.000  
  22687594.596   119224110.650        -401.080          41.000  
 23  8 28 11 45 34.9990000  0  9G 3G 4G 6G17G19G 2G 1G 9G31
  20370790.267   107049219.360       -1827.663          47.000  
  20118479.523   105723321.992         904.239          45.000  
  21789216.300   114503114.613        2586.807          43.000  
  21651642.448   113780159.240       -2071.224          43.000  
  21075988.610   110755054.319        -813.419          46.000  
  24149535.417   126906530.485       -3576.874          33.000  
  22579716.678   118657031.291       -3694.039          34.000  
  21337294.762   112128244.705        2609.195          46.000  
  22687671.237   119224511.427        -400.773          41.000  
 23  8 28 11 45 35.9990000  0  9G 3G 4G 6G17G19G 2G 1G 9G31
  20371137.792   107051047.474       -1828.281          47.000  
  20118307.590   105722418.321         903.354          45.000  
  21788724.304   114500528.226        2586.288          43.000  
  21652036.731   113782231.279       -2072.424          43.000  
  21076143.782   110755868.365        -814.492          46.000  
  24150220.111   126910108.119       -3578.029          33.000  
  22580420.620   118660725.874       -3694.757          35.000  
  21336798.635   112125636.149        2608.296          46.000  
  22687747.512   119224913.103        -402.265          41.000  
 23  8 28 11 45 36.9990000  0  9G 3G 4G 6G17G19G 2G 1G 9G31
  20371485.475   107052876.051       -1828.486          47.000  
  20118136.098   105721515.345         902.849          45.000  
  21788232.387   114497942.233        2586.254          43.000  
  21652431.324   113784303.892       -2072.629          43.000  
  21076298.792   110756683.227        -815.073          46.000  
  24150905.914   126913686.006       -3577.802          34.000  
  22581124.252   118664420.806       -3695.005          35.000  
  21336302.713   112123028.071        2608.229          46.000  
  22687823.630   119225315.562        -402.510          41.000  
 23  8 28 11 45 37.9990000  0  9G 3G 4G 6G17G19G 2G 1G 9G31
  20371833.292   107054704.882       -1828.979          47.000  
  20117964.349   105720612.873         902.264          45.000  
  21787740.282   114495356.455        2585.730          43.000  
  21652825.996   113786376.964       -2073.286          43.000  
  21076453.907   110757498.734        -815.760          46.000  
  24151585.870   126917263.946       -3577.792          34.000  
  22581827.901   118668115.864       -3694.987          35.000  
  21335806.603   112120420.343        2607.508          46.000  
  22687900.346   119225718.651        -403.700          41.000  
 23  8 28 11 45 38.9990000  0  9G 3G 4G 6G17G19G 2G 1G 9G31
  20372181.167   107056534.223       -1829.850          47.000  
  20117792.490   105719711.161         901.341          45.000  
  21787248.474   114492771.137        2584.838          43.000  
  21653220.572   113788450.692       -2074.052          43.000  
  21076609.188   110758315.141        -816.975          46.000  
  24152265.416   126920842.195       -3578.217          34.000  
  22582531.346   118671811.342       -3695.945          35.000  
  21335310.437   112117813.160        2606.704          46.000  
  22687977.323   119226122.558        -403.835          41.000  
 23  8 28 11 45 39.9990000  0  9G 3G 4G 6G17G19G 2G 1G 9G31
  20372529.403   107058363.909       -1829.810          47.000  
  20117621.007   105718810.040         900.834          45.000  
  21786756.369   114490186.080        2584.998          43.000  
  21653615.597   113790524.912       -2074.264          43.000  
  21076764.543   110759132.271        -817.283          46.000  
  24152946.477   126924420.625       -3578.544          35.000  
  22583235.410   118675507.070       -3696.194          36.000  
  21334814.345   112115206.384        2606.693          46.000  
  22688054.427   119226527.219        -404.927          41.000  
 23  8 28 11 45 40.9990000  0  9G 3G 4G 6G17G19G 2G 1G 9G31
  20372877.352   107060193.993       -1830.749          47.000  
  20117449.458   105717909.574         899.739          45.000  
  21786264.090   114487601.375        2584.048          43.000  
  21654010.268   113792599.721       -2075.418          44.000  
  21076920.103   110759950.187        -818.618          46.000  
  24153627.899   126927999.248       -3579.470          35.000  
  22583940.080   118679203.061       -3695.881          36.000  
  21334318.375   112112600.069        2605.751          46.000  
  22688131.941   119226932.593        -405.936          41.000  
 23  8 28 11 45 41.9990000  0  9G 3G 4G 6G17G19G 2G 1G 9G31
  20373225.453   107062024.284       -1829.923          47.000  
  20117278.333   105717009.557         900.228          45.000  
  21785772.238   114485016.823        2584.894          43.000  
  21654405.328   113794674.875       -2074.794          43.000  
  21077075.855   110760768.714        -818.334          46.000  
  24154308.789   126931577.839       -3578.262          34.000  
  22584644.305   118682899.207       -3695.767          36.000  
  21333822.701   112109994.019        2606.282          46.000  
  22688209.036   119227338.541        -405.830          41.000  
 23  8 28 11 45 42.9990000  0 10G 3G 4G 6G17G19G 2G 1G21G 9G31
  20373573.681   107063854.889       -1830.840          47.000  
  20117107.037   105716110.084         899.090          45.000  
  21785280.290   114482432.511        2584.057          43.000  
  21654800.623   113796750.519       -2075.882          44.000  
  21077231.585   110761587.888        -819.463          46.000  
  24154989.788   126935156.580       -3578.784          34.000  
  22585348.173   118686595.492       -3696.224          36.000  
  24905148.910                       -3430.453          25.000  
  21333327.141   112107388.333        2605.328          47.000  
  22688286.680   119227745.114        -407.056          41.000  
 23  8 28 11 45 43.9990000  0  9G 3G 4G 6G17G19G 2G 1G 9G31
  20373922.184   107065686.016       -1831.705          47.000  
  20116936.195   105715211.389         898.020          45.000  
  21784788.739   114479848.672        2583.483          43.000  
  21655195.727   113798826.839       -2076.905          44.000  
  21077387.664   110762408.001        -820.811          46.000  
  24155670.726   126938735.636       -3579.614          34.000  
  22586052.185   118690292.205       -3696.775          36.000  
  21332831.420   112104783.226        2604.451          47.000  
  22688364.260   119228152.572        -407.976          41.000  
 23  8 28 11 45 44.9990000  0  9G 3G 4G 6G17G19G 2G 1G 9G31
  20374270.569   107067517.644       -1831.654          47.000  
  20116765.384   105714313.441         897.641          45.000  
  21784297.350   114477265.270        2583.416          43.000  
  21655591.179   113800903.814       -2077.091          44.000  
  21077544.018   110763228.991        -821.488          46.000  
  24156352.271   126942315.011       -3579.231          35.000  
  22586756.070   118693989.366       -3697.293          36.000  
  21332335.681   112102178.684        2604.453          46.000  
  22688442.406   119228560.906        -408.385          42.000  
 23  8 28 11 45 45.9990000  0  9G 3G 4G 6G17G19G 2G 1G 9G31
  20374618.884   107069349.619       -1831.878          47.000  
  20116594.585   105713416.094         897.192          45.000  
  21783805.550   114474682.159        2583.225          43.000  
  21655986.719   113802981.306       -2077.517          44.000  
  21077700.363   110764050.726        -821.816          46.000  
  24157033.283   126945894.516       -3579.221          34.000  
  22587459.889   118697686.728       -3697.360          36.000  
  21331840.239   112099574.559        2604.181          46.000  
  22688520.090   119228969.927        -409.124          42.000  
 23  8 28 11 45 46.9990000  0  9G 3G 4G 6G17G19G 2G 1G 9G31
  20374967.762   107071181.848       -1832.666          47.000  
  20116423.865   105712519.247         896.186          45.000  
  21783314.117   114472099.252        2582.517          43.000  
  21656382.438   113805059.202       -2078.451          44.000  
  21077856.337   110764873.084        -822.930          46.000  
  24157714.195   126949474.147       -3580.176          34.000  
  22588163.543   118701384.225       -3697.854          36.000  
  21331344.901   112096970.735        2603.346          47.000  
  22688598.376   119229379.553        -410.389          42.000  
 23  8 28 11 45 47.9990000  0  9G 3G 4G 6G17G19G 2G 1G 9G31
  20375316.404   107073014.258       -1832.656          47.000  
  20116253.141   105711622.801         896.190          45.000  
  21782822.859   114469516.447        2582.639          43.000  
  21656778.147   113807137.430       -2078.619          44.000  
  21078012.761   110765695.990        -823.195          46.000  
  24158394.736   126953053.651       -3579.607          34.000  
  22588867.057   118705081.794       -3697.774          36.000  
  21330849.193   112094367.132        2603.426          46.000  
  22688676.461   119229789.678        -410.546          42.000  
 23  8 28 11 45 48.9990000  0  9G 3G 4G 6G17G19G 2G 1G 9G31
  20375665.195   107074847.012       -1833.348          47.000  
  20116082.574   105710726.973         895.212          45.000  
  21782331.696   114466933.946        2582.078          44.000  
  21657173.687   113809216.168       -2079.385          44.000  
  21078169.477   110766519.640        -824.324          46.000  
  24159075.608   126956633.376       -3580.248          34.000  
  22589570.275   118708779.600       -3698.135          35.000  
  21330353.738   112091763.960        2602.564          46.000  
  22688754.429   119230200.512        -411.466          42.000  
 23  8 28 11 45 49.9990000  0  9G 3G 4G 6G17G19G 2G 1G 9G31
  20376014.705   107076680.241       -1833.497          47.000  
  20115912.622   105709831.877         894.531          45.000  
  21781840.455   114464351.870        2581.831          44.000  
  21657569.563   113811295.547       -2079.793          44.000  
  21078325.718   110767344.166        -825.038          46.000  
  24159756.542   126960213.398       -3580.665          34.000  
  22590273.946   118712477.805       -3698.317          35.000  
  21329858.492   112089161.318        2602.207          46.000  
  22688832.881   119230612.193        -412.331          42.000  
 23  8 28 11 45 50.9990000  0  9G 3G 4G 6G17G19G 2G 1G 9G31
  20376363.775   107078513.925       -1834.166          47.000  
  20115742.482   105708937.457         893.826          45.000  
  21781348.992   114461770.177        2581.082          44.000  
  21657965.774   113813375.527       -2080.632          44.000  
  21078482.377   110768169.512        -825.975          45.000  
  24160437.227   126963793.606       -3580.878          33.000  
  22590977.727   118716176.349       -3699.366          35.000  
  21329363.603   112086559.174        2601.559          46.000  
  22688911.751   119231024.664        -413.265          42.000  
 23  8 28 11 45 51.9990000  0  9G 3G 4G 6G17G19G 2G 1G 9G31
  20376712.731   107080348.001       -1834.216          47.000  
  20115572.256   105708043.683         893.629          45.000  
  21780857.423   114459188.820        2581.200          43.000  
  21658361.938   113815456.077       -2080.749          44.000  
  21078639.342   110768995.649        -826.488          45.000  
  24161117.746   126967374.081       -3580.518          33.000  
  22591681.372   118719875.172       -3698.737          34.000  
  21328868.449   112083957.485        2601.573          46.000  
  22688989.894   119231437.874        -413.417          42.000  
 23  8 28 11 45 52.9990000  0  9G 3G 4G 6G17G19G 2G 1G 9G31
  20377061.469   107082182.146       -1834.186          47.000  
  20115402.417   105707150.232         893.186          45.000  
  21780366.217   114456607.476        2581.189          43.000  
  21658758.198   113817536.842       -2080.895          44.000  
  21078796.586   110769822.226        -826.876          45.000  
  24161798.833   126970954.397       -3579.988          34.000  
  22592384.956   118723573.925       -3698.482          34.000  
  21328373.312   112081355.934        2601.348          46.000  
  22689068.524   119231851.499        -413.985          41.000  
 23  8 28 11 45 53.9990000  0  9G 3G 4G 6G17G19G 2G 1G 9G31
  20377410.626   107084016.683       -1835.079          47.000  
  20115232.461   105706257.408         892.198          45.000  
  21779875.308   114454026.473        2580.069          44.000  
  21659154.126   113819618.148       -2081.978          44.000  
  21078953.934   110770649.560        -828.005          45.000  
  24162479.967   126974534.954       -3581.227          34.000  
  22593088.845   118727273.025       -3700.205          33.000  
  21327878.149   112078754.812        2600.396          46.000  
  22689147.343   119232265.855        -414.998          42.000  
 23  8 28 11 45 54.9990000  0 10G 3G 4G 6G17G19G 2G 1G21G 9G31
  20377759.535   107085851.885       -1835.489          47.000  
  20115062.644   105705365.507         891.829          45.000  
  21779383.883   114451446.069        2580.223          44.000  
  21659550.673   113821700.303       -2082.303          44.000  
  21079111.366   110771477.986        -828.929          45.000  
  24163160.800   126978115.914       -3580.508          33.000  
  22593792.490   118730972.629       -3700.343          33.000  
  24912987.626                       -3420.242          28.000  
  21327383.113   112076154.435        2600.199          46.000  
  22689225.986   119232681.227        -415.577          40.000  
 23  8 28 11 45 55.9990000  0 10G 3G 4G 6G17G19G 2G 1G21G 9G31
  20378108.722   107087687.576       -1835.921          47.000  
  20114893.433   105704474.354         890.843          45.000  
  21778892.847   114448866.108        2579.854          43.000  
  21659947.020   113823783.138       -2083.160          43.000  
  21079269.177   110772307.250        -829.540          45.000  
  24163841.455   126981697.187       -3580.846          32.000  
  22594495.992   118734672.640       -3701.144          32.000  
  24913659.900                       -3429.297          29.000  
  21326888.325   112073554.601        2599.833          46.000  
  22689305.005   119233097.462        -416.535          40.000  
 23  8 28 11 45 56.9990000  0 10G 3G 4G 6G17G19G 2G 1G21G 9G31
  20378457.805   107089523.627       -1836.347          47.000  
  20114724.158   105703583.780         890.233          45.000  
  21778401.851   114446286.448        2579.305          43.000  
  21660343.371   113825866.440       -2083.431          43.000  
  21079427.075   110773137.263        -830.468          45.000  
  24164522.131   126985278.650       -3581.268          32.000  
  22595188.076   118738372.888       -3700.599          31.000  
  24914312.473   130925595.0083      -3427.847          31.000  
  21326393.459   112070955.187        2599.004          46.000  
  22689384.674   119233514.382        -417.329          41.000  
 23  8 28 11 45 57.9990000  0 10G 3G 4G 6G17G19G 2G 1G21G 9G31
  20378807.403   107091360.168       -1836.951          47.000  
  20114554.947   105702693.972         889.078          45.000  
  21777911.150   114443707.224        2578.946          44.000  
  21660740.075   113827950.438       -2084.416          44.000  
  21079585.231   110773968.157        -831.531          45.000  
  24165203.527   126988860.468       -3581.787          31.000  
  22595889.828   118742073.499       -3700.880          30.000  
  24914961.643   130929022.6082      -3427.639          31.000  
  21325898.610   112068356.316        2598.405          46.000  
  22689464.387   119233932.151        -418.403          41.000  
 23  8 28 11 45 58.9990000  0 10G 3G 4G 6G17G19G 2G 1G21G 9G31
  20379156.996   107093197.048       -1837.007          47.000  
  20114385.889   105701804.717         889.117          45.000  
  21777420.607   114441128.271        2579.092          44.000  
  21661136.793   113830034.908       -2084.715          44.000  
  21079743.404   110774799.769        -831.993          45.000  
  24165881.638   126992442.302       -3581.650          30.000  
  22596587.156   118745774.340       -3700.795          29.000  
  24915613.605   130932450.3512      -3428.445          32.000  
  21325403.857   112065757.840        2598.420          46.000  
  22689544.230   119234350.600        -418.680          41.000  
 23  8 28 11 45 59.9990000  0 10G 3G 4G 6G17G19G 2G 1G21G 9G31
  20379506.851   107095034.297       -1837.484          47.000  
  20114216.491   105700916.077         888.581          45.000  
  21776930.169   114438549.634        2578.630          43.000  
  21661533.493   113832119.896       -2085.010          44.000  
  21079901.996   110775632.103        -832.256          45.000  
  24166567.135   126996024.441       -3582.228          30.000  
  22597292.878   118749475.487       -3700.826          29.000  
  24916262.543   130935878.0732      -3427.601          31.000  
  21324909.597   112063159.789        2598.013          46.000  
  22689623.633   119234769.784        -419.599          41.000  
 23  8 28 11 46  0.9990000  0 11G 3G 4G 6G17G19G 2G 1G21G 9G31G12
  20379856.837   107096871.907       -1837.554          47.000  
  20114047.464   105700028.072         887.841          45.000  
  21776439.670   114435971.313        2578.295          44.000  
  21661930.316   113834205.423       -2085.649          44.000  
  21080060.758   110776465.240        -833.606          46.000  
  24167251.698   126999606.680       -3581.956          30.000  
  22597994.795   118753176.788       -3700.972          27.000  
  24916918.929   130939305.9582      -3427.813          32.000  
  21324415.219   112060562.181        2597.550          46.000  
  22689703.381   119235189.667        -420.190          41.000  
  25158138.633                       -1316.969          22.000  
 23  8 28 11 46  1.9990000  0 11G 3G 4G 6G17G19G 2G 1G21G 9G31G12
  20380206.679   107098709.836       -1837.719          47.000  
  20113878.415   105699140.615         887.581          45.000  
  21775949.445   114433393.241        2578.212          44.000  
  21662327.142   113836291.403       -2085.748          44.000  
  21080219.625   110777299.044        -833.907          46.000  
  24167930.948   127003189.137       -3582.513          30.000  
  22598707.318   118757008.0123      -3700.859          25.000  
  24917573.299   130942733.7982      -3427.377          32.000  
  21323920.876   112057964.938        2597.324          46.000  
  22689783.551   119235610.206        -420.618          41.000  
  25158391.648                       -1316.969          22.000  
 23  8 28 11 46  2.9990000  0 11G 3G 4G 6G17G19G 2G 1G21G 9G31G12
  20380556.351   107100548.087       -1838.740          47.000  
  20113709.392   105698253.731         886.277          45.000  
  21775458.767   114430815.443        2577.331          44.000  
  21662724.379   113838377.872       -2086.871          44.000  
  21080378.540   110778133.549        -834.987          46.000  
  24168624.481   127006771.531       -3582.437          30.000  
  22599415.339   118760709.7822      -3702.594          25.000  
  24918224.467   130946161.7622      -3427.788          32.000  
  21323426.468   112055368.070        2596.616          46.000  
  22689864.045   119236031.433        -421.941          41.000  
  25158642.351                       -1316.969          22.000  
 23  8 28 11 46  3.9990000  0 11G 3G 4G 6G17G19G 2G 1G21G 9G31G12
  20380906.271   107102386.687       -1838.785          47.000  
  20113541.033   105697367.456         885.849          45.000  
  21774968.189   114428237.937        2577.175          44.000  
  21663121.511   113840464.858       -2087.219          44.000  
  21080537.873   110778968.832        -835.953          46.000  
  24169301.868   127010354.109       -3582.591          29.000  
  22600112.750                       -3702.422          25.000  
  24918877.672   130949589.8352      -3429.420          32.000  
  21322932.400   112052771.621        2596.187          46.000  
  22689943.884   119236453.353        -422.147          40.000  
  25158893.289                       -1316.969          21.000  
 23  8 28 11 46  4.9990000  0 11G 3G 4G 6G17G19G 2G 1G21G 9G31G12
  20381256.083   107104225.337       -1839.001          47.000  
  20113372.442   105696481.455         885.695          45.000  
  21774477.868   114425660.413        2577.312          44.000  
  21663518.447   113842552.028       -2087.478          44.000  
  21080697.167   110779804.493        -835.981          46.000  
  24169955.662   127013936.584       -3582.695          29.000  
  22600809.712                       -3707.983          23.000  
  24919529.717   130953017.6122      -3428.694          33.000  
  21322437.826   112050175.280        2595.994          45.000  
  22690023.967   119236875.670        -422.806          40.000  
  25159145.140                       -1316.969          21.000  
 23  8 28 11 46  5.9990000  0 11G 3G 4G 6G17G19G 2G 1G21G 9G31G12
  20381605.968   107106064.569       -1839.492          47.000  
  20113203.977   105695596.305         884.695          45.000  
  21773987.212   114423083.428        2576.685          44.000  
  21663915.902   113844639.957       -2088.142          43.000  
  21080856.645   110780641.160        -837.238          46.000  
  24170644.871   127017519.509       -3583.208          31.000  
  22601507.642                       -3694.305          21.000  
  24920177.613   130956445.6032      -3427.466          32.000  
  21321943.884   112047579.581        2595.177          45.000  
  22690104.164   119237298.929        -423.699          40.000  
  25159394.726                       -1316.969          21.000  
 23  8 28 11 46  6.9990000  0 10G 3G 4G 6G17G19G 2G 1G21G 9G31
  20381956.321   107107904.255       -1840.103          47.000  
  20113035.413   105694711.853         883.877          45.000  
  21773496.839   114420506.840        2576.293          44.000  
  21664313.195   113846728.503       -2089.082          43.000  
  21081016.122   110781478.628        -838.091          46.000  
  24171333.845   127021102.653       -3583.071          31.000  
  22602209.599                       -3704.599          18.000  
  24920833.135   130959873.9312      -3429.117          32.000  
  21321450.082   112044984.390        2594.838          45.000  
  22690184.732   119237722.984        -424.611          40.000  
 23  8 28 11 46  7.9990000  0 10G 3G 4G 6G17G19G 2G 1G21G 9G31
  20382306.547   107109744.348       -1840.234          48.000  
  20112866.800   105693828.042         883.507          45.000  
  21773006.562   114417930.591        2576.219          44.000  
  21664710.432   113848817.592       -2089.278          43.000  
  21081176.014   110782316.887        -838.540          46.000  
  24172010.635   127024685.930       -3583.367          32.000  
  22602909.261                       -3690.260          18.000  
  24921482.990   130963302.2562      -3428.366          33.000  
  21320956.241   112042389.672        2594.564          45.000  
  22690265.142   119238147.786        -425.314          40.000  
 23  8 28 11 46  8.9990000  0 10G 3G 4G 6G17G19G 2G 1G21G 9G31
  20382656.973   107111584.842       -1840.822          47.000  
  20112698.741   105692944.891         882.565          45.000  
  21772516.350   114415354.700        2575.532          44.000  
  21665108.297   113850907.246       -2090.000          44.000  
  21081335.854   110783155.951        -839.563          46.000  
  24172678.433   127028269.521       -3584.255          30.000  
  22603614.075                       -3690.260          14.000  
  24922130.166   130966730.7312      -3428.516          33.000  
  21320462.596   112039795.405        2593.945          46.000  
  22690346.042   119238573.349        -426.067          40.000  
 23  8 28 11 46  9.9990000  0 10G 3G 4G 6G17G19G 2G 1G21G 9G31
  20383007.548   107113425.681       -1840.930          47.000  
  20112531.040   105692062.330         882.275          45.000  
  21772026.086   114412779.098        2575.541          44.000  
  21665506.184   113852997.404       -2090.352          44.000  
  21081495.384   110783995.730        -840.156          46.000  
  24173350.327   127031853.196       -3583.689          28.000  
  22604323.487                       -3690.260          11.000  
  24922782.808   130970159.3432      -3429.297          32.000  
  21319968.925   112037201.554        2593.685          46.000  
  22690427.198   119238999.598        -426.503          41.000  
 23  8 28 11 46 10.9990000  0 10G 3G 4G 6G17G19G 2G 1G21G 9G31
  20383358.254   107115266.969       -1841.583          47.000  
  20112363.043   105691180.463         881.426          45.000  
  21771536.084   114410203.874        2574.985          44.000  
  21665904.118   113855088.190       -2091.014          44.000  
  21081655.267   110784836.345        -841.112          46.000  
  24174053.191   127035437.209       -3584.077          29.000  
  22605022.220                       -3712.941          14.000  
  24923438.073   130973588.0372      -3428.399          31.000  
  21319475.459   112034608.211        2592.967          46.000  
  22690508.512   119239426.679        -427.349          41.000  
 23  8 28 11 46 11.9990000  0 10G 3G 4G 6G17G19G 2G 1G21G 9G31
  20383708.995   107117108.684       -1841.845          47.000  
  20112195.285   105690299.268         880.969          45.000  
  21771045.707   114407629.032        2574.702          44.000  
  21666302.040   113857179.513       -2091.481          44.000  
  21081815.399   110785677.767        -841.918          46.000  
  24174741.755   127039021.407       -3584.543          29.000  
  22605724.182                       -3696.224          17.000  
  24924093.272   130977016.9552      -3429.344          32.000  
  21318982.294   112032015.345        2592.713          46.000  
  22690590.039   119239854.511        -428.270          41.000  
 23  8 28 11 46 12.9990000  0 10G 3G 4G 6G17G19G 2G 1G21G 9G31
  20384059.779   107118950.573       -1841.944          48.000  
  20112027.719   105689418.507         880.621          45.000  
  21770556.093   114405054.322        2574.698          44.000  
  21666699.621   113859271.212       -2091.805          43.000  
  21081975.370   110786519.743        -842.085          46.000  
  24175417.510   127042605.581       -3584.746          30.000  
  22606433.577                       -3703.636          20.000  
  24924744.933   130980445.7542      -3429.521          31.000  
  21318488.767   112029422.737        2592.510          46.000  
  22690671.375   119240282.855        -428.588          41.000  
 23  8 28 11 46 13.9990000  0 10G 3G 4G 6G17G19G 2G 1G21G 9G31
  20384409.909   107120792.712       -1842.610          48.000  
  20111860.472   105688538.244         879.668          45.000  
  21770065.812   114402479.795        2574.081          44.000  
  21667097.460   113861363.307       -2092.653          43.000  
  21082135.986   110787362.374        -843.430          46.000  
  24176109.909   127046189.851       -3584.916          28.000  
  22607149.799                       -3706.212          22.000  
  24925401.549   130983874.5202      -3430.461          31.000  
  21317995.895   112026830.429        2591.720          46.000  
  22690753.221   119240711.799        -429.666          41.000  
 23  8 28 11 46 14.9990000  0 10G 3G 4G 6G17G19G 2G 1G21G 9G31
  20384760.872   107122635.283       -1842.481          48.000  
  20111692.893   105687658.654         879.343          45.000  
  21769575.827   114399905.649        2574.222          44.000  
  21667495.404   113863455.994       -2092.715          43.000  
  21082296.188   110788205.796        -843.455          46.000  
  24176775.085   127049774.045       -3583.038          26.000  
  22607866.052                       -3700.135          22.000  
  24926048.573   130987303.2962      -3427.821          32.000  
  21317502.948   112024238.597        2591.846          46.000  
  22690835.062   119241141.530        -429.653          41.000  
 23  8 28 11 46 15.9990000  0 10G 3G 4G 6G17G19G 2G 1G21G 9G31
  20385111.307   107124477.860       -1843.027          47.000  
  20111525.227   105686779.316         878.794          45.000  
  21769085.725   114397331.447        2573.920          44.000  
  21667893.578   113865548.834       -2093.198          43.000  
  21082456.599   110789049.625        -844.330          46.000  
  24177431.274   127053358.358       -3584.302          26.000  
  22608577.698                       -3704.226          22.000  
  24926696.591   130990731.9362      -3428.490          32.000  
  21317009.796   112021646.858        2591.250          46.000  
  22690916.834   119241571.630        -430.763          41.000  
 23  8 28 11 46 16.9990000  0 10G 3G 4G 6G17G19G 2G 1G21G 9G31
  20385462.240   107126321.023       -1843.310          47.000  
  20111357.897   105685900.813         878.033          45.000  
  21768596.167   114394757.787        2573.256          44.000  
  21668291.819   113867642.417       -2093.952          43.000  
  21082617.429   110789894.434        -845.601          46.000  
  24178104.543   127056943.050       -3585.141          26.000  
  22609283.725                       -3702.510          23.000  
  24927348.845   130994160.8502      -3428.262          32.000  
  21316516.797   112019055.742        2590.783          46.000  
  22690998.728   119242002.641        -431.106          41.000  
 23  8 28 11 46 17.9990000  0 10G 3G 4G 6G17G19G 2G 1G21G 9G31
  20385812.815   107128164.889       -1844.167          48.000  
  20111190.872   105685023.245         877.258          45.000  
  21768106.833   114392184.754        2572.748          44.000  
  21668690.334   113869736.857       -2094.684          43.000  
  21082778.341   110790740.300        -846.461          46.000  
  24178786.903   127060528.172       -3585.162          27.000  
  22609992.775                       -3706.687          25.000  
  24928001.676   130997590.1772      -3428.075          32.000  
  21316024.042   112016465.381        2590.172          46.000  
  22691080.726   119242434.719        -432.579          41.000  
 23  8 28 11 46 18.9990000  0 10G 3G 4G 6G17G19G 2G 1G21G 9G31
  20386163.704   107130008.933       -1844.312          48.000  
  20111024.040   105684146.122         876.928          45.000  
  21767616.935   114389611.876        2572.652          44.000  
  21669088.971   113871831.664       -2095.355          43.000  
  21082939.355   110791586.747        -846.771          45.000  
  24179468.094   127064113.338       -3584.750          27.000  
  22610702.550   118820042.8773      -3705.908          27.000  
  24928660.037   131001018.9961      -3430.292          32.000  
  21315531.283   112013875.293        2589.766          46.000  
  22691163.248   119242867.314        -432.687          41.000  
 23  8 28 11 46 19.9990000  0 10G 3G 4G 6G17G19G 2G 1G21G 9G31
  20386514.715   107131853.389       -1844.727          48.000  
  20110857.202   105683269.658         876.153          45.000  
  21767127.387   114387039.345        2572.287          44.000  
  21669487.721   113873927.016       -2095.659          43.000  
  21083100.281   110792434.009        -847.946          45.000  
  24180155.009   127067698.775       -3585.271          27.000  
  22611408.900   118823749.0612      -3706.138          28.000  
  24929310.721   131004448.281       -3428.466          32.000  
  21315038.650   112011285.664        2589.392          46.000  
  22691245.435   119243300.710        -433.801          41.000  
 23  8 28 11 46 20.9990000  0 10G 3G 4G 6G17G19G 2G 1G21G 9G31
  20386865.852   107133698.348       -1845.605          47.000  
  20110690.470   105682393.935         875.083          45.000  
  21766638.087   114384467.237        2571.544          44.000  
  21669886.659   113876023.026       -2096.731          44.000  
  21083261.359   110793282.128        -848.960          45.000  
  24180837.465                       -3576.930          25.000  
  22612122.046   118827455.6032      -3707.503          31.000  
  24929966.134   131007877.862       -3429.752          32.000  
  21314546.000   112008696.587        2588.504          46.000  
  22691327.922   119243734.923        -434.804          41.000  
 23  8 28 11 46 21.9990000  0 10G 3G 4G 6G17G19G 2G 1G21G 9G31
  20387216.724   107135543.679       -1845.569          47.000  
  20110524.008   105681518.835         874.964          45.000  
  21766148.735   114381895.477        2571.781          44.000  
  21670286.008   113878119.559       -2096.542          44.000  
  21083422.621   110794131.001        -849.110          45.000  
  24181522.011                       -3585.650          26.000  
  22612821.569   118831162.4412      -3706.607          33.000  
  24930619.300   131011307.582       -3429.935          32.000  
  21314053.336   112006107.943        2588.574          46.000  
  22691410.788   119244169.861        -435.145          41.000  
 23  8 28 11 46 22.9990000  0 10G 3G 4G 6G17G19G 2G 1G21G 9G31
  20387567.818   107137389.414       -1846.106          47.000  
  20110357.267   105680644.405         873.891          44.000  
  21765659.449   114379324.061        2571.263          44.000  
  21670685.482   113880216.664       -2097.395          44.000  
  21083583.953   110794980.683        -850.299          45.000  
  24182203.769                       -3585.542          26.000  
  22613526.933   118834869.5372      -3707.343          33.000  
  24931274.787   131014737.406       -3430.458          32.000  
  21313560.756   112003519.784        2587.870          46.000  
  22691494.070   119244605.560        -436.001          41.000  
 23  8 28 11 46 23.9990000  0 10G 3G 4G 6G17G19G 2G 1G21G 9G31
  20387918.990   107139235.475       -1846.234          47.000  
  20110190.399   105679770.543         873.435          44.000  
  21765170.175   114376752.928        2570.836          44.000  
  21671084.652   113882314.257       -2097.756          44.000  
  21083745.498   110795831.067        -851.082          45.000  
  24182887.791                       -3586.802          26.000  
  22614230.037   118838576.9242      -3707.706          33.000  
  24931925.649   131018167.192       -3430.032          32.000  
  21313068.437   112000932.017        2587.464          46.000  
  22691577.255   119245041.935        -436.817          41.000  
 23  8 28 11 46 24.9990000  0 10G 3G 4G 6G17G19G 2G 1G21G 9G31
  20388270.176   107141081.861       -1847.015          47.000  
  20110024.338   105678897.239         872.770          44.000  
  21764680.779   114374182.034        2570.406          44.000  
  21671483.821   113884412.311       -2098.640          44.000  
  21083907.432   110796682.114        -851.602          45.000  
  24183575.055   127085544.6313      -3586.368          27.000  
  22614931.619   118842284.4502      -3707.600          34.000  
  24932577.450   131021597.094       -3430.025          32.000  
  21312575.870   111998344.619        2586.818          46.000  
  22691660.728   119245478.972        -437.532          41.000  
 23  8 28 11 46 25.9990000  0 10G 3G 4G 6G17G19G 2G 1G21G 9G31
  20388621.789   107142928.510       -1846.564          48.000  
  20109858.003   105678024.456         872.896          44.000  
  21764191.685   114371611.379        2570.825          44.000  
  21671882.912   113886510.809       -2098.344          44.000  
  21084069.230   110797533.860        -851.791          45.000  
  24184255.042   127089131.1132      -3586.333          27.000  
  22615643.029   118845992.1472      -3707.371          35.000  
  24933230.228   131025026.958       -3429.696          33.000  
  21312083.726   111995757.556        2587.091          46.000  
  22691744.646   119245916.650        -437.764          42.000  
 23  8 28 11 46 26.9990000  0 10G 3G 4G 6G17G19G 2G 1G21G 9G31
  20388973.341   107144775.284       -1847.101          48.000  
  20109691.947   105677152.047         872.136          44.000  
  21763702.359   114369040.791        2570.404          44.000  
  21672282.465   113888609.584       -2099.144          44.000  
  21084231.465   110798386.109        -852.599          45.000  
  24184939.976   127092717.1762      -3584.474          27.000  
  22616349.689   118849699.8952      -3708.137          35.000  
  24933882.560   131028456.665       -3428.812          33.000  
  21311591.351   111993170.667        2586.584          46.000  
  22691828.390   119246354.777        -438.425          42.000  
 23  8 28 11 46 27.9990000  0 10G 3G 4G 6G17G19G 2G 1G21G 9G31
  20389324.994   107146622.628       -1847.253          48.000  
  20109525.982   105676280.463         871.572          44.000  
  21763213.369   114366470.717        2570.159          44.000  
  21672681.971   113890709.093       -2099.732          43.000  
  21084393.734   110799239.332        -853.766          44.000  
  24185629.622   127096304.0892      -3587.026          29.000  
  22617053.216   118853408.0802      -3708.284          35.000  
  24934537.205   131031886.776       -3429.951          32.000  
  21311099.111   111990584.418        2586.306          46.000  
  22691912.177   119246793.858        -439.167          42.000  
 23  8 28 11 46 28.9990000  0 10G 3G 4G 6G17G19G 2G 1G21G 9G31
  20389676.751   107148470.565       -1848.297          48.000  
  20109359.974   105675409.702         870.477          44.000  
  21762724.562   114363901.156        2569.334          44.000  
  21673081.485   113892809.333       -2100.677          43.000  
  21084555.738   110800093.471        -854.354          44.000  
  24186322.068                       -3588.032          27.000  
  22617758.497   118857116.7022      -3708.519          35.000  
  24935183.849   131035317.060       -3429.826          31.000  
  21310607.302   111987998.817        2585.367          46.000  
  22691996.182   119247233.852        -440.559          42.000  
 23  8 28 11 46 29.9990000  0 10G 3G 4G 6G17G19G 2G 1G21G 9G31
  20390028.477   107150318.830       -1848.627          48.000  
  20109194.489   105674539.547         869.607          44.000  
  21762235.716   114361331.899        2568.869          44.000  
  21673481.636   113894910.071       -2101.147          44.000  
  21084718.500   110800948.373        -855.654          44.000  
  24187015.065                       -3587.523          27.000  
  22618464.311   118860825.6052      -3709.406          35.000  
  24935835.711   131038747.383       -3430.505          31.000  
  21310115.586   111985413.626        2584.760          46.000  
  22692080.122   119247674.549        -441.418          42.000  
 23  8 28 11 46 30.9990000  0 10G 3G 4G 6G17G19G 2G 1G21G 9G31
  20390380.304   107152167.363       -1848.767          48.000  
  20109028.917   105673669.896         869.361          44.000  
  21761746.918   114358762.864        2568.866          44.000  
  21673881.564   113897011.243       -2101.430          44.000  
  21084881.210   110801803.919        -856.053          44.000  
  24187701.600   127107229.5823      -3587.357          29.000  
  22619170.107   118864534.668       -3709.694          35.000  
  24936491.032   131042177.758       -3430.145          32.000  
  21309623.852   111982828.760        2584.566          46.000  
  22692163.687   119248115.850        -442.006          42.000  
 23  8 28 11 46 31.9990000  0 10G 3G 4G 6G17G19G 2G 1G21G 9G31
  20390732.262   107154016.205       -1848.999          48.000  
  20108863.463   105672800.790         869.024          44.000  
  21761258.381   114356194.047        2569.038          44.000  
  21674281.309   113899112.868       -2101.789          43.000  
  21085043.851   110802660.118        -856.429          44.000  
  24188370.755   127110816.9662      -3587.605          30.000  
  22619876.042   118868243.910       -3709.349          35.000  
  24937142.771   131045608.131       -3430.409          32.000  
  21309131.987   111980244.240        2584.409          46.000  
  22692247.906   119248557.792        -442.303          42.000  
 23  8 28 11 46 32.9990000  0 10G 3G 4G 6G17G19G 2G 1G21G 9G31
  20391084.264   107155865.390       -1849.756          48.000  
  20108698.196   105671932.301         867.870          44.000  
  21760769.775   114353625.560        2568.116          44.000  
  21674681.587   113901215.011       -2102.782          43.000  
  21085206.823   110803517.090        -857.534          44.000  
  24189052.308   127114404.5682      -3588.797          29.000  
  22620581.694   118871953.360       -3710.468          35.000  
  24937793.036   131049038.558       -3430.629          32.000  
  21308640.323   111977660.160        2583.544          46.000  
  22692332.060   119249000.447        -443.289          42.000  
 23  8 28 11 46 33.9990000  0 10G 3G 4G 6G17G19G 2G 1G21G 9G31
  20391436.187   107157715.121       -1849.896          48.000  
  20108533.051   105671064.595         867.438          44.000  
  21760280.995   114351057.560        2567.750          44.000  
  21675081.677   113903317.833       -2103.000          43.000  
  21085370.227   110804374.985        -858.406          44.000  
  24189741.809   127117992.3212      -3587.743          29.000  
  22621287.834   118875663.303       -3710.448          35.000  
  24938443.092   131052469.235       -3429.135          32.000  
  21308148.824   111975076.669        2583.253          46.000  
  22692416.314   119249443.987        -443.682          42.000  
 23  8 28 11 46 34.9990000  0 10G 3G 4G 6G17G19G 2G 1G21G 9G31
  20391787.804   107159565.219       -1850.330          48.000  
  20108367.959   105670197.525         866.475          44.000  
  21759792.179   114348489.874        2567.212          44.000  
  21675482.098   113905421.208       -2103.740          43.000  
  21085533.761   110805233.639        -859.366          44.000  
  24190430.866   127121580.5582      -3590.088          30.000  
  22621993.958   118879373.440       -3710.240          35.000  
  24939096.048   131055900.069       -3430.797          31.000  
  21307657.107   111972493.618        2582.686          46.000  
  22692500.860   119249888.249        -444.577          41.000  
 23  8 28 11 46 35.9990000  0 10G 3G 4G 6G17G19G 2G 1G21G 9G31
  20392139.954   107161415.635       -1850.360          48.000  
  20108203.273   105669330.995         866.353          44.000  
  21759303.708   114345922.442        2567.694          44.000  
  21675882.506   113907525.031       -2103.714          43.000  
  21085697.601   110806092.978        -859.606          44.000  
  24191118.466   127125168.6252      -3587.792          29.000  
  22622700.041   118883083.862       -3710.366          35.000  
  24939749.934   131059330.908       -3431.103          29.000  
  21307165.626   111969910.925        2582.675          46.000  
  22692585.354   119250333.186        -444.913          41.000  
 23  8 28 11 46 36.9990000  0 10G 3G 4G 6G17G19G 2G 1G21G 9G31
  20392492.317   107163266.490       -1851.093          48.000  
  20108038.822   105668465.144         865.377          44.000  
  21758815.412   114343355.403        2566.761          45.000  
  21676283.032   113909629.463       -2104.532          44.000  
  21085861.223   110806953.112        -860.658          44.000  
  24191799.618   127128757.0432      -3588.424          28.000  
  22623405.999   118886794.567       -3711.217          34.000  
  24940410.460   131062761.957       -3431.457          30.000  
  21306674.097   111967328.754        2581.903          46.000  
  22692669.835   119250778.931        -446.313          41.000  
 23  8 28 11 46 37.9990000  0 10G 3G 4G 6G17G19G 2G 1G21G 9G31
  20392844.650   107165117.372       -1851.477          48.000  
  20107874.061   105667599.595         864.661          44.000  
  21758326.980   114340788.347        2566.388          45.000  
  21676683.554   113911734.087       -2105.242          43.000  
  21086025.234   110807813.669        -861.232          44.000  
  24192492.086   127132345.3172      -3588.413          28.000  
  22624111.720   118890505.169       -3711.113          34.000  
  24941062.928   131066192.600       -3430.833          29.000  
  21306182.830   111964746.667        2581.543          46.000  
  22692754.569   119251225.019        -446.955          41.000  
