     2.11           OBSERVATION DATA    M: Mixed            RINEX VERSION / TYPE
RTKCONV demo5 b34f.1                    20231029 203020 UTC PGM / RUN BY / DATE 
format: u-blox UBX                                          COMMENT             
log: C:\Users\oo\Desktop\divers\verniquet\Reseau\verniquet\mCOMMENT             
                                                            MARKER NAME         
                                                            MARKER NUMBER       
                                                            OBSERVER / AGENCY   
                                                            REC # / TYPE / VERS 
                                                            ANT # / TYPE        
  4202042.8026   178936.4724  4778996.7238                  APPROX POSITION XYZ 
        0.0000        0.0000        0.0000                  ANTENNA: DELTA H/E/N
     1     1                                                WAVELENGTH FACT L1/2
     4    C1    L1    D1    S1                              # / TYPES OF OBSERV 
  2023    10    29    17    00   06.0020000     GPS         TIME OF FIRST OBS   
  2023    10    29    17    30   38.9940000     GPS         TIME OF LAST OBS    
                                                            END OF HEADER       
 23 10 29 17 00 06.0020000  0  6G13G25G23G12G15G24
  22815093.519   119894125.3273      -3962.371          24.000  
  21434165.558   112637299.7143       3452.106          36.000  
  22125305.426   116269264.1433      -2946.716          40.000  
  18961471.862    99643206.2173       1880.388          41.000  
  20634225.446                       -3623.760          20.000  
  18299649.769    96165308.5443       -836.975          28.000  
 23 10 29 17 00 07.0020000  0  5G25G23G12G15G24
  21433507.253   112633846.7262       3454.803          31.000  
  22125867.249   116272210.4432      -2945.211          40.000  
  18961109.949    99641326.5132       1880.189          44.000  
  20634921.533   108437244.1223      -3619.171          33.000  
  18299805.879    96166128.8993       -840.875          45.000  
 23 10 29 17 00 08.0020000  0  5G25G23G12G15G24
  21432854.526   112630393.3812       3452.330          29.000  
  22126426.269   116275156.5142      -2946.778          33.000  
  18960738.789    99639446.8622       1878.720          27.000  
  20635614.165   108440884.1172      -3619.331          26.000  
  18299965.044    96166970.6462       -842.334          44.000  
 23 10 29 17 00 09.0020000  0  6G13G25G23G12G15G24
  22817347.459                       -3961.781          30.000  
  21432206.054                        3450.961          29.000  
  22126975.828   116278103.4462      -2946.938          33.000  
  18960385.300    99637568.3202       1877.061          32.000  
  20636292.435                       -3619.608          33.000  
  18300126.996    96167813.2772       -842.810          43.000  
 23 10 29 17 00 10.0020000  0  6G13G25G23G12G15G24
  22818108.064   119909966.9653      -3962.400          29.000  
  21431550.131                        3456.188          23.000  
  22127544.145   116281051.5772      -2947.804          31.000  
  18960028.136                        1860.473          26.000  
  20636971.325   108448016.1063      -3620.640          32.000  
  18300284.287    96168657.4582       -844.812          42.000  
 23 10 29 17 00 11.0020000  0  6G13G25G23G12G15G24
  22818854.800   119913928.0912      -3960.660          29.000  
  21430885.984   112620065.8733       3452.143          26.000  
  22128109.896   116283999.4722      -2948.120          35.000  
  18959668.866                        1876.493          25.000  
  20637646.485   108451636.5812      -3620.359          27.000  
  18300444.358    96169501.4832       -844.098          42.000  
 23 10 29 17 00 12.0020000  0  7G13G25G23G12G19G15G24
  22819605.404   119917890.2972      -3962.444          30.000  
  21430224.658   112616615.1142       3450.458          27.000  
  22128672.345   116286948.6192      -2950.323          37.000  
  18959304.959                        1867.600          23.000  
  20185482.849   106075428.2463       -324.670          31.000  
  20638353.904   108455258.0692      -3623.312          32.000  
  18300605.727    96170346.8352       -846.326          42.000  
 23 10 29 17 00 13.0020000  0  7G13G25G23G12G19G15G24
  22820352.044   119921853.5582      -3962.648          30.000  
  21429564.198                        3450.208          26.000  
  22129232.174   116289898.5071      -2951.283          35.000  
  18958959.513                        1873.765          25.000  
  20185530.218   106075753.7892       -326.020          29.000  
  20639044.587   108458881.0122      -3623.830          32.000  
  18300767.277    96171193.7472       -847.644          41.000  
 23 10 29 17 00 14.0020000  0  7G13G25G23G12G19G15G24
  22821105.510   119925817.0392      -3962.780          24.000  
  21428906.279   112609661.5633       3449.408          35.000  
  22129785.298   116292849.407       -2953.042          30.000  
  18958605.960    99628146.5873       1872.961          32.000  
  20185595.617   106076079.9042       -325.490          28.000  
  20639745.473   108462504.1772      -3622.987          31.000  
  18300929.795    96172041.1072       -846.930          42.000  
 23 10 29 17 00 15.0020000  0  7G13G25G23G12G19G15G24
  22821868.867   119929780.5572      -3964.055          31.000  
  21428255.159   112606212.6612       3448.295          30.000  
  22130348.591   116295800.298       -2952.068          30.000  
  18958258.875    99626273.3022       1871.526          26.000  
  20185648.077   106076406.9302       -328.311          27.000  
  20640429.603   108466127.8762      -3624.980          31.000  
  18301090.821    96172889.1562       -848.816          42.000  
 23 10 29 17 00 29.9940000  0 10G13G25G32G23G12G19G15G24G17G22
  22833194.889   119989255.1162      -3969.466          39.000  
  21418435.572   112554632.8832       3440.619          43.000  
  22604162.315   118785669.3112       3199.438          40.000  
  22138792.097   116340140.7153      -2960.510          43.000  
  18952936.260    99598341.5682       1860.577          48.000  
  20186631.268   106081473.5982       -342.583          36.000  
  20650778.452   108520569.7512      -3633.044          47.000  
  18303533.915    96185726.1783       -860.382          45.000  
  21692802.532   113996459.4682      -2219.920          38.000  
  23199443.680   121913863.2733      -3408.987          36.000  
 23 10 29 17 00 30.9940000  0 10G13G25G32G23G12G19G15G24G17G22
  22833950.565   119993223.7151      -3968.983          37.000  
  21417780.159   112551191.842        3440.761          42.000  
  22603553.355   118782469.0811       3199.738          41.000  
  22139356.097   116343100.895       -2960.608          42.000  
  18952581.602    99596480.998        1860.138          47.000  
  20186696.627   106081816.271        -343.020          38.000  
  20651470.384   108524202.0141      -3633.105          47.000  
  18303697.208    96186586.445        -860.717          45.000  
  21693223.878   113998678.4641      -2219.794          36.000  
  23200091.692   121917271.649       -3408.313          35.000  
 23 10 29 17 00 31.9940000  0 10G13G25G32G23G12G19G15G24G17G22
  22834705.684   119997193.413       -3969.895          37.000  
  21417126.023   112547751.498        3439.687          43.000  
  22602944.669   118779270.043        3198.285          40.000  
  22139919.200   116346061.816       -2961.475          43.000  
  18952227.792    99594621.337        1859.021          48.000  
  20186761.878   106082160.148        -344.833          37.000  
  20652162.915   108527835.548       -3634.171          47.000  
  18303860.851    96187447.653        -861.898          46.000  
  21693646.379   114000898.986       -2221.865          37.000  
  23200740.391   121920680.523       -3408.183          35.000  
 23 10 29 17 00 34.9940000  0 10G13G25G32G23G12G19G15G24G17G22
  22836970.209   120009088.0613      -3973.209          37.000  
  21415161.534   112537432.4403       3436.326          43.000  
  22601117.514   118769673.4693       3195.027          41.000  
  22141607.439   116354931.5083      -2965.375          41.000  
  18951164.880    99589042.7533       1854.492          47.000  
  20186958.034   106083180.0603       -349.622          37.000  
  20654236.769   108538746.5843      -3637.892          47.000  
  18304351.752    96190017.3833       -866.130          46.000  
  21694909.696   114007519.5473      -2225.718          35.000  
  23202681.887   121930915.9673      -3412.271          36.000  
 23 10 29 17 00 35.9940000  0 10G13G25G32G23G12G19G15G24G17G22
  22837726.966   120013061.8352      -3973.508          37.000  
  21414508.082   112533996.8222       3435.644          43.000  
  22600509.762   118766479.1312       3194.629          40.000  
  22142171.474   116357897.4072      -2965.710          41.000  
  18950811.975    99587189.0252       1853.680          47.000  
  20187025.704   106083530.5922       -350.814          38.000  
  20654929.505   108542385.1272      -3638.484          48.000  
  18304517.141    96190884.3862       -866.943          46.000  
  21695333.047   114009745.8152      -2226.174          36.000  
  23203331.643   121934328.8292      -3413.310          35.000  
 23 10 29 17 00 36.9940000  0 10G13G25G32G23G12G19G15G24G17G22
  22838484.005   120017035.8112      -3974.794          39.000  
  21413854.349   112530561.4632       3434.720          45.000  
  22599901.964   118763285.1282       3193.525          40.000  
  22142736.440   116360863.7052      -2967.078          41.000  
  18950458.920    99585335.8472       1852.832          48.000  
  20187093.027   106083881.8422       -352.015          38.000  
  20655622.242   108546024.0322      -3638.963          45.000  
  18304682.150    96191751.9622       -868.012          46.000  
  21695756.450   114011972.6522      -2227.306          36.000  
  23203981.500   121937741.6152      -3413.294          32.000  
 23 10 29 17 00 37.9940000  0 10G13G25G32G23G12G19G15G24G17G22
  22839240.345   120021009.8282      -3974.528          37.000  
  21413200.450   112527126.4322       3434.682          38.000  
  22599293.748   118760091.3852       3193.606          40.000  
  22143302.161   116363830.2832      -2966.913          44.000  
  18950106.690    99583483.2782       1852.222          48.000  
  20187160.325   106084233.8342       -352.390          35.000  
  20656314.529   108549663.2952      -3639.629          46.000  
  18304847.037    96192620.0842       -868.524          45.000  
  21696180.285   114014199.9812      -2227.847          36.000  
  23204627.983   121941154.4482      -3412.602          31.000  
 23 10 29 17 00 38.9940000  0 10G13G25G32G23G12G19G15G24G17G22
  22839997.442   120024984.5282      -3974.743          39.000  
  21412546.937   112523692.1512       3432.187          40.000  
  22598686.164   118756898.5262       3192.052          39.000  
  22143867.332   116366797.7982      -2968.988          40.000  
  18949755.363    99581631.8192       1850.348          48.000  
  20187228.124   106084587.1702       -353.893          36.000  
  20657006.947   108553303.4312      -3641.008          47.000  
  18305012.376    96193489.2502       -870.010          46.000  
  21696604.675   114016428.3942      -2229.344          37.000  
  23205277.990   121944568.0712      -3413.795          32.000  
 23 10 29 17 00 39.9940000  0 10G13G25G32G23G12G19G15G24G17G22
  22840753.940   120028956.4322      -3958.826          38.000  
  21411893.143   112520255.1572       3449.615          43.000  
  22598077.389   118753702.9162       3209.456          38.000  
  22144432.791   116369762.6492      -2951.874          43.000  
  18949402.513    99579777.9542       1866.577          48.000  
  20187295.179   106084938.2802       -338.351          38.000  
  20657699.272   108556940.9892      -3624.387          45.000  
  18305177.032    96194356.0342       -853.947          45.000  
  21697028.551   114018654.4512      -2213.175          37.000  
  23205931.861   121947978.7742      -3397.110          33.000  
 23 10 29 17 00 40.9940000  0 10G13G25G32G23G12G19G15G24G17G22
  22841509.848   120032927.1112      -3970.290          38.000  
  21411237.861   112516817.0882       3439.087          41.000  
  22597469.029   118750506.2732       3197.203          39.000  
  22144996.533   116372726.5122      -2963.196          42.000  
  18949048.760    99577923.2672       1855.163          48.000  
  20187362.017   106085288.7912       -349.606          38.000  
  20658390.669   108560577.4972      -3635.884          45.000  
  18305341.550    96195221.9612       -865.134          45.000  
  21697452.720   114020879.6202      -2224.776          38.000  
  23206576.714   121951388.0922      -3408.565          32.000  
 23 10 29 17 00 41.9940000  0 10G13G25G32G23G12G19G15G24G17G22
  22842265.637   120036896.6292      -3955.752          38.000  
  21410582.370   112513378.1032       3452.616          41.000  
  22596860.357   118747308.6352       3211.367          39.000  
  22145560.291   116375689.4952      -2950.128          43.000  
  18948695.652    99576067.9592       1868.158          48.000  
  20187428.040   106085638.8352       -336.684          36.000  
  20659082.795   108564213.1512      -3622.387          46.000  
  18305506.821    96196087.2652       -852.177          46.000  
  21697876.700   114023104.1372      -2211.794          38.000  
  23207220.224   121954796.2702      -3394.112          32.000  
 23 10 29 17 00 42.9940000  0 10G13G25G32G23G12G19G15G24G17G22
  22843021.033   120040862.1291      -3967.221          38.000  
  21409927.284   112509935.673        3441.188          41.000  
  22596251.630   118744107.1501       3199.897          40.000  
  22146124.016   116378648.5991      -2960.968          43.000  
  18948342.678    99574209.0001       1856.946          48.000  
  20187493.590   106085985.4951       -348.453          37.000  
  20659773.378   108567845.468       -3633.531          45.000  
  18305671.770    96196948.8921       -863.612          46.000  
  21698300.539   114025325.0041      -2223.224          39.000  
  23207870.650   121958200.935       -3405.572          33.000  
 23 10 29 17 00 43.9940000  0 10G13G25G32G23G12G19G15G24G17G22
  22843776.117   120044829.647       -3967.795          38.000  
  21409272.181   112506494.927        3440.675          41.000  
  22595643.152   118740907.837        3198.652          40.000  
  22146688.002   116381609.974       -2962.000          44.000  
  18947989.726    99572352.512        1855.841          48.000  
  20187559.606   106086334.710        -349.871          37.000  
  20660464.586   108571479.492       -3634.522          45.000  
  18305836.162    96197812.929        -864.594          46.000  
  21698724.706   114027548.261       -2223.805          39.000  
  23208517.320   121961607.009       -3406.914          33.000  
 23 10 29 17 00 44.9940000  0 10G13G25G32G23G12G19G15G24G17G22
  22844531.432   120048798.117       -3968.723          38.000  
  21408617.037   112503055.333        3439.682          41.000  
  22595035.221   118737709.686        3197.412          41.000  
  22147251.627   116384572.562       -2962.988          43.000  
  18947637.292    99570497.475        1854.590          49.000  
  20187626.209   106086685.675        -351.538          39.000  
  20661156.845   108575114.751       -3635.747          46.000  
  18306000.785    96198678.431        -865.882          46.000  
  21699149.481   114029772.956       -2225.347          39.000  
  23209165.035   121965013.944       -3407.175          32.000  
 23 10 29 17 00 45.9940000  0 10G13G25G32G23G12G19G15G24G17G22
  22845287.225   120052767.465       -3969.571          38.000  
  21407963.090   112499616.726        3438.474          42.000  
  22594428.147   118734512.440        3196.853          41.000  
  22147815.142   116387536.202       -2964.184          43.000  
  18947284.536    99568643.680        1853.509          48.000  
  20187693.456   106087037.996        -353.121          39.000  
  20661849.396   108578751.037       -3636.479          46.000  
  18306165.792    96199545.145        -867.113          46.000  
  21699574.117   114031998.882       -2226.333          39.000  
  23209812.584   121968421.747       -3408.343          31.000  
 23 10 29 17 00 46.9940000  0 10G13G25G32G23G12G19G15G24G17G22
  22846042.959   120056737.150       -3969.325          38.000  
  21407308.722   112496178.566        3438.519          40.000  
  22593819.820   118731315.776        3196.930          38.000  
  22148379.365   116390500.417       -2964.087          43.000  
  18946931.690    99566790.691        1853.015          48.000  
  20187760.820   106087391.286        -353.445          39.000  
  20662541.085   108582387.963       -3636.958          46.000  
  18306330.576    96200412.641        -867.401          46.000  
  21699998.659   114034225.629       -2226.635          39.000  
  23210461.093   121971829.751       -3407.498          32.000  
 23 10 29 17 00 47.9940000  0 10G13G25G32G23G12G19G15G24G17G22
  22846799.053   120060707.180       -3970.508          38.000  
  21406655.174   112492740.953        3437.213          41.000  
  22593210.995   118728119.597        3195.449          40.000  
  22148943.703   116393465.294       -2966.931          31.000  
  18946578.653    99564938.507        1851.813          48.000  
  20187828.243   106087745.635        -355.527          39.000  
  20663232.753   108586025.391       -3637.810          45.000  
  18306495.300    96201280.929        -869.176          46.000  
  21700422.669   114036453.082       -2227.954          38.000  
  23211110.045   121975238.130       -3409.126          32.000  
 23 10 29 17 00 48.9940000  0 10G13G25G32G23G12G19G15G24G17G22
  22847555.300   120064678.011       -3971.009          38.000  
  21406002.205   112489304.301        3436.108          41.000  
  22592602.582   118724924.381        3195.034          38.000  
  22149506.450   116396431.151       -2966.095          32.000  
  18946226.470    99563087.576        1850.226          49.000  
  20187896.173   106088101.372        -356.966          39.000  
  20663923.780   108589663.931       -3639.255          44.000  
  18306660.839    96202150.438        -870.212          46.000  
  21700846.834   114038681.787       -2229.112          39.000  
  23211759.558   121978647.313       -3409.311          32.000  
 23 10 29 17 00 49.9940000  0 10G13G25G32G23G12G19G15G24G17G22
  22848310.951   120068649.512       -3971.996          37.000  
  21405349.342   112485868.383        3435.899          40.000  
  22591995.037   118721730.003        3194.365          39.000  
  22150070.387   116399397.672       -2966.132          36.000  
  18945874.478    99561237.717        1849.933          48.000  
  20187963.742   106088458.412        -356.920          38.000  
  20664615.750   108593303.270       -3639.510          44.000  
  18306827.087    96203020.998        -870.700          46.000  
  21701270.909   114040911.598       -2229.589          36.000  
  23212408.738   121982057.021       -3409.534          33.000  
 23 10 29 17 00 50.9940000  0 10G13G25G32G23G12G19G15G24G17G22
  22849067.045   120072620.989       -3972.186          37.000  
  21404695.480   112482432.651        3435.400          39.000  
  22591387.216   118718535.771        3193.743          40.000  
  22150635.132   116402364.608       -2967.017          33.000  
  18945521.565    99559388.332        1848.749          47.000  
  20188031.198   106088816.133        -358.566          37.000  
  20665307.990   108596942.892       -3640.262          44.000  
  18306993.401    96203892.012        -871.626          47.000  
  21701694.713   114043141.824       -2230.705          36.000  
  23213058.004   121985466.668       -3409.794          33.000  
 23 10 29 17 00 51.9940000  0 10G13G25G32G23G12G19G15G24G17G22
  22849823.331   120076593.291       -3972.529          38.000  
  21404042.491   112478997.806        3434.566          43.000  
  22590778.485   118715342.485        3192.664          41.000  
  22151200.310   116405332.381       -2968.274          40.000  
  18945169.779    99557540.178        1847.485          47.000  
  20188100.319   106089175.216        -359.502          40.000  
  20665999.644   108600583.506       -3641.183          42.000  
  18307159.449    96204764.226        -872.729          47.000  
  21702119.434   114045373.183       -2231.924          37.000  
  23213707.218   121988877.027       -3409.956          33.000  
 23 10 29 17 00 52.9940000  0 10G13G25G32G23G12G19G15G24G17G22
  22850579.765   120080566.265       -3973.385          39.000  
  21403387.754   112475563.801        3433.377          39.000  
  22590171.352   118712150.072        3191.630          41.000  
  22151766.297   116408301.158       -2969.641          40.000  
  18944818.620    99555693.153        1846.503          47.000  
  20188169.581   106089535.645        -360.716          37.000  
  20666691.851   108604225.022       -3641.885          43.000  
  18307325.372    96205637.536        -873.841          47.000  
  21702544.168   114047605.642       -2233.344          35.000  
  23214356.527   121992288.069       -3410.934          33.000  
 23 10 29 17 00 53.9940000  0 10G13G25G32G23G12G19G15G24G17G22
  22851336.679   120084539.651       -3973.074          39.000  
  21402733.153   112472130.406        3433.035          40.000  
  22589564.593   118708958.204        3191.715          41.000  
  22152332.022   116411270.538       -2969.232          40.000  
  18944467.534    99553846.948        1846.179          47.000  
  20188238.258   106089897.146        -361.579          38.000  
  20667384.939   108607867.188       -3641.859          44.000  
  18307492.390    96206511.685        -874.146          47.000  
  21702969.011   114049838.910       -2232.908          35.000  
  23215005.627   121995699.518       -3411.133          33.000  
 23 10 29 17 00 54.9940000  0 10G13G25G32G23G12G19G15G24G17G22
  22852093.475   120088512.854       -3973.578          39.000  
  21402078.652   112468696.967        3432.885          40.000  
  22588957.016   118705766.307        3191.804          41.000  
  22152897.660   116414239.986       -2969.879          40.000  
  18944116.490    99552001.055        1845.495          48.000  
  20188306.999   106090259.102        -362.368          38.000  
  20668078.388   108611509.367       -3642.644          44.000  
  18307659.358    96207386.064        -874.880          48.000  
  21703393.913   114052072.333       -2233.592          35.000  
  23215655.114   121999110.703       -3412.207          34.000  
 23 10 29 17 00 55.9940000  0 11G13G25G32G23G12G19G15G24G17G22G01
  22852849.807   120092486.644       -3974.527          38.000  
  21401424.345   112465264.213        3432.476          39.000  
  22588349.802   118702575.120        3190.836          41.000  
  22153463.715   116417210.242       -2970.428          39.000  
  18943765.379    99550156.138        1844.275          48.000  
  20188375.988   106090622.187        -363.760          37.000  
  20668772.015   108615152.331       -3643.468          45.000  
  18307826.632    96208261.401        -875.898          47.000  
  21703819.243   114054306.868       -2235.342          36.000  
  23216304.611   122002522.361       -3412.529          37.000  
  23514225.870   123568090.6893      -1304.581          29.000  
 23 10 29 17 00 56.9940000  0 11G13G25G32G23G12G19G15G24G17G22G01
  22853606.601   120096461.077       -3974.697          38.000  
  21400770.254   112461832.376        3431.475          41.000  
  22587742.716   118699384.802        3190.428          41.000  
  22154030.500   116420181.364       -2971.307          42.000  
  18943414.863    99548312.378        1843.323          48.000  
  20188445.752   106090986.632        -364.909          38.000  
  20669465.044   108618796.275       -3644.346          44.000  
  18307993.776    96209137.905        -876.951          47.000  
  21704244.308   114056542.471       -2235.903          35.000  
  23216954.221   122005934.692       -3412.612          37.000  
  23514472.873   123569395.7022      -1305.305          28.000  
 23 10 29 17 00 57.9940000  0 11G13G25G32G23G12G19G15G24G17G22G01
  22854363.363   120100435.516       -3974.781          38.000  
  21400117.418   112458400.589        3431.422          40.000  
  22587135.754   118696194.620        3189.928          41.000  
  22154597.180   116423152.675       -2971.735          42.000  
  18943064.140    99546468.980        1842.908          48.000  
  20188515.381   106091351.658        -366.010          36.000  
  20670157.964   108622440.307       -3644.531          45.000  
  18308161.927    96210014.736        -877.494          48.000  
  21704669.472   114058778.473       -2236.754          39.000  
  23217603.334   122009346.957       -3412.473          37.000  
  23514721.127                       -1305.659          26.000  
 23 10 29 17 00 58.9940000  0 11G13G25G32G23G12G19G15G24G17G22G01
  22855120.340   120104410.803       -3975.463          38.000  
  21399464.479   112454969.892        3430.717          40.000  
  22586529.509   118693005.435        3188.801          42.000  
  22155163.034   116426125.126       -2972.797          40.000  
  18942714.549    99544626.949        1841.534          49.000  
  20188584.824   106091718.220        -367.768          34.000  
  20670851.699   108626085.494       -3645.490          44.000  
  18308329.743    96210892.880        -878.586          48.000  
  21705094.997   114061015.763       -2237.669          40.000  
  23218252.653   122012759.940       -3412.707          35.000  
  23514967.779                       -1305.810          23.000  
 23 10 29 17 00 59.9940000  0 11G13G25G32G23G12G19G15G24G17G22G01
  22855877.018   120108386.804       -3976.255          37.000  
  21398811.546   112451539.989        3429.541          38.000  
  22585923.324   118689817.174        3187.946          42.000  
  22155727.869   116429098.501       -2973.694          39.000  
  18942364.484    99542786.050        1840.497          48.000  
  20188654.411   106092086.130        -368.112          35.000  
  20671545.555   108629731.608       -3646.276          43.000  
  18308497.451    96211772.158        -879.722          48.000  
  21705520.200   114063254.211       -2238.827          38.000  
  23218902.063   122016173.636       -3413.840          36.000  
  23515216.674                       -1301.873          22.000  
 23 10 29 17 01 00.9940000  0 11G13G25G32G23G12G19G15G24G17G22G01
  22856633.560   120112363.137       -3975.904          38.000  
  21398159.992   112448110.612        3429.601          41.000  
  22585316.680   118686629.363        3187.520          40.000  
  22156293.278   116432072.273       -2973.438          37.000  
  18942014.267    99540945.936        1839.758          48.000  
  20188724.471   106092454.995        -369.229          36.000  
  20672238.669   108633378.280       -3647.091          43.000  
  18308665.398    96212652.197        -880.756          48.000  
  21705945.739   114065493.346       -2239.610          38.000  
  23219551.579   122019587.622       -3413.963          37.000  
  23515466.443                       -1314.098          21.000  
 23 10 29 17 01 01.9940000  0 11G13G25G32G23G12G19G15G24G17G22G01
  22857389.784   120116339.453       -3976.466          37.000  
  21397507.661   112444681.351        3429.186          40.000  
  22584709.550   118683441.694        3187.555          40.000  
  22156859.599   116435046.461       -2974.323          43.000  
  18941662.948    99539106.291        1839.130          47.000  
  20188794.809   106092824.449        -369.512          36.000  
  20672932.485   108637025.126       -3646.903          43.000  
  18308832.785    96213532.615        -880.764          47.000  
  21706371.520   114067732.879       -2239.955          37.000  
  23220201.469   122023001.539       -3413.848          37.000  
  23515718.581                       -1310.956          22.000  
 23 10 29 17 01 02.9940000  0 11G13G25G32G23G12G19G15G24G17G22G01
  22858146.229   120120316.094       -3977.442          37.000  
  21396855.948   112441252.524        3428.423          41.000  
  22584102.758   118680254.479        3186.986          41.000  
  22157425.702   116438021.052       -2975.256          43.000  
  18941312.522    99537267.308        1838.385          48.000  
  20188865.127   106093194.914        -371.327          36.000  
  20673626.705   108640672.511       -3647.674          43.000  
  18309000.300    96214413.739        -881.907          47.000  
  21706797.347   114069973.163       -2240.955          37.000  
  23220851.490   122026415.672       -3414.339          37.000  
  23515971.463                       -1311.131          24.000  
 23 10 29 17 01 03.9940000  0 11G13G25G32G23G12G19G15G24G17G22G01
  22858902.836   120124293.544       -3977.419          37.000  
  21396204.274   112437824.737        3427.144          41.000  
  22583495.411   118677068.339        3185.702          40.000  
  22157991.206   116440996.740       -2975.916          42.000  
  18940961.927    99535429.676        1837.500          47.000  
  20188935.898   106093566.853        -372.230          35.000  
  20674321.136   108644320.963       -3648.637          43.000  
  18309168.185    96215296.183        -882.943          48.000  
  21707223.697   114072214.722       -2242.214          37.000  
  23221501.530   122029830.610       -3414.687          39.000  
  23516226.005                       -1311.948          25.000  
 23 10 29 17 01 04.9940000  0 11G13G25G32G23G12G19G15G24G17G22G01
  22859659.113   120128271.540       -3978.300          37.000  
  21395552.218   112434397.524        3426.946          41.000  
  22582889.416   118673882.769        3185.072          42.000  
  22158556.205   116443973.097       -2976.807          42.000  
  18940612.709    99533592.959        1836.041          48.000  
  20189007.322   106093939.820        -374.666          34.000  
  20675015.014   108647970.139       -3649.701          42.000  
  18309336.409    96216179.506        -883.804          48.000  
  21707649.607   114074457.111       -2242.595          36.000  
  23222151.760   122033246.027       -3416.062          39.000  
  23516476.422                       -1311.569          24.000  
 23 10 29 17 01 05.9940000  0 11G13G25G32G23G12G19G15G24G17G22G01
  22860415.100   120132249.527       -3977.495          37.000  
  21394900.328   112430970.486        3427.113          40.000  
  22582282.946   118670697.388        3185.804          39.000  
  22159122.260   116446949.708       -2976.630          41.000  
  18940263.404    99531756.713        1836.340          48.000  
  20189078.504   106094313.443        -373.707          33.000  
  20675710.003   108651619.522       -3649.024          44.000  
  18309503.999    96217063.266        -883.541          48.000  
  21708076.145   114076699.946       -2242.408          37.000  
  23222801.881   122036661.361       -3414.956          39.000  
  23516726.789                       -1316.129          22.000  
 23 10 29 17 01 06.9940000  0 11G13G25G32G23G12G19G15G24G17G22G01
  22861171.687   120136227.887       -3978.923          37.000  
  21394248.757   112427543.938        3426.284          41.000  
  22581677.236   118667512.549        3184.304          41.000  
  22159688.360   116449926.865       -2977.551          42.000  
  18939914.552    99529921.273        1834.814          48.000  
  20189149.858   106094688.124        -375.976          29.000  
  20676405.621   108655269.563       -3650.707          44.000  
  18309671.711    96217947.836        -885.320          48.000  
  21708503.018   114078943.601       -2244.462          37.000  
  23223452.159   122040077.035       -3416.171          38.000  
  23516977.374                       -1316.515          22.000  
 23 10 29 17 01 07.9940000  0 11G13G25G32G23G12G19G15G24G17G22G01
  22861928.542   120140207.081       -3979.957          37.000  
  21393597.150   112424118.446        3425.386          41.000  
  22581070.272   118664328.701        3184.032          39.000  
  22160255.756   116452905.132       -2978.351          38.000  
  18939565.991    99528087.115        1833.850          48.000  
  20189226.119   106095098.7943       -376.310          28.000  
  20677101.392   108658920.604       -3651.061          45.000  
  18309839.324    96218833.638        -886.182          47.000  
  21708930.374   114081188.466       -2244.992          38.000  
  23224102.487   122043493.475       -3416.646          39.000  
  23517228.463                       -1317.667          22.000  
 23 10 29 17 01 08.9940000  0 11G13G25G32G23G12G19G15G24G17G22G01
  22862685.251   120144186.651       -3979.680          37.000  
  21392945.725   112420693.369        3424.800          40.000  
  22580463.519   118661145.406        3183.275          41.000  
  22160822.491   116455883.939       -2979.224          41.000  
  18939218.077    99526253.758        1833.002          48.000  
  20189291.047   106095476.0142       -377.889          29.000  
  20677796.218   108662572.247       -3651.685          44.000  
  18310007.217    96219720.251        -886.983          47.000  
  21709357.532   114083434.163       -2246.163          38.000  
  23224753.219   122046910.222       -3416.654          40.000  
  23517481.439                       -1314.627          22.000  
 23 10 29 17 01 09.9940000  0 11G13G25G32G23G12G19G15G24G17G22G01
  22863442.800   120148166.145       -3979.726          37.000  
  21392293.484   112417268.430        3425.003          43.000  
  22579856.856   118657962.211        3183.174          38.000  
  22161388.639   116458862.860       -2978.992          42.000  
  18938869.742    99524420.773        1832.867          49.000  
  20189385.045   106095853.7482       -378.138          34.000  
  20678491.003   108666224.011       -3651.660          44.000  
  18310175.309    96220607.199        -887.046          47.000  
  21709784.656   114085680.153       -2246.138          37.000  
  23225403.490   122050326.848       -3416.441          40.000  
  23517731.837                       -1313.645          21.000  
 23 10 29 17 01 10.9940000  0 11G13G25G32G23G12G19G15G24G17G22G01
  22864200.281   120152145.908       -3980.170          37.000  
  21391641.742   112413843.932        3423.969          42.000  
  22579249.950   118654779.454        3182.291          38.000  
  22161955.078   116461842.321       -2980.127          43.000  
  18938520.816    99522588.533        1831.604          48.000  
  20189464.705   106096232.2462       -377.949          30.000  
  20679185.867   108669876.337       -3652.887          45.000  
  18310343.712    96221494.867        -888.471          47.000  
  21710212.058   114087926.850       -2247.408          37.000  
  23226054.104   122053743.735       -3417.485          40.000  
  23517977.861                       -1321.165          20.000  
 23 10 29 17 01 11.9940000  0 11G13G25G32G23G12G19G15G24G17G22G01
  22864957.850   120156126.473       -3980.706          37.000  
  21390989.857   112410420.365        3423.391          42.000  
  22578643.878   118651597.642        3181.268          39.000  
  22162522.138   116464822.803       -2980.670          43.000  
  18938171.958    99520757.521        1830.798          48.000  
  20189528.082   106096612.3452       -379.720          31.000  
  20679881.487   108673529.656       -3653.404          45.000  
  18310512.240    96222383.721        -889.196          46.000  
  21710639.575   114090174.764       -2248.034          37.000  
  23226704.417   122057161.364       -3417.766          40.000  
  23518228.754                       -1322.774          20.000  
 23 10 29 17 01 12.9940000  0 11G13G25G32G23G12G19G15G24G17G22G01
  22865715.445   120160107.343       -3981.112          37.000  
  21390337.773   112406997.284        3422.564          41.000  
  22578037.926   118648416.309        3180.962          38.000  
  22163089.486   116467803.822       -2981.274          43.000  
  18937823.251    99518927.301        1829.755          48.000  
  20189609.867   106096993.4392       -381.225          31.000  
  20680577.140   108677183.516       -3654.150          45.000  
  18310681.127    96223273.323        -889.992          47.000  
  21711067.215   114092423.458       -2249.361          36.000  
  23227354.684   122060579.249       -3418.094          40.000  
  23518476.372                       -1321.424          21.000  
 23 10 29 17 01 13.9940000  0 11G13G25G32G23G12G19G15G24G17G22G01
  22866473.199   120164088.067       -3979.984          37.000  
  21389685.379   112403574.177        3423.318          40.000  
  22577432.120   118645234.967        3181.256          38.000  
  22163657.185   116470784.892       -2980.927          43.000  
  18937474.678    99517097.367        1829.779          48.000  
  20189684.748   106097374.9802       -381.552          31.000  
  20681272.430   108680837.440       -3653.839          45.000  
  18310850.754    96224163.206        -890.003          47.000  
  21711495.295   114094672.359       -2249.114          36.000  
  23228005.220   122063996.910       -3417.563          40.000  
  23518726.593                       -1314.669          23.000  
 23 10 29 17 01 14.9940000  0 11G13G25G32G23G12G19G15G24G17G22G01
  22867231.238   120168069.055       -3981.298          37.000  
  21389033.493   112400151.465        3422.227          40.000  
  22576826.039   118642054.013        3180.508          37.000  
  22164224.306   116473766.436       -2982.202          43.000  
  18937126.463    99515268.090        1828.540          48.000  
  20189757.236   106097757.3542       -383.328          32.000  
  20681968.195   108684491.810       -3654.953          45.000  
  18311020.257    96225053.724        -891.096          47.000  
  21711923.394   114096921.887       -2250.436          36.000  
  23228655.576   122067414.741       -3417.865          40.000  
  23518974.670                       -1322.369          23.000  
 23 10 29 17 01 15.9940000  0 11G13G25G32G23G12G19G15G24G17G22G01
  22867988.887   120172050.715       -3982.618          38.000  
  21388381.320   112396729.574        3421.662          39.000  
  22576219.825   118638873.917        3179.207          37.000  
  22164791.720   116476748.834       -2982.953          43.000  
  18936779.003    99513439.939        1827.386          48.000  
  20189832.992   106098141.0762       -385.060          32.000  
  20682664.109   108688147.084       -3655.876          45.000  
  18311190.281    96225945.353        -892.404          47.000  
  21712351.954   114099172.496       -2250.884          36.000  
  23229306.212   122070833.225       -3418.701          40.000  
  23519226.653                       -1325.802          23.000  
 23 10 29 17 01 16.9940000  0 11G13G25G32G23G12G19G15G24G17G22G01
  22868746.628   120176032.759       -3982.077          37.000  
  21387729.990   112393308.307        3421.168          40.000  
  22575614.324   118635694.438        3179.395          37.000  
  22165358.909   116479731.908       -2983.301          43.000  
  18936431.354    99511612.676        1826.800          48.000  
  20189903.297   106098525.8042       -385.230          31.000  
  20683359.666   108691803.025       -3656.266          45.000  
  18311360.678    96226837.836        -892.942          47.000  
  21712781.229   114101424.031       -2252.170          38.000  
  23229956.704   122074252.097       -3419.299          40.000  
  23519474.738                       -1330.281          22.000  
 23 10 29 17 01 17.9940000  0 11G13G25G32G23G12G19G15G24G17G22G01
  22869504.637   120180014.986       -3981.703          38.000  
  21387078.713   112389887.313        3421.379          40.000  
  22575009.148   118632515.253        3179.213          37.000  
  22165926.189   116482715.329       -2983.295          42.000  
  18936084.195    99509785.986        1826.965          48.000  
  20189973.676   106098911.4652       -387.082          30.000  
  20684055.247   108695459.327       -3656.087          45.000  
  18311530.761    96227730.863        -892.778          47.000  
  21713210.627   114103676.029       -2251.695          39.000  
  23230607.215   122077671.023       -3418.185          40.000  
  23519724.604                       -1330.425          20.000  
 23 10 29 17 01 18.9940000  0 11G13G25G32G23G12G19G15G24G17G22G01
  22870262.786   120183997.008       -3982.498          38.000  
  21386427.456   112386466.284        3420.407          40.000  
  22574403.879   118629336.027        3178.271          36.000  
  22166493.424   116485698.790       -2984.088          42.000  
  18935736.379    99507959.576        1825.513          48.000  
  20190053.766   106099296.8841       -388.620          30.000  
  20684751.005   108699115.663       -3656.901          45.000  
  18311701.034    96228624.156        -894.233          47.000  
  21713640.493   114105928.338       -2253.375          39.000  
  23231257.595   122081089.739       -3419.136          40.000  
  23519976.404                       -1328.566          18.000  
 23 10 29 17 01 19.9940000  0 11G13G25G32G23G12G19G15G24G17G22G01
  22871020.830   120187979.792       -3983.094          37.000  
  21385776.770   112383046.175        3419.858          39.000  
  22573798.845   118626157.693        3178.465          35.000  
  22167061.398   116488683.191       -2984.796          41.000  
  18935389.231    99506134.356        1824.683          47.000  
  20190126.987   106099684.231        -388.969          26.000  
  20685447.011   108702772.966       -3657.753          44.000  
  18311871.219    96229518.611        -895.001          46.000  
  21714069.948   114108181.787       -2254.410          36.000  
  23231908.240   122084509.151       -3419.645          39.000  
  23520228.337                       -1328.566          16.000  
 23 10 29 17 01 20.9940000  0 11G13G25G32G23G12G19G15G24G17G22G01
  22871779.009   120191963.144       -3983.304          37.000  
  21385126.224   112379626.728        3419.113          39.000  
  22573193.996   118622980.106        3177.480          35.000  
  22167628.475   116491668.379       -2985.107          41.000  
  18935042.044    99504310.157        1823.602          47.000  
  20190189.651   106100072.683        -388.283          26.000  
  20686143.168   108706431.061       -3658.441          44.000  
  18312041.590    96230414.059        -895.971          46.000  
  21714499.705   114110436.158       -2254.652          37.000  
  23232558.948   122087929.055       -3420.408          40.000  
  23520480.504                       -1328.566          15.000  
 23 10 29 17 01 21.9940000  0 10G13G25G32G23G12G19G15G24G17G22
  22872536.824   120195946.809       -3983.559          36.000  
  21384475.333   112376207.794        3419.390          39.000  
  22572588.685   118619803.017        3177.867          34.000  
  22168196.345   116494654.103       -2985.364          41.000  
  18934695.406    99502486.709        1823.468          47.000  
  20190240.570   106100429.6593       -389.314          26.000  
  20686839.946   108710089.688       -3658.173          45.000  
  18312212.072    96231310.198        -895.959          46.000  
  21714929.319   114112691.297       -2254.641          37.000  
  23233210.044   122091349.214       -3419.661          40.000  
 23 10 29 17 01 22.9940000  0 10G13G25G32G23G12G19G15G24G17G22
  22873295.254   120199930.166       -3984.138          36.000  
  21383824.937   112372788.683        3419.286          39.000  
  22571983.946   118616625.794        3176.821          34.000  
  22168764.127   116497639.758       -2985.901          41.000  
  18934348.561    99500663.385        1822.748          47.000  
  20190329.634   106100819.4102       -389.883          27.000  
  20687536.500   108713748.226       -3659.028          45.000  
  18312382.497    96232206.479        -896.727          46.000  
  21715358.819   114114946.545       -2255.844          36.000  
  23233860.921   122094769.042       -3420.054          40.000  
 23 10 29 17 01 23.9940000  0 11G13G25G32G23G12G19G15G24G17G22G01
  22874053.444   120203914.060       -3984.352          36.000  
  21383174.216   112369370.277        3418.634          39.000  
  22571379.673   118613449.291        3175.429          34.000  
  22169332.343   116500626.167       -2986.969          41.000  
  18934001.910    99498841.087        1821.716          47.000  
  20190408.963   106101210.3582       -391.558          27.000  
  20688233.185   108717407.542       -3659.772          45.000  
  18312553.317    96233103.745        -897.611          46.000  
  21715788.122   114117202.770       -2256.886          36.000  
  23234511.706   122098189.362       -3420.559          39.000  
  23521239.379                       -1322.653          15.000  
 23 10 29 17 01 24.9940000  0 11G13G25G32G23G12G19G15G24G17G22G01
  22874811.938   120207898.324       -3984.172          36.000  
  21382523.825   112365952.437        3417.937          39.000  
  22570774.894   118610273.311        3175.649          34.000  
  22169900.701   116503613.184       -2987.225          41.000  
  18933655.369    99497019.603        1821.216          47.000  
  20190481.641   106101602.5122       -392.178          27.000  
  20688930.044   108721067.471       -3660.045          45.000  
  18312724.009    96234001.810        -898.392          46.000  
  21716217.982   114119459.790       -2257.134          36.000  
  23235162.631   122101610.011       -3420.394          39.000  
  23521491.726                       -1327.851          16.000  
 23 10 29 17 01 25.9940000  0 11G13G25G32G23G12G19G15G24G17G22G01
  22875570.030   120211882.724       -3984.667          35.000  
  21381873.182   112362534.880        3417.289          38.000  
  22570170.329   118607097.607        3174.737          33.000  
  22170469.702   116506600.529       -2987.457          42.000  
  18933308.971    99495198.708        1820.337          46.000  
  20190547.880   106102044.3003       -392.296          26.000  
  20689626.809   108724727.751       -3660.478          45.000  
  18312895.124    96234900.422        -898.936          46.000  
  21716647.596   114121717.388       -2258.406          35.000  
  23235813.821   122105030.729       -3420.533          39.000  
  23521746.395                       -1338.146          18.000  
 23 10 29 17 01 26.9940000  0 11G13G25G32G23G12G19G15G24G17G22G01
  22876328.233   120215866.796       -3983.399          34.000  
  21381222.651   112359117.065        3417.797          38.000  
  22569566.355   118603921.702        3176.394          35.000  
  22171038.387   116509587.735       -2987.268          41.000  
  18932962.294    99493377.890        1820.764          46.000  
  20190613.102   106102437.3772       -393.252          27.000  
  20690323.529   108728387.882       -3660.275          45.000  
  18313066.380    96235799.116        -898.963          46.000  
  21717076.686   114123974.982       -2257.326          34.000  
  23236464.629   122108451.063       -3420.648          38.000  
  23521999.571                       -1330.101          18.000  
 23 10 29 17 01 27.9940000  0 11G13G25G32G23G12G19G15G24G17G22G01
  22877086.770   120219851.366       -3984.861          34.000  
  21380572.445   112355699.956        3416.521          39.000  
  22568962.423   118600746.550        3174.885          35.000  
  22171607.282   116512575.720       -2988.519          42.000  
  18932615.589    99491558.084        1819.080          46.000  
  20190683.982                        -385.871          24.000  
  20691020.146   108732048.767       -3661.385          45.000  
  18313237.564    96236698.755        -900.146          46.000  
  21717506.157   114126233.558       -2258.507          33.000  
  23237115.365   122111871.848       -3421.055          39.000  
  23522256.676                       -1326.610          20.000  
 23 10 29 17 01 28.9940000  0 11G13G25G32G23G12G19G15G24G17G22G01
  22877845.226   120223836.387       -3985.533          34.000  
  21379922.894   112352283.407        3416.041          40.000  
  22568358.844   118597571.951        3173.856          36.000  
  22172176.364   116515564.265       -2988.812          42.000  
  18932269.575    99489739.104        1818.573          46.000  
  20190754.850                        -399.575          21.000  
  20691716.846   108735710.271       -3661.989          45.000  
  18313408.836    96237599.201        -900.791          46.000  
  21717935.666   114128493.006       -2259.883          32.000  
  23237766.062   122115292.998       -3421.233          39.000  
  23522512.178                       -1329.732          21.000  
 23 10 29 17 01 29.9940000  0 10G13G25G32G23G12G15G24G17G22G01
  22878603.706   120227821.670       -3985.456          34.000  
  21379273.311   112348867.306        3416.033          40.000  
  22567755.282   118594397.804        3174.109          37.000  
  22172745.747   116518553.340       -2989.551          42.000  
  18931923.035    99487920.870        1817.664          46.000  
  20692413.659   108739372.287       -3662.418          45.000  
  18313580.213    96238500.391        -901.877          46.000  
  21718362.586   114130753.134       -2260.768          32.000  
  23238417.352   122118714.356       -3421.539          38.000  
  23522766.750                       -1339.550          21.000  
 23 10 29 17 01 30.9940000  0 10G13G25G32G23G12G15G24G17G22G01
  22879362.215   120231806.572       -3985.369          33.000  
  21378623.339   112345450.966        3415.906          40.000  
  22567151.749   118591223.382        3174.749          36.000  
  22173315.163   116521542.249       -2989.069          42.000  
  18931576.819    99486102.694        1817.914          46.000  
  20693110.224   108743034.152       -3661.985          45.000  
  18313752.119    96239401.586        -901.440          46.000  
  21718793.484   114133013.239       -2260.315          33.000  
  23239068.378   122122135.274       -3421.173          38.000  
  23523018.047                       -1335.986          19.000  
 23 10 29 17 01 31.9940000  0 10G13G25G32G23G12G15G24G17G22G01
  22880120.789   120235791.911       -3986.190          32.000  
  21377973.772   112342035.180        3415.991          40.000  
  22566548.890   118588049.606        3173.606          36.000  
  22173884.657   116524531.780       -2989.594          43.000  
  18931231.197    99484285.392        1816.974          46.000  
  20693807.389   108746696.660       -3662.527          45.000  
  18313924.104    96240303.649        -902.438          46.000  
  21719226.398   114135274.174       -2260.686          33.000  
  23239719.629   122125556.598       -3421.116          39.000  
  23523273.520                       -1337.428          18.000  
 23 10 29 17 01 32.9940000  0 10G13G25G32G23G12G15G24G17G22G01
  22880879.459   120239777.793       -3985.996          32.000  
  21377323.924   112338620.195        3414.482          40.000  
  22565945.682   118584876.588        3172.876          36.000  
  22174453.740   116527522.140       -2990.582          42.000  
  18930886.228    99482469.156        1815.570          46.000  
  20694504.211   108750359.996       -3663.657          45.000  
  18314096.152    96241206.717        -903.765          46.000  
  21719661.778   114137536.163       -2262.514          33.000  
  23240371.179   122128978.461       -3422.258          38.000  
  23523527.185                       -1337.428          17.000  
 23 10 29 17 01 33.9940000  0 10G13G25G32G23G12G15G24G17G22G01
  22881638.062   120243763.949       -3986.578          32.000  
  21376673.901   112335205.493        3414.703          40.000  
  22565342.107   118581703.951        3171.826          35.000  
  22175023.079   116530512.880       -2991.272          42.000  
  18930540.934    99480653.522        1815.356          46.000  
  20695201.227   108754023.719       -3663.984          45.000  
  18314268.262    96242110.399        -904.209          46.000  
  21720090.639   114139798.625       -2262.148          33.000  
  23241022.644   122132400.428       -3422.321          39.000  
  23523781.587                       -1338.382          15.000  
 23 10 29 17 01 34.9940000  0 10G13G25G32G23G12G15G24G17G22G01
  22882396.407   120247749.518       -3985.163          33.000  
  21376024.159   112331790.435        3414.953          40.000  
  22564738.764   118578530.813        3173.834          36.000  
  22175592.135   116533503.293       -2990.393          42.000  
  18930195.590    99478837.825        1815.631          46.000  
  20695898.296   108757687.158       -3663.381          45.000  
  18314440.713    96243013.955        -903.570          46.000  
  21720522.270   114142061.081       -2262.586          33.000  
  23241673.803   122135821.838       -3421.292          39.000  
  23524037.436                       -1337.328          15.000  
 23 10 29 17 01 35.9940000  0 10G13G25G32G23G12G15G24G17G22G01
  22883155.175   120251735.533       -3987.804          32.000  
  21375374.654   112328375.967        3414.058          40.000  
  22564135.344   118575358.387        3171.871          36.000  
  22176161.848   116536494.368       -2991.791          42.000  
  18929850.026    99477022.993        1813.983          45.000  
  20696595.776   108761351.212       -3664.463          45.000  
  18314613.028    96243918.347        -905.007          46.000  
  21720955.459   114144324.348       -2263.742          32.000  
  23242324.984   122139243.582       -3421.996          38.000  
  23524291.007                       -1338.667          16.000  
 23 10 29 17 01 36.9940000  0 10G13G25G32G23G12G15G24G17G22G01
  22883913.629   120255722.036       -3986.467          31.000  
  21374725.916   112324962.199        3413.688          40.000  
  22563532.415   118572186.642        3171.531          36.000  
  22176731.357   116539486.225       -2992.492          41.000  
  18929504.836    99475209.159        1813.153          45.000  
  20697293.327   108765016.070       -3664.935          45.000  
  18314785.656    96244823.747        -905.973          46.000  
  21721387.629   114146588.538       -2263.254          32.000  
  23242976.250   122142665.859       -3422.585          38.000  
  23524546.675                       -1337.298          17.000  
 23 10 29 17 01 37.9940000  0 10G13G25G32G23G12G15G24G17G22G01
  22884672.124   120259708.840       -3986.667          31.000  
  21374076.787   112321548.886        3412.839          40.000  
  22562929.250   118569015.361        3170.812          36.000  
  22177300.483   116542478.544       -2992.505          41.000  
  18929159.791    99473396.039        1812.683          45.000  
  20697990.575   108768681.435       -3665.836          45.000  
  18314958.407    96245729.826        -906.596          46.000  
  21721819.428   114148853.528       -2265.472          33.000  
  23243627.444   122146088.381       -3422.687          39.000  
  23524801.779                       -1342.884          18.000  
 23 10 29 17 01 38.9940000  0 10G13G25G32G23G12G15G24G17G22G01
  22885426.971   120263695.930       -3986.630          30.000  
  21373427.264   112318135.868        3412.778          40.000  
  22562325.767   118565844.425        3171.007          35.000  
  22177870.248   116545471.319       -2993.072          42.000  
  18928814.822    99471583.592        1812.256          46.000  
  20698687.863   108772347.206       -3665.935          45.000  
  18315131.094    96246636.540        -907.065          46.000  
  21722254.137   114151119.073       -2266.306          32.000  
  23244278.612   122149511.022       -3422.735          38.000  
  23525057.515                       -1345.272          18.000  
 23 10 29 17 01 39.9940000  0 10G13G25G32G23G12G15G24G17G22G01
  22886186.083   120267682.992       -3986.683          30.000  
  21372777.751   112314723.093        3413.029          40.000  
  22561722.768   118562673.741        3170.980          36.000  
  22178440.093   116548464.316       -2992.657          42.000  
  18928470.198    99469771.630        1811.847          45.000  
  20699385.318   108776013.268       -3666.295          45.000  
  18315303.197    96247543.721        -907.196          46.000  
  21722687.472   114153385.098       -2266.854          32.000  
  23244930.009   122152933.658       -3422.466          38.000  
  23525311.263                       -1342.859          18.000  
 23 10 29 17 01 40.9940000  0 10G13G25G32G23G12G15G24G17G22G01
  22886948.285   120271670.036       -3986.673          30.000  
  21372128.462   112311310.426        3412.761          40.000  
  22561119.780   118559503.174        3170.410          37.000  
  22179009.688   116551457.513       -2993.060          42.000  
  18928125.277    99467960.077        1811.487          45.000  
  20700082.714   108779679.483       -3666.180          45.000  
  18315475.900    96248451.281        -907.529          46.000  
  21723121.849   114155651.448       -2266.627          32.000  
  23245581.249   122156356.244       -3422.633          39.000  
  23525567.654                       -1343.511          18.000  
 23 10 29 17 01 41.9940000  0 10G13G25G32G23G12G15G24G17G22G01
  22887708.229   120275657.009       -3987.391          30.000  
  21371479.054   112307897.780        3412.244          40.000  
  22560517.026   118556332.608        3170.538          38.000  
  22179579.634   116554450.796       -2993.695          42.000  
  18927780.356    99466148.828        1810.864          45.000  
  20700780.805   108783345.808       -3666.626          44.000  
  18315648.687    96249359.138        -908.191          46.000  
  21723544.716   114157918.142       -2267.656          32.000  
  23246232.443   122159778.543       -3422.352          39.000  
  23525823.320                       -1336.816          18.000  
 23 10 29 17 01 42.9940000  0 11G13G25G32G23G12G19G15G24G17G22G01
  22888461.620   120279644.354       -3987.529          30.000  
  21370830.240   112304485.777        3411.567          41.000  
  22559914.197   118553162.767        3169.193          38.000  
  22180149.541   116557444.757       -2994.165          43.000  
  18927435.854    99464338.526        1809.924          46.000  
  20191823.872                        -405.481          24.000  
  20701477.887   108787012.835       -3667.540          44.000  
  18315821.492    96250267.908        -909.437          46.000  
  21723977.869   114160185.680       -2268.548          30.000  
  23246883.485   122163201.367       -3422.912          39.000  
  23526078.586                       -1346.788          19.000  
 23 10 29 17 01 43.9940000  0 11G13G25G32G23G12G19G15G24G17G22G01
  22889217.695   120283632.331       -3988.046          29.000  
  21370181.408   112301074.494        3411.403          40.000  
  22559311.482   118549993.583        3169.297          38.000  
  22180719.844   116560439.529       -2995.093          42.000  
  18927091.295    99462529.248        1808.917          45.000  
  20191907.020                        -410.059          29.000  
  20702175.156   108790680.640       -3667.711          43.000  
  18315994.468    96251177.671        -910.014          46.000  
  21724412.240   114162454.149       -2269.053          29.000  
  23247535.139   122166624.691       -3423.461          39.000  
  23526335.942                       -1343.934          20.000  
 23 10 29 17 01 44.9940000  0 11G13G25G32G23G12G19G15G24G17G22G01
  22889974.343   120287620.605       -3988.339          28.000  
  21369532.702   112297663.678        3411.146          41.000  
  22558708.042   118546824.927        3168.669          37.000  
  22181289.976   116563434.810       -2995.184          41.000  
  18926746.877    99460720.701        1808.740          45.000  
  20191988.244   106109613.4623       -408.136          30.000  
  20702872.718   108794348.990       -3668.214          43.000  
  18316168.084    96252088.140        -910.278          46.000  
  21724838.379                       -2271.827          19.000  
  23248186.625   122170048.237       -3423.096          39.000  
  23526594.844                       -1348.727          21.000  
 23 10 29 17 01 45.9940000  0 11G13G25G32G23G12G19G15G24G17G22G01
  22890733.916   120291608.290       -3987.335          29.000  
  21368883.570   112294252.484        3410.984          41.000  
  22558104.858   118543655.866        3169.055          37.000  
  22181860.190   116566429.818       -2995.490          42.000  
  18926402.397    99458912.104        1808.368          45.000  
  20192077.103   106110022.3742       -409.049          31.000  
  20703570.129   108798017.011       -3667.953          43.000  
  18316340.959    96252998.524        -910.608          46.000  
  21725253.456                       -2264.809          22.000  
  23248838.086   122173471.246       -3422.933          39.000  
  23526852.232                       -1345.486          22.000  
 23 10 29 17 01 46.9940000  0 11G13G25G32G23G12G19G15G24G17G22G01
  22891489.970   120295596.520       -3987.289          29.000  
  21368234.978   112290841.942        3410.157          41.000  
  22557501.905   118540487.469        3168.398          36.000  
  22182430.108   116569425.459       -2995.850          42.000  
  18926058.163    99457104.420        1807.464          45.000  
  20192156.641   106110432.3742       -410.714          32.000  
  20704268.111   108801685.755       -3668.855          43.000  
  18316514.198    96253909.807        -911.506          46.000  
  21725675.560                       -2258.888          22.000  
  23249489.657   122176894.689       -3423.623          37.000  
  23527107.427                       -1351.736          21.000  
 23 10 29 17 01 47.9940000  0 11G13G25G32G23G12G19G15G24G17G22G01
  22892243.743                       -3997.575          27.000  
  21367585.926   112287431.969        3409.233          40.000  
  22556898.662   118537319.699        3167.382          36.000  
  22183000.403   116572421.765       -2996.814          42.000  
  18925714.400    99455297.624        1806.122          45.000  
  20192243.995   106110843.4122       -412.157          32.000  
  20704966.556   108805355.156       -3670.072          43.000  
  18316687.455    96254821.944        -912.789          46.000  
  21726102.248                       -2272.362          22.000  
  23250141.377   122180318.505       -3424.040          40.000  
  23527362.503                       -1346.596          21.000  
 23 10 29 17 01 48.9940000  0 11G13G25G32G23G12G19G15G24G17G22G01
  22893001.896                       -3992.408          25.000  
  21366936.991   112284022.390        3409.289          39.000  
  22556295.894   118534152.347        3167.454          37.000  
  22183570.652   116575418.549       -2996.899          42.000  
  18925370.409    99453491.523        1805.835          45.000  
  20192322.990   106111255.3462       -412.872          34.000  
  20705665.523   108809025.019       -3669.981          43.000  
  18316860.655    96255734.766        -912.951          45.000  
  21726552.743                       -2270.216          21.000  
  23250793.049   122183742.521       -3424.268          39.000  
  23527620.991                       -1359.702          22.000  
 23 10 29 17 01 49.9940000  0 10G25G32G23G12G19G15G24G17G22G01
  21366287.810   112280612.820        3409.819          39.000  
  22555693.199   118530984.995        3167.285          36.000  
  22184141.169   116578415.394       -2996.710          42.000  
  18925026.849    99451685.727        1805.573          45.000  
  20192403.097   106111667.7492       -412.405          35.000  
  20706364.626   108812694.946       -3669.666          44.000  
  18317033.798    96256647.851        -913.003          45.000  
  21726987.674                       -2272.034          22.000  
  23251444.474   122187166.289       -3423.713          39.000  
  23527878.183                       -1354.706          22.000  
 23 10 29 17 01 50.9940000  0 10G25G32G23G12G19G15G24G17G22G01
  21365638.614   112277203.791        3408.692          39.000  
  22555090.475   118527818.130        3166.903          36.000  
  22184711.798   116581412.823       -2997.982          42.000  
  18924683.084    99449880.742        1804.449          45.000  
  20192480.557   106112081.1192       -414.021          35.000  
  20707063.870   108816365.469       -3671.034          44.000  
  18317207.229    96257561.736        -914.560          45.000  
  21727427.269                       -2276.554          21.000  
  23252095.904   122190590.407       -3424.402          38.000  
  23528134.970                       -1342.458          23.000  
 23 10 29 17 01 51.9940000  0 10G25G32G23G12G19G15G24G17G22G01
  21364989.972   112273795.354        3408.258          39.000  
  22554487.991   118524651.916        3166.882          37.000  
  22185282.505   116584410.850       -2997.675          42.000  
  18924339.579    99448076.634        1804.040          45.000  
  20192556.694   106112495.6092       -414.646          34.000  
  20707763.100   108820036.640       -3671.179          44.000  
  18317381.269    96258476.462        -914.629          45.000  
  21727862.502                       -2282.473          21.000  
  23252747.414   122194014.898       -3424.495          40.000  
  23528389.420                       -1353.824          23.000  
 23 10 29 17 01 52.9940000  0 10G25G32G23G12G19G15G24G17G22G01
  21364341.424   112270387.276        3407.994          39.000  
  22553885.151   118521486.036        3166.003          36.000  
  22185853.670   116587409.352       -2998.837          42.000  
  18923996.093    99446273.179        1803.119          45.000  
  20192634.116   106112910.9032       -415.958          34.000  
  20708462.426   108823708.253       -3672.087          44.000  
  18317555.540    96259391.825        -915.964          45.000  
  21728290.374                       -2273.144          23.000  
  23253399.306   122197439.546       -3424.637          38.000  
  23528648.362                       -1351.693          24.000  
 23 10 29 17 01 53.9940000  0 10G25G32G23G12G19G15G24G17G22G01
  21363692.911   112266979.550        3407.235          39.000  
  22553282.689   118518320.612        3164.601          37.000  
  22186424.589   116590408.224       -2999.234          42.000  
  18923653.091    99444470.374        1802.338          45.000  
  20192711.676   106113326.9962       -415.821          32.000  
  20709160.899   108827380.252       -3672.535          44.000  
  18317730.114    96260307.797        -916.620          45.000  
  21728720.603   114185196.8893      -2274.858          31.000  
  23254051.212   122200864.344       -3424.961          39.000  
  23528906.064                       -1353.064          25.000  
 23 10 29 17 01 54.9940000  0 10G25G32G23G12G19G15G24G17G22G01
  21363044.980   112263572.138        3407.543          39.000  
  22552679.902   118515155.457        3164.538          35.000  
  22186995.301   116593407.524       -2999.424          42.000  
  18923310.212    99442668.249        1801.801          45.000  
  20192773.753   106113743.9862       -417.543          28.000  
  20709859.822   108831052.688       -3672.756          44.000  
  18317905.046    96261224.393        -917.019          46.000  
  21729164.951   114187472.1512      -2275.530          31.000  
  23254702.748   122204289.246       -3425.142          38.000  
  23529164.234                       -1354.361          26.000  
 23 10 29 17 01 55.9940000  0 10G25G32G23G12G19G15G24G17G22G01
  21362397.020   112260165.212        3406.739          39.000  
  22552077.431   118511990.783        3164.399          35.000  
  22187566.158   116596407.312       -2999.940          42.000  
  18922967.889    99440866.838        1801.117          45.000  
  20192842.766   106114161.8902       -417.527          30.000  
  20710558.453   108834725.623       -3673.311          44.000  
  18318080.109    96262141.689        -917.493          46.000  
  21729608.156   114189748.1372      -2276.153          30.000  
  23255354.134   122207714.418       -3425.062          39.000  
  23529421.930                       -1352.981          25.000  
 23 10 29 17 01 56.9940000  0 10G25G32G23G12G19G15G24G17G22G01
  21361749.020   112256758.430        3406.133          39.000  
  22551474.982   118508826.297        3163.701          35.000  
  22188136.721   116599407.383       -3000.632          42.000  
  18922625.267    99439065.909        1800.336          45.000  
  20192927.937   106114580.4542       -419.224          31.000  
  20711257.580   108838398.800       -3673.708          44.000  
  18318255.152    96263059.456        -918.234          46.000  
  21730045.050   114192024.5882      -2276.913          31.000  
  23256005.883   122211139.536       -3425.182          38.000  
  23529680.162                       -1353.486          25.000  
 23 10 29 17 01 57.9940000  0 10G25G32G23G12G19G15G24G17G22G01
  21361101.091   112253352.036        3406.009          39.000  
  22550873.074   118505662.194        3164.072          37.000  
  22188707.176   116602407.838       -3000.539          42.000  
  18922282.887    99437265.626        1800.031          45.000  
  20193015.600   106114999.9012       -419.294          32.000  
  20711956.658   108842072.415       -3673.777          44.000  
  18318430.215    96263977.854        -918.594          46.000  
  21730479.434   114194301.6792      -2277.690          33.000  
  23256657.419   122214564.851       -3425.259          38.000  
  23529938.740                       -1356.769          25.000  
 23 10 29 17 01 58.9940000  0 10G25G32G23G12G19G15G24G17G22G01
  21360453.306   112249945.994        3406.148          40.000  
  22550270.949   118502498.483        3163.695          36.000  
  22189277.769   116605408.714       -3000.808          41.000  
  18921940.392    99435466.015        1799.628          45.000  
  20193099.437   106115420.1722       -419.973          33.000  
  20712656.237   108845746.440       -3673.853          44.000  
  18318605.097    96264896.867        -918.860          46.000  
  21730914.748   114196579.2952      -2277.348          34.000  
  23257309.036   122217990.284       -3424.990          38.000  
  23530197.594                       -1356.912          26.000  
 23 10 29 17 01 59.9940000  0 10G25G32G23G12G19G15G24G17G22G01
  21359805.541   112246539.977        3405.986          40.000  
  22549668.873   118499334.789        3164.175          36.000  
  22189848.302   116608409.664       -3000.852          41.000  
  18921598.542    99433666.699        1799.298          46.000  
  20193178.081   106115840.9332       -421.363          33.000  
  20713355.411   108849420.548       -3674.249          44.000  
  18318780.460    96265816.168        -919.405          47.000  
  21731345.220   114198857.2522      -2278.340          34.000  
  23257960.748   122221415.543       -3425.480          38.000  
  23530455.744                       -1357.889          26.000  
 23 10 29 17 02 00.9940000  0 10G25G32G23G12G19G15G24G17G22G01
  21359157.955   112243134.249        3404.900          40.000  
  22549066.911   118496171.463        3162.865          36.000  
  22190419.389   116611410.967       -3001.837          41.000  
  18921256.454    99431867.982        1797.925          46.000  
  20193256.987   106116261.9181       -422.209          35.000  
  20714054.937   108853095.024       -3675.161          44.000  
  18318955.861    96266736.043        -920.546          47.000  
  21731777.449   114201135.760       -2279.280          34.000  
  23258612.738   122224840.869       -3425.768          38.000  
  23530715.881                       -1358.844          26.000  
 23 10 29 17 02 01.9940000  0 11G13G25G32G23G12G19G15G24G17G22G01
  22902906.548                       -3985.004          23.000  
  21358510.214   112239729.226        3404.651          40.000  
  22548465.295   118493008.765        3162.450          36.000  
  22190990.617   116614413.047       -3002.596          41.000  
  18920914.387    99430070.268        1797.192          46.000  
  20193338.477   106116684.625        -423.048          35.000  
  20714754.069   108856770.283       -3675.684          44.000  
  18319131.051    96267656.886        -921.231          46.000  
  21732212.248   114203415.207       -2279.663          35.000  
  23259264.604   122228266.720       -3426.203          38.000  
  23530976.498                       -1359.564          26.000  
 23 10 29 17 02 02.9940000  0 11G13G25G32G23G12G19G15G24G17G22G01
  22903672.877                       -3985.004          25.000  
  21357862.632   112236324.708        3404.063          40.000  
  22547863.661   118489846.646        3161.925          37.000  
  22191561.933   116617415.669       -3003.081          41.000  
  18920572.890    99428273.346        1796.234          46.000  
  20193417.044   106117108.332        -423.617          34.000  
  20715453.821   108860446.116       -3676.236          44.000  
  18319306.510    96268578.505        -922.249          46.000  
  21732648.438   114205695.436       -2280.574          34.000  
  23259916.679   122231692.861       -3426.547          38.000  
  23531235.051                       -1360.035          26.000  
 23 10 29 17 02 03.9940000  0 10G25G32G23G12G19G15G24G17G22G01
  21357214.707   112232920.458        3405.068          39.000  
  22547262.477   118486684.782        3162.451          37.000  
  22192133.535   116620418.642       -3002.522          41.000  
  18920231.051    99426477.004        1796.759          46.000  
  20193497.874   106117532.819        -423.550          33.000  
  20716153.095   108864122.268       -3675.836          44.000  
  18319482.110    96269500.660        -921.948          46.000  
  21733084.004   114207976.216       -2280.569          35.000  
  23260568.659   122235119.057       -3425.201          39.000  
  23531495.535   123658842.9963      -1360.107          27.000  
 23 10 29 17 02 04.9940000  0 11G13G25G32G23G12G19G15G24G17G22G01
  22905182.899                       -3996.826          25.000  
  21356566.757   112229516.245        3404.241          39.000  
  22546661.058   118483522.984        3161.637          37.000  
  22192704.645   116623421.716       -3003.354          41.000  
  18919889.304    99424680.987        1795.611          46.000  
  20193578.771   106117957.795        -425.069          32.000  
  20716852.565   108867798.498       -3676.429          44.000  
  18319657.711    96270423.107        -922.699          46.000  
  21733518.008   114210257.210       -2280.826          34.000  
  23261220.856   122238545.103       -3426.021          38.000  
  23531753.937   123660203.8872      -1361.434          27.000  
 23 10 29 17 02 05.9940000  0 11G13G25G32G23G12G19G15G24G17G22G01
  22905937.084                       -3996.826          25.000  
  21355918.784   112226112.709        3403.241          39.000  
  22546059.640   118480361.869        3160.566          37.000  
  22193276.138   116626425.490       -3004.249          42.000  
  18919548.045    99422885.918        1794.763          46.000  
  20193660.121   106118383.933        -426.315          32.000  
  20717552.155   108871475.479       -3676.975          44.000  
  18319833.153    96271346.497        -923.669          46.000  
  21733952.342   114212539.254       -2282.236          33.000  
  23261872.831   122241971.603       -3426.827          38.000  
  23532013.106   123661565.8102      -1362.103          27.000  
 23 10 29 17 02 06.9940000  0 11G13G25G32G23G12G19G15G24G17G22G01
  22906702.027                       -3996.826          25.000  
  21355271.678   112222709.736        3402.781          40.000  
  22545457.963   118477201.289        3160.461          37.000  
  22193848.001   116629429.907       -3004.593          43.000  
  18919207.295    99421091.730        1793.933          46.000  
  20193741.817   106118811.151        -428.139          33.000  
  20718251.431   108875153.099       -3677.612          44.000  
  18320008.574    96272270.730        -924.439          46.000  
  21734386.649   114214822.039       -2282.651          32.000  
  23262524.832   122245398.448       -3427.111          38.000  
  23532270.606   123662928.7762      -1363.174          27.000  
 23 10 29 17 02 07.9940000  0 11G13G25G32G23G12G19G15G24G17G22G01
  22907459.696                       -3993.170          25.000  
  21354624.288   112219306.799        3403.396          40.000  
  22544856.882   118474040.837        3160.808          37.000  
  22194420.294   116632434.427       -3003.899          42.000  
  18918865.672    99419297.861        1794.409          46.000  
  20193823.689   106119238.855        -427.194          33.000  
  20718951.072   108878830.823       -3677.345          44.000  
  18320184.186    96273195.266        -923.984          46.000  
  21734820.695   114217105.210       -2284.104          31.000  
  23263177.067   122248825.121       -3426.191          38.000  
  23532529.408   123664292.2092      -1362.875          27.000  
 23 10 29 17 02 08.9940000  0 11G13G25G32G23G12G19G15G24G17G22G01
  22908222.622                       -3993.848          25.000  
  21353976.887   112215903.852        3402.444          40.000  
  22544255.438   118470880.335        3160.093          37.000  
  22194992.668   116635438.964       -3005.106          43.000  
  18918523.866    99417504.268        1792.889          46.000  
  20193905.029   106119667.035        -429.364          33.000  
  20719650.703   108882508.572       -3678.303          44.000  
  18320359.548    96274120.033        -925.234          46.000  
  21735243.405   114219388.507       -2283.806          30.000  
  23263829.182   122252251.577       -3426.987          38.000  
  23532789.608   123665655.9862      -1364.493          28.000  
 23 10 29 17 02 09.9940000  0 11G13G25G32G23G12G19G15G24G17G22G01
  22908983.626                       -3992.944          24.000  
  21353330.129   112212501.707        3401.862          41.000  
  22543654.215   118467720.693        3158.999          37.000  
  22195564.795   116638444.392       -3006.017          43.000  
  18918182.546    99415711.789        1791.925          45.000  
  20193986.853   106120096.461        -429.997          33.000  
  20720350.725   108886187.218       -3679.136          44.000  
  18320535.296    96275045.914        -926.634          45.000  
  21735675.671   114221672.903       -2284.946          29.000  
  23264481.405   122255678.649       -3427.446          37.000  
  23533052.066   123667020.9932      -1365.276          28.000  
 23 10 29 17 02 10.9940000  0 11G13G25G32G23G12G19G15G24G17G22G01
  22909740.346                       -3993.940          25.000  
  21352683.355   112209100.045        3401.171          41.000  
  22543053.511   118464561.479        3158.530          37.000  
  22196137.105   116641450.295       -3006.303          43.000  
  18917841.554    99413920.051        1791.071          46.000  
  20194068.808   106120526.840        -430.688          32.000  
  20721051.380   108889866.368       -3679.672          44.000  
  18320711.281    96275972.485        -927.190          45.000  
  21736109.710   114223958.030       -2285.634          28.000  
  23265133.764   122259105.950       -3427.800          38.000  
  23533312.397   123668386.8652      -1366.273          28.000  
 23 10 29 17 02 11.9940000  0 11G13G25G32G23G12G19G15G24G17G22G01
  22910498.028   120395479.3943      -3993.314          26.000  
  21352036.283   112205698.627        3401.763          40.000  
  22542452.318   118461402.558        3159.730          37.000  
  22196709.850   116644456.545       -3005.965          43.000  
  18917500.596    99412128.892        1791.107          46.000  
  20194148.265   106120958.007        -431.157          30.000  
  20721751.744   108893545.870       -3679.326          44.000  
  18320887.216    96276899.616        -927.061          45.000  
  21736539.127   114226243.571       -2284.490          27.000  
  23265785.648   122262533.339       -3427.203          38.000  
  23533573.729   123669753.4222      -1366.477          27.000  
 23 10 29 17 02 12.9940000  0 11G13G25G32G23G12G19G15G24G17G22G01
  22911256.835                       -3995.749          26.000  
  21351389.253   112202297.064        3401.273          41.000  
  22541851.278   118458243.535        3159.316          35.000  
  22197282.437   116647462.688       -3006.349          44.000  
  18917159.977    99410337.848        1790.680          46.000  
  20194225.083   106121389.512        -432.068          30.000  
  20722452.316   108897225.251       -3679.713          44.000  
  18321063.623    96277826.840        -927.665          46.000  
  21736974.030   114228529.374       -2286.406          26.000  
  23266437.871   122265960.323       -3427.227          38.000  
  23533833.969   123671119.6871      -1367.001          27.000  
 23 10 29 17 02 13.9940000  0 11G13G25G32G23G12G19G15G24G17G22G01
  22912015.931                       -3993.919          25.000  
  21350741.824   112198896.089        3400.436          40.000  
  22541249.887   118455085.052        3157.979          36.000  
  22197854.654   116650469.480       -3007.593          44.000  
  18916819.558    99408547.684        1789.471          46.000  
  20194314.533   106121822.001        -432.768          30.000  
  20723152.336   108900905.274       -3680.562          44.000  
  18321240.332    96278754.915        -928.789          46.000  
  21737405.003                       -2286.757          24.000  
  23267089.958   122269387.701       -3427.681          38.000  
  23534093.133   123672487.432       -1367.658          27.000  
 23 10 29 17 02 14.9940000  0 11G13G25G32G23G12G19G15G24G17G22G01
  22912777.072                       -3993.947          26.000  
  21350094.606   112195495.805        3400.579          41.000  
  22540648.930   118451927.333        3157.684          36.000  
  22198427.067   116653477.005       -3007.543          44.000  
  18916479.601    99406758.528        1788.928          46.000  
  20194393.964   106122255.687        -433.739          31.000  
  20723852.938   108904586.081       -3680.973          44.000  
  18321417.387    96279683.963        -929.283          46.000  
  21737842.872                       -2297.360          23.000  
  23267742.053   122272815.598       -3427.996          38.000  
  23534354.467   123673856.420       -1369.509          27.000  
 23 10 29 17 02 15.9940000  0 12G13G25G32G23G12G19G15G24G17G22G01G10
  22913534.684                       -3993.157          26.000  
  21349447.620   112192095.839        3400.651          41.000  
  22540048.791   118448769.918        3157.981          37.000  
  22198999.774   116656484.913       -3007.341          44.000  
  18916139.802    99404969.967        1788.983          46.000  
  20194471.214   106122690.207        -434.522          30.000  
  20724553.654   108908267.244       -3680.524          44.000  
  18321594.247    96280613.591        -929.274          46.000  
  21738275.869                       -2288.112          22.000  
  23268394.082   122276243.572       -3427.293          37.000  
  23534616.260   123675225.992       -1369.203          26.000  
  21682805.269   113943910.2753      -1184.147          34.000  
 23 10 29 17 02 16.9940000  0 12G13G25G32G23G12G19G15G24G17G22G01G10
  22914296.382                       -3992.546          26.000  
  21348800.548   112188695.693        3399.754          41.000  
  22539448.263   118445612.306        3157.742          37.000  
  22199572.412   116659492.677       -3008.080          44.000  
  18915799.470    99403181.503        1788.007          46.000  
  20194558.788   106123124.974        -434.885          31.000  
  20725254.088   108911948.297       -3681.406          44.000  
  18321771.234    96281543.283        -930.145          46.000  
  21738711.418                       -2290.469          22.000  
  23269046.247   122279671.120       -3427.922          38.000  
  23534881.239   123676595.870       -1370.533          26.000  
  21683030.379   113945094.8382      -1185.581          33.000  
 23 10 29 17 02 17.9940000  0 12G13G25G32G23G12G19G15G24G17G22G01G10
  22915056.675   120419434.5993      -3995.435          27.000  
  21348153.448   112185296.343        3398.808          40.000  
  22538847.915   118442455.570        3155.901          37.000  
  22200144.969   116662501.319       -3009.293          44.000  
  18915459.130    99401394.154        1786.523          46.000  
  20194648.740   106123561.053        -437.034          33.000  
  20725954.710   108915630.209       -3682.535          44.000  
  18321948.663    96282474.076        -931.602          46.000  
  21739145.313                       -2286.562          22.000  
  23269698.551   122283099.290       -3428.925          37.000  
  23535146.066   123677966.913       -1371.528          26.000  
  21683255.304   113946280.5622      -1186.364          33.000  
 23 10 29 17 02 18.9940000  0 12G13G25G32G23G12G19G15G24G17G22G01G10
  22915814.549   120423429.3632      -3995.145          27.000  
  21347506.501   112181897.365        3399.366          41.000  
  22538247.806   118439299.161        3156.388          38.000  
  22200717.510   116665510.379       -3009.254          44.000  
  18915119.357    99399607.450        1786.530          46.000  
  20194733.279   106123997.918        -436.921          32.000  
  20726655.236   108919312.539       -3682.190          44.000  
  18322125.783    96283405.481        -931.692          46.000  
  21739583.601                       -2285.783          22.000  
  23270350.838   122286527.608       -3428.191          38.000  
  23535407.047   123679338.770       -1372.018          26.000  
  21683480.290   113947467.0332      -1187.011          34.000  
 23 10 29 17 02 19.9940000  0 12G13G25G32G23G12G19G15G24G17G22G01G10
  22916572.776   120427424.3202      -3994.756          27.000  
  21346859.748   112178498.709        3398.663          40.000  
  22537647.634   118436143.162        3156.031          38.000  
  22201290.366   116668519.818       -3009.535          44.000  
  18914779.459    99397821.389        1785.962          46.000  
  20194815.666   106124435.635        -437.472          33.000  
  20727355.903   108922995.285       -3682.797          43.000  
  18322303.121    96284337.500        -932.260          46.000  
  21740019.617                       -2286.846          19.000  
  23271003.385   122289956.062       -3428.458          38.000  
  23535669.201   123680711.361       -1372.499          26.000  
  21683704.396   113948654.2102      -1187.063          33.000  
 23 10 29 17 02 20.9940000  0 12G13G25G32G23G12G19G15G24G17G22G01G10
  22917329.823   120431419.0112      -3995.442          27.000  
  21346212.818   112175099.912        3398.393          40.000  
  22537046.932   118432986.976        3155.570          38.000  
  22201862.500   116671529.136       -3009.752          44.000  
  18914439.300    99396035.423        1785.644          46.000  
  20194899.264   106124873.715        -438.442          32.000  
  20728056.447   108926677.915       -3683.007          42.000  
  18322480.282    96285269.585        -932.342          46.000  
  21740457.888                       -2288.594          17.000  
  23271656.040   122293384.119       -3428.417          38.000  
  23535930.278   123682084.207       -1373.139          26.000  
  21683931.980   113949841.5552      -1187.321          34.000  
 23 10 29 17 02 21.9940000  0 12G13G25G32G23G12G19G15G24G17G22G01G10
  22918087.847   120435414.0192      -3995.062          27.000  
  21345565.782   112171701.742        3397.679          39.000  
  22536446.595   118429831.435        3155.000          38.000  
  22202434.950   116674539.158       -3010.877          44.000  
  18914099.453    99394250.433        1783.954          46.000  
  20194977.964   106125312.951        -439.771          31.000  
  20728756.892   108930361.270       -3683.949          42.000  
  18322657.486    96286202.631        -934.100          45.000  
  21740891.281                       -2290.237          19.000  
  23272308.482   122296812.629       -3429.600          38.000  
  23536189.829   123683458.131       -1374.734          25.000  
  21684154.217   113951030.0162      -1189.637          32.000  
 23 10 29 17 02 22.9940000  0 12G13G25G32G23G12G19G15G24G17G22G01G10
  22918845.285   120439409.9652      -3996.072          27.000  
  21344919.190   112168304.424        3397.274          39.000  
  22535846.523   118426676.741        3154.902          38.000  
  22203007.441   116677550.084       -3011.052          43.000  
  18913760.484    99392466.561        1783.691          46.000  
  20195059.505   106125753.488        -440.950          31.000  
  20729457.518   108934045.508       -3684.257          42.000  
  18322835.374    96287136.749        -934.297          46.000  
  21741326.828                       -2292.558          18.000  
  23272961.011   122300241.746       -3429.041          38.000  
  23536450.127   123684833.249       -1375.045          26.000  
  21684378.926   113952219.6562      -1190.577          33.000  
 23 10 29 17 02 23.9940000  0 12G13G25G32G23G12G19G15G24G17G22G01G10
  22919601.427   120443405.8772      -3995.478          27.000  
  21344272.653   112164907.422        3397.478          39.000  
  22535246.170   118423522.426        3154.490          37.000  
  22203580.007   116680561.381       -3010.954          43.000  
  18913421.156    99390683.315        1783.301          46.000  
  20195142.949   106126194.877        -441.396          31.000  
  20730158.243   108937730.133       -3684.243          43.000  
  18323013.139    96288071.474        -934.605          46.000  
  21741762.612                       -2292.558          16.000  
  23273613.540   122303671.002       -3428.854          38.000  
  23536711.619   123686209.144       -1375.885          25.000  
  21684602.245   113953409.9942      -1190.499          32.000  
 23 10 29 17 02 24.9940000  0 12G13G25G32G23G12G19G15G24G17G22G01G10
  22920357.778   120447401.4682      -3995.854          27.000  
  21343626.199   112161510.166        3397.304          39.000  
  22534645.418   118420367.804        3154.579          37.000  
  22204152.130   116683572.474       -3010.981          43.000  
  18913081.701    99388900.076        1783.179          46.000  
  20195232.288   106126636.418        -442.333          30.000  
  20730859.089   108941414.545       -3684.370          42.000  
  18323190.802    96289006.171        -934.664          45.000  
  21742199.179                       -2292.558          13.000  
  23274266.019   122307099.724       -3428.068          37.000  
  23536972.139   123687585.129       -1375.733          25.000  
  21684829.521   113954600.4092      -1189.836          33.000  
 23 10 29 17 02 25.9940000  0 12G13G25G32G23G12G19G15G24G17G22G01G10
  22921117.846   120451397.1062      -3995.646          27.000  
  21342979.365   112158113.223        3396.224          39.000  
  22534045.078   118417213.520        3153.906          37.000  
  22204724.491   116686583.924       -3011.997          42.000  
  18912742.456    99387117.453        1782.037          46.000  
  20195321.188   106127078.730        -443.766          30.000  
  20731560.184   108945099.347       -3685.341          43.000  
  18323368.862    96289941.462        -935.749          46.000  
  21742640.046                       -2292.558          14.000  
  23274918.712   122310528.596       -3429.194          37.000  
  23537234.233   123688961.737       -1375.714          25.000  
  21685057.480   113955791.5712      -1191.972          33.000  
 23 10 29 17 02 26.9940000  0 12G13G25G32G23G12G19G15G24G17G22G01G10
  22921879.557   120455393.3812      -3996.064          28.000  
  21342332.649   112154716.989        3395.913          39.000  
  22533445.166   118414059.992        3153.138          38.000  
  22205297.455   116689596.136       -3012.800          42.000  
  18912403.497    99385335.840        1781.079          46.000  
  20195409.135   106127522.250        -444.011          31.000  
  20732261.434   108948784.918       -3685.822          43.000  
  18323546.780    96290877.749        -936.671          45.000  
  21743076.149                       -2293.614          18.000  
  23275571.187   122313957.943       -3429.630          37.000  
  23537497.792   123690339.768       -1378.244          25.000  
  21685283.292   113956983.8122      -1192.974          32.000  
 23 10 29 17 02 27.9940000  0 12G13G25G32G23G12G19G15G24G17G22G01G10
  22922645.146   120459389.8822      -3996.306          29.000  
  21341686.243   112151321.146        3395.689          38.000  
  22532845.600   118410906.870        3153.090          38.000  
  22205870.994   116692608.809       -3012.673          43.000  
  18912064.951    99383554.926        1780.627          46.000  
  20195497.876   106127966.629        -445.392          32.000  
  20732962.868   108952470.965       -3686.411          43.000  
  18323724.966    96291814.692        -937.391          45.000  
  21743515.369                       -2291.598          21.000  
  23276224.124   122317387.537       -3429.461          34.000  
  23537759.689   123691718.409       -1379.308          24.000  
  21685507.682   113958176.8552      -1192.730          31.000  
 23 10 29 17 02 28.9940000  0 12G13G25G32G23G12G19G15G24G17G22G01G10
  22923405.284   120463386.1502      -3996.209          29.000  
  21341039.359   112147925.225        3395.736          38.000  
  22532245.902   118407753.709        3153.000          39.000  
  22206444.205   116695621.465       -3012.741          43.000  
  18911726.616    99381774.233        1780.463          47.000  
  20195577.495   106128411.373        -444.559          32.000  
  20733664.148   108956156.956       -3685.816          42.000  
  18323903.415    96292751.834        -937.322          45.000  
  21743955.825                       -2293.906          24.000  
  23276876.402   122320816.827       -3429.935          37.000  
  23538022.359   123693097.493       -1380.476          25.000  
  21685733.854   113959370.2692      -1194.114          30.000  
 23 10 29 17 02 29.9940000  0 12G13G25G32G23G12G19G15G24G17G22G01G10
  22924173.240   120467382.7792      -3997.511          30.000  
  21340392.329   112144529.840        3395.199          38.000  
  22531646.199   118404601.094        3151.772          39.000  
  22207017.722   116698634.714       -3013.817          43.000  
  18911388.088    99379994.359        1779.260          47.000  
  20195657.114   106128857.192        -446.139          31.000  
  20734365.322   108959843.563       -3687.004          42.000  
  18324081.830    96293689.757        -938.410          45.000  
  21744403.668   114267611.6153      -2296.018          26.000  
  23277528.957   122324246.387       -3429.745          37.000  
  23538281.551   123694477.472       -1381.040          25.000  
  21685973.071   113960564.5012      -1195.109          30.000  
 23 10 29 17 02 30.9940000  0 12G13G25G32G23G12G19G15G24G17G22G01G10
  22924934.032   120471380.0442      -3997.917          30.000  
  21339745.676   112141135.194        3394.802          37.000  
  22531046.747   118401449.198        3151.667          39.000  
  22207591.391   116701648.734       -3014.002          43.000  
  18911049.680    99378215.518        1778.699          47.000  
  20195739.566   106129304.253        -446.965          30.000  
  20735066.553   108963530.992       -3687.752          42.000  
  18324260.457    96294628.691        -938.990          45.000  
  21744851.285   114269908.9292      -2298.074          27.000  
  23278181.855   122327676.567       -3430.501          36.000  
  23538543.791                       -1380.869          25.000  
  21686201.034   113961759.3131      -1195.536          30.000  
 23 10 29 17 02 31.9940000  0 12G13G25G32G23G12G19G15G24G17G22G01G10
  22925696.214   120475377.4602      -3997.828          30.000  
  21339099.200   112137740.975        3394.001          37.000  
  22530447.605   118398297.753        3151.199          40.000  
  22208165.172   116704663.233       -3014.788          43.000  
  18910711.696    99376437.398        1777.746          47.000  
  20195821.800   106129752.121        -448.437          29.000  
  20735767.639   108967218.863       -3687.973          41.000  
  18324439.566    96295568.323        -939.864          45.000  
  21745297.152   114272206.7802      -2298.082          27.000  
  23278834.609   122331106.860       -3430.735          36.000  
  23538805.326                       -1382.865          25.000  
  21686426.624   113962955.409       -1196.479          30.000  
 23 10 29 17 02 32.9940000  0 12G13G25G32G23G12G19G15G24G17G22G01G10
  22926456.272   120479374.6802      -3996.903          31.000  
  21338453.023   112134346.626        3394.286          37.000  
  22529848.464   118395146.201        3151.945          40.000  
  22208738.780   116707677.637       -3013.767          43.000  
  18910373.812    99374659.444        1777.942          47.000  
  20195898.690   106130200.374        -447.619          29.000  
  20736469.123   108970906.694       -3687.913          41.000  
  18324618.553    96296508.088        -939.680          45.000  
  21745740.487   114274504.8072      -2297.760          27.000  
  23279487.188   122334536.864       -3429.438          36.000  
  23539067.319                       -1381.422          24.000  
  21686646.499   113964151.803       -1195.638          29.000  
 23 10 29 17 02 33.9940000  0 12G13G25G32G23G12G19G15G24G17G22G01G10
  22927213.430   120483372.0562      -3997.602          30.000  
  21337807.155   112130952.663        3393.532          38.000  
  22529249.159   118391995.009        3150.680          40.000  
  22209312.999   116710692.517       -3015.801          43.000  
  18910035.801    99372882.149        1776.685          47.000  
  20195978.688   106130649.527        -450.055          29.000  
  20737170.794   108974594.967       -3688.662          42.000  
  18324797.913    96297448.497        -940.948          45.000  
  21746174.114                       -2300.085          26.000  
  23280139.477   122337966.982       -3430.945          35.000  
  23539330.595                       -1383.795          24.000  
  21686873.170   113965348.953       -1198.124          29.000  
 23 10 29 17 02 34.9940000  0 12G13G25G32G23G12G19G15G24G17G22G01G10
  22927974.694   120487369.9482      -3998.134          32.000  
  21337161.539   112127559.296        3393.362          39.000  
  22528650.191   118388844.502        3150.592          40.000  
  22209887.052   116713708.036       -3015.575          43.000  
  18909697.873    99371105.787        1776.080          47.000  
  20196063.163   106131099.734        -449.991          30.000  
  20737872.554   108978283.915       -3689.240          42.000  
  18324977.547    96298389.777        -941.245          45.000  
  21746603.959                       -2299.156          25.000  
  23280792.185   122341397.530       -3430.486          36.000  
  23539593.714                       -1383.732          24.000  
  21687092.657                       -1195.777          27.000  
 23 10 29 17 02 35.9940000  0 11G13G25G32G23G12G19G15G24G17G22G01
  22928733.608   120491367.9012      -3998.351          31.000  
  21336516.356   112124166.195        3392.871          39.000  
  22528050.872   118385694.225        3149.703          40.000  
  22210461.459   116716723.859       -3016.552          43.000  
  18909360.344    99369329.930        1775.470          48.000  
  20196149.467   106131550.719        -451.824          30.000  
  20738574.437   108981973.150       -3689.802          42.000  
  18325157.754    96299331.567        -942.181          45.000  
  21747030.113   114281414.1883      -2300.078          28.000  
  23281444.974   122344828.111       -3430.687          36.000  
  23539856.248                       -1387.117          24.000  
 23 10 29 17 02 36.9940000  0 11G13G25G32G23G12G19G15G24G17G22G01
  22929499.275   120495365.860       -3997.737          31.000  
  21335871.424   112120773.333        3392.335          40.000  
  22527451.588   118382544.180        3149.871          40.000  
  22211035.344   116719739.937       -3016.213          43.000  
  18909022.526    99367554.617        1775.171          47.000  
  20196243.720   106132002.411        -451.445          32.000  
  20739276.319   108985662.653       -3689.402          40.000  
  18325337.482    96300273.890        -942.634          46.000  
  21747461.295   114283714.6992      -2301.349          30.000  
  23282097.871   122348258.703       -3429.996          36.000  
  23540120.211                       -1386.907          23.000  
 23 10 29 17 02 37.9940000  0 11G13G25G32G23G12G19G15G24G17G22G01
  22930255.827   120499363.883       -3997.770          31.000  
  21335225.912   112117380.601        3392.807          39.000  
  22526852.096   118379394.308        3150.212          40.000  
  22211609.432   116722756.241       -3016.314          43.000  
  18908684.107    99365779.764        1774.731          47.000  
  20196338.778   106132454.709        -452.515          33.000  
  20739977.914   108989352.391       -3689.865          40.000  
  18325517.318    96301216.586        -942.490          46.000  
  21747907.501   114286015.5702      -2300.338          31.000  
  23282750.808   122351689.289       -3430.303          35.000  
  23540383.308                       -1385.651          24.000  
 23 10 29 17 02 38.9940000  0 11G13G25G32G23G12G19G15G24G17G22G01
  22931021.648   120503362.267       -3998.883          31.000  
  21334579.816   112113988.377        3391.577          38.000  
  22526252.871   118376244.975        3149.052          40.000  
  22212183.556   116725773.101       -3017.466          43.000  
  18908346.465    99364005.706        1773.419          47.000  
  20196431.663   106132907.995        -454.017          34.000  
  20740679.755   108993042.680       -3690.618          40.000  
  18325697.332    96302160.071        -944.017          46.000  
  21748347.227   114288317.2372      -2302.370          30.000  
  23283403.614   122355120.102       -3430.790          36.000  
  23540645.567                       -1389.417          24.000  
 23 10 29 17 02 39.9940000  0 11G13G25G32G23G12G19G15G24G17G22G01
  22931780.143   120507361.074       -4000.375          31.000  
  21333934.173   112110596.787        3391.037          38.000  
  22525654.211   118373096.263        3148.120          41.000  
  22212757.740   116728790.605       -3018.115          44.000  
  18908009.159    99362232.548        1772.369          47.000  
  20196519.268   106133362.387        -455.455          36.000  
  20741381.985   108996733.663       -3691.547          41.000  
  18325876.962    96303104.431        -944.967          46.000  
  21748796.978   114290619.7952      -2303.531          30.000  
  23284056.370   122358551.395       -3431.664          36.000  
  23540909.918                       -1390.425          22.000  
 23 10 29 17 02 40.9940000  0 11G13G25G32G23G12G19G15G24G17G22G01
  22932545.235   120511359.551       -3998.206          31.000  
  21333288.735   112107205.070        3391.808          38.000  
  22525055.407   118369947.449        3148.879          41.000  
  22213331.516   116731808.058       -3017.379          44.000  
  18907671.811    99360459.558        1772.937          47.000  
  20196605.114   106133817.104        -455.200          37.000  
  20742084.304   109000424.554       -3690.434          41.000  
  18326056.593    96304048.942        -944.616          46.000  
  21749228.500   114292922.5082      -2302.850          28.000  
  23284709.181   122361982.278       -3430.907          35.000  
  23541171.408                       -1389.712          20.000  
 23 10 29 17 02 41.9940000  0 11G13G25G32G23G12G19G15G24G17G22G01
  22933299.913   120515358.407       -3998.965          30.000  
  21332643.171   112103813.820        3391.204          38.000  
  22524456.740   118366799.153        3147.603          41.000  
  22213905.410   116734826.052       -3018.273          43.000  
  18907334.293    99358687.355        1771.936          47.000  
  20196693.290   106134272.784        -456.399          37.000  
  20742786.974   109004116.038       -3691.582          42.000  
  18326236.954    96304994.183        -945.559          46.000  
  21749666.950   114295225.8902      -2303.668          29.000  
  23285362.183   122365413.561       -3431.626          34.000  
  23541438.041                       -1388.242          19.000  
 23 10 29 17 02 42.9940000  0 11G13G25G32G23G12G19G15G24G17G22G01
  22934061.430   120519357.390       -3997.822          30.000  
  21331998.161   112100422.942        3390.708          39.000  
  22523858.093   118363651.183        3147.864          41.000  
  22214479.553   116737844.450       -3018.403          43.000  
  18906997.210    99356915.809        1771.448          47.000  
  20196779.959   106134729.285        -456.904          36.000  
  20743489.707   109007807.894       -3691.568          41.000  
  18326416.743    96305940.065        -945.876          46.000  
  21750086.521   114297529.3901      -2303.438          29.000  
  23286015.238   122368844.796       -3430.818          34.000  
  23541700.832                       -1386.577          18.000  
 23 10 29 17 02 43.9940000  0 11G13G25G32G23G12G19G15G24G17G22G01
  22934828.548   120523356.774       -4000.039          31.000  
  21331352.782   112097032.483        3389.845          38.000  
  22523258.874   118360503.694        3147.191          40.000  
  22215054.018   116740863.322       -3018.953          44.000  
  18906660.050    99355144.977        1770.380          47.000  
  20196866.510   106135186.684        -457.476          36.000  
  20744192.772   109011500.256       -3692.613          42.000  
  18326596.760    96306886.654        -947.082          46.000  
  21750518.944   114299834.241       -2305.442          29.000  
  23286668.609   122372276.359       -3430.966          35.000  
  23541965.294                       -1383.729          18.000  
 23 10 29 17 02 44.9940000  0 11G13G25G32G23G12G19G15G24G17G22G01
  22935587.997                       -3999.610          30.000  
  21330707.307   112093642.270        3389.720          38.000  
  22522659.832   118357356.457        3147.086          40.000  
  22215628.468   116743882.498       -3019.522          44.000  
  18906322.597    99353374.697        1770.026          47.000  
  20196953.303   106135644.886        -458.520          35.000  
  20744896.219   109015192.934       -3693.005          42.000  
  18326776.652    96307833.722        -947.230          45.000  
  21750954.159   114302139.369       -2305.072          29.000  
  23287321.987   122375707.873       -3430.649          34.000  
  23542229.122                       -1387.811          18.000  
 23 10 29 17 02 45.9940000  0 11G13G25G32G23G12G19G15G24G17G22G01
  22936349.053   120531327.5543      -4001.337          30.000  
  21330062.138   112090252.102        3389.715          38.000  
  22522061.198   118354209.277        3146.819          41.000  
  22216202.631   116746901.759       -3019.416          44.000  
  18905985.509    99351604.760        1769.598          46.000  
  20197039.993   106136103.614        -459.360          34.000  
  20745599.116   109018885.693       -3692.896          42.000  
  18326956.328    96308781.153        -947.937          45.000  
  21751394.439   114304444.850       -2305.935          29.000  
  23287975.353   122379139.367       -3432.098          36.000  
  23542494.954                       -1390.284          18.000  
 23 10 29 17 02 46.9940000  0 11G13G25G32G23G12G19G15G24G17G22G01
  22937115.203   120535327.1952      -3999.493          31.000  
  21329416.617   112086862.592        3389.134          38.000  
  22521462.200   118351062.718        3146.191          40.000  
  22216777.242   116749921.706       -3020.253          44.000  
  18905648.203    99349835.729        1768.677          46.000  
  20197126.939   106136563.370        -460.579          34.000  
  20746302.329   109022579.133       -3693.646          42.000  
  18327136.353    96309729.431        -948.637          45.000  
  21751835.491   114306751.194       -2306.478          30.000  
  23288628.421   122382571.130       -3431.967          36.000  
  23542759.951                       -1393.904          17.000  
 23 10 29 17 02 47.9940000  0 11G13G25G32G23G12G19G15G24G17G22G01
  22937882.969   120539327.1532      -3999.460          30.000  
  21328771.406   112083473.395        3389.279          38.000  
  22520863.424   118347916.564        3145.828          40.000  
  22217351.944   116752942.066       -3020.511          43.000  
  18905310.932    99348067.355        1768.298          46.000  
  20197214.033   106137023.975        -460.773          34.000  
  20747005.719   109026273.003       -3693.968          43.000  
  18327316.625    96310678.375        -949.314          45.000  
  21752276.578   114309058.148       -2305.804          30.000  
  23289282.050   122386003.130       -3431.748          36.000  
  23543024.891                       -1391.874          16.000  
 23 10 29 17 02 48.9940000  0 11G13G25G32G23G12G19G15G24G17G22G01
  22938642.969   120543327.1572      -4000.048          30.000  
  21328126.084   112080084.474        3388.733          38.000  
  22520264.606   118344770.625        3145.958          40.000  
  22217926.405   116755962.674       -3020.460          44.000  
  18904973.698    99346299.475        1767.853          45.000  
  20197301.066   106137485.267        -461.178          34.000  
  20747708.664   109029967.135       -3694.218          42.000  
  18327497.091    96311627.727        -949.006          45.000  
  21752704.097   114311365.585       -2307.350          29.000  
  23289935.595   122389435.145       -3431.620          36.000  
  23543290.865                       -1387.697          16.000  
 23 10 29 17 02 49.9940000  0 11G13G25G32G23G12G19G15G24G17G22G01
  22939397.279   120547326.8572      -4000.445          30.000  
  21327481.074   112076695.363        3388.774          38.000  
  22519665.931   118341624.542        3146.208          40.000  
  22218501.163   116758983.191       -3020.839          44.000  
  18904636.959    99344531.757        1767.072          45.000  
  20197388.389   106137946.928        -462.050          34.000  
  20748411.807   109033661.179       -3694.529          43.000  
  18327677.349    96312577.249        -950.190          45.000  
  21753136.498   114313673.126       -2308.070          29.000  
  23290588.635   122392866.731       -3432.330          33.000  
  23543554.876                       -1393.463          18.000  
 23 10 29 17 02 50.9940000  0 11G13G25G32G23G12G19G15G24G17G22G01
  22940158.447   120551327.1112      -4000.677          31.000  
  21326836.319   112073307.005        3388.071          37.000  
  22519067.412   118338479.225        3145.239          40.000  
  22219076.167   116762004.466       -3021.414          44.000  
  18904300.662    99342765.050        1766.266          45.000  
  20197475.945   106138409.749        -463.019          34.000  
  20749115.045   109037356.001       -3695.348          43.000  
  18327857.959    96313527.732        -950.938          45.000  
  21753569.000   114315981.687       -2308.728          29.000  
  23291241.676   122396298.790       -3432.163          34.000  
  23543821.904                       -1393.463          16.000  
 23 10 29 17 02 51.9940000  0 11G13G25G32G23G12G19G15G24G17G22G01
  22940913.871   120555327.6622      -4001.488          30.000  
  21326191.527   112069919.016        3388.336          38.000  
  22518469.081   118335334.358        3144.780          40.000  
  22219651.276   116765026.254       -3021.780          44.000  
  18903964.680    99340999.078        1765.814          45.000  
  20197563.803   106138873.525        -463.773          33.000  
  20749818.188   109041051.341       -3695.437          43.000  
  18328038.571    96314478.916        -951.362          44.000  
  21753998.044   114318290.903       -2309.658          28.000  
  23291894.557   122399731.147       -3431.675          35.000  
  23544086.975                       -1393.463          16.000  
 23 10 29 17 02 52.9940000  0 10G13G25G32G23G12G19G15G24G17G22
  22941678.035   120559327.9812      -4000.283          31.000  
  21325546.977   112066531.084        3387.756          38.000  
  22517870.519   118332189.495        3144.498          40.000  
  22220226.298   116768048.053       -3021.604          44.000  
  18903628.600    99339233.378        1765.674          46.000  
  20197652.138   106139337.814        -464.933          32.000  
  20750521.382   109044746.692       -3695.490          43.000  
  18328219.115    96315430.356        -951.628          44.000  
  21754427.263   114320600.282       -2308.725          27.000  
  23292547.533   122403163.282       -3431.911          36.000  
 23 10 29 17 02 53.9940000  0 10G13G25G32G23G12G19G15G24G17G22
  22942438.765   120563327.8822      -3999.547          32.000  
  21324902.427   112063142.918        3387.492          37.000  
  22517272.090   118329044.372        3144.858          40.000  
  22220801.258   116771069.657       -3022.002          44.000  
  18903292.699    99337467.745        1765.094          46.000  
  20197740.131   106139802.287        -465.643          31.000  
  20751224.809   109048441.862       -3695.402          43.000  
  18328399.609    96316381.824        -951.917          44.000  
  21754863.431                       -2304.850          25.000  
  23293200.590   122406594.929       -3431.849          35.000  
 23 10 29 17 02 54.9940000  0 11G13G25G32G23G12G19G15G24G17G22G01
  22943206.131   120567328.240       -3999.490          32.000  
  21324257.770   112059755.292        3387.336          37.000  
  22516673.631   118325899.849        3144.415          39.000  
  22221376.245   116774091.936       -3022.741          43.000  
  18902956.948    99335702.972        1764.349          46.000  
  20197828.525   106140267.773        -466.041          32.000  
  20751928.312   109052137.677       -3696.123          43.000  
  18328580.234    96317334.129        -952.543          44.000  
  21755302.997                       -2305.934          25.000  
  23293853.311   122410026.940       -3432.407          35.000  
  23544882.598                       -1393.166          15.000  
 23 10 29 17 02 55.9940000  0 11G13G25G32G23G12G19G15G24G17G22G01
  22943963.146   120571329.322       -4002.529          32.000  
  21323613.648   112056368.435        3386.293          38.000  
  22516074.931   118322756.168        3142.954          39.000  
  22221950.824   116777114.964       -3023.933          43.000  
  18902621.334    99333939.259        1763.080          46.000  
  20197917.109   106140734.576        -467.460          32.000  
  20752631.994   109055834.306       -3697.344          43.000  
  18328761.381    96318287.475        -953.952          44.000  
  21755738.337                       -2316.206          24.000  
  23294506.581   122413459.531       -3432.827          35.000  
  23545147.558                       -1393.166          13.000  
 23 10 29 17 02 56.9940000  0 11G13G25G32G23G12G19G15G24G17G22G01
  22944723.301   120575330.287       -4000.304          31.000  
  21322969.287   112052981.873        3386.698          38.000  
  22515476.727   118319612.725        3143.309          39.000  
  22222525.665   116780138.316       -3023.415          43.000  
  18902286.091    99332176.102        1763.141          46.000  
  20198005.946   106141202.082        -468.381          31.000  
  20753335.908   109059531.253       -3696.737          43.000  
  18328942.237    96319241.347        -953.799          43.000  
  21756175.236                       -2312.427          24.000  
  23295159.545   122416892.181       -3431.935          34.000  
  23545412.463                       -1393.166          12.000  
 23 10 29 17 02 57.9940000  0 11G13G25G32G23G12G19G15G24G17G22G01
  22945481.762   120579330.882       -4001.156          30.000  
  21322324.980   112049594.982        3386.384          38.000  
  22514878.470   118316468.994        3143.121          39.000  
  22223100.599   116783161.432       -3023.638          43.000  
  18901950.495    99330412.934        1762.689          45.000  
  20198094.994   106141669.764        -469.258          31.000  
  20754039.594   109063227.965       -3697.464          43.000  
  18329123.335    96320195.188        -954.780          43.000  
  21756617.529                       -2311.222          25.000  
  23295812.421   122420324.313       -3432.175          35.000  
  23545680.023                       -1393.166          12.000  
 23 10 29 17 02 58.9940000  0 11G13G25G32G23G12G19G15G24G17G22G01
  22946234.272   120583332.056       -4001.058          29.000  
  21321680.349   112046208.812        3385.235          38.000  
  22514280.436   118313325.984        3142.299          39.000  
  22223675.876   116786185.276       -3024.083          43.000  
  18901614.832    99328650.779        1761.481          46.000  
  20198176.209   106142138.687        -469.140          30.000  
  20754743.324   109066925.439       -3697.934          43.000  
  18329304.905    96321149.963        -955.385          43.000  
  21757076.659   114334208.7013      -2313.629          32.000  
  23296465.421   122423756.898       -3432.260          34.000  
  23545946.147                       -1404.334          16.000  
 23 10 29 17 02 59.9940000  0 11G13G25G32G23G12G19G15G24G17G22G01
  22947000.217   120587333.544       -4001.452          29.000  
  21321036.117   112042823.109        3385.088          38.000  
  22513682.683   118310183.489        3142.274          40.000  
  22224251.371   116789209.682       -3024.677          43.000  
  18901279.827    99326889.396        1760.968          46.000  
  20198255.911   106142608.597        -470.499          30.000  
  20755446.841   109070623.454       -3698.431          43.000  
  18329486.782    96322105.520        -955.969          43.000  
  21757531.050   114336522.0952      -2313.269          30.000  
  23297118.338   122427189.770       -3432.850          34.000  
  23546214.540                       -1403.043          19.000  
 23 10 29 17 03 00.9940000  0 11G13G25G32G23G12G19G15G24G17G22G01
  22947758.444   120591335.080       -4001.187          29.000  
  21320392.019   112039437.628        3385.513          38.000  
  22513085.133   118307041.269        3141.963          39.000  
  22224827.021   116792234.383       -3024.796          43.000  
  18900944.831    99325128.564        1760.858          46.000  
  20198346.135   106143079.130        -470.884          29.000  
  20756150.674   109074321.773       -3698.479          43.000  
  18329668.964    96323061.583        -956.169          44.000  
  21757982.038   114338836.0762      -2313.884          32.000  
  23297771.519   122430622.683       -3432.366          34.000  
  23546480.892                       -1405.226          20.000  
 23 10 29 17 03 01.9940000  0 11G13G25G32G23G12G19G15G24G17G22G01
  22948518.717   120595336.334       -4001.087          28.000  
  21319747.724   112036052.039        3384.948          38.000  
  22512487.038   118303898.924        3141.435          39.000  
  22225402.698   116795259.016       -3025.392          42.000  
  18900609.856    99323367.919        1760.065          46.000  
  20198438.039   106143550.068        -471.741          30.000  
  20756854.242   109078020.025       -3698.690          43.000  
  18329850.844    96324017.806        -956.888          44.000  
  21758427.987   114341150.1762      -2314.663          34.000  
  23298424.770   122434055.284       -3433.096          34.000  
  23546747.282                       -1402.627          21.000  
 23 10 29 17 03 02.9940000  0 11G13G25G32G23G12G19G15G24G17G22G01
  22949287.288   120599338.121       -4002.200          28.000  
  21319103.652   112032667.080        3384.888          38.000  
  22511889.442   118300757.227        3141.208          39.000  
  22225978.758   116798284.270       -3025.397          42.000  
  18900275.333    99321608.164        1759.558          46.000  
  20198537.658   106144022.034        -472.193          30.000  
  20757558.138   109081718.956       -3698.953          42.000  
  18330033.102    96324974.877        -957.254          44.000  
  21758872.452   114343465.1042      -2315.083          35.000  
  23299077.677   122437488.284       -3433.160          34.000  
  23547010.327                       -1403.946          21.000  
 23 10 29 17 03 03.9940000  0 11G13G25G32G23G12G19G15G24G17G22G01
  22950053.396   120603340.163       -4001.709          28.000  
  21318460.044   112029282.710        3383.956          39.000  
  22511291.656   118297616.068        3140.741          39.000  
  22226554.687   116801310.160       -3026.235          42.000  
  18899940.444    99319849.246        1758.545          45.000  
  20198629.584   106144495.119        -474.350          31.000  
  20758262.357   109085418.493       -3699.968          43.000  
  18330215.536    96325932.765        -958.331          44.000  
  21759309.107   114345780.8632      -2316.097          35.000  
  23299730.889   122440921.559       -3433.536          34.000  
  23547278.404                       -1396.910          20.000  
 23 10 29 17 03 04.9940000  0 11G13G25G32G23G12G19G15G24G17G22G01
  22950824.425   120607342.585       -4002.437          28.000  
  21317816.829   112025898.756        3383.949          40.000  
  22510694.331   118294475.373        3140.531          39.000  
  22227130.313   116804336.542       -3026.534          42.000  
  18899605.662    99318091.075        1758.258          45.000  
  20198718.194   106144969.108        -475.351          31.000  
  20758966.279   109089118.524       -3700.102          43.000  
  18330398.268    96326891.378        -958.840          44.000  
  21759749.686   114348097.2992      -2316.497          36.000  
  23300384.229   122444355.165       -3433.558          34.000  
  23547545.379                       -1406.514          19.000  
 23 10 29 17 03 05.9940000  0 11G13G25G32G23G12G19G15G24G17G22G01
  22951583.202   120611344.442       -4001.648          28.000  
  21317173.841   112022514.441        3384.528          40.000  
  22510096.417   118291334.356        3140.751          39.000  
  22227706.216   116807362.607       -3026.110          42.000  
  18899271.089    99316332.855        1757.941          45.000  
  20198804.491   106145443.184        -473.790          29.000  
  20759670.391   109092818.243       -3699.653          43.000  
  18330581.314    96327849.899        -958.532          44.000  
  21760191.931   114350413.6362      -2316.164          36.000  
  23301037.203   122447788.112       -3432.902          33.000  
  23547815.391                       -1408.474          18.000  
 23 10 29 17 03 06.9940000  0 11G13G25G32G23G12G19G15G24G17G22G01
  22952346.141   120615346.458       -4002.400          28.000  
  21316530.846   112019130.466        3383.140          41.000  
  22509498.352   118288193.677        3139.952          38.000  
  22228282.315   116810389.028       -3027.116          43.000  
  18898936.319    99314575.216        1756.848          45.000  
  20198887.738   106145918.046        -474.713          28.000  
  20760374.915   109096518.347       -3700.754          43.000  
  18330764.055    96328808.990        -959.804          44.000  
  21760630.416   114352730.547       -2317.940          35.000  
  23301690.230   122451221.199       -3433.687          33.000  
  23548084.067                       -1413.379          20.000  
 23 10 29 17 03 07.9940000  0 11G13G25G32G23G12G19G15G24G17G22G01
  22953106.567   120619349.078       -4003.073          28.000  
  21315887.162   112015747.160        3383.700          40.000  
  22508900.628   118285053.710        3139.928          38.000  
  22228858.364   116813416.198       -3027.182          43.000  
  18898601.777    99312818.589        1756.537          46.000  
  20198969.776   106146394.137        -476.256          27.000  
  20761079.088   109100219.190       -3700.677          43.000  
  18330946.933    96329769.041        -960.063          44.000  
  21761070.279   114355048.388       -2317.963          34.000  
  23302343.839   122454654.757       -3433.017          33.000  
  23548352.465                       -1408.294          20.000  
 23 10 29 17 03 08.9940000  0 11G13G25G32G23G12G19G15G24G17G22G01
  22953872.813   120623351.772       -4003.122          28.000  
  21315243.433   112012364.171        3382.969          39.000  
  22508302.674   118281914.052        3139.702          38.000  
  22229434.627   116816443.742       -3027.993          43.000  
  18898267.963    99311062.573        1755.603          46.000  
  20199036.998   106146871.097        -477.510          27.000  
  20761783.506   109103920.427       -3701.522          43.000  
  18331130.215    96330729.692        -961.037          45.000  
  21761511.471   114357366.812       -2318.969          34.000  
  23302996.987   122458088.462       -3434.809          31.000  
  23548621.211                       -1413.127          21.000  
 23 10 29 17 03 09.9940000  0 11G13G25G32G23G12G19G15G24G17G22G01
  22954636.170   120627354.136       -4002.015          29.000  
  21314599.295   112008981.048        3383.156          39.000  
  22507704.406   118278774.279        3140.108          37.000  
  22230010.576   116819471.163       -3027.449          43.000  
  18897934.108    99309306.679        1755.963          46.000  
  20199131.820   106147348.227        -477.262          27.000  
  20762487.986   109107621.565       -3701.067          43.000  
  18331313.412    96331690.447        -960.802          45.000  
  21761952.368   114359685.395       -2319.195          33.000  
  23303649.808   122461521.735       -3432.803          32.000  
  23548890.038                       -1407.293          21.000  
 23 10 29 17 03 10.9940000  0 11G13G25G32G23G12G19G15G24G17G22G01
  22955398.529   120631356.746       -4003.089          28.000  
  21313955.606   112005598.300        3382.479          39.000  
  22507106.235   118275634.913        3138.241          37.000  
  22230586.878   116822499.015       -3028.345          43.000  
  18897600.675    99307551.469        1754.529          46.000  
  20199233.509   106147826.314        -479.033          28.000  
  20763192.824   109111323.124       -3702.144          43.000  
  18331496.338    96332651.839        -962.114          45.000  
  21762392.988   114362004.471       -2319.075          32.000  
  23304302.582   122464955.189       -3433.559          32.000  
  23549158.922                       -1408.635          22.000  
 23 10 29 17 03 11.9940000  0 11G13G25G32G23G12G19G15G24G17G22G01
  22956161.673   120635359.854       -4003.037          27.000  
  21313311.687   112002216.181        3382.050          39.000  
  22506508.707   118272496.142        3138.673          37.000  
  22231163.385   116825527.528       -3028.676          43.000  
  18897267.066    99305797.181        1754.053          46.000  
  20199347.398   106148305.476        -479.562          31.000  
  20763897.717   109115025.364       -3702.479          44.000  
  18331679.541    96333614.116        -962.387          45.000  
  21762833.981   114364324.508       -2320.547          31.000  
  23304955.709   122468389.051       -3433.408          32.000  
  23549427.156                       -1413.099          22.000  
 23 10 29 17 03 12.9940000  0 11G13G25G32G23G12G19G15G24G17G22G01
  22956924.664   120639363.352       -4004.465          27.000  
  21312668.073   111998834.605        3381.417          39.000  
  22505911.314   118269357.972        3137.830          37.000  
  22231739.908   116828556.648       -3029.537          43.000  
  18896933.562    99304043.720        1753.192          46.000  
  20199452.909   106148785.628        -481.072          33.000  
  20764602.972   109118728.192       -3702.956          44.000  
  18331862.945    96334577.220        -963.429          45.000  
  21763273.722   114366645.302       -2320.930          30.000  
  23305608.862   122471823.268       -3434.290          32.000  
  23549695.076                       -1417.358          22.000  
 23 10 29 17 03 13.9940000  0 11G13G25G32G23G12G19G15G24G17G22G01
  22957685.943   120643366.236       -4002.166          28.000  
  21312024.363   111995452.717        3381.846          39.000  
  22505313.685   118266219.511        3138.618          37.000  
  22232316.267   116831585.487       -3028.524          43.000  
  18896599.713    99302290.233        1753.778          46.000  
  20199546.771   106149265.937        -480.309          34.000  
  20765307.557   109122430.780       -3702.482          44.000  
  18332046.454    96335540.257        -963.023          44.000  
  21763709.583   114368966.067       -2320.913          29.000  
  23306262.165   122475256.970       -3433.768          32.000  
  23549963.056                       -1404.952          23.000  
 23 10 29 17 03 14.9940000  0 11G13G25G32G23G12G19G15G24G17G22G01
  22958445.215   120647369.360       -4002.134          27.000  
  21311380.391   111992071.229        3381.348          39.000  
  22504715.928   118263081.460        3137.642          37.000  
  22232892.715   116834614.778       -3029.369          43.000  
  18896265.629    99300537.458        1752.234          45.000  
  20199630.881   106149747.126        -481.428          34.000  
  20766012.455   109126133.805       -3703.370          44.000  
  18332229.472    96336503.960        -964.154          44.000  
  21764146.761   114371287.397       -2321.558          28.000  
  23306915.386   122478690.780       -3433.392          32.000  
  23550232.276                       -1412.961          23.000  
 23 10 29 17 03 15.9940000  0 11G13G25G32G23G12G19G15G24G17G22G01
  22959201.127   120651416.1843      -4003.877          26.000  
  21310736.944   111988690.350        3380.812          39.000  
  22504118.400   118259944.106        3137.183          36.000  
  22233469.556   116837644.759       -3030.110          43.000  
  18895931.804    99298785.591        1751.715          45.000  
  20199724.482   106150229.512        -482.755          34.000  
  20766717.212   109129837.531       -3703.485          44.000  
  18332413.000    96337468.581        -964.886          44.000  
  21764583.619   114373609.660       -2322.174          28.000  
  23307568.375   122482125.076       -3434.782          31.000  
  23550502.495                       -1414.900          23.000  
 23 10 29 17 03 16.9940000  0 10G25G32G23G12G19G15G24G17G22G01
  21310093.808   111985309.748        3380.113          39.000  
  22503520.939   118256806.937        3136.411          36.000  
  22234046.216   116840675.042       -3030.810          42.000  
  18895598.143    99297034.278        1750.622          45.000  
  20199815.760   106150712.554        -483.325          35.000  
  20767422.489   109133541.551       -3704.559          45.000  
  18332596.537    96338433.687        -965.745          45.000  
  21765021.551   114375932.478       -2323.004          28.000  
  23308221.652   122485559.383       -3434.729          32.000  
  23550770.971                       -1421.309          22.000  
 23 10 29 17 03 17.9940000  0 11G13G25G32G23G12G19G15G24G17G22G01
  22960719.746   120659396.3922      -4003.846          27.000  
  21309450.488   111981928.986        3380.977          39.000  
  22502923.677   118253669.657        3137.059          36.000  
  22234622.365   116843705.187       -3030.319          42.000  
  18895264.848    99295283.097        1750.940          45.000  
  20199904.955   106151195.920        -483.503          34.000  
  20768127.835   109137245.463       -3704.047          45.000  
  18332780.164    96339398.907        -965.401          44.000  
  21765459.353   114378255.315       -2322.815          28.000  
  23308875.237   122488993.319       -3433.611          32.000  
  23551037.874                       -1411.761          21.000  
 23 10 29 17 03 18.9940000  0 11G13G25G32G23G12G19G15G24G17G22G01
  22961485.527   120663399.9242      -4003.687          28.000  
  21308807.664   111978548.506        3380.312          39.000  
  22502326.371   118250532.616        3136.824          36.000  
  22235198.255   116846735.661       -3030.812          42.000  
  18894931.276    99293532.493        1750.018          45.000  
  20199998.688   106151680.045        -484.643          34.000  
  20768833.165   109140949.700       -3704.553          45.000  
  18332964.098    96340364.688        -966.253          44.000  
  21765901.313   114380578.670       -2323.984          27.000  
  23309528.619   122492427.333       -3434.743          32.000  
  23551305.648                       -1413.975          21.000  
 23 10 29 17 03 19.9940000  0 11G13G25G32G23G12G19G15G24G17G22G01
  22962248.300   120667404.1042      -4004.021          28.000  
  21308165.192   111975168.850        3379.744          39.000  
  22501729.236   118247396.534        3135.895          37.000  
  22235774.706   116849766.974       -3031.181          41.000  
  18894598.348    99291783.008        1749.646          45.000  
  20200091.329   106152165.496        -485.621          35.000  
  20769538.424   109144654.847       -3705.068          45.000  
  18333148.182    96341331.519        -966.824          44.000  
  21766343.648   114382903.143       -2324.800          28.000  
  23310181.927   122495861.827       -3432.088          31.000  
  23551574.645                       -1424.256          20.000  
 23 10 29 17 03 20.9940000  0 11G13G25G32G23G12G19G15G24G17G22G01
  22963012.707   120671408.5682      -4005.590          28.000  
  21307522.699   111971789.526        3379.271          39.000  
  22501132.253   118244260.733        3135.319          37.000  
  22236351.403   116852798.670       -3031.762          41.000  
  18894265.607    99290034.153        1748.547          45.000  
  20200183.942   106152651.701        -486.482          36.000  
  20770243.526   109148360.337       -3705.581          45.000  
  18333332.051    96342298.968        -967.851          44.000  
  21766795.113   114385228.142       -2325.320          29.000  
  23310835.407   122499296.624       -3434.631          32.000  
  23551845.514                       -1414.760          20.000  
 23 10 29 17 03 21.9940000  0 11G13G25G32G23G12G19G15G24G17G22G01
  22963778.217   120675412.5782      -4003.169          28.000  
  21306879.914   111968410.069        3380.240          40.000  
  22500535.371   118241124.750        3136.666          36.000  
  22236928.047   116855830.280       -3030.951          41.000  
  18893932.535    99288285.419        1749.561          44.000  
  20200276.989   106153138.273        -486.238          36.000  
  20770948.292   109152065.749       -3704.658          45.000  
  18333516.085    96343266.491        -966.777          44.000  
  21767243.623   114387553.233       -2324.583          30.000  
  23311489.057   122502731.016       -3433.215          33.000  
  23552113.735                       -1419.621          20.000  
 23 10 29 17 03 22.9940000  0 11G13G25G32G23G12G19G15G24G17G22G01
  22964546.661   120679416.4442      -4004.644          27.000  
  21306237.063   111965030.548        3378.847          40.000  
  22499938.846   118237988.811        3134.728          36.000  
  22237505.021   116858861.887       -3032.314          41.000  
  18893600.270    99286536.974        1747.424          45.000  
  20200369.381   106153625.205        -487.795          36.000  
  20771653.209   109155771.156       -3706.416          45.000  
  18333700.041    96344234.277        -968.840          44.000  
  21767687.916   114389878.561       -2326.224          31.000  
  23312145.179   122506165.043       -3435.163          33.000  
  23552384.355                       -1416.975          19.000  
 23 10 29 17 03 23.9940000  0 11G13G25G32G23G12G19G15G24G17G22G01
  22965312.545   120683421.3282      -4005.450          27.000  
  21305594.507   111961652.226        3378.332          40.000  
  22499342.173   118234854.073        3134.531          37.000  
  22238082.224   116861894.745       -3033.257          42.000  
  18893268.166    99284789.990        1746.789          45.000  
  20200462.434   106154113.868        -489.155          36.000  
  20772358.028   109159477.832       -3706.777          44.000  
  18333884.132    96345203.498        -969.120          44.000  
  21768123.792   114392205.332       -2327.063          30.000  
  23312788.810   122509600.049       -3434.596          29.000  
  23552654.094                       -1414.077          18.000  
 23 10 29 17 03 24.9940000  0 11G13G25G32G23G12G19G15G24G17G22G01
  22966074.947   120687425.999       -4003.766          29.000  
  21304951.624   111958274.005        3378.497          40.000  
  22498745.209   118231719.370        3135.308          37.000  
  22238659.386   116864927.714       -3032.884          41.000  
  18892935.946    99283043.387        1746.637          45.000  
  20200555.372   106154603.067        -489.315          36.000  
  20773063.209   109163184.619       -3706.683          45.000  
  18334068.731    96346173.068        -969.415          44.000  
  21768562.515   114394532.441       -2327.009          29.000  
  23313445.497   122513035.030       -3434.559          31.000  
  23552924.668                       -1414.077          16.000  
 23 10 29 17 03 25.9940000  0 11G13G25G32G23G12G19G15G24G17G22G01
  22966832.138   120691430.344       -4004.417          28.000  
  21304308.792   111954895.431        3377.754          40.000  
  22498148.678   118228584.404        3134.459          37.000  
  22239236.558   116867960.366       -3033.085          41.000  
  18892603.627    99281296.719        1746.027          45.000  
  20200648.436   106155092.455        -491.003          36.000  
  20773768.647   109166891.136       -3707.144          45.000  
  18334253.363    96347142.565        -970.088          44.000  
  21769015.756   114396859.448       -2326.880          31.000  
  23314102.284   122516469.449       -3435.477          31.000  
  23553194.156                       -1414.077          14.000  
 23 10 29 17 03 26.9940000  0 11G13G25G32G23G12G19G15G24G17G22G01
  22967602.164   120695435.664       -4004.776          30.000  
  21303666.302   111951518.039        3376.647          40.000  
  22497552.315   118225450.626        3133.110          37.000  
  22239813.654   116870994.272       -3034.208          42.000  
  18892271.734    99279551.549        1744.403          45.000  
  20200742.137   106155583.469        -492.245          36.000  
  20774474.578   109170598.884       -3708.447          45.000  
  18334437.766    96348113.509        -971.577          44.000  
  21769466.331   114399187.925       -2329.029          32.000  
  23314755.356   122519904.747       -3436.094          32.000  
  23553463.086                       -1419.399          14.000  
 23 10 29 17 03 27.9940000  0 11G13G25G32G23G12G19G15G24G17G22G01
  22968368.560   120699441.141       -4004.765          29.000  
  21303023.152   111948141.033        3377.525          39.000  
  22496956.006   118222317.227        3133.855          37.000  
  22240391.276   116874028.595       -3033.982          43.000  
  18891939.572    99277807.046        1744.647          45.000  
  20200835.228   106156075.311        -491.925          35.000  
  20775180.033   109174307.070       -3707.858          45.000  
  18334622.562    96349085.095        -971.301          44.000  
  21769912.091   114401516.935       -2328.475          33.000  
  23315407.907   122523340.197       -3434.444          31.000  
  23553732.908                       -1419.399          15.000  
 23 10 29 17 03 28.9940000  0 11G13G25G32G23G12G19G15G24G17G22G01
  22969124.979   120703446.204       -4005.846          28.000  
  21302380.530   111944763.655        3376.676          39.000  
  22496359.780   118219183.532        3132.924          37.000  
  22240968.732   116877062.595       -3034.723          42.000  
  18891607.433    99276062.472        1743.677          45.000  
  20200928.663   106156567.325        -493.055          35.000  
  20775885.949   109178014.932       -3708.677          45.000  
  18334807.731    96350056.577        -972.369          45.000  
  21770360.395   114403845.883       -2330.004          34.000  
  23316064.580   122526775.144       -3435.722          33.000  
  23554005.591                       -1419.399          14.000  
 23 10 29 17 03 29.9940000  0 11G13G25G32G23G12G19G15G24G17G22G01
  22969879.723   120707451.819       -4006.555          27.000  
  21301738.273   111941387.140        3375.926          40.000  
  22495763.790   118216050.628        3132.584          37.000  
  22241546.542   116880097.507       -3035.809          42.000  
  18891275.977    99274319.050        1742.718          45.000  
  20201021.976   106157060.662        -494.365          35.000  
  20776591.597   109181723.717       -3709.418          45.000  
  18334992.821    96351029.161        -973.382          45.000  
  21770792.301   114406175.926       -2329.926          32.000  
  23316717.941   122530210.687       -3435.640          33.000  
  23554274.434                       -1419.399          12.000  
 23 10 29 17 03 30.9940000  0 11G13G25G32G23G12G19G15G24G17G22G01
  22970626.880   120711457.842       -4006.566          25.000  
  21301095.466   111938011.150        3376.116          40.000  
  22495168.172   118212918.390        3132.078          37.000  
  22242124.244   116883132.981       -3035.354          43.000  
  18890944.613    99272576.466        1742.474          45.000  
  20201115.899   106157555.000        -494.050          36.000  
  20777297.997   109185433.095       -3709.322          45.000  
  18335178.159    96352002.566        -973.400          45.000  
  21771234.708   114408506.775       -2330.092          32.000  
  23317371.994   122533646.623       -3435.825          33.000  
  23554543.451                       -1419.399          10.000  
 23 10 29 17 03 31.9940000  0  9G25G32G23G12G19G15G24G17G22
  21300452.689   111934634.833        3376.326          39.000  
  22494571.986   118209785.787        3133.218          37.000  
  22242702.798   116886168.168       -3035.074          44.000  
  18890613.028    99270833.818        1742.657          45.000  
  20201209.932   106158049.485        -494.567          36.000  
  20778004.041   109189142.170       -3709.121          45.000  
  18335363.173    96352975.893        -973.424          45.000  
  21771677.778   114410837.550       -2331.055          31.000  
  23318025.551   122537081.908       -3434.469          32.000  
 23 10 29 17 03 32.9940000  0 10G13G25G32G23G12G19G15G24G17G22
  22972149.392   120719459.5493      -4005.823          25.000  
  21299809.725   111931259.359        3375.177          39.000  
  22493975.698   118206653.996        3131.409          37.000  
  22243281.013   116889204.207       -3036.325          44.000  
  18890282.174    99269092.310        1740.833          45.000  
  20201304.248   106158545.284        -496.988          35.000  
  20778710.097   109192852.125       -3710.530          45.000  
  18335548.752    96353950.315        -975.188          44.000  
  21772121.886   114413169.361       -2332.570          31.000  
  23318679.354   122540517.873       -3437.221          33.000  
 23 10 29 17 03 33.9940000  0 10G13G25G32G23G12G19G15G24G17G22
  22972907.196   120723466.2652      -4006.108          26.000  
  21299167.127   111927884.585        3374.089          39.000  
  22493379.455   118203522.907        3131.203          36.000  
  22243859.487   116892240.994       -3037.236          44.000  
  18889951.183    99267351.763        1740.234          46.000  
  20201398.772   106159042.193        -497.557          35.000  
  20779416.488   109196562.825       -3711.033          45.000  
  18335734.130    96354925.674        -975.706          44.000  
  21772556.340   114415502.057       -2332.290          29.000  
  23319333.545   122543954.204       -3436.546          32.000  
 23 10 29 17 03 34.9940000  0 10G13G25G32G23G12G19G15G24G17G22
  22973665.185   120727472.4922      -4005.963          26.000  
  21298524.407   111924509.371        3375.985          39.000  
  22492782.998   118200391.557        3131.161          36.000  
  22244437.929   116895277.465       -3036.535          44.000  
  18889620.082    99265611.170        1740.533          45.000  
  20201493.989   106159539.271        -497.613          36.000  
  20780122.705   109200273.221       -3710.414          45.000  
  18335919.776    96355900.953        -975.186          44.000  
  21773005.196   114417834.832       -2332.858          30.000  
  23319987.280   122547390.010       -3435.046          31.000  
 23 10 29 17 03 35.9940000  0 10G13G25G32G23G12G19G15G24G17G22
  22974427.533                       -4007.392          26.000  
  21297881.844   111921134.659        3374.578          38.000  
  22492187.036   118197260.577        3130.894          36.000  
  22245016.345   116898314.396       -3037.236          44.000  
  18889288.646    99263871.295        1739.362          45.000  
  20201588.885   106160037.190        -497.647          35.000  
  20780828.891   109203984.081       -3711.325          45.000  
  18336105.721    96356876.920        -976.453          45.000  
  21773449.128   114420168.147       -2334.495          31.000  
  23320641.323   122550826.017       -3436.020          31.000  
 23 10 29 17 03 36.9940000  0 10G13G25G32G23G12G19G15G24G17G22
  22975189.484                       -4005.574          26.000  
  21297239.657   111917760.826        3373.618          39.000  
  22491591.074   118194130.545        3129.445          36.000  
  22245594.731   116901352.288       -3038.386          44.000  
  18888957.428    99262132.593        1738.196          45.000  
  20201683.618   106160536.570        -500.263          34.000  
  20781535.586   109207695.904       -3712.285          46.000  
  18336292.083    96357854.047        -977.562          45.000  
  21773893.434   114422502.571       -2334.842          31.000  
  23321297.286   122554262.746       -3437.048          31.000  
 23 10 29 17 03 37.9940000  0  9G25G32G23G12G19G15G24G17G22
  21296597.327   111914386.935        3374.170          39.000  
  22490994.761   118191000.457        3130.609          36.000  
  22246172.579   116904390.131       -3037.403          44.000  
  18888626.290    99260394.131        1738.708          45.000  
  20201778.451   106161036.342        -500.078          33.000  
  20782242.206   109211407.704       -3711.606          45.000  
  18336478.388    96358831.376        -977.095          45.000  
  21774343.818   114424837.211       -2334.647          33.000  
  23321953.161   122557699.171       -3436.204          32.000  
 23 10 29 17 03 38.9940000  0  9G25G32G23G12G19G15G24G17G22
  21295955.273   111911013.101        3373.192          39.000  
  22490399.067   118187870.406        3129.958          36.000  
  22246750.779   116907428.065       -3038.343          44.000  
  18888295.416    99258656.003        1737.488          45.000  
  20201873.001   106161536.544        -501.013          33.000  
  20782948.864   109215119.604       -3712.514          45.000  
  18336665.021    96359808.991        -978.157          45.000  
  21774787.681   114427172.092       -2334.597          33.000  
  23322603.491   122561135.452       -3436.572          32.000  
 23 10 29 17 03 39.9940000  0  9G25G32G23G12G19G15G24G17G22
  21295313.692   111907640.282        3372.592          39.000  
  22489803.705   118184741.463        3128.672          37.000  
  22247328.752   116910467.098       -3039.383          44.000  
  18887965.147    99256919.211        1736.505          45.000  
  20201967.902   106162038.292        -502.053          32.000  
  20783655.419   109218832.594       -3713.307          45.000  
  18336851.590    96360787.939        -979.436          46.000  
  21775232.889   114429508.374       -2336.785          33.000  
  23323257.277   122564572.554       -3437.440          32.000  
 23 10 29 17 03 40.9940000  0  9G25G32G23G12G19G15G24G17G22
  21294671.779   111904267.709        3372.545          39.000  
  22489209.038   118181612.688        3129.344          38.000  
  22247906.895   116913506.341       -3038.922          45.000  
  18887634.849    99255182.913        1736.328          45.000  
  20202062.846   106162540.774        -502.005          32.000  
  20784362.447   109222545.809       -3712.818          45.000  
  18337038.333    96361767.307        -979.256          46.000  
  21775677.178   114431844.994       -2336.077          33.000  
  23323914.447   122568009.591       -3437.036          32.000  
 23 10 29 17 03 41.9940000  0  9G25G32G23G12G19G15G24G17G22
  21294029.907   111900895.057        3371.999          39.000  
  22488614.333   118178483.960        3128.158          37.000  
  22248485.361   116916545.598       -3039.846          45.000  
  18887304.272    99253446.879        1735.156          45.000  
  20202157.828   106163043.718        -503.710          31.000  
  20785069.482   109226259.067       -3713.826          45.000  
  18337224.765    96362746.912        -980.395          46.000  
  21776122.302   114434181.840       -2337.462          33.000  
  23324570.678   122571446.399       -3437.507          31.000  
 23 10 29 17 03 42.9940000  0  9G25G32G23G12G19G15G24G17G22
  21293388.197   111897522.795        3371.955          39.000  
  22488019.254   118175355.578        3128.076          37.000  
  22249063.834   116919585.267       -3040.001          44.000  
  18886973.381    99251711.481        1735.095          45.000  
  20202243.639   106163547.495        -504.466          29.000  
  20785775.943   109229972.724       -3713.850          45.000  
  18337411.656    96363727.139        -980.626          46.000  
  21776567.213   114436519.313       -2337.337          34.000  
  23325214.207   122574883.399       -3436.289          32.000  
 23 10 29 17 03 43.9940000  0  9G25G32G23G12G19G15G24G17G22
  21292746.658   111894151.123        3371.462          38.000  
  22487424.110   118172227.801        3127.711          37.000  
  22249642.226   116922625.569       -3040.550          44.000  
  18886642.898    99249976.977        1734.468          44.000  
  20202327.442   106164052.246        -505.121          29.000  
  20786482.062   109233687.016       -3714.397          45.000  
  18337598.221    96364708.218        -981.306          46.000  
  21777012.523   114438857.571       -2338.136          34.000  
  23325880.867   122578320.631       -3437.433          32.000  
 23 10 29 17 03 44.9940000  0  9G25G32G23G12G19G15G24G17G22
  21292104.760   111890779.443        3371.290          38.000  
  22486829.128   118169100.034        3127.701          38.000  
  22250220.674   116925665.920       -3040.708          44.000  
  18886312.374    99248242.806        1733.839          44.000  
  20202429.076   106164557.554        -505.900          30.000  
  20787188.639   109237401.388       -3714.702          44.000  
  18337784.531    96365689.577        -981.618          46.000  
  21777457.591   114441196.123       -2339.076          34.000  
  23326535.259   122581757.721       -3437.230          32.000  
 23 10 29 17 03 45.9940000  0 10G13G25G32G23G12G19G15G24G17G22
  22982036.260                       -4008.677          29.000  
  21291462.935   111887408.385        3370.950          38.000  
  22486234.658   118165972.897        3126.965          38.000  
  22250799.101   116928706.898       -3041.416          44.000  
  18885982.000    99246509.491        1732.851          44.000  
  20202544.492   106165063.938        -506.868          34.000  
  20787895.113   109241116.399       -3715.389          44.000  
  18337971.477    96366671.793        -982.604          45.000  
  21777902.807   114443535.536       -2339.959          35.000  
  23327189.393   122585195.217       -3437.500          31.000  
 23 10 29 17 03 46.9940000  0 10G13G25G32G23G12G19G15G24G17G22
  22982810.607   120775484.7983      -4007.638          29.000  
  21290821.384   111884037.361        3371.247          39.000  
  22485640.050   118162845.837        3127.314          39.000  
  22251376.854   116931747.966       -3040.990          43.000  
  18885651.754    99244776.530        1732.936          44.000  
  20202641.498   106165570.830        -507.203          34.000  
  20788601.530   109244831.505       -3715.134          44.000  
  18338158.554    96367654.331        -982.506          45.000  
  21778348.407   114445875.228       -2339.505          35.000  
  23327836.905   122588632.603       -3438.636          31.000  
 23 10 29 17 03 47.9940000  0 10G13G25G32G23G12G19G15G24G17G22
  22983577.814   120779492.5082      -4008.047          30.000  
  21290180.003   111880665.963        3370.603          39.000  
  22485045.146   118159718.425        3126.743          39.000  
  22251954.718   116934788.693       -3041.277          43.000  
  18885321.721    99243043.473        1732.252          44.000  
  20202737.491   106166077.803        -507.909          34.000  
  20789307.898   109248546.269       -3715.473          44.000  
  18338345.498    96368636.732        -983.169          45.000  
  21778793.713   114448214.774       -2340.602          35.000  
  23328494.499   122592069.317       -3437.384          32.000  
 23 10 29 17 03 48.9940000  0 10G13G25G32G23G12G19G15G24G17G22
  22984336.214   120783501.0562      -4008.602          31.000  
  21289538.546   111877295.537        3370.551          39.000  
  22484450.371   118156591.998        3125.911          38.000  
  22252533.018   116937830.428       -3041.869          43.000  
  18884991.859    99241311.696        1731.543          43.000  
  20202835.463   106166586.265        -508.920          35.000  
  20790014.786   109252262.045       -3715.838          44.000  
  18338532.741    96369620.387        -984.078          45.000  
  21779239.302   114450555.556       -2341.387          34.000  
  23329150.782   122595506.796       -3437.711          33.000  
 23 10 29 17 03 49.9940000  0 10G13G25G32G23G12G19G15G24G17G22
  22985095.763   120787510.1102      -4008.522          30.000  
  21288897.652   111873925.767        3370.050          39.000  
  22483855.879   118153466.238        3125.987          39.000  
  22253111.682   116940872.881       -3042.432          42.000  
  18884662.674    99239580.878        1730.804          44.000  
  20202934.354   106167095.788        -509.405          36.000  
  20790721.640   109255978.568       -3716.230          43.000  
  18338719.326    96370604.957        -984.524          44.000  
  21779685.382   114452897.232       -2341.286          35.000  
  23329802.818   122598944.690       -3437.257          33.000  
 23 10 29 17 03 50.9940000  0 10G13G25G32G23G12G19G15G24G17G22
  22985865.481   120791518.8522      -4009.273          30.000  
  21288255.899   111870555.881        3369.276          37.000  
  22483261.950   118150340.349        3125.304          40.000  
  22253690.356   116943915.220       -3042.799          42.000  
  18884333.211    99237850.208        1730.033          44.000  
  20203030.681   106167605.702        -510.224          36.000  
  20791428.719   109259694.994       -3716.999          45.000  
  18338905.792    96371589.650        -985.276          44.000  
  21780131.808   114455239.006       -2342.445          36.000  
  23330455.683   122602382.320       -3438.757          32.000  
 23 10 29 17 03 51.9940000  0 10G13G25G32G23G12G19G15G24G17G22
  22986627.482   120795528.0192      -4009.290          30.000  
  21287614.701   111867186.540        3369.223          38.000  
  22482667.272   118147215.097        3124.949          39.000  
  22254269.400   116946958.181       -3043.130          43.000  
  18884003.439    99236120.413        1729.316          43.000  
  20203128.573   106168116.694        -511.889          36.000  
  20792136.473   109263412.047       -3717.334          45.000  
  18339092.961    96372575.179        -985.956          44.000  
  21780578.172   114457581.621       -2343.157          36.000  
  23331110.337   122605820.191       -3438.561          31.000  
 23 10 29 17 03 52.9940000  0 10G13G25G32G23G12G19G15G24G17G22
  22987388.455   120799537.1472      -4009.063          30.000  
  21286974.313   111863817.388        3368.817          39.000  
  22482072.248   118144089.987        3124.561          38.000  
  22254848.219   116950001.346       -3043.286          43.000  
  18883674.202    99234391.064        1729.027          43.000  
  20203226.124   106168628.300        -511.884          36.000  
  20792843.779   109267129.282       -3717.720          44.000  
  18339280.671    96373561.130        -986.189          44.000  
  21781024.612   114459924.620       -2343.448          36.000  
  23331764.439   122609258.093       -3438.329          32.000  
 23 10 29 17 03 53.9940000  0 10G13G25G32G23G12G19G15G24G17G22
  22988160.495   120803546.4602      -4010.141          31.000  
  21286333.365   111860448.481        3368.903          39.000  
  22481477.623   118140965.226        3124.643          39.000  
  22255426.888   116953044.843       -3043.547          43.000  
  18883345.612    99232662.304        1728.550          44.000  
  20203323.572   106169140.624        -512.109          37.000  
  20793551.376   109270846.866       -3717.699          45.000  
  18339468.455    96374547.637        -986.638          44.000  
  21781471.501   114462268.162       -2343.574          38.000  
  23332418.711   122612696.035       -3437.756          32.000  
 23 10 29 17 03 54.9940000  0 10G13G25G32G23G12G19G15G24G17G22
  22988922.114   120807555.2922      -4009.963          31.000  
  21285692.778   111857079.362        3369.109          40.000  
  22480883.734   118137840.169        3124.493          39.000  
  22256006.013   116956088.110       -3043.701          43.000  
  18883016.859    99230933.568        1728.218          44.000  
  20203420.864   106169653.213        -513.153          37.000  
  20794259.113   109274564.220       -3717.498          45.000  
  18339655.621    96375534.155        -986.885          44.000  
  21781918.466   114464611.695       -2343.815          38.000  
  23333072.679   122616133.476       -3437.829          32.000  
 23 10 29 17 03 55.9940000  0 10G13G25G32G23G12G19G15G24G17G22
  22989687.452   120811564.2092      -4008.866          32.000  
  21285051.967   111853710.528        3368.256          40.000  
  22480289.582   118134715.432        3124.545          39.000  
  22256585.139   116959131.695       -3043.752          43.000  
  18882688.064    99229205.406        1727.667          44.000  
  20203518.524   106170166.551        -514.099          37.000  
  20794966.312   109278281.958       -3718.144          44.000  
  18339843.676    96376521.218        -987.430          44.000  
  21782365.260   114466955.777       -2344.453          39.000  
  23333727.093   122619571.027       -3438.170          32.000  
 23 10 29 17 03 56.9940000  0 10G13G25G32G23G12G19G15G24G17G22
  22990445.193   120815573.5182      -4009.850          32.000  
  21284411.439   111850342.201        3367.723          40.000  
  22479695.479   118131591.270        3123.620          39.000  
  22257164.683   116962175.824       -3044.747          43.000  
  18882359.810    99227478.063        1726.676          44.000  
  20203616.064   106170680.893        -515.522          37.000  
  20795673.652   109282000.226       -3718.763          44.000  
  18340031.914    96377509.017        -988.266          44.000  
  21782812.286   114469300.592       -2345.530          39.000  
  23334381.533   122623008.812       -3438.104          32.000  
 23 10 29 17 03 57.9940000  0 10G13G25G32G23G12G19G15G24G17G22
  22991211.185   120819583.1132      -4010.261          32.000  
  21283770.815   111846974.313        3368.110          39.000  
  22479101.177   118128467.487        3123.365          38.000  
  22257744.704   116965220.470       -3045.087          44.000  
  18882031.539    99225751.442        1726.273          44.000  
  20203714.230   106171196.103        -515.823          38.000  
  20796381.695   109285718.999       -3719.197          45.000  
  18340220.016    96378497.566        -989.004          45.000  
  21783259.511   114471646.071       -2345.618          39.000  
  23335036.003   122626446.866       -3438.147          32.000  
 23 10 29 17 03 58.9940000  0 10G13G25G32G23G12G19G15G24G17G22
  22991971.666   120823592.0392      -4009.074          32.000  
  21283129.723   111843605.999        3368.202          39.000  
  22478506.709   118125343.354        3124.179          37.000  
  22258324.400   116968264.726       -3044.846          44.000  
  18881703.791    99224024.728        1726.059          45.000  
  20203812.148   106171711.392        -515.849          38.000  
  20797089.761   109289437.404       -3719.003          45.000  
  18340408.238    96379485.967        -989.032          45.000  
  21783706.590   114473991.429       -2345.884          39.000  
  23335690.402   122629884.251       -3437.759          33.000  
 23 10 29 17 03 59.9940000  0 10G13G25G32G23G12G19G15G24G17G22
  22992734.910   120827601.4412      -4009.300          32.000  
  21282489.188   111840238.308        3367.502          40.000  
  22477912.042   118122219.878        3123.371          37.000  
  22258904.173   116971309.589       -3044.748          44.000  
  18881375.384    99222298.876        1725.390          45.000  
  20203910.807   106172227.787        -516.908          38.000  
  20797797.496   109293156.415       -3719.362          44.000  
  18340596.814    96380475.185        -989.658          45.000  
  21784154.018   114476337.604       -2346.633          39.000  
  23336344.872   122633322.038       -3437.437          32.000  
 23 10 29 17 04 00.9940000  0 10G13G25G32G23G12G19G15G24G17G22
  22993495.646   120831611.2172      -4009.188          32.000  
  21281848.454   111836871.187        3366.813          40.000  
  22477317.801   118119096.946        3122.772          37.000  
  22259483.254   116974355.098       -3045.639          42.000  
  18881047.743    99220573.909        1724.404          45.000  
  20204009.617   106172745.236        -517.834          39.000  
  20798505.205   109296876.084       -3720.007          44.000  
  18340784.788    96381465.267        -990.415          45.000  
  21784600.918   114478684.570       -2347.212          38.000  
  23336999.194   122636760.179       -3437.804          33.000  
 23 10 29 17 04 01.9940000  0 11G13G25G32G23G12G19G10G15G24G17G22
  22994263.054   120835621.1802      -4010.188          32.000  
  21281207.871   111833504.354        3367.131          40.000  
  22476723.355   118115974.350        3122.784          37.000  
  22260062.372   116977400.937       -3045.817          43.000  
  18880720.556    99218849.520        1724.342          46.000  
  20204108.267   106173263.427        -518.184          38.000  
  21707427.625   114073301.7553      -1256.429          31.000  
  20799212.912   109300596.089       -3719.761          44.000  
  18340973.599    96382455.904        -990.691          45.000  
  21785047.807   114481032.108       -2347.507          38.000  
  23337653.844   122640198.406       -3438.653          33.000  
 23 10 29 17 04 02.9940000  0 11G13G25G32G23G12G19G10G15G24G17G22
  22995024.867   120839630.7322      -4009.723          30.000  
  21280567.252   111830137.310        3366.741          40.000  
  22476128.573   118112851.535        3122.402          36.000  
  22260641.545   116980446.570       -3046.006          43.000  
  18880392.808    99217125.192        1723.971          46.000  
  20204206.769   106173781.855        -518.859          38.000  
  21707669.775   114074558.7032      -1257.266          31.000  
  20799920.642   109304315.913       -3720.254          44.000  
  18341162.509    96383446.551        -990.865          45.000  
  21785494.256   114483379.647       -2347.954          36.000  
  23338308.552   122643636.110       -3437.410          33.000  
 23 10 29 17 04 03.9940000  0 11G13G25G32G23G12G19G10G15G24G17G22
  22995786.384   120843640.3892      -4009.960          30.000  
  21279926.620   111826770.556        3366.529          40.000  
  22475533.743   118109729.022        3122.506          36.000  
  22261221.453   116983492.517       -3046.072          43.000  
  18880065.405    99215401.445        1723.369          46.000  
  20204305.225   106174301.082        -519.835          38.000  
  21707905.612   114075816.3892      -1257.565          32.000  
  20800628.393   109308036.053       -3720.277          44.000  
  18341351.689    96384437.743        -991.385          46.000  
  21785940.792   114485727.727       -2348.074          36.000  
  23338963.114   122647074.022       -3438.283          33.000  
 23 10 29 17 04 04.9940000  0 11G13G25G32G23G12G19G10G15G24G17G22
  22996548.546   120847650.5532      -4011.312          31.000  
  21279285.922   111823404.486        3365.673          40.000  
  22474939.564   118106607.270        3121.183          36.000  
  22261801.313   116986539.208       -3047.082          43.000  
  18879737.817    99213678.682        1722.251          46.000  
  20204403.418   106174821.442        -521.042          37.000  
  21708148.792   114077075.0472      -1258.499          32.000  
  20801336.350   109311756.951       -3721.311          44.000  
  18341540.960    96385429.899        -992.464          46.000  
  21786387.203   114488076.734       -2349.242          35.000  
  23339617.327   122650512.290       -3439.498          32.000  
 23 10 29 17 04 05.9940000  0 11G13G25G32G23G12G19G10G15G24G17G22
  22997314.959   120851660.9252      -4009.931          31.000  
  21278645.865   111820038.817        3365.770          40.000  
  22474345.390   118103485.888        3121.157          36.000  
  22262381.378   116989586.324       -3046.842          43.000  
  18879410.217    99211956.621        1721.936          46.000  
  20204501.381   106175342.707        -521.460          37.000  
  21708392.018   114078334.5962      -1259.600          32.000  
  20802043.935   109315478.293       -3721.227          44.000  
  18341730.058    96386422.734        -993.044          46.000  
  21786833.593   114490426.395       -2349.880          35.000  
  23340271.134   122653950.770       -3438.317          31.000  
 23 10 29 17 04 06.9940000  0 11G13G25G32G23G12G19G10G15G24G17G22
  22998075.671   120855670.3161      -4008.913          32.000  
  21278005.852   111816672.776        3366.271          41.000  
  22473751.284   118100364.176        3122.178          36.000  
  22262961.198   116992633.137       -3046.675          43.000  
  18879082.325    99210234.508        1722.224          45.000  
  20204599.484   106175864.083        -521.456          37.000  
  21708617.202   114079594.1292      -1259.202          30.000  
  20802751.916   109319199.344       -3720.764          44.000  
  18341918.718    96387415.474        -992.755          46.000  
  21787280.491   114492775.902       -2349.092          35.000  
  23340924.996   122657388.705       -3438.005          31.000  
 23 10 29 17 04 07.9940000  0 11G13G25G32G23G12G19G10G15G24G17G22
  22998839.452   120859680.353       -4009.956          31.000  
  21277366.215   111813307.145        3365.387          41.000  
  22473157.515   118097242.803        3121.350          36.000  
  22263541.468   116995680.327       -3047.564          43.000  
  18878754.787    99208512.989        1721.030          45.000  
  20204697.639   106176386.253        -522.776          36.000  
  21708862.979   114080854.3192      -1259.212          31.000  
  20803459.784   109322920.749       -3721.550          44.000  
  18342107.628    96388408.781        -993.828          46.000  
  21787727.430   114495126.033       -2350.638          35.000  
  23341578.718   122660826.722       -3439.476          32.000  
 23 10 29 17 04 08.9940000  0 11G13G25G32G23G12G19G10G15G24G17G22
  22999598.242   120863690.780       -4011.517          31.000  
  21276726.891   111809941.990        3364.895          41.000  
  22472564.098   118094122.052        3120.165          38.000  
  22264121.734   116998728.108       -3048.356          44.000  
  18878427.355    99206792.360        1719.979          45.000  
  20204796.414   106176909.460        -524.240          36.000  
  21709103.123   114082115.5552      -1261.414          30.000  
  20804167.886   109326642.784       -3722.660          43.000  
  18342296.793    96389402.929        -994.617          46.000  
  21788174.766   114497476.957       -2351.725          34.000  
  23342232.842   122664265.076       -3438.968          32.000  
 23 10 29 17 04 09.9940000  0 11G13G25G32G23G12G19G10G15G24G17G22
  23000358.592   120867701.319       -4010.532          30.000  
  21276087.201   111806577.150        3364.323          41.000  
  22471970.442   118091001.568        3120.171          37.000  
  22264701.648   117001776.171       -3048.254          43.000  
  18878100.212    99205072.270        1719.725          45.000  
  20204895.455   106177433.398        -524.418          36.000  
  21709340.252                       -1260.689          28.000  
  20804876.040   109330365.126       -3722.729          43.000  
  18342486.097    96390397.619        -995.157          46.000  
  21788622.192   114499828.406       -2352.053          35.000  
  23342886.789   122667703.478       -3438.092          32.000  
 23 10 29 17 04 10.9940000  0 11G13G25G32G23G12G19G10G15G24G17G22
  23001126.604   120871711.646       -4009.862          30.000  
  21275447.057   111803212.314        3365.311          40.000  
  22471376.700   118087881.132        3120.958          37.000  
  22265281.798   117004824.314       -3047.395          43.000  
  18877773.260    99203352.492        1720.038          45.000  
  20204995.512   106177957.838        -524.073          39.000  
  21709584.594   114084636.8733      -1261.842          29.000  
  20805583.925   109334087.519       -3721.709          43.000  
  18342675.680    96391392.568        -994.524          46.000  
  21789069.956   114502180.066       -2351.355          34.000  
  23343540.670   122671141.684       -3436.824          31.000  
 23 10 29 17 04 11.9940000  0 11G13G25G32G23G12G19G10G15G24G17G22
  23001896.337   120875721.962       -4009.475          31.000  
  21274807.236   111799847.616        3364.334          41.000  
  22470782.981   118084760.857        3119.764          38.000  
  22265861.662   117007872.629       -3048.700          43.000  
  18877446.206    99201633.150        1718.810          45.000  
  20205095.304   106178482.873        -525.383          37.000  
  21709828.788   114085919.4813      -1262.534          32.000  
  20806292.116   109337810.112       -3722.990          43.000  
  18342864.834    96392387.917        -995.970          46.000  
  21789517.901   114504532.105       -2352.632          34.000  
  23344194.414   122674579.793       -3437.814          32.000  
 23 10 29 17 04 12.9940000  0 11G13G25G32G23G12G19G10G15G24G17G22
  23002664.093   120879732.862       -4010.884          32.000  
  21274167.598   111796483.565        3364.220          41.000  
  22470189.396   118081641.271        3119.315          37.000  
  22266441.223   117010921.638       -3049.219          43.000  
  18877119.322    99199914.762        1717.912          45.000  
  20205195.791   106179009.086        -526.557          39.000  
  21710067.258   114087183.1702      -1263.397          32.000  
  20807000.084   109341533.414       -3723.386          42.000  
  18343053.768    96393384.199        -996.546          46.000  
  21789966.206   114506885.117       -2353.959          34.000  
  23344844.900   122678018.433       -3439.444          31.000  
 23 10 29 17 04 13.9940000  0 11G13G25G32G23G12G19G10G15G24G17G22
  23003418.099   120883743.943       -4011.287          31.000  
  21273528.386   111793119.959        3363.456          42.000  
  22469595.781   118078522.093        3118.654          37.000  
  22267021.489   117013971.103       -3049.751          43.000  
  18876792.063    99198197.091        1717.263          45.000  
  20205296.904   106179536.186        -527.630          39.000  
  21710306.145   114088447.7192      -1265.438          32.000  
  20807707.994   109345257.152       -3723.771          42.000  
  18343243.489    96394381.156        -997.402          46.000  
  21790414.504   114509238.694       -2354.266          34.000  
  23345496.667   122681457.160       -3439.264          31.000  
 23 10 29 17 04 14.9940000  0 11G13G25G32G23G12G19G10G15G24G17G22
  23004176.682   120887754.684       -4011.331          31.000  
  21272888.792   111789756.137        3364.136          42.000  
  22469001.619   118075402.745        3119.715          36.000  
  22267602.197   117017020.406       -3049.012          43.000  
  18876465.144    99196479.521        1717.448          45.000  
  20205398.139   106180063.564        -527.731          40.000  
  21710548.023   114089712.3552      -1265.545          31.000  
  20808416.211   109348980.792       -3723.529          42.000  
  18343433.175    96395378.179        -996.943          46.000  
  21790862.796   114511592.344       -2353.728          33.000  
  23346149.048   122684895.524       -3438.091          31.000  
 23 10 29 17 04 15.9940000  0 11G13G25G32G23G12G19G10G15G24G17G22
  23004947.549   120891765.631       -4011.351          32.000  
  21272249.193   111786392.767        3362.532          42.000  
  22468407.635   118072283.867        3117.609          36.000  
  22268182.404   117020070.174       -3050.400          43.000  
  18876138.074    99194762.646        1716.010          45.000  
  20205499.841   106180591.807        -529.327          41.000  
  21710792.507   114090977.7922      -1266.478          31.000  
  20809124.075   109352704.820       -3724.327          41.000  
  18343622.950    96396375.872        -998.552          46.000  
  21791311.179   114513946.610       -2354.624          32.000  
  23346808.854   122688334.071       -3439.113          31.000  
 23 10 29 17 04 16.9940000  0 11G13G25G32G23G12G19G10G15G24G17G22
  23005708.087   120895777.131       -4011.896          32.000  
  21271609.292   111783030.111        3362.395          42.000  
  22467814.066   118069165.689        3117.935          36.000  
  22268762.872   117023120.681       -3050.604          43.000  
  18875811.323    99193046.808        1715.260          45.000  
  20205601.709   106181121.288        -529.791          41.000  
  21711028.861   114092244.2102      -1266.833          30.000  
  20809832.726   109356429.702       -3724.985          42.000  
  18343812.737    96397374.563        -999.109          46.000  
  21791773.717   114516301.847       -2354.786          31.000  
  23347464.915   122691773.134       -3439.275          32.000  
 23 10 29 17 04 17.9940000  0 11G13G25G32G23G12G19G10G15G24G17G22
  23006473.608   120899788.659       -4011.407          32.000  
  21270969.200   111779667.633        3362.153          41.000  
  22467220.870   118066047.731        3118.185          37.000  
  22269343.572   117026171.423       -3050.902          43.000  
  18875485.159    99191331.421        1715.228          45.000  
  20205703.542   106181651.377        -530.508          41.000  
  21711267.947   114093511.2032      -1267.291          29.000  
  20810541.543   109360154.748       -3725.314          42.000  
  18344002.815    96398373.684        -999.318          46.000  
  21792223.306   114518657.624       -2356.295          30.000  
  23348119.374   122695212.118       -3439.169          33.000  
 23 10 29 17 04 18.9940000  0 11G13G25G32G23G12G19G10G15G24G17G22
  23007241.701   120903799.967       -4011.218          32.000  
  21270328.653   111776305.156        3362.790          41.000  
  22466627.312   118062929.804        3117.925          37.000  
  22269923.571   117029222.189       -3050.572          43.000  
  18875158.932    99189616.317        1715.203          45.000  
  20205805.279   106182181.963        -530.920          40.000  
  21711509.968   114094778.1791      -1267.365          29.000  
  20811249.867   109363879.855       -3724.863          41.000  
  18344193.097    96399373.059        -999.226          46.000  
  21792670.283   114521013.469       -2354.816          29.000  
  23348771.735   122698650.908       -3439.172          31.000  
 23 10 29 17 04 19.9940000  0 11G13G25G32G23G12G19G10G15G24G17G22
  23007994.650   120907811.171       -4010.941          32.000  
  21269688.232   111772942.741        3361.612          41.000  
  22466034.233   118059811.887        3117.931          37.000  
  22270504.135   117032273.014       -3051.287          43.000  
  18874832.425    99187901.550        1714.346          45.000  
  20205907.062   106182713.039        -531.622          41.000  
  21711751.381   114096045.983       -1268.046          29.000  
  20811958.741   109367605.029       -3725.811          42.000  
  18344383.655    96400372.744       -1000.295          46.000  
  21793118.208   114523369.710       -2356.268          28.000  
  23349425.828   122702089.497       -3438.852          32.000  
 23 10 29 17 04 20.9940000  0 11G13G25G32G23G12G19G10G15G24G17G22
  23008758.138   120911822.765       -4011.017          32.000  
  21269047.995   111769580.884        3361.101          41.000  
  22465440.758   118056694.634        3116.918          36.000  
  22271084.656   117035324.465       -3051.881          43.000  
  18874505.559    99186187.672        1713.328          45.000  
  20206008.892   106183245.208        -532.782          41.000  
  21711987.543   114097314.679       -1269.093          29.000  
  20812667.933   109371330.807       -3725.942          42.000  
  18344573.904    96401373.257       -1001.027          46.000  
  21793565.743                       -2356.825          25.000  
  23350080.842   122705528.413       -3439.004          33.000  
 23 10 29 17 04 21.9940000  0 11G13G25G32G23G12G19G10G15G24G17G22
  23009523.315   120915834.800       -4012.405          32.000  
  21268408.086   111766219.533        3361.257          41.000  
  22464847.699   118053577.876        3116.323          36.000  
  22271665.679   117038376.460       -3052.146          43.000  
  18874179.274    99184474.589        1712.621          45.000  
  20206110.224   106183778.316        -533.537          40.000  
  21712222.781   114098584.374       -1270.321          28.000  
  20813377.585   109375057.203       -3726.792          43.000  
  18344764.428    96402374.545       -1001.741          46.000  
  21794003.488                       -2357.419          25.000  
  23350735.589   122708967.699       -3439.620          33.000  
 23 10 29 17 04 22.9940000  0 11G13G25G32G23G12G19G10G15G24G17G22
  23010284.197   120919846.355       -4010.838          32.000  
  21267767.807   111762858.021        3361.544          41.000  
  22464254.614   118050460.989        3116.924          36.000  
  22272246.950   117041428.330       -3051.683          43.000  
  18873852.386    99182761.631        1712.978          44.000  
  20206211.701   106184311.755        -533.343          40.000  
  21712477.665   114099854.137       -1270.360          31.000  
  20814086.849   109378783.440       -3725.982          42.000  
  18344955.082    96403375.937       -1001.467          46.000  
  21794444.780                       -2357.703          26.000  
  23351389.881   122712406.606       -3439.204          31.000  
 23 10 29 17 04 23.9940000  0 11G13G25G32G23G12G19G10G15G24G17G22
  23011049.214   120923858.025       -4011.765          32.000  
  21267127.627   111759496.707        3361.051          41.000  
  22463661.052   118047344.274        3116.552          35.000  
  22272828.103   117044480.412       -3052.196          43.000  
  18873525.801    99181049.159        1712.226          44.000  
  20206313.399   106184845.852        -534.268          40.000  
  21712715.634   114101124.587       -1270.875          31.000  
  20814795.714   109382509.937       -3726.858          42.000  
  18345146.145    96404377.770       -1002.186          46.000  
  21794887.623                       -2359.234          25.000  
  23352045.341   122715845.375       -3439.190          32.000  
 23 10 29 17 04 24.9940000  0 11G13G25G32G23G12G19G10G15G24G17G22
  23011814.701   120927870.119       -4011.943          33.000  
  21266488.384   111756136.046        3360.611          41.000  
  22463068.047   118044228.270        3116.260          36.000  
  22273409.492   117047533.193       -3052.820          44.000  
  18873199.196    99179337.643        1711.262          44.000  
  20206414.597   106185381.093        -535.714          39.000  
  21712952.789   114102395.963       -1271.738          30.000  
  20815504.764   109386237.118       -3727.351          42.000  
  18345337.249    96405380.522       -1002.970          46.000  
  21795331.570   114535240.1173      -2359.689          26.000  
  23352699.751   122719284.593       -3439.325          32.000  
 23 10 29 17 04 25.9940000  0 11G13G25G32G23G12G19G10G15G24G17G22
  23012578.713   120931882.317       -4012.497          33.000  
  21265849.605   111752775.626        3360.109          42.000  
  22462474.923   118041112.522        3114.997          35.000  
  22273991.005   117050586.226       -3053.244          44.000  
  18872873.049    99177626.634        1710.557          43.000  
  20206516.085   106185917.031        -536.544          39.000  
  21713194.359   114103667.942       -1272.426          29.000  
  20816214.661   109389964.566       -3727.650          43.000  
  18345528.209    96406383.748       -1003.603          47.000  
  21795783.812   114537599.7472      -2360.538          27.000  
  23353357.197   122722723.883       -3439.207          29.000  
 23 10 29 17 04 26.9940000  0 11G13G25G32G23G12G19G10G15G24G17G22
  23013342.337   120935894.610       -4012.785          33.000  
  21265210.705   111749415.445        3360.266          42.000  
  22461882.124   118037996.997        3115.151          36.000  
  22274572.289   117053639.568       -3053.678          44.000  
  18872547.310    99175916.185        1710.147          43.000  
  20206617.639   106186453.709        -536.866          39.000  
  21713442.490   114104940.570       -1273.151          30.000  
  20816924.446   109393692.331       -3728.010          43.000  
  18345719.710    96407387.498       -1004.133          47.000  
  21796230.306   114539959.9382      -2360.246          28.000  
  23354007.383   122726163.223       -3440.327          31.000  
 23 10 29 17 04 27.9940000  0 11G13G25G32G23G12G19G10G15G24G17G22
  23014105.694   120939906.918       -4012.561          33.000  
  21264571.674   111746055.499        3359.958          42.000  
  22461289.028   118034881.754        3115.307          36.000  
  22275153.467   117056693.138       -3053.776          44.000  
  18872221.508    99174206.227        1709.852          43.000  
  20206719.295   106186991.034        -537.632          38.000  
  21713691.485   114106213.829       -1274.339          31.000  
  20817634.566   109397420.333       -3727.922          44.000  
  18345911.042    96408391.715       -1004.332          47.000  
  21796675.378   114542320.5352      -2360.558          27.000  
  23354666.331   122729602.513       -3438.814          33.000  
 23 10 29 17 04 28.9940000  0 11G13G25G32G23G12G19G10G15G24G17G22
  23014869.130   120943919.189       -4011.747          32.000  
  21263932.716   111742695.780        3359.279          42.000  
  22460695.991   118031766.769        3115.299          34.000  
  22275734.467   117059746.967       -3054.217          44.000  
  18871895.739    99172496.819        1708.878          43.000  
  20206820.613   106187529.103        -538.676          37.000  
  21713936.517   114107487.526       -1274.313          32.000  
  20818344.541   109401148.636       -3728.413          44.000  
  18346102.620    96409396.430       -1005.043          47.000  
  21797123.406   114544681.6642      -2361.039          27.000  
  23355320.396   122733041.819       -3439.297          32.000  
 23 10 29 17 04 29.9940000  0 11G13G25G32G23G12G19G10G15G24G17G22
  23015632.564   120947931.947       -4014.417          32.000  
  21263293.801   111739336.561        3358.946          42.000  
  22460103.277   118028652.314        3114.183          35.000  
  22276316.242   117062801.316       -3054.687          45.000  
  18871570.663    99170788.191        1708.203          43.000  
  20206921.942   106188068.134        -539.824          34.000  
  21714178.793   114108762.151       -1274.841          32.000  
  20819054.368   109404877.478       -3729.131          43.000  
  18346294.059    96410401.909       -1005.990          47.000  
  21797573.166   114547043.4222      -2362.662          27.000  
  23355973.820   122736481.371       -3439.552          32.000  
 23 10 29 17 04 30.9940000  0 11G13G25G32G23G12G19G10G15G24G17G22
  23016393.396   120951944.559       -4012.224          32.000  
  21262655.260   111735977.525        3359.349          42.000  
  22459510.194   118025538.056        3114.238          33.000  
  22276897.620   117065855.906       -3054.119          44.000  
  18871245.803    99169080.028        1708.499          43.000  
  20207023.289   106188607.848        -539.566          35.000  
  21714420.566   114110037.304       -1273.742          30.000  
  20819764.585   109408606.523       -3728.711          44.000  
  18346485.573    96411407.833       -1005.717          47.000  
  21798028.660   114549405.6542      -2362.500          27.000  
  23356625.598   122739920.887       -3438.838          32.000  
 23 10 29 17 04 31.9940000  0 11G13G25G32G23G12G19G10G15G24G17G22
  23017153.743   120955957.118       -4013.464          32.000  
  21262016.357   111732618.487        3358.997          42.000  
  22458917.530   118022423.741        3114.371          34.000  
  22277479.221   117068910.526       -3054.929          44.000  
  18870921.336    99167372.160        1707.554          44.000  
  20207124.884   106189148.014        -540.615          35.000  
  21714662.221   114111312.836       -1275.150          31.000  
  20820474.772   109412335.603       -3729.290          44.000  
  18346677.397    96412413.984       -1006.281          47.000  
  21798487.553   114551768.0422      -2362.457          27.000  
  23357281.449   122743360.118       -3438.983          32.000  
 23 10 29 17 04 32.9940000  0 11G13G25G32G23G12G19G10G15G24G17G22
  23017923.182   120959969.364       -4011.489          32.000  
  21261377.341   111729259.467        3358.556          43.000  
  22458324.906   118019309.491        3115.041          33.000  
  22278060.287   117071965.195       -3055.165          44.000  
  18870596.568    99165664.610        1707.154          44.000  
  20207227.105   106189688.634        -540.715          36.000  
  21714904.389   114112588.808       -1276.773          30.000  
  20821184.856   109416064.756       -3729.492          44.000  
  18346868.771    96413420.440       -1006.922          47.000  
  21798960.275   114554130.7372      -2363.046          29.000  
  23357936.310   122746799.284       -3438.913          32.000  
 23 10 29 17 04 33.9940000  0 11G13G25G32G23G12G19G10G15G24G17G22
  23018685.318   120963982.040       -4011.867          32.000  
  21260738.279   111725900.923        3358.832          43.000  
  22457732.203   118016195.737        3114.790          33.000  
  22278641.698   117075020.344       -3054.871          44.000  
  18870272.302    99163957.815        1706.842          44.000  
  20207329.667   106190230.247        -541.334          35.000  
  21715145.544   114113865.569       -1276.377          29.000  
  20821895.204   109419794.407       -3729.426          44.000  
  18347061.132    96414427.597       -1007.057          48.000  
  21799415.689   114556494.1922      -2362.896          29.000  
  23358592.196   122750238.590       -3437.129          32.000  
 23 10 29 17 04 34.9940000  0 11G13G25G32G23G12G19G10G15G24G17G22
  23019445.289   120967994.610       -4014.610          31.000  
  21260098.882   111722542.392        3358.266          42.000  
  22457139.728   118013082.134        3112.490          32.000  
  22279223.008   117078075.567       -3055.719          44.000  
  18869947.507    99162251.327        1705.845          44.000  
  20207432.442   106190772.316        -542.879          35.000  
  21715395.460   114115142.720       -1277.534          30.000  
  20822604.966   109423524.122       -3730.211          44.000  
  18347252.600    96415435.064       -1008.041          47.000  
  21799876.645   114558857.9152      -2364.095          30.000  
  23359245.539   122753677.808       -3440.487          31.000  
 23 10 29 17 04 35.9940000  0 11G13G25G32G23G12G19G10G15G24G17G22
  23020210.228   120972007.881       -4013.323          31.000  
  21259459.639   111719184.926        3357.373          42.000  
  22456542.442   118009969.449        3112.153          31.000  
  22279804.593   117081131.851       -3056.499          44.000  
  18869623.062    99160546.179        1704.951          44.000  
  20207535.475   106191315.915        -543.869          35.000  
  21715633.420   114116421.340       -1279.767          24.000  
  20823315.211   109427254.937       -3731.127          44.000  
  18347444.358    96416443.827       -1009.102          47.000  
  21800321.798   114561222.8912      -2365.154          30.000  
  23359887.018   122757117.713       -3440.218          31.000  
 23 10 29 17 04 36.9940000  0 10G13G25G32G23G12G19G15G24G17G22
  23020974.822   120976021.482       -4012.618          31.000  
  21258820.394   111715827.865        3357.282          42.000  
  22455953.700   118006857.255        3112.883          32.000  
  22280386.187   117084188.586       -3056.297          44.000  
  18869298.760    99158841.730        1704.578          44.000  
  20207638.821   106191860.348        -543.711          36.000  
  20824025.435   109430986.185       -3730.935          44.000  
  18347635.955    96417453.232       -1009.166          47.000  
  21800776.210   114563588.477       -2365.638          29.000  
  23360539.678   122760557.884       -3439.845          30.000  
 23 10 29 17 04 37.9940000  0 10G13G25G32G23G12G19G15G24G17G22
  23021737.959   120980034.428       -4013.270          31.000  
  21258181.020   111712470.301        3357.461          42.000  
  22455357.723   118003744.597        3111.534          31.000  
  22280967.522   117087244.879       -3056.789          43.000  
  18868974.372    99157137.090        1704.142          44.000  
  20207742.447   106192404.852        -544.888          36.000  
  20824735.404   109434716.991       -3731.076          44.000  
  18347827.971    96418462.429       -1009.734          47.000  
  21801237.740   114565953.778       -2365.313          28.000  
  23361190.503   122763997.270       -3439.737          29.000  
 23 10 29 17 04 38.9940000  0 11G13G25G32G23G12G19G10G15G24G17G22
  23022502.935   120984048.031       -4013.581          31.000  
  21257541.578   111709113.611        3356.581          41.000  
  22454769.917   118000632.787        3111.644          30.000  
  22281549.207   117090302.034       -3057.353          44.000  
  18868650.718    99155433.572        1703.162          44.000  
  20207846.091   106192950.656        -545.932          34.000  
  21716375.143   114120320.8603      -1281.135          31.000  
  20825445.416   109438448.697       -3732.135          44.000  
  18348020.172    96419472.739       -1010.770          47.000  
  21801679.765   114568320.261       -2366.098          28.000  
  23361850.652   122767437.341       -3440.319          31.000  
 23 10 29 17 04 39.9940000  0 11G13G25G32G23G12G19G10G15G24G17G22
  23023275.450   120988062.110       -4013.063          32.000  
  21256902.198   111705757.598        3356.049          41.000  
  22454188.639   117997521.693        3111.086          32.000  
  22282131.654   117093359.858       -3057.671          44.000  
  18868326.554    99153731.049        1702.472          44.000  
  20207949.621   106193497.614        -546.956          34.000  
  21716622.389   114121602.3522      -1281.574          33.000  
  20826155.570   109442181.112       -3732.336          44.000  
  18348212.632    96420483.975       -1011.401          47.000  
  21802133.316   114570687.666       -2367.878          28.000  
  23362506.819   122770877.853       -3441.089          30.000  
 23 10 29 17 04 40.9940000  0 11G13G25G32G23G12G19G10G15G24G17G22
  23024036.279   120992075.560       -4012.685          35.000  
  21256262.613   111702401.079        3356.651          44.000  
  22453596.717   117994410.134        3111.369          32.000  
  22282713.488   117096417.258       -3057.311          47.000  
  18868002.968    99152028.311        1702.783          47.000  
  20208052.605   106194044.513        -547.093          36.000  
  21716859.893   114122883.5992      -1281.479          36.000  
  20826865.528   109445913.069       -3731.831          47.000  
  18348405.516    96421494.981       -1011.005          49.000  
  21802619.223   114573054.723       -2367.099          26.000  
  23363158.465   122774317.575       -3439.014          32.000  
 23 10 29 17 04 41.9940000  0 11G13G25G32G23G12G19G10G15G24G17G22
  23024796.718   120996089.124       -4013.705          35.000  
  21255623.206   111699044.848        3355.757          44.000  
  22453008.197   117991298.831        3111.055          34.000  
  22283295.202   117099474.976       -3058.028          47.000  
  18867678.865    99150326.131        1701.682          47.000  
  20208155.786   106194592.179        -548.143          36.000  
  21717106.035   114124165.5632      -1281.726          36.000  
  20827575.141   109449645.328       -3732.479          47.000  
  18348597.381    96422506.501       -1011.930          49.000  
  21803082.880                       -2369.260          24.000  
  23363822.668   122777757.424       -3439.640          33.000  
 23 10 29 17 04 42.9940000  0 11G13G25G32G23G12G19G10G15G24G17G22
  23025557.171   121000103.182       -4014.013          31.000  
  21254983.904   111695689.294        3355.568          42.000  
  22452410.759   117988188.330        3110.176          34.000  
  22283877.068   117102533.390       -3058.634          45.000  
  18867355.367    99148624.955        1700.854          45.000  
  20208259.776   106195141.005        -549.293          35.000  
  21717343.718   114125448.5892      -1283.121          35.000  
  20828285.103   109453378.342       -3733.104          44.000  
  18348789.451    96423518.994       -1012.755          47.000  
  21803532.149                       -2365.301          21.000  
  23364478.161   122781197.726       -3440.166          32.000  
 23 10 29 17 04 43.9940000  0 11G13G25G32G23G12G19G10G15G24G17G22
  23026320.382   121004117.093       -4014.029          32.000  
  21254345.168   111692333.741        3355.142          42.000  
  22451817.248   117985077.720        3110.244          32.000  
  22284459.197   117105591.852       -3058.786          44.000  
  18867032.586    99146924.029        1700.534          45.000  
  20208364.251   106195690.291        -549.953          34.000  
  21717585.246   114126731.9762      -1283.797          32.000  
  20828994.956   109457111.377       -3733.347          44.000  
  18348982.678    96424531.721       -1013.185          47.000  
  21803958.268                       -2352.450          19.000  
  23365131.164   122784637.799       -3440.790          31.000  
 23 10 29 17 04 44.9940000  0 11G13G25G32G23G12G19G10G15G24G17G22
  23027083.755   121008131.278       -4014.473          33.000  
  21253706.529   111688978.668        3354.946          42.000  
  22451226.842   117981967.733        3109.594          34.000  
  22285041.144   117108650.831       -3059.327          45.000  
  18866709.903    99145223.924        1699.493          46.000  
  20208468.758   106196240.520        -550.559          35.000  
  21717828.066   114128016.2142      -1285.276          33.000  
  20829705.416   109460844.968       -3734.050          45.000  
  18349175.474    96425545.210       -1013.919          48.000  
  21804379.128                       -2370.801          30.000  
  23365788.420   122788078.142       -3440.662          33.000  
 23 10 29 17 04 45.9940000  0 11G13G25G32G23G12G19G10G15G24G17G22
  23027847.459   121012146.213       -4016.090          33.000  
  21253067.860   111685624.520        3353.946          42.000  
  22450636.277   117978858.569        3109.025          34.000  
  22285623.608   117111710.723       -3060.041          45.000  
  18866386.679    99143524.976        1698.676          46.000  
  20208573.933   106196792.165        -552.081          35.000  
  21718072.923   114129301.6712      -1286.363          32.000  
  20830415.794   109464579.477       -3734.695          45.000  
  18349368.212    96426559.848       -1014.985          48.000  
  21804789.778   114585155.3843      -2371.114          31.000  
  23366445.798   122791519.153       -3440.845          34.000  
 23 10 29 17 04 46.9940000  0 11G13G25G32G23G12G19G10G15G24G17G22
  23028611.423   121016160.801       -4014.689          32.000  
  21252429.179   111682270.166        3354.763          42.000  
  22450044.097   117975749.282        3109.995          34.000  
  22286205.926   117114770.449       -3059.390          44.000  
  18866063.974    99141826.155        1699.035          46.000  
  20208679.533   106197344.054        -551.789          35.000  
  21718318.642   114130587.3412      -1285.946          33.000  
  20831126.736   109468313.837       -3733.862          45.000  
  18349560.533    96427574.548       -1014.374          47.000  
  21805240.305   114587526.0242      -2370.435          32.000  
  23367100.951   122794959.736       -3439.823          34.000  
 23 10 29 17 04 47.9940000  0 11G13G25G32G23G12G19G10G15G24G17G22
  23029375.067   121020175.401       -4015.208          33.000  
  21251791.221   111678916.092        3353.739          44.000  
  22449452.899   117972640.321        3108.932          33.000  
  22286788.120   117117830.483       -3060.499          45.000  
  18865740.742    99140127.883        1697.705          46.000  
  20208785.822   106197896.651        -553.372          37.000  
  21718563.527   114131873.6302      -1286.843          33.000  
  20831837.344   109472048.501       -3735.025          45.000  
  18349753.751    96428589.777       -1015.740          48.000  
  21805691.563   114589897.2862      -2371.543          32.000  
  23367755.567   122798400.411       -3440.693          35.000  
 23 10 29 17 04 48.9940000  0 11G13G25G32G23G12G19G10G15G24G17G22
  23030138.553   121024190.755       -4015.601          32.000  
  21251153.315   111675562.923        3352.886          43.000  
  22448862.034   117969532.247        3108.070          35.000  
  22287370.591   117120891.493       -3061.208          46.000  
  18865417.815    99138430.827        1697.054          47.000  
  20208891.845   106198450.726        -554.560          37.000  
  21718809.158   114133160.6621      -1287.434          34.000  
  20832547.770   109475784.135       -3735.658          44.000  
  18349946.586    96429606.207       -1016.589          48.000  
  21806142.830   114592269.6922      -2372.346          32.000  
  23368410.832   122801841.763       -3441.428          36.000  
 23 10 29 17 04 49.9940000  0 11G13G25G32G23G12G19G10G15G24G17G22
  23030902.715   121028206.151       -4014.722          33.000  
  21250515.661   111672209.993        3353.620          43.000  
  22448270.823   117966424.430        3108.339          36.000  
  22287953.005   117123952.732       -3060.752          45.000  
  18865095.297    99136734.267        1696.867          47.000  
  20208997.711   106199005.468        -554.600          36.000  
  21719054.535   114134448.814       -1287.774          34.000  
  20833258.627   109479520.026       -3735.154          45.000  
  18350139.854    96430623.082       -1016.449          47.000  
  21806596.558   114594642.4412      -2372.938          33.000  
  23369066.026   122805283.063       -3440.415          35.000  
 23 10 29 17 04 50.9940000  0 11G13G25G32G23G12G19G10G15G24G17G22
  23031667.146   121032221.237       -4015.695          33.000  
  21249877.803   111668856.858        3352.479          44.000  
  22447680.203   117963316.462        3107.211          36.000  
  22288535.570   117127013.784       -3061.757          46.000  
  18864772.756    99135037.812        1695.609          47.000  
  20209103.457   106199560.465        -556.242          36.000  
  21719299.693   114135737.094       -1289.520          32.000  
  20833968.988   109483255.766       -3736.527          45.000  
  18350332.485    96431640.028       -1017.853          47.000  
  21807047.709   114597015.2752      -2374.165          34.000  
  23369720.883   122808723.977       -3440.991          35.000  
 23 10 29 17 04 51.9940000  0 11G13G25G32G23G12G19G10G15G24G17G22
  23032431.322   121036237.275       -4016.320          33.000  
  21249240.071   111665504.868        3351.746          44.000  
  22447089.742   117960209.637        3106.286          37.000  
  22289118.529   117130076.011       -3062.455          46.000  
  18864450.250    99133342.781        1694.770          47.000  
  20209209.829   106200117.043        -557.195          37.000  
  21719547.547   114137026.815       -1290.520          32.000  
  20834679.613   109486992.669       -3737.124          45.000  
  18350525.641    96432658.382       -1018.781          47.000  
  21807499.395   114599389.4592      -2374.165          35.000  
  23370376.139   122812165.817       -3441.731          36.000  
 23 10 29 17 04 52.9940000  0 11G13G25G32G23G12G19G10G15G24G17G22
  23033195.790   121040253.417       -4015.814          33.000  
  21248602.091   111662153.137        3352.512          44.000  
  22446498.560   117957103.050        3106.912          37.000  
  22289701.338   117133138.549       -3062.119          46.000  
  18864127.971    99131648.331        1694.906          47.000  
  20209316.374   106200674.411        -556.818          37.000  
  21719789.163   114138317.231       -1289.957          29.000  
  20835390.638   109490729.912       -3736.742          45.000  
  18350719.232    96433677.267       -1018.454          47.000  
  21807951.855   114601764.1982      -2374.457          35.000  
  23371031.453   122815607.700       -3441.129          37.000  
 23 10 29 17 04 53.9940000  0 11G13G25G32G23G12G19G10G15G24G17G22
  23033959.885   121044268.830       -4014.712          32.000  
  21247963.507   111658800.955        3352.065          43.000  
  22445906.980   117953996.083        3106.364          36.000  
  22290284.361   117136200.646       -3062.578          46.000  
  18863805.709    99129953.709        1694.114          47.000  
  20209422.343   106201231.798        -558.417          36.000  
  21720030.792   114139607.526       -1290.723          29.000  
  20836101.741   109494466.708       -3737.204          45.000  
  18350912.641    96434695.956       -1019.476          47.000  
  21808404.043   114604138.6872      -2375.035          36.000  
  23371686.929   122819048.921       -3441.824          37.000  
 23 10 29 17 04 54.9940000  0 11G13G25G32G23G12G19G10G15G24G17G22
  23034724.392   121048285.215       -4017.429          33.000  
  21247325.872   111655449.804        3350.645          43.000  
  22445316.011   117950890.140        3105.229          37.000  
  22290867.050   117139263.797       -3063.698          46.000  
  18863483.401    99128260.415        1692.624          48.000  
  20209528.601   106201790.643        -559.579          36.000  
  21720305.698   114140899.196       -1292.336          29.000  
  20836812.761   109498204.564       -3738.380          44.000  
  18351106.147    96435715.904       -1020.657          46.000  
  21808856.440   114606514.483       -2376.560          35.000  
  23372342.266   122822490.912       -3442.742          36.000  
 23 10 29 17 04 55.9940000  0 11G13G25G32G23G12G19G10G15G24G17G22
  23035489.073   121052301.978       -4017.132          32.000  
  21246687.646   111652099.302        3350.297          43.000  
  22444724.789   117947784.859        3104.422          35.000  
  22291449.211   117142327.613       -3064.124          45.000  
  18863161.168    99126568.034        1692.045          47.000  
  20209635.205   106202350.613        -560.503          36.000  
  21720557.744   114142191.942       -1292.865          29.000  
  20837524.387   109501943.116       -3738.813          45.000  
  18351299.929    96436736.748       -1021.069          46.000  
  21809308.156   114608891.128       -2377.015          34.000  
  23372997.482   122825933.301       -3442.899          36.000  
 23 10 29 17 04 56.9940000  0 11G13G25G32G23G12G19G10G15G24G17G22
  23036253.463   121056318.222       -4015.657          31.000  
  21246049.155   111648748.471        3350.649          42.000  
  22444133.553   117944679.285        3105.435          36.000  
  22292031.856   117145391.153       -3063.692          45.000  
  18862839.061    99124875.627        1692.150          47.000  
  20209742.576   106202910.733        -560.235          37.000  
  21720795.478   114143484.732       -1293.332          28.000  
  20838235.765   109505681.384       -3738.566          45.000  
  18351494.091    96437757.548       -1021.002          46.000  
  21809760.158   114611267.656       -2376.730          34.000  
  23373652.528   122829375.186       -3442.091          37.000  
 23 10 29 17 04 57.9940000  0 11G13G25G32G23G12G19G10G15G24G17G22
  23037018.895   121060335.141       -4017.069          31.000  
  21245410.584   111645398.374        3349.994          41.000  
  22443542.512   117941574.464        3104.318          34.000  
  22292614.678   117148455.440       -3064.570          45.000  
  18862516.984    99123184.255        1691.016          47.000  
  20209850.026   106203472.095        -561.667          38.000  
  21721043.495                       -1263.032          17.000  
  20838947.435   109509420.429       -3739.405          45.000  
  18351688.546    96438779.339       -1022.205          46.000  
  21810211.951   114613645.186       -2377.463          33.000  
  23374307.505   122832817.538       -3442.709          36.000  
 23 10 29 17 04 58.9940000  0 10G13G25G32G23G12G19G15G24G17G22
  23037782.171   121064352.631       -4017.332          31.000  
  21244772.938   111642049.059        3349.271          41.000  
  22442950.525   117938470.375        3104.237          34.000  
  22293197.723   117151520.536       -3065.166          45.000  
  18862194.916    99121493.958        1689.996          47.000  
  20209958.533   106204034.689        -562.915          40.000  
  20839659.332   109513160.297       -3739.978          46.000  
  18351882.958    96439802.147       -1023.079          46.000  
  21810662.945   114616023.795       -2378.555          32.000  
  23374962.774   122836260.430       -3443.243          34.000  
 23 10 29 17 04 59.9940000  0 10G13G25G32G23G12G19G15G24G17G22
  23038543.834   121068369.657       -4017.064          30.000  
  21244134.947   111638699.478        3349.490          41.000  
  22442359.172   117935366.121        3104.096          34.000  
  22293780.523   117154585.399       -3065.208          45.000  
  18861873.353    99119803.681        1689.995          47.000  
  20210066.520   106204597.473        -562.944          39.000  
  20840371.266   109516899.927       -3739.787          46.000  
  18352078.045    96440824.947       -1023.039          46.000  
  21811114.227   114618402.263       -2378.596          31.000  
  23375617.508   122839702.863       -3442.483          35.000  
 23 10 29 17 05 00.9940000  0 10G13G25G32G23G12G19G15G24G17G22
  23039317.029   121072387.277       -4019.277          30.000  
  21243497.209   111635350.618        3348.247          41.000  
  22441767.688   117932262.626        3102.672          34.000  
  22294363.502   117157651.018       -3066.237          45.000  
  18861551.773    99118114.416        1688.428          47.000  
  20210174.447   106205161.438        -564.436          39.000  
  20841083.734   109520640.312       -3740.918          46.000  
  18352272.748    96441848.745       -1024.592          46.000  
  21811562.626   114620781.808       -2381.347          31.000  
  23376272.460   122843145.791       -3443.329          35.000  
 23 10 29 17 05 01.9940000  0 10G13G25G32G23G12G19G15G24G17G22
  23040070.065   121076405.172       -4017.929          29.000  
  21242859.912   111632002.401        3347.837          41.000  
  22441176.282   117929159.744        3102.525          33.000  
  22294946.902   117160717.240       -3066.192          45.000  
  18861230.515    99116426.043        1688.077          47.000  
  20210282.058   106205726.516        -565.322          39.000  
  20841796.085   109524381.350       -3741.301          46.000  
  18352467.866    96442873.399       -1024.963          46.000  
  21812013.136   114623162.115       -2380.064          32.000  
  23376927.720   122846589.077       -3442.607          35.000  
 23 10 29 17 05 02.9940000  0 10G13G25G32G23G12G19G15G24G17G22
  23040837.506   121080423.230       -4017.987          29.000  
  21242222.421   111628654.400        3347.638          41.000  
  22440584.639   117926057.006        3103.457          32.000  
  22295530.954   117163783.782       -3066.749          45.000  
  18860909.086    99114738.218        1687.555          47.000  
  20210389.264   106206292.340        -565.979          38.000  
  20842508.248   109528122.685       -3741.558          47.000  
  18352663.686    96443898.568       -1025.395          47.000  
  21812466.091   114625542.945       -2381.640          32.000  
  23377583.050   122850032.420       -3443.261          35.000  
 23 10 29 17 05 03.9940000  0 10G13G25G32G23G12G19G15G24G17G22
  23041599.291   121084440.913       -4017.981          28.000  
  21241584.744   111625306.232        3348.172          41.000  
  22439998.207   117922954.206        3103.309          32.000  
  22296113.942   117166850.143       -3066.243          45.000  
  18860587.900    99113050.500        1687.848          47.000  
  20210496.486   106206858.401        -566.013          38.000  
  20843220.762   109531863.872       -3741.016          47.000  
  18352859.322    96444923.813       -1025.196          47.000  
  21812926.238   114627923.787       -2380.312          34.000  
  23378237.771   122853475.338       -3442.896          35.000  
 23 10 29 17 05 04.9940000  0  9G25G32G23G12G19G15G24G17G22
  21240947.959   111621958.431        3347.781          42.000  
  22439398.980   117919851.926        3101.986          32.000  
  22296697.497   117169916.933       -3066.977          45.000  
  18860266.715    99111363.454        1686.677          47.000  
  20210603.537   106207425.345        -567.734          38.000  
  20843933.660   109535605.478       -3741.963          47.000  
  18353054.507    96445949.708       -1026.387          47.000  
  21813375.411   114630305.256       -2381.831          35.000  
  23378892.968   122856918.398       -3443.225          35.000  
 23 10 29 17 05 05.9940000  0  9G25G32G23G12G19G15G24G17G22
  21240311.434   111618611.267        3346.825          42.000  
  22438802.300   117916750.143        3101.567          33.000  
  22297281.442   117172984.353       -3067.594          46.000  
  18859945.760    99109677.333        1685.673          47.000  
  20210710.976   106207993.350        -568.601          37.000  
  20844645.598   109539347.727       -3742.610          47.000  
  18353249.755    96446976.448       -1027.003          46.000  
  21813828.345   114632687.572       -2382.699          36.000  
  23379548.198   122860361.833       -3443.469          35.000  
 23 10 29 17 05 06.9940000  0 10G13G25G32G23G12G19G15G24G17G22
  23043893.475   121096476.4541      -4018.370          28.000  
  21239675.064   111615264.227        3346.803          42.000  
  22438217.419   117913648.628        3101.239          34.000  
  22297865.697   117176051.936       -3068.127          46.000  
  18859624.966    99107991.597        1685.326          47.000  
  20210818.497   106208561.947        -568.831          37.000  
  20845357.685   109543090.142       -3742.656          47.000  
  18353445.551    96448003.595       -1027.505          47.000  
  21814283.826   114635070.286       -2383.292          36.000  
  23380203.325   122863805.185       -3443.726          35.000  
 23 10 29 17 05 07.9940000  0  9G25G32G23G12G19G15G24G17G22
  21239038.794   111611917.536        3345.978          42.000  
  22437629.964   117910547.406        3100.391          34.000  
  22298449.579   117179119.848       -3068.311          45.000  
  18859304.044    99106306.499        1684.563          46.000  
  20210926.021   106209131.342        -569.994          37.000  
  20846070.407   109546832.928       -3743.309          47.000  
  18353641.262    96449031.314       -1028.164          47.000  
  21814737.226   114637453.492       -2383.799          35.000  
  23380858.447   122867248.640       -3443.692          35.000  
 23 10 29 17 05 08.9940000  0  9G25G32G23G12G19G15G24G17G22
  21238402.343   111608571.037        3346.327          42.000  
  22437039.431   117907446.366        3100.798          35.000  
  22299033.590   117182188.021       -3068.426          45.000  
  18858983.228    99104621.902        1684.225          46.000  
  20211033.757   106209701.461        -570.778          37.000  
  20846782.552   109550575.953       -3743.044          47.000  
  18353837.027    96450059.510       -1028.529          47.000  
  21815190.851   114639837.168       -2384.028          35.000  
  23381514.043   122870692.073       -3443.418          36.000  
 23 10 29 17 05 09.9940000  0  9G25G32G23G12G19G15G24G17G22
  21237765.853   111605224.825        3345.845          42.000  
  22436447.302   117904345.683        3100.937          34.000  
  22299617.610   117185256.484       -3068.884          45.000  
  18858662.299    99102937.877        1683.667          46.000  
  20211141.429   106210272.267        -571.090          37.000  
  20847494.663   109554319.291       -3743.510          47.000  
  18354033.266    96451088.240       -1029.148          47.000  
  21815644.432   114642221.398       -2384.794          34.000  
  23382169.074   122874135.549       -3443.670          35.000  
 23 10 29 17 05 10.9940000  0  9G25G32G23G12G19G15G24G17G22
  21237129.551   111601878.917        3346.081          42.000  
  22435859.338   117901245.268        3101.219          35.000  
  22300201.115   117188325.288       -3068.658          45.000  
  18858342.161    99101254.457        1683.423          46.000  
  20211249.860   106210843.852        -571.535          37.000  
  20848207.269   109558062.983       -3743.537          47.000  
  18354229.110    96452117.527       -1029.249          47.000  
  21816098.099   114644606.152       -2385.125          33.000  
  23382824.557   122877579.136       -3443.532          35.000  
 23 10 29 17 05 11.9940000  0  9G25G32G23G12G19G15G24G17G22
  21236493.045   111598533.046        3345.808          42.000  
  22435269.883   117898144.998        3099.473          37.000  
  22300784.787   117191394.131       -3068.905          45.000  
  18858022.469    99099571.365        1682.682          47.000  
  20211358.850   106211415.980        -572.430          38.000  
  20848919.687   109561806.747       -3743.812          47.000  
  18354425.348    96453147.109       -1029.686          47.000  
  21816551.418   114646991.141       -2385.104          33.000  
  23383480.175   122881022.529       -3443.647          35.000  
 23 10 29 17 05 12.9940000  0 10G13G25G32G23G12G19G15G24G17G22
  23048506.469   121120718.1043      -4018.807          29.000  
  21235856.143   111595187.186        3345.694          42.000  
  22434680.489   117895044.667        3100.020          36.000  
  22301368.514   117194463.017       -3068.961          44.000  
  18857702.838    99097888.551        1682.473          47.000  
  20211468.036   106211988.536        -573.236          38.000  
  20849631.981   109565550.532       -3743.832          47.000  
  18354622.171    96454176.941       -1030.042          47.000  
  21817005.054   114649376.361       -2384.972          33.000  
  23384135.727   122884465.636       -3443.077          36.000  
 23 10 29 17 05 13.9940000  0 10G13G25G32G23G12G19G15G24G17G22
  23049265.100   121124736.6882      -4019.101          30.000  
  21235219.376   111591841.644        3345.021          42.000  
  22434090.826   117891944.737        3099.461          34.000  
  22301952.486   117197532.272       -3069.709          45.000  
  18857382.842    99096206.372        1681.548          47.000  
  20211576.999   106212561.917        -574.253          38.000  
  20850344.488   109569294.702       -3744.680          47.000  
  18354818.617    96455207.385       -1031.046          48.000  
  21817458.459   114651762.226       -2386.183          32.000  
  23384791.563   122887908.946       -3443.490          35.000  
 23 10 29 17 05 14.9940000  0  9G25G32G23G12G19G15G24G17G22
  21234582.728   111588496.759        3344.645          42.000  
  22433501.491   117888845.445        3099.724          35.000  
  22302536.985   117200602.180       -3070.186          45.000  
  18857063.069    99094525.122        1680.930          47.000  
  20211686.214   106213136.427        -574.952          38.000  
  20851057.260   109573039.523       -3744.926          47.000  
  18355015.358    96456238.708       -1031.508          48.000  
  21817912.217   114654148.870       -2387.601          32.000  
  23385447.233   122891352.625       -3443.969          35.000  
 23 10 29 17 05 15.9940000  0  9G25G32G23G12G19G15G24G17G22
  21233946.009   111585152.180        3344.349          41.000  
  22432911.792   117885746.527        3098.539          35.000  
  22303121.282   117203672.421       -3070.526          45.000  
  18856743.172    99092844.461        1680.233          47.000  
  20211795.365   106213711.729        -575.799          37.000  
  20851770.252   109576784.697       -3745.474          47.000  
  18355212.052    96457270.606       -1032.382          48.000  
  21818365.934   114656536.158       -2388.913          31.000  
  23386098.222   122894796.311       -3443.654          32.000  
 23 10 29 17 05 16.9940000  0 10G10G25G32G23G12G19G15G24G17G22
  21725789.839                       -1316.699          30.000  
  21233309.421   111581808.196        3343.313          42.000  
  22432322.243   117882648.179        3097.899          36.000  
  22303705.570   117206743.290       -3071.310          45.000  
  18856423.680    99091164.707        1679.178          47.000  
  20211904.448   106214288.083        -577.214          37.000  
  20852483.569   109580530.519       -3746.324          47.000  
  18355408.734    96458303.353       -1033.383          48.000  
  21818819.807   114658924.168       -2388.537          31.000  
  23386755.319   122898240.457       -3443.971          35.000  
 23 10 29 17 05 17.9940000  0 11G10G25G32G23G12G19G15G24G17G22G13
  21726017.241   114170990.8983      -1307.834          29.000  
  21232673.402   111578464.501        3344.062          41.000  
  22431732.739   117879550.193        3098.017          34.000  
  22304290.213   117209814.465       -3071.026          44.000  
  18856104.103    99089485.541        1679.094          47.000  
  20212014.202   106214865.204        -577.527          37.000  
  20853196.637   109584276.655       -3745.897          47.000  
  18355605.581    96459336.651       -1033.247          47.000  
  21819274.043   114661312.756       -2388.868          32.000  
  23387408.101   122901684.635       -3444.266          34.000  
  23052344.544                       -4024.121          30.000  
 23 10 29 17 05 18.9940000  0 11G10G25G32G23G12G19G15G24G17G22G13
  21726258.615   114172298.7092      -1308.720          29.000  
  21232036.742   111575120.728        3343.950          41.000  
  22431142.763   117876452.149        3098.165          34.000  
  22304874.822   117212885.598       -3071.281          44.000  
  18855784.721    99087806.563        1679.122          47.000  
  20212123.438   106215442.737        -577.908          37.000  
  20853909.376   109588022.760       -3746.069          47.000  
  18355802.133    96460370.128       -1033.433          47.000  
  21819728.239   114663701.464       -2388.207          31.000  
  23388062.678   122905128.516       -3444.277          34.000  
  23053101.910                       -4016.297          29.000  
 23 10 29 17 05 19.9940000  0 10G10G25G32G23G12G19G15G24G17G22
  21726494.893                       -1309.839          31.000  
  21231399.874   111571777.408        3342.851          40.000  
  22430553.081   117873354.511        3097.205          34.000  
  22305459.574   117215957.178       -3072.065          45.000  
  18855465.127    99086128.344        1677.609          46.000  
  20212233.416   106216021.117        -578.708          37.000  
  20854622.047   109591769.322       -3746.935          47.000  
  18355999.188    96461404.286       -1034.436          47.000  
  21820181.890   114666090.925       -2390.560          31.000  
  23388720.743   122908572.611       -3444.673          34.000  
 23 10 29 17 05 20.9940000  0 11G10G25G32G23G12G19G15G24G17G22G13
  21726747.256   114174810.3023      -1309.723          31.000  
  21230763.803   111568434.505        3342.735          40.000  
  22429963.198   117870257.357        3096.622          33.000  
  22306044.254   117219029.209       -3072.126          44.000  
  18855145.777    99084450.848        1677.388          46.000  
  20212343.646   106216600.418        -579.574          37.000  
  20855334.557   109595516.361       -3747.064          46.000  
  18356196.305    96462439.125       -1034.871          46.000  
  21820633.271   114668480.982       -2390.323          31.000  
  23389377.729   122912016.886       -3444.546          35.000  
  23054630.721   121152901.8563      -4020.231          28.000  
 23 10 29 17 05 21.9940000  0 10G10G25G32G23G12G19G15G24G17G22
  21726989.513                       -1302.734          30.000  
  21230127.465   111565091.528        3343.329          40.000  
  22429372.986   117867160.128        3097.815          33.000  
  22306628.774   117222101.187       -3071.634          44.000  
  18854826.640    99082773.598        1677.472          46.000  
  20212453.978   106217180.120        -579.564          37.000  
  20856046.991   109599263.370       -3746.654          45.000  
  18356393.284    96463474.146       -1034.785          46.000  
  21821093.256   114670871.176       -2390.098          31.000  
  23390035.896   122915460.866       -3443.391          35.000  
 23 10 29 17 05 22.9940000  0 11G10G25G32G23G12G19G15G24G17G22G13
  21727229.410   114177409.4803      -1310.053          30.000  
  21229491.248   111561748.250        3342.784          40.000  
  22428783.103   117864062.636        3097.064          33.000  
  22307213.528   117225172.886       -3072.180          44.000  
  18854507.535    99081096.320        1676.736          46.000  
  20212564.230   106217760.015        -580.724          36.000  
  20856759.551   109603010.089       -3747.114          45.000  
  18356589.987    96464509.118       -1035.538          46.000  
  21821554.773   114673261.309       -2390.246          33.000  
  23390690.921   122918904.279       -3442.974          35.000  
  23056158.629   121160930.5932      -4018.942          29.000  
 23 10 29 17 05 23.9940000  0 11G10G25G32G23G12G19G15G24G17G22G13
  21727475.835   114178720.1192      -1311.592          31.000  
  21228855.122   111558405.557        3342.146          40.000  
  22428193.798   117860965.798        3096.087          34.000  
  22307798.370   117228245.205       -3072.816          44.000  
  18854189.191    99079419.931        1675.793          46.000  
  20212674.919   106218340.910        -581.561          37.000  
  20857472.453   109606757.447       -3747.968          45.000  
  18356786.590    96465544.943       -1036.402          46.000  
  21822009.934   114675652.310       -2391.367          33.000  
  23391345.433   122922348.065       -3443.407          35.000  
  23056924.526   121164950.1292      -4019.091          29.000  
 23 10 29 17 05 24.9940000  0 11G10G25G32G23G12G19G15G24G17G22G13
  21727721.816   114180031.3382      -1312.370          31.000  
  21228218.802   111555063.229        3341.751          40.000  
  22427604.242   117857869.240        3095.956          34.000  
  22308383.266   117231317.865       -3072.894          44.000  
  18853870.870    99077744.146        1675.345          46.000  
  20212785.582   106218922.606        -582.024          36.000  
  20858185.144   109610505.153       -3747.771          45.000  
  18356983.400    96466581.344       -1036.764          46.000  
  21822467.461   114678043.824       -2391.761          34.000  
  23392000.442   122925791.997       -3443.917          34.000  
  23057683.000   121168969.9072      -4019.898          28.000  
 23 10 29 17 05 25.9940000  0 10G10G25G32G23G12G19G15G24G17G22
  21727967.739   114181342.9742      -1311.542          31.000  
  21227582.707   111551720.975        3342.708          40.000  
  22427014.765   117854772.756        3096.766          34.000  
  22308968.119   117234390.668       -3072.731          44.000  
  18853552.391    99076068.767        1675.439          46.000  
  20212896.683   106219504.934        -582.509          36.000  
  20858898.079   109614253.033       -3747.899          45.000  
  18357180.408    96467618.121       -1036.827          46.000  
  21822922.231   114680435.717       -2392.186          35.000  
  23392655.178   122929235.813       -3443.692          34.000  
 23 10 29 17 05 26.9940000  0 10G10G25G32G23G12G19G15G24G17G22
  21728214.080   114182654.5132      -1311.627          30.000  
  21226946.339   111548378.273        3342.779          40.000  
  22426425.184   117851675.948        3096.153          32.000  
  22309553.103   117237463.015       -3072.585          44.000  
  18853234.064    99074393.200        1675.447          46.000  
  20213007.845   106220087.208        -582.506          37.000  
  20859610.766   109618000.463       -3747.595          44.000  
  18357377.343    96468654.678       -1036.630          46.000  
  21823379.444   114682827.280       -2391.131          35.000  
  23393309.987   122932678.854       -3442.335          33.000  
 23 10 29 17 05 27.9940000  0 10G10G25G32G23G12G19G15G24G17G22
  21728465.520   114183967.1322      -1313.522          32.000  
  21226310.243   111545036.237        3341.561          40.000  
  22425835.621   117848579.788        3095.148          32.000  
  22310137.781   117240536.049       -3073.604          44.000  
  18852915.829    99072718.594        1673.915          46.000  
  20213119.581   106220670.643        -584.237          38.000  
  20860323.816   109621748.597       -3748.873          45.000  
  18357574.545    96469692.158       -1038.167          46.000  
  21823834.731   114685219.814       -2393.780          34.000  
  23393965.315   122936122.437       -3444.656          33.000  
 23 10 29 17 05 28.9940000  0 10G10G25G32G23G12G19G15G24G17G22
  21728711.965   114185280.6502      -1313.512          32.000  
  21225674.115   111541694.763        3341.475          40.000  
  22425246.524   117845484.173        3095.947          32.000  
  22310722.678   117243609.709       -3074.029          44.000  
  18852597.449    99071044.846        1673.411          46.000  
  20213231.533   106221255.124        -584.667          39.000  
  20861037.358   109625497.341       -3749.022          45.000  
  18357772.143    96470730.445       -1038.546          46.000  
  21824290.082   114687613.102       -2393.774          34.000  
  23394620.577   122939566.312       -3443.954          33.000  
 23 10 29 17 05 29.9940000  0 10G10G25G32G23G12G19G15G24G17G22
  21728969.096   114186594.4832      -1313.924          32.000  
  21225038.153   111538353.206        3341.509          40.000  
  22424657.978   117842388.563        3095.923          33.000  
  22311307.480   117246683.248       -3073.605          43.000  
  18852278.754    99069371.279        1673.497          45.000  
  20213343.769   106221839.975        -584.941          39.000  
  20861751.166   109629246.001       -3748.707          44.000  
  18357969.983    96471768.915       -1038.496          45.000  
  21824745.214   114690006.557       -2393.041          34.000  
  23395275.948   122943009.856       -3444.406          32.000  
 23 10 29 17 05 30.9940000  0 10G10G25G32G23G12G19G15G24G17G22
  21729225.069   114187908.9152      -1315.598          32.000  
  21224401.874   111535011.899        3340.702          39.000  
  22424065.661   117839293.224        3094.259          32.000  
  22311892.346   117249757.117       -3074.679          43.000  
  18851959.836    99067698.286        1672.374          45.000  
  20213455.777   106222425.540        -586.131          38.000  
  20862464.302   109632994.972       -3749.692          44.000  
  18358167.443    96472807.897       -1039.845          45.000  
  21825201.201   114692400.526       -2394.711          34.000  
  23395930.931   122946453.377       -3443.479          31.000  
 23 10 29 17 05 31.9940000  0 10G10G25G32G23G12G19G15G24G17G22
  21729472.659   114189224.2332      -1315.851          32.000  
  21223766.281   111531671.170        3340.286          40.000  
  22423470.087   117836198.408        3095.300          32.000  
  22312477.131   117252831.520       -3074.294          43.000  
  18851641.511    99066026.124        1672.145          45.000  
  20213568.098   106223012.142        -586.771          39.000  
  20863177.597   109636744.515       -3749.420          44.000  
  18358365.016    96473847.688       -1040.011          45.000  
  21825657.319   114694795.243       -2394.496          34.000  
  23396586.108   122949897.311       -3443.321          30.000  
 23 10 29 17 05 32.9940000  0 10G10G25G32G23G12G19G15G24G17G22
  21729723.687   114190540.1082      -1315.517          32.000  
  21223130.907   111528330.579        3340.427          40.000  
  22422884.940   117833103.861        3093.806          32.000  
  22313061.962   117255906.146       -3074.924          42.000  
  18851323.291    99064354.448        1671.349          45.000  
  20213680.385   106223599.407        -587.444          39.000  
  20863890.959   109640494.292       -3750.076          45.000  
  18358562.751    96474887.911       -1040.569          45.000  
  21826113.108   114697190.397       -2394.991          33.000  
  23397240.005   122953341.211       -3444.578          30.000  
 23 10 29 17 05 33.9940000  0 10G10G25G32G23G12G19G15G24G17G22
  21729973.747   114191856.6632      -1316.987          33.000  
  21222495.277   111524990.305        3340.496          40.000  
  22422304.247   117830009.580        3093.662          33.000  
  22313646.686   117258981.099       -3075.039          42.000  
  18851005.274    99062683.338        1670.961          45.000  
  20213792.547   106224187.426        -588.415          39.000  
  20864605.003   109644244.386       -3750.184          45.000  
  18358760.811    96475928.698       -1041.226          45.000  
  21826569.063   114699586.085       -2395.863          33.000  
  23397888.019   122956784.998       -3443.048          30.000  
 23 10 29 17 05 34.9940000  0 10G10G25G32G23G12G19G15G24G17G22
  21730222.539   114193173.5472      -1317.256          32.000  
  21221860.093   111521650.086        3340.510          41.000  
  22421719.329   117826915.432        3094.046          33.000  
  22314231.292   117262056.089       -3074.666          42.000  
  18850686.914    99061012.543        1670.919          45.000  
  20213904.970   106224775.918        -588.528          39.000  
  20865318.941   109647994.545       -3749.842          45.000  
  18358958.876    96476969.749       -1040.995          45.000  
  21827024.858   114701982.028       -2395.194          33.000  
  23398549.212   122960228.801       -3444.233          30.000  
 23 10 29 17 05 35.9940000  0 10G10G25G32G23G12G19G15G24G17G22
  21730472.731   114194490.7082      -1317.222          32.000  
  21221224.857   111518309.852        3340.048          41.000  
  22421129.514   117823821.223        3094.482          33.000  
  22314816.721   117265131.090       -3074.997          43.000  
  18850368.749    99059342.012        1670.349          45.000  
  20214017.249   106225364.862        -588.975          39.000  
  20866032.522   109651744.715       -3750.212          45.000  
  18359157.045    96478011.049       -1041.602          45.000  
  21827480.854   114704378.193       -2396.330          33.000  
  23399205.698   122963672.317       -3443.935          30.000  
 23 10 29 17 05 36.9940000  0 10G10G25G32G23G12G19G15G24G17G22
  21730723.129   114195808.338       -1318.685          32.000  
  21220589.205   111514969.641        3340.041          41.000  
  22420542.608   117820727.048        3094.586          33.000  
  22315402.309   117268206.154       -3075.111          43.000  
  18850050.730    99057671.838        1669.900          45.000  
  20214129.668   106225954.327        -589.653          39.000  
  20866746.354   109655494.964       -3750.097          45.000  
  18359355.355    96479052.635       -1041.579          45.000  
  21827936.479   114706774.594       -2396.265          33.000  
  23399858.100   122967115.581       -3443.845          30.000  
 23 10 29 17 05 37.9940000  0 10G10G25G32G23G12G19G15G24G17G22
  21730973.437   114197126.604       -1317.774          32.000  
  21219954.034   111511629.719        3340.188          41.000  
  22419955.496   117817633.254        3094.016          34.000  
  22315987.506   117271281.525       -3075.208          42.000  
  18849732.915    99056002.207        1669.868          45.000  
  20214242.230   106226544.546        -590.329          39.000  
  20867460.561   109659245.532       -3750.378          45.000  
  18359553.655    96480094.775       -1041.960          45.000  
  21828392.837   114709171.546       -2396.945          35.000  
  23400508.197   122970558.899       -3443.074          29.000  
 23 10 29 17 05 38.9940000  0 10G10G25G32G23G12G19G15G24G17G22
  21731223.765   114198445.266       -1318.940          32.000  
  21219318.661   111508289.885        3339.854          41.000  
  22419366.538   117814539.546        3093.319          33.000  
  22316572.699   117274356.982       -3075.460          42.000  
  18849415.265    99054332.962        1669.152          45.000  
  20214354.930   106227135.319        -591.008          39.000  
  20868174.412   109662996.206       -3750.708          45.000  
  18359752.149    96481137.231       -1042.487          45.000  
  21828849.538   114711568.805       -2397.292          35.000  
  23401167.648   122974002.134       -3443.756          29.000  
 23 10 29 17 05 39.9940000  0 10G10G25G32G23G12G19G15G24G17G22
  21731471.868   114199764.053       -1318.160          31.000  
  21218683.224   111504949.704        3339.865          41.000  
  22418777.541   117811445.458        3094.622          34.000  
  22317157.343   117277432.127       -3075.356          41.000  
  18849097.542    99052663.659        1669.107          45.000  
  20214467.652   106227726.207        -591.026          38.000  
  20868888.822   109666746.565       -3750.472          46.000  
  18359950.338    96482179.602       -1042.416          45.000  
  21829306.108   114713965.905       -2397.244          34.000  
  23401829.875   122977444.639       -3442.294          29.000  
 23 10 29 17 05 40.9940000  0 10G10G25G32G23G12G19G15G24G17G22
  21731713.651   114201083.549       -1320.468          31.000  
  21218047.809   111501609.959        3339.513          41.000  
  22418189.226   117808351.905        3093.469          35.000  
  22317742.294   117280507.699       -3076.072          41.000  
  18848780.064    99050995.067        1668.070          45.000  
  20214579.955   106228317.974        -592.392          38.000  
  20869603.399   109670497.375       -3751.273          46.000  
  18360148.461    96483222.673       -1043.646          45.000  
  21829762.610   114716363.683       -2398.447          35.000  
  23402482.600   122980887.503       -3442.465          29.000  
 23 10 29 17 05 41.9940000  0 10G10G25G32G23G12G19G15G24G17G22
  21731970.843   114202403.908       -1320.992          32.000  
  21217412.323   111498270.730        3339.322          41.000  
  22417601.224   117805258.890        3092.668          35.000  
  22318327.266   117283583.836       -3076.301          41.000  
  18848462.494    99049327.296        1667.449          45.000  
  20214692.476   106228910.764        -592.992          38.000  
  20870318.025   109674248.758       -3751.506          46.000  
  18360347.211    96484266.500       -1044.012          45.000  
  21830219.594   114718762.209       -2398.977          35.000  
  23403133.170   122984330.589       -3442.757          27.000  
 23 10 29 17 05 42.9940000  0 10G10G25G32G23G12G19G15G24G17G22
  21732224.116   114203725.100       -1322.119          33.000  
  21216776.744   111494932.053        3338.204          40.000  
  22417013.127   117802166.391        3091.643          35.000  
  22318912.374   117286660.536       -3077.625          41.000  
  18848145.338    99047660.354        1666.256          45.000  
  20214805.281   106229504.548        -594.466          37.000  
  20871032.003   109678000.698       -3752.410          46.000  
  18360545.912    96485311.136       -1045.258          45.000  
  21830676.781   114721161.485       -2399.655          35.000  
  23403793.050   122987774.063       -3443.624          27.000  
 23 10 29 17 05 43.9940000  0 10G10G25G32G23G12G19G15G24G17G22
  21732474.345   114205046.814       -1322.301          34.000  
  21216141.247   111491593.483        3338.620          39.000  
  22416424.898   117799074.094        3091.517          35.000  
  22319497.487   117289737.316       -3076.331          41.000  
  18847828.436    99045993.828        1666.510          45.000  
  20214918.330   106230098.935        -594.515          37.000  
  20871746.419   109681752.812       -3752.146          46.000  
  18360744.532    96486356.135       -1044.864          45.000  
  21831134.018   114723561.162       -2399.806          34.000  
  23404443.745   122991217.302       -3442.469          27.000  
 23 10 29 17 05 44.9940000  0 10G10G25G32G23G12G19G15G24G17G22
  21732731.241   114206368.987       -1322.542          35.000  
  21215505.489   111488255.018        3338.396          39.000  
  22415836.546   117795981.818        3092.373          36.000  
  22320082.830   117292814.269       -3077.003          40.000  
  18847511.134    99044327.681        1665.849          45.000  
  20215031.589   106230693.911        -595.302          37.000  
  20872460.539   109685505.015       -3752.175          47.000  
  18360943.380    96487401.486       -1045.560          45.000  
  21831590.385   114725961.107       -2399.733          33.000  
  23405097.210   122994660.551       -3443.598          26.000  
 23 10 29 17 05 45.9940000  0 10G10G25G32G23G12G19G15G24G17G22
  21732984.202   114207691.798       -1323.450          35.000  
  21214869.475   111484916.845        3337.911          39.000  
  22415248.295   117792889.896        3091.858          35.000  
  22320667.932   117295891.529       -3077.554          40.000  
  18847194.284    99042662.124        1665.012          45.000  
  20215144.701   106231289.605        -596.081          37.000  
  20873174.746   109689257.556       -3752.794          47.000  
  18361142.720    96488447.378       -1046.149          45.000  
  21832047.201   114728361.625       -2401.490          33.000  
  23405754.365                       -3443.506          25.000  
 23 10 29 17 05 46.9940000  0 10G10G25G32G23G12G19G15G24G17G22
  21733239.633   114209015.269       -1323.437          37.000  
  21214233.622   111481578.914        3338.092          38.000  
  22414659.540   117789798.299        3091.830          34.000  
  22321253.725   117298969.066       -3077.613          40.000  
  18846877.362    99040997.123        1665.077          45.000  
  20215258.092   106231886.052        -596.392          37.000  
  20873888.789   109693010.419       -3752.703          46.000  
  18361342.290    96489493.824       -1046.395          45.000  
  21832503.888   114730762.586       -2401.089          32.000  
  23406411.152   123001520.6453      -3444.562          26.000  
 23 10 29 17 05 47.9940000  0 10G10G25G32G23G12G19G15G24G17G22
  21733490.709   114210339.054       -1324.377          36.000  
  21213597.548   111478240.996        3337.757          38.000  
  22414071.241   117786706.721        3091.267          35.000  
  22321839.354   117302046.625       -3078.039          40.000  
  18846560.638    99039332.403        1664.322          45.000  
  20215371.482   106232482.988        -597.874          36.000  
  20874602.865   109696763.287       -3753.057          46.000  
  18361541.231    96490540.477       -1047.015          45.000  
  21832956.695   114733163.835       -2401.708          31.000  
  23407068.164                       -3443.269          25.000  
 23 10 29 17 05 48.9940000  0 10G10G25G32G23G12G19G15G24G17G22
  21733741.855   114211663.573       -1324.856          35.000  
  21212962.175   111474903.450        3337.210          38.000  
  22413482.547   117783615.450        3091.007          36.000  
  22322425.315   117305124.577       -3078.221          40.000  
  18846244.279    99037668.350        1663.713          45.000  
  20215484.851   106233080.750        -598.649          33.000  
  20875317.392   109700516.566       -3753.575          46.000  
  18361740.848    96491587.785       -1047.704          46.000  
  21833413.274   114735565.630       -2402.479          31.000  
  23407728.227   123008441.1563      -3441.601          26.000  
 23 10 29 17 05 49.9940000  0 10G10G25G32G23G12G19G15G24G17G22
  21733993.079   114212987.895       -1324.273          34.000  
  21212326.058   111471565.363        3338.588          37.000  
  22412893.851   117780523.724        3092.085          36.000  
  22323010.951   117308201.974       -3077.003          40.000  
  18845927.180    99036004.035        1664.525          45.000  
  20215597.743   106233678.423        -598.105          34.000  
  20876031.477   109704269.304       -3752.192          46.000  
  18361940.319    96492634.789       -1046.897          46.000  
  21833862.837   114737967.164       -2401.198          29.000  
  23408383.862                       -3440.914          26.000  
 23 10 29 17 05 50.9940000  0 10G10G25G32G23G12G19G15G24G17G22
  21734244.164   114214312.728       -1325.012          34.000  
  21211690.052   111468227.437        3337.392          38.000  
  22412305.351   117777432.117        3091.531          34.000  
  22323596.170   117311279.555       -3078.105          40.000  
  18845610.232    99034340.158        1663.096          44.000  
  20215711.091   106234276.721        -598.915          34.000  
  20876745.134   109708022.246       -3753.538          46.000  
  18362140.100    96493682.178       -1047.899          46.000  
  21834319.468   114740369.030       -2402.142          28.000  
  23409038.614                       -3442.700          26.000  
 23 10 29 17 05 51.9940000  0 10G10G25G32G23G12G19G15G24G17G22
  21734495.711   114215638.824       -1325.912          33.000  
  21211054.870   111464890.374        3336.905          38.000  
  22411716.613   117774341.460        3090.433          34.000  
  22324182.338   117314358.065       -3078.824          40.000  
  18845292.904    99032677.459        1662.507          44.000  
  20215824.858   106234876.363        -599.637          35.000  
  20877459.514   109711776.097       -3753.809          46.000  
  18362340.178    96494730.729       -1048.841          46.000  
  21834787.590   114742772.019       -2403.010          29.000  
  23409691.628                       -3437.981          24.000  
 23 10 29 17 05 52.9940000  0 10G10G25G32G23G12G19G15G24G17G22
  21734743.818   114216965.355       -1326.599          28.000  
  21210419.842   111461553.497        3336.943          38.000  
  22411127.644   117771250.975        3090.658          34.000  
  22324768.334   117317436.709       -3078.493          41.000  
  18844976.165    99031015.227        1662.170          44.000  
  20215939.462   106235476.624        -600.304          35.000  
  20878173.651   109715530.153       -3754.072          46.000  
  18362539.662    96495779.687       -1048.961          46.000  
  21835233.338   114745175.448       -2403.474          28.000  
  23410344.752                       -3446.002          22.000  
 23 10 29 17 05 53.9940000  0 10G10G25G32G23G12G19G15G24G17G22
  21734983.017   114218292.787       -1327.460          29.000  
  21209785.677   111458217.038        3336.273          39.000  
  22410538.966   117768160.986        3090.167          34.000  
  22325354.454   117320515.818       -3079.161          41.000  
  18844659.989    99029353.687        1661.377          44.000  
  20216053.899   106236077.776        -601.646          35.000  
  20878887.262   109719284.652       -3754.476          45.000  
  18362739.443    96496829.313       -1049.886          46.000  
  21835695.365   114747579.574       -2404.252          28.000  
  23410998.160                       -3452.045          22.000  
 23 10 29 17 05 54.9940000  0 10G10G25G32G23G12G19G15G24G17G22
  21735230.876   114219620.742       -1327.811          28.000  
  21209151.320   111454880.924        3335.564          40.000  
  22409951.024   117765071.332        3089.983          34.000  
  22325940.332   117323595.256       -3079.696          41.000  
  18844343.629    99027692.754        1660.842          44.000  
  20216167.310   106236679.727        -602.287          31.000  
  20879601.855   109723039.520       -3754.954          45.000  
  18362938.952    96497879.529       -1050.438          46.000  
  21836153.614   114749984.026       -2404.449          27.000  
  23411651.970                       -3444.287          22.000  
 23 10 29 17 05 55.9940000  0 10G10G25G32G23G12G19G15G24G17G22
  21735473.608                       -1330.052          26.000  
  21208516.114   111451545.031        3335.756          39.000  
  22409363.408   117761981.944        3089.110          35.000  
  22326527.148   117326675.006       -3080.054          42.000  
  18844027.730    99026032.388        1660.100          44.000  
  20216280.976   106237282.379        -602.669          32.000  
  20880316.502   109726794.661       -3755.288          45.000  
  18363138.890    96498930.267       -1050.998          46.000  
  21836619.976   114752389.102       -2405.213          27.000  
  23412308.340                       -3442.950          24.000  
 23 10 29 17 05 56.9940000  0 10G10G25G32G23G12G19G15G24G17G22
  21735733.455   114222049.5023      -1330.097          28.000  
  21207881.570   111448209.577        3335.458          39.000  
  22408775.549   117758893.017        3088.909          33.000  
  22327113.521   117329755.167       -3080.480          40.000  
  18843712.102    99024372.757        1659.228          45.000  
  20216395.192   106237886.009        -604.517          34.000  
  20881030.886   109730550.265       -3755.823          45.000  
  18363339.103    96499981.686       -1051.721          46.000  
  21837072.382   114754794.915       -2405.698          27.000  
  23412964.285                       -3443.055          22.000  
 23 10 29 17 05 57.9940000  0  9G25G32G23G12G19G15G24G17G22
  21207246.954   111444874.536        3335.051          41.000  
  22408187.985   117755804.448        3088.524          39.000  
  22327700.106   117332835.726       -3080.475          44.000  
  18843396.613    99022713.746        1658.707          48.000  
  20216509.993   106238490.403        -604.531          38.000  
  20881745.200   109734306.250       -3755.932          47.000  
  18363538.903    96501033.706       -1052.212          48.000  
  21837537.794   114757201.188       -2405.966          32.000  
  23413617.019                       -3448.448          23.000  
 23 10 29 17 05 58.9940000  0 10G10G25G32G23G12G19G15G24G17G22
  21736209.951                       -1329.984          32.000  
  21206611.735   111441539.470        3335.457          41.000  
  22407600.558   117752715.963        3088.373          39.000  
  22328287.342   117335916.315       -3080.299          45.000  
  18843081.021    99021055.046        1658.722          47.000  
  20216624.379   106239095.315        -604.901          38.000  
  20882458.901   109738062.283       -3755.782          47.000  
  18363738.916    96502086.002       -1052.189          48.000  
  21837984.267   114759607.829       -2405.819          33.000  
  23414269.827                       -3442.476          24.000  
 23 10 29 17 05 59.9940000  0  9G25G32G23G12G19G15G24G17G22
  21205976.486   111438204.424        3335.551          41.000  
  22407012.685   117749627.492        3088.582          39.000  
  22328874.038   117338996.958       -3080.491          45.000  
  18842764.847    99019396.666        1658.607          47.000  
  20216739.622   106239700.698        -605.144          38.000  
  20883173.195   109741818.384       -3755.696          47.000  
  18363937.979    96503138.553       -1052.249          48.000  
  21838435.758   114762014.675       -2406.863          31.000  
  23414927.402                       -3435.366          25.000  
 23 10 29 17 06 00.9940000  0 10G25G32G23G12G19G13G15G24G17G22
  21205341.865   111434869.123        3335.222          41.000  
  22406424.915   117746538.769        3088.886          38.000  
  22329460.558   117342077.353       -3080.550          43.000  
  18842449.491    99017738.326        1658.073          46.000  
  20216855.195   106240306.297        -605.730          37.000  
  23085217.519                       -4019.086          29.000  
  20883887.818   109745574.258       -3756.076          46.000  
  18364137.893    96504191.129       -1052.866          46.000  
  21838899.729   114764421.486       -2407.010          29.000  
  23415583.735                       -3441.374          24.000  
 23 10 29 17 06 01.9940000  0 11G10G25G32G23G12G19G13G15G24G17G22
  21737015.730   114228787.7293      -1332.565          31.000  
  21204706.957   111431534.623        3333.821          39.000  
  22405837.052   117743450.891        3087.170          38.000  
  22330046.988   117345158.489       -3081.627          43.000  
  18842133.985    99016081.017        1656.527          46.000  
  20216971.117   106240913.087        -607.447          37.000  
  23085991.823                       -4022.217          29.000  
  20884602.590   109749330.882       -3757.300          46.000  
  18364338.259    96505244.696       -1054.335          46.000  
  21839361.396   114766829.347       -2408.596          29.000  
  23416239.615                       -3441.958          25.000  
 23 10 29 17 06 02.9940000  0 11G10G25G32G23G12G19G13G15G24G17G22
  21737280.868   114230120.7602      -1333.462          35.000  
  21204072.323   111428200.737        3333.845          39.000  
  22405249.539   117740363.622        3086.582          38.000  
  22330633.777   117348240.296       -3081.916          43.000  
  18841818.269    99014424.646        1655.991          45.000  
  20217087.200   106241521.019        -608.586          37.000  
  23086747.476                       -4021.651          27.000  
  20885317.602   109753088.203       -3757.452          46.000  
  18364539.167    96506299.169       -1054.769          46.000  
  21839816.108   114769237.984       -2409.297          27.000  
  23416897.769                       -3444.086          25.000  
 23 10 29 17 06 03.9940000  0 11G10G25G32G23G12G19G13G15G24G17G22
  21737538.750   114231454.5682      -1333.852          36.000  
  21203438.574   111424867.186        3333.547          40.000  
  22404662.319   117737276.730        3086.750          38.000  
  22331220.022   117351322.481       -3082.286          43.000  
  18841502.812    99012768.920        1655.431          45.000  
  20217203.772   106242129.724        -609.193          38.000  
  23087510.799   121325687.9473      -4021.255          27.000  
  20886032.971   109756845.887       -3757.781          46.000  
  18364740.264    96507354.236       -1055.341          47.000  
  21840277.046   114771647.159       -2409.485          27.000  
  23417555.647                       -3444.661          24.000  
 23 10 29 17 06 04.9940000  0 11G10G25G32G23G12G19G13G15G24G17G22
  21737796.147   114232788.5222      -1334.311          38.000  
  21202805.031   111421533.483        3333.819          41.000  
  22404074.480   117734189.698        3086.721          38.000  
  22331806.700   117354404.504       -3082.272          44.000  
  18841186.985    99011113.298        1655.314          44.000  
  20217319.744   106242738.763        -609.399          38.000  
  23088281.027   121329708.9502      -4021.724          27.000  
  20886747.946   109760603.431       -3757.521          46.000  
  18364941.061    96508409.384       -1055.185          48.000  
  21840749.173   114774056.570       -2409.042          26.000  
  23418206.856                       -3442.329          23.000  
 23 10 29 17 06 05.9940000  0 11G10G25G32G23G12G19G13G15G24G17G22
  21738051.494   114234123.3542      -1335.220          38.000  
  21202171.257   111418200.273        3332.708          41.000  
  22403487.169   117731103.179        3086.496          38.000  
  22332393.568   117357487.042       -3082.976          44.000  
  18840871.483    99009458.496        1654.325          45.000  
  20217436.383   106243348.757        -610.755          38.000  
  23089060.160   121333730.1782      -4021.315          28.000  
  20887463.084   109764361.516       -3758.451          47.000  
  18365142.225    96509465.306       -1056.341          47.000  
  21841229.468                       -2413.389          22.000  
  23418860.703                       -3437.846          23.000  
 23 10 29 17 06 06.9940000  0 11G10G25G32G23G12G19G13G15G24G17G22
  21738305.674   114235458.9662      -1336.559          37.000  
  21201537.412   111414867.464        3332.092          42.000  
  22402900.050   117728017.136        3085.288          39.000  
  22332980.402   117360570.011       -3083.581          44.000  
  18840556.574    99007804.387        1653.309          45.000  
  20217552.909   106243959.614        -611.724          39.000  
  23089821.674   121337751.6582      -4021.673          28.000  
  20888178.369   109768120.033       -3759.163          47.000  
  18365343.284    96510521.903       -1057.333          47.000  
  21841695.847                       -2407.630          21.000  
  23419512.311                       -3444.826          22.000  
 23 10 29 17 06 07.9940000  0 11G10G25G32G23G12G19G13G15G24G17G22
  21738559.806   114236795.4512      -1336.791          39.000  
  21200904.011   111411535.204        3332.091          43.000  
  22402313.035   117724931.618        3084.774          39.000  
  22333566.923   117363653.528       -3084.085          44.000  
  18840241.400    99006151.099        1652.764          45.000  
  20217669.220   106244571.443        -612.679          38.000  
  23090581.049   121341773.4432      -4021.674          29.000  
  20888893.998   109771879.106       -3759.356          47.000  
  18365544.056    96511579.250       -1057.920          47.000  
  21842169.839                       -2411.765          23.000  
  23420163.137                       -3459.078          22.000  
 23 10 29 17 06 08.9940000  0 11G10G25G32G23G12G19G13G15G24G17G22
  21738813.349   114238132.3252      -1337.135          38.000  
  21200271.000   111408202.943        3332.521          43.000  
  22401726.056   117721846.075        3085.740          38.000  
  22334153.844   117366737.066       -3083.558          45.000  
  18839926.750    99004498.089        1652.980          45.000  
  20217785.717   106245183.808        -612.509          38.000  
  23091340.991   121345795.2512      -4021.927          28.000  
  20889609.158   109775638.223       -3758.839          46.000  
  18365745.558    96512636.866       -1057.628          47.000  
  21842635.699                       -2411.054          25.000  
  23420818.438                       -3444.063          22.000  
 23 10 29 17 06 09.9940000  0 11G10G25G32G23G12G19G13G15G24G17G22
  21739067.014   114239469.7982      -1338.211          40.000  
  21199636.820   111404870.912        3331.415          38.000  
  22401139.469   117718760.950        3084.390          39.000  
  22334741.129   117369820.926       -3084.034          41.000  
  18839612.474    99002845.651        1651.984          45.000  
  20217902.394   106245796.862        -613.564          36.000  
  23092103.833   121349817.0132      -4021.944          25.000  
  20890324.551   109779397.660       -3759.879          47.000  
  18365946.977    96513695.005       -1058.617          46.000  
  21843100.352                       -2412.428          26.000  
  23421479.387                       -3443.567          26.000  
 23 10 29 17 06 10.9940000  0 11G10G25G32G23G12G19G13G15G24G17G22
  21739320.993   114240808.4742      -1339.094          37.000  
  21199002.605   111401539.775        3331.042          38.000  
  22400552.917   117715676.611        3084.464          37.000  
  22335328.460   117372905.629       -3084.902          41.000  
  18839298.464    99001194.328        1650.872          44.000  
  20218019.441   106246411.216        -615.049          38.000  
  23092867.459   121353839.5402      -4023.620          31.000  
  20891040.283   109783157.947       -3760.706          47.000  
  18366148.614    96514754.225       -1059.720          47.000  
  21843553.944   114788650.4183      -2412.988          26.000  
  23422140.412   123084178.2963      -3443.905          27.000  
 23 10 29 17 06 11.9940000  0 11G10G25G32G23G12G19G13G15G24G17G22
  21739575.546   114242147.9182      -1339.777          39.000  
  21198368.625   111398209.106        3330.187          38.000  
  22399966.202   117712592.806        3083.213          38.000  
  22335915.906   117375990.747       -3084.972          41.000  
  18838984.742    98999543.786        1650.275          45.000  
  20218136.148   106247026.553        -615.861          37.000  
  23093626.323   121357862.2102      -4023.436          30.000  
  20891756.063   109786918.714       -3761.027          46.000  
  18366350.474    96515814.201       -1060.533          47.000  
  21844007.598   114791064.3412      -2414.369          27.000  
  23422799.084   123087623.0312      -3444.573          26.000  
 23 10 29 17 06 12.9940000  0 11G10G25G32G23G12G19G13G15G24G17G22
  21739830.624   114243487.4922      -1339.661          36.000  
  21197734.945   111394878.208        3331.306          41.000  
  22399378.967   117709508.702        3084.487          37.000  
  22336503.125   117379075.613       -3084.659          43.000  
  18838670.718    98997893.232        1650.609          45.000  
  20218253.246   106247642.015        -615.705          37.000  
  23094393.618   121361884.3582      -4021.827          28.000  
  20892472.008   109790679.232       -3760.343          46.000  
  18366552.645    96516874.115       -1059.943          47.000  
  21844454.384                       -2413.030          24.000  
  23423452.669   123091073.5943      -3444.044          25.000  
 23 10 29 17 06 13.9940000  0 11G10G25G32G23G12G19G13G15G24G17G22
  21740085.629   114244827.5212      -1340.942          34.000  
  21197101.530   111391547.407        3330.395          41.000  
  22398792.044   117706424.828        3083.275          36.000  
  22337090.124   117382160.677       -3085.520          42.000  
  18838356.872    98996243.136        1649.262          45.000  
  20218370.371   106248258.165        -616.997          36.000  
  23095151.525                       -4015.086          27.000  
  20893188.091   109794439.917       -3761.565          46.000  
  18366755.240    96517934.472       -1061.070          47.000  
  21844900.898                       -2412.720          24.000  
  23424105.745                       -3437.235          25.000  
 23 10 29 17 06 14.9940000  0 10G10G25G32G23G12G19G13G15G24G22
  21740341.019   114246168.4562      -1341.546          32.000  
  21196467.889   111388217.143        3329.978          41.000  
  22398205.389   117703341.434        3083.414          35.000  
  22337677.189   117385246.266       -3085.726          43.000  
  18838043.564    98994593.802        1648.876          45.000  
  20218487.637   106248875.214        -617.446          36.000  
  23095904.875   121369798.5773      -4022.921          27.000  
  20893903.870   109798201.135       -3761.492          46.000  
  18366957.890    96518995.522       -1061.474          47.000  
  23424760.093                       -3443.645          26.000  
 23 10 29 17 06 15.9940000  0 10G10G25G32G23G12G19G13G15G24G22
  21740596.571   114247510.0562      -1341.605          33.000  
  21195834.531   111384887.257        3330.143          41.000  
  22397618.661   117700258.431        3083.063          35.000  
  22338264.358   117388332.263       -3085.865          44.000  
  18837730.267    98992945.164        1648.693          45.000  
  20218605.328   106249493.197        -618.384          35.000  
  23096675.297   121373821.1762      -4021.542          27.000  
  20894620.032   109801962.790       -3761.724          46.000  
  18367159.684    96520057.245       -1061.900          47.000  
  23425417.934                       -3444.660          25.000  
 23 10 29 17 06 16.9940000  0 10G10G25G32G23G12G19G13G15G24G22
  21740861.939   114248851.8592      -1342.607          33.000  
  21195201.419   111381557.140        3330.048          41.000  
  22397031.817   117697175.317        3082.139          34.000  
  22338851.717   117391418.052       -3086.063          43.000  
  18837417.426    98991296.613        1648.130          46.000  
  20218722.702   106250111.394        -618.632          35.000  
  23097436.951   121377843.6082      -4022.432          26.000  
  20895335.931   109805724.238       -3761.856          46.000  
  18367361.400    96521119.011       -1062.350          47.000  
  23426075.142                       -3442.888          24.000  
 23 10 29 17 06 17.9940000  0 10G10G25G32G23G12G19G13G15G24G22
  21741108.637   114250194.2222      -1341.284          31.000  
  21194568.417   111378227.414        3329.356          41.000  
  22396445.046   117694092.511        3082.507          33.000  
  22339438.959   117394504.202       -3086.450          42.000  
  18837104.064    98989648.704        1647.294          46.000  
  20218840.544   106250730.401        -619.199          35.000  
  23098198.719   121381866.0422      -4022.500          25.000  
  20896052.171   109809486.068       -3762.302          45.000  
  18367563.635    96522181.371       -1062.899          46.000  
  23426731.643                       -3443.572          24.000  
 23 10 29 17 06 18.9940000  0 11G10G25G32G23G12G19G13G15G24G17G22
  21741363.109   114251537.502       -1343.592          30.000  
  21193935.504   111374898.013        3328.747          41.000  
  22395858.529   117691010.128        3081.903          34.000  
  22340026.204   117397590.733       -3086.922          42.000  
  18836790.748    98988001.438        1646.805          46.000  
  20218958.350   106251350.263        -620.389          34.000  
  23098963.662   121385888.6982      -4022.437          25.000  
  20896767.863   109813248.292       -3762.592          45.000  
  18367765.641    96523244.360       -1063.445          46.000  
  21847195.515                       -2413.367          28.000  
  23427391.224                       -3445.065          25.000  
 23 10 29 17 06 19.9940000  0 11G10G25G32G23G12G19G13G15G24G17G22
  21741618.493   114252881.203       -1343.229          31.000  
  21193302.026   111371568.783        3329.024          41.000  
  22395272.110   117687927.932        3081.937          34.000  
  22340613.467   117400677.435       -3086.862          42.000  
  18836477.641    98986354.655        1646.162          45.000  
  20219076.593   106251970.768        -621.046          35.000  
  23099727.463   121389911.3712      -4023.103          26.000  
  20897483.645   109817010.737       -3763.023          45.000  
  18367968.048    96524307.774       -1063.837          46.000  
  21847656.728                       -2413.367          28.000  
  23428045.784                       -3444.060          25.000  
 23 10 29 17 06 20.9940000  0 11G10G25G32G23G12G19G13G15G24G17G22
  21741876.429   114254225.378       -1344.131          31.000  
  21192668.540   111368239.692        3329.915          41.000  
  22394685.803   117684845.869        3082.942          35.000  
  22341200.776   117403764.295       -3086.386          42.000  
  18836165.029    98984708.264        1646.858          46.000  
  20219194.739   106252591.867        -621.064          35.000  
  23100495.573   121393933.9502      -4021.785          27.000  
  20898199.529   109820773.320       -3762.022          45.000  
  18368170.902    96525371.566       -1063.258          46.000  
  21848122.839                       -2416.860          30.000  
  23428704.026                       -3443.606          24.000  
 23 10 29 17 06 21.9940000  0 11G10G25G32G23G12G19G13G15G24G17G22
  21742130.040   114255569.207       -1343.994          31.000  
  21192034.949   111364909.905        3329.779          41.000  
  22394099.118   117681763.188        3081.979          34.000  
  22341787.880   117406850.469       -3086.503          42.000  
  18835852.273    98983061.489        1646.452          46.000  
  20219313.392   106253212.729        -621.298          36.000  
  23101261.140   121397955.6912      -4022.303          27.000  
  20898915.137   109824535.237       -3762.082          45.000  
  18368373.281    96526434.931       -1063.713          46.000  
  21848588.232   114815077.2543      -2417.157          32.000  
  23429357.768                       -3443.529          23.000  
 23 10 29 17 06 22.9940000  0 11G10G25G32G23G12G19G13G15G24G17G22
  21742377.730   114256914.189       -1345.215          29.000  
  21191401.517   111361580.906        3328.504          41.000  
  22393512.420   117678681.277        3081.496          34.000  
  22342375.141   117409937.442       -3087.493          42.000  
  18835539.294    98981415.767        1645.219          46.000  
  20219431.927   106253834.804        -622.686          35.000  
  23102028.695   121401977.9772      -4022.977          28.000  
  20899631.051   109828297.968       -3763.126          45.000  
  18368575.839    96527499.310       -1064.884          46.000  
  21849038.530   114817495.2702      -2418.933          32.000  
  23430011.741                       -3442.779          22.000  
 23 10 29 17 06 23.9940000  0 11G10G25G32G23G12G19G13G15G24G17G22
  21742635.322   114258260.111       -1345.443          28.000  
  21190767.537   111358252.572        3328.435          41.000  
  22392925.957   117675600.026        3081.766          35.000  
  22342962.803   117413025.054       -3087.490          42.000  
  18835226.554    98979770.994        1644.852          46.000  
  20219550.510   106254458.011        -623.366          35.000  
  23102795.957   121406000.6862      -4022.808          28.000  
  20900346.960   109832061.369       -3763.334          45.000  
  18368778.890    96528564.603       -1065.466          46.000  
  21849489.409   114819914.0472      -2418.533          32.000  
  23430664.473                       -3444.388          23.000  
 23 10 29 17 06 24.9940000  0 11G10G25G32G23G12G19G13G15G24G17G22
  21742886.491   114259605.921       -1346.262          28.000  
  21190133.697   111354923.701        3328.664          41.000  
  22392339.462   117672518.302        3081.550          34.000  
  22343550.341   117416112.184       -3087.177          42.000  
  18834913.564    98978125.990        1644.867          46.000  
  20219669.457   106255081.155        -623.447          35.000  
  23103561.668   121410022.755       -4022.184          28.000  
  20901063.265   109835824.267       -3762.871          45.000  
  18368981.476    96529629.608       -1065.243          46.000  
  21849944.803   114822332.6102      -2418.618          32.000  
  23431317.626                       -3443.236          23.000  
 23 10 29 17 06 25.9940000  0 10G25G32G23G12G19G13G15G24G17G22
  21189500.169   111351595.511        3327.652          41.000  
  22391752.521   117669437.293        3080.865          33.000  
  22344138.339   117419200.025       -3088.752          43.000  
  18834600.763    98976481.956        1643.264          46.000  
  20219788.439   106255705.491        -625.018          35.000  
  23104334.327                       -4026.270          30.000  
  20901779.302   109839587.879       -3764.102          45.000  
  18369184.306    96530695.570       -1066.669          46.000  
  21850402.854   114824752.1032      -2420.000          33.000  
  23431966.126                       -3449.227          21.000  
 23 10 29 17 06 26.9940000  0 10G25G32G23G12G19G13G15G24G17G22
  21188866.462   111348268.223        3327.204          40.000  
  22391172.118   117666357.177        3079.586          34.000  
  22344726.268   117422288.724       -3088.529          43.000  
  18834288.031    98974839.094        1642.710          46.000  
  20219908.026   106256331.135        -625.972          35.000  
  23105109.374   121418168.9863      -4022.977          30.000  
  20902495.609   109843352.414       -3764.642          45.000  
  18369387.342    96531762.666       -1067.429          45.000  
  21850861.760   114827172.6562      -2420.282          32.000  
  23432620.956                       -3447.391          20.000  
 23 10 29 17 06 27.9940000  0 10G25G32G23G12G19G13G15G24G17G22
  21188233.214   111344940.898        3327.551          41.000  
  22390581.937   117663277.067        3080.120          34.000  
  22345314.211   117425377.437       -3088.285          42.000  
  18833975.995    98973196.499        1642.731          46.000  
  20220026.916   106256957.209        -625.913          35.000  
  23105875.925   121422192.0262      -4022.625          30.000  
  20903212.274   109847116.927       -3764.166          45.000  
  18369590.449    96532829.967       -1067.252          46.000  
  21851320.681   114829593.4812      -2420.981          31.000  
  23433276.901                       -3443.001          20.000  
 23 10 29 17 06 28.9940000  0 10G25G32G23G12G19G13G15G24G17G22
  21187599.670   111341613.417        3327.120          40.000  
  22389998.567   117660196.813        3079.842          34.000  
  22345901.806   117428466.002       -3089.132          43.000  
  18833664.055    98971554.037        1641.868          46.000  
  20220145.920   106257583.594        -627.425          35.000  
  23106642.447   121426214.7012      -4022.855          30.000  
  20903928.440   109850881.310       -3764.920          45.000  
  18369793.598    96533897.375       -1068.048          46.000  
  21851780.387   114832014.3332      -2421.402          31.000  
  23433929.860                       -3440.986          21.000  
 23 10 29 17 06 29.9940000  0 10G25G32G23G12G19G13G15G24G17G22
  21186966.563   111338286.687        3326.281          40.000  
  22389404.348   117657117.317        3078.953          29.000  
  22346489.669   117431555.311       -3089.660          42.000  
  18833351.971    98969912.621        1640.954          47.000  
  20220265.048   106258211.185        -628.212          36.000  
  23107405.931   121430237.9362      -4023.284          30.000  
  20904644.981   109854646.481       -3765.589          45.000  
  18369996.928    96534965.784       -1068.862          45.000  
  21852241.897   114834436.1352      -2421.934          30.000  
  23434583.940                       -3439.388          20.000  
 23 10 29 17 06 30.9940000  0 10G25G32G23G12G19G13G15G24G17G22
  21186333.952   111334960.650        3325.432          41.000  
  22388818.361   117654038.612        3076.074          31.000  
  22347077.842   117434645.304       -3090.668          42.000  
  18833040.144    98968272.156        1639.761          47.000  
  20220384.862   106258839.910        -629.449          36.000  
  23108176.439   121434261.6932      -4024.827          30.000  
  20905361.812   109858412.334       -3766.410          45.000  
  18370200.406    96536035.124       -1070.187          45.000  
  21852704.675   114836858.8332      -2423.164          31.000  
  23435234.277                       -3447.255          19.000  
 23 10 29 17 06 31.9940000  0 10G25G32G23G12G19G13G15G24G17G22
  21185701.305   111331635.037        3325.909          42.000  
  22388230.044   117650960.176        3078.147          32.000  
  22347666.021   117437735.743       -3090.423          42.000  
  18832728.359    98966632.413        1639.820          47.000  
  20220504.343   106259469.545        -629.142          34.000  
  23108940.800   121438285.6322      -4024.095          30.000  
  20906078.318   109862178.628       -3766.102          45.000  
  18370404.192    96537105.129       -1070.013          46.000  
  21853160.843   114839282.1722      -2422.356          32.000  
  23435887.711                       -3442.322          20.000  
 23 10 29 17 06 32.9940000  0 10G25G32G23G12G19G13G15G24G17G22
  21185069.158   111328309.448        3325.327          42.000  
  22387641.268   117647882.020        3077.323          31.000  
  22348253.779   117440826.244       -3091.091          42.000  
  18832416.275    98964993.001        1638.961          47.000  
  20220623.677   106260099.709        -630.875          34.000  
  23109700.537   121442309.3892      -4024.153          30.000  
  20906794.833   109865945.014       -3766.744          45.000  
  18370608.050    96538175.423       -1070.622          46.000  
  21853614.787   114841705.8972      -2425.667          30.000  
  23436545.813                       -3441.591          22.000  
 23 10 29 17 06 33.9940000  0 10G25G32G23G12G19G13G15G24G17G22
  21184436.570   111324983.619        3326.392          43.000  
  22387052.859   117644803.497        3078.536          32.000  
  22348841.356   117443916.459       -3089.466          43.000  
  18832103.901    98963353.620        1639.902          48.000  
  20220743.547   106260730.075        -629.636          36.000  
  23110473.719   121446332.7942      -4022.780          31.000  
  20907511.186   109869711.141       -3765.427          46.000  
  18370811.369    96539245.717       -1069.662          47.000  
  21854076.624   114844129.4072      -2422.706          31.000  
  23437198.927                       -3443.580          21.000  
 23 10 29 17 06 34.9940000  0 10G25G32G23G12G19G13G15G24G17G22
  21183803.831   111321657.181        3325.962          44.000  
  22386468.081   117641724.380        3079.133          32.000  
  22349428.779   117447006.130       -3090.223          43.000  
  18831791.659    98961713.924        1639.205          48.000  
  20220862.980   106261360.278        -630.805          35.000  
  23111243.516   121450355.3352      -4022.956          32.000  
  20908227.836   109873476.706       -3766.033          46.000  
  18371014.934    96540315.649       -1070.394          47.000  
  21854536.671   114846552.6492      -2423.482          32.000  
  23437854.811                       -3443.580          20.000  
 23 10 29 17 06 35.9940000  0 10G25G32G23G12G19G13G15G24G17G22
  21183171.309   111318331.506        3325.161          44.000  
  22385883.245   117638646.134        3077.306          32.000  
  22350016.842   117450096.540       -3090.841          43.000  
  18831479.032    98960075.274        1638.231          48.000  
  20220982.684   106261991.684        -631.389          36.000  
  23112009.351   121454378.4372      -4022.901          33.000  
  20908944.525   109877243.041       -3766.711          46.000  
  18371218.537    96541386.581       -1071.391          47.000  
  21854995.289   114848976.8242      -2425.295          31.000  
  23438509.964                       -3444.786          19.000  
 23 10 29 17 06 36.9940000  0 10G25G32G23G12G19G13G15G24G17G22
  21182539.105   111315006.543        3324.440          44.000  
  22385298.417   117635568.515        3077.711          33.000  
  22350605.194   117453187.662       -3091.326          43.000  
  18831167.208    98958437.621        1637.353          48.000  
  20221103.023   106262624.305        -632.759          36.000  
  23112772.011   121458401.5771      -4023.622          33.000  
  20909661.066   109881010.101       -3767.414          46.000  
  18371422.694    96542458.490       -1072.280          47.000  
  21855466.161   114851401.9602      -2425.985          32.000  
  23439167.922                       -3442.760          20.000  
 23 10 29 17 06 37.9940000  0 10G25G32G23G12G19G13G15G24G17G22
  21181906.886   111311681.510        3325.530          44.000  
  22384713.813   117632490.937        3077.709          33.000  
  22351193.246   117456278.766       -3090.649          43.000  
  18830855.366    98956800.210        1637.646          48.000  
  20221223.401   106263257.307        -632.593          36.000  
  23113532.775   121462425.000       -4023.083          32.000  
  20910378.045   109884777.145       -3766.688          46.000  
  18371626.488    96543530.592       -1071.769          47.000  
  21855927.226   114853827.1792      -2424.315          31.000  
  23439825.582                       -3440.584          21.000  
 23 10 29 17 06 38.9940000  0 10G25G32G23G12G19G13G15G24G17G22
  21181274.900   111308356.788        3324.097          45.000  
  22384128.489   117629413.657        3076.500          33.000  
  22351781.506   117459370.176       -3091.998          43.000  
  18830543.594    98955163.365        1636.230          47.000  
  20221344.307   106263891.091        -634.449          37.000  
  23114297.249   121466448.489       -4023.786          32.000  
  20911095.321   109888544.498       -3767.808          47.000  
  18371830.518    96544603.230       -1073.251          47.000  
  21856390.034   114856253.0132      -2427.186          33.000  
  23440487.528                       -3444.233          25.000  
 23 10 29 17 06 39.9940000  0 10G25G32G23G12G19G13G15G24G17G22
  21180643.019   111305033.036        3323.272          45.000  
  22383543.946   117626337.325        3076.673          33.000  
  22352370.111   117462462.548       -3092.950          43.000  
  18830232.153    98953527.794        1635.022          48.000  
  20221466.186   106264526.297        -635.999          38.000  
  23115062.047   121470472.786       -4024.850          31.000  
  20911812.182   109892312.842       -3768.659          47.000  
  18372034.518    96545677.093       -1074.366          47.000  
  21856855.340   114858679.9352      -2427.756          33.000  
  23441144.491                       -3444.425          25.000  
 23 10 29 17 06 40.9940000  0 10G25G32G23G12G19G13G15G24G17G22
  21180011.003   111301709.794        3323.208          45.000  
  22382972.889   117623261.656        3075.645          32.000  
  22352958.805   117465555.420       -3092.613          43.000  
  18829920.394    98951893.019        1634.865          47.000  
  20221587.925   106265162.473        -636.371          38.000  
  23115825.443   121474497.377       -4024.528          31.000  
  20912529.655   109896081.733       -3768.804          47.000  
  18372239.085    96546751.734       -1074.857          47.000  
  21857316.916   114861107.6512      -2427.470          33.000  
  23441797.334                       -3444.434          26.000  
 23 10 29 17 06 41.9940000  0 10G25G32G23G12G19G13G15G24G17G22
  21179378.537   111298386.736        3322.822          45.000  
  22382375.510   117620186.221        3075.293          32.000  
  22353547.492   117468648.509       -3093.234          42.000  
  18829609.723    98950258.722        1633.916          48.000  
  20221709.660   106265799.291        -637.115          39.000  
  23116589.220   121478521.954       -4024.175          30.000  
  20913246.636   109899850.816       -3769.198          46.000  
  18372443.599    96547826.790       -1075.561          47.000  
  21857779.959   114863535.7412      -2428.259          34.000  
  23442456.117   123190921.5963      -3445.329          27.000  
 23 10 29 17 06 42.9940000  0 10G25G32G23G12G19G13G15G24G17G22
  21178746.187   111295064.099        3322.409          45.000  
  22381793.346   117617111.099        3073.371          31.000  
  22354136.433   117471742.025       -3093.695          42.000  
  18829298.501    98948625.108        1633.313          47.000  
  20221832.095   106266436.975        -638.242          39.000  
  23117353.175   121482546.818       -4025.710          29.000  
  20913963.410   109903620.317       -3769.725          46.000  
  18372648.419    96548902.509       -1076.110          47.000  
  21858242.859   114865963.9581      -2428.566          34.000  
  23443114.184   123194366.8812      -3445.369          27.000  
 23 10 29 17 06 43.9940000  0 10G25G32G23G12G19G13G15G24G17G22
  21178113.196   111291741.829        3322.163          45.000  
  22381201.282   117614036.380        3075.387          29.000  
  22354725.245   117474835.921       -3094.226          42.000  
  18828987.597    98946992.171        1632.683          48.000  
  20221954.531   106267075.506        -638.877          39.000  
  23118111.147   121486571.739       -4024.023          29.000  
  20914680.643   109907390.216       -3769.964          46.000  
  18372852.623    96549978.843       -1076.564          46.000  
  21858706.202   114868393.247       -2429.732          33.000  
  23443766.550   123197812.3932      -3445.163          27.000  
 23 10 29 17 06 44.9940000  0 10G25G32G23G12G19G13G15G24G17G22
  21177480.933   111288419.902        3321.848          45.000  
  22380595.312   117610962.110        3074.671          27.000  
  22355314.853   117477930.154       -3094.306          43.000  
  18828677.265    98945359.869        1632.055          48.000  
  20222077.110   106267714.870        -639.820          40.000  
  23118866.656   121490596.889       -4024.420          28.000  
  20915398.065   109911160.501       -3770.319          46.000  
  18373057.304    96551055.791       -1077.163          47.000  
  21859169.928   114870823.145       -2430.857          32.000  
  23444416.767   123201258.0212      -3445.786          27.000  
 23 10 29 17 06 45.9940000  0 10G25G32G23G12G19G13G15G24G17G22
  21176848.652   111285098.049        3322.007          45.000  
  22380015.900   117607887.798        3074.249          28.000  
  22355904.061   117481024.502       -3094.521          43.000  
  18828366.703    98943727.930        1631.596          48.000  
  20222199.174   106268354.756        -640.027          39.000  
  23119615.655   121494621.957       -4024.712          27.000  
  20916116.377   109914930.871       -3770.702          47.000  
  18373262.601    96552133.047       -1077.500          47.000  
  21859633.694   114873253.320       -2430.767          30.000  
  23445066.373   123204703.5642      -3446.422          26.000  
 23 10 29 17 06 46.9940000  0 10G25G32G23G12G19G13G15G24G17G22
  21176216.021   111281776.329        3321.544          44.000  
  22379445.987   117604813.721        3073.687          28.000  
  22356492.858   117484118.935       -3094.591          43.000  
  18828056.368    98942096.405        1631.242          48.000  
  20222321.967   106268995.212        -640.455          39.000  
  23120375.876                       -4022.846          25.000  
  20916834.287   109918701.376       -3770.585          47.000  
  18373467.885    96553210.680       -1077.723          47.000  
  21860100.280   114875683.851       -2430.960          29.000  
  23445720.398   123208091.6493      -3444.738          26.000  
 23 10 29 17 06 47.9940000  0 11G10G25G32G23G12G19G13G15G24G17G22
  21748792.312                       -1366.845          31.000  
  21175583.538   111278455.052        3320.977          44.000  
  22378853.148   117601740.169        3073.473          32.000  
  22357081.962   117487213.868       -3095.337          43.000  
  18827745.510    98940465.615        1630.457          47.000  
  20222444.216   106269636.583        -641.520          39.000  
  23121143.127                       -4024.854          25.000  
  20917552.560   109922472.359       -3771.215          47.000  
  18373673.924    96554289.028       -1078.729          47.000  
  21860563.585   114878115.026       -2431.690          29.000  
  23446368.305   123211537.2372      -3445.165          26.000  
 23 10 29 17 06 48.9940000  0 11G10G25G32G23G12G19G13G15G24G17G22
  21749058.825   114292074.8663      -1361.814          34.000  
  21174951.255   111275133.461        3321.464          44.000  
  22378266.147   117598666.225        3074.711          32.000  
  22357671.245   117490308.462       -3094.673          44.000  
  18827435.029    98938834.803        1630.650          47.000  
  20222566.220   106270278.136        -642.023          39.000  
  23121916.265                       -4026.667          25.000  
  20918271.324   109926243.056       -3770.729          48.000  
  18373879.641    96555367.307       -1078.416          48.000  
  21861032.660   114880546.171       -2431.760          27.000  
  23447022.601   123214982.1892      -3444.171          27.000  
 23 10 29 17 06 49.9940000  0 11G10G25G32G23G12G19G13G15G24G17G22
  21749320.214   114293436.9862      -1363.074          34.000  
  21174319.215   111271812.253        3320.625          43.000  
  22377679.813   117595592.873        3072.869          33.000  
  22358260.969   117493403.485       -3095.327          42.000  
  18827124.200    98937204.667        1629.458          47.000  
  20222688.417   106270920.490        -642.862          39.000  
  23122685.798                       -4013.899          25.000  
  20918989.280   109930014.166       -3771.518          47.000  
  18374084.716    96556446.216       -1079.586          47.000  
  21861499.218                       -2431.741          23.000  
  23447672.142   123218427.2572      -3445.232          26.000  
 23 10 29 17 06 50.9940000  0 11G10G25G32G23G12G19G13G15G24G17G22
  21749581.723   114294800.0232      -1363.782          36.000  
  21173686.466   111268491.542        3320.321          42.000  
  22377108.028   117592519.859        3072.604          36.000  
  22358850.782   117496499.009       -3095.984          40.000  
  18826813.123    98935575.339        1628.946          46.000  
  20222810.446   106271563.826        -643.872          38.000  
  23123459.061                       -4026.483          26.000  
  20919706.785   109933785.794       -3771.914          47.000  
  18374289.767    96557525.880       -1080.308          47.000  
  21861977.799                       -2432.902          22.000  
  23448319.707                       -3442.330          23.000  
 23 10 29 17 06 51.9940000  0 11G10G25G32G23G12G19G13G15G24G17G22
  21749847.571   114296163.7772      -1364.073          35.000  
  21173054.399   111265171.323        3319.905          41.000  
  22376524.467   117589447.414        3071.904          33.000  
  22359440.684   117499594.963       -3096.247          38.000  
  18826503.301    98933946.714        1628.307          45.000  
  20222932.585   106272208.081        -644.956          36.000  
  23124224.589                       -4024.408          25.000  
  20920425.171   109937557.885       -3772.123          46.000  
  18374495.402    96558606.241       -1080.809          45.000  
  21862428.331                       -2433.804          20.000  
  23448974.657                       -3445.497          24.000  
 23 10 29 17 06 52.9940000  0 11G10G25G32G23G12G19G13G15G24G17G22
  21750107.716   114297527.9432      -1363.668          34.000  
  21172422.902   111261851.167        3320.094          42.000  
  22375938.488   117586375.048        3072.162          32.000  
  22360029.882   117502691.000       -3096.279          42.000  
  18826193.043    98932318.438        1628.035          45.000  
  20223055.107   106272852.859        -645.114          36.000  
  23124987.706                       -4019.160          23.000  
  20921143.344   109941330.062       -3772.460          46.000  
  18374701.051    96559686.900       -1080.907          45.000  
  21862885.812                       -2433.099          18.000  
  23449626.379                       -3445.542          22.000  
 23 10 29 17 06 53.9940000  0 11G10G25G32G23G12G19G13G15G24G17G22
  21750370.325   114298892.9972      -1364.555          33.000  
  21171791.540   111258531.526        3319.735          42.000  
  22375340.031   117583303.250        3072.936          31.000  
  22360619.379   117505787.585       -3096.543          42.000  
  18825883.679    98930691.032        1627.443          45.000  
  20223177.793   106273498.565        -645.739          37.000  
  23125749.725                       -4010.536          21.000  
  20921861.036   109945102.817       -3772.592          46.000  
  18374906.547    96560768.350       -1081.307          45.000  
  21863342.138                       -2436.185          18.000  
  23450284.551                       -3444.670          22.000  
 23 10 29 17 06 54.9940000  0 11G10G25G32G23G12G19G13G15G24G17G22
  21750628.239   114300258.9722      -1366.370          33.000  
  21171160.124   111255212.483        3319.093          42.000  
  22374748.872   117580232.084        3070.714          30.000  
  22361208.851   117508884.748       -3097.420          42.000  
  18825574.127    98929064.473        1626.451          45.000  
  20223300.649   106274145.409        -647.366          36.000  
  23126517.907                       -4023.552          21.000  
  20922579.017   109948876.154       -3773.184          46.000  
  18375112.291    96561850.647       -1082.083          45.000  
  21863797.848                       -2437.960          20.000  
  23450949.511                       -3445.304          25.000  
 23 10 29 17 06 55.9940000  0 11G10G25G32G23G12G19G13G15G24G17G22
  21750883.919   114301625.4462      -1366.690          33.000  
  21170528.271   111251893.519        3318.303          42.000  
  22374158.023   117577160.957        3071.041          28.000  
  22361798.370   117511982.010       -3098.081          42.000  
  18825264.676    98927438.272        1625.446          45.000  
  20223423.944   106274792.804        -648.320          37.000  
  23127286.506                       -4028.575          23.000  
  20923297.355   109952649.576       -3773.873          46.000  
  18375317.711    96562933.292       -1083.458          45.000  
  21864257.591   114897448.9433      -2436.034          26.000  
  23451607.421                       -3445.298          25.000  
 23 10 29 17 06 56.9940000  0 11G10G25G32G23G12G19G13G15G24G17G22
  21751144.117   114302991.7842      -1365.783          31.000  
  21169896.649   111248574.119        3319.366          42.000  
  22373582.218   117574089.380        3072.093          30.000  
  22362387.805   117515078.861       -3096.872          42.000  
  18824955.497    98925811.957        1625.981          45.000  
  20223547.975   106275440.219        -647.889          39.000  
  23128053.721                       -4018.614          23.000  
  20924015.059   109956422.645       -3773.117          46.000  
  18375523.333    96564015.741       -1082.785          45.000  
  21864712.977   114899884.0692      -2436.058          28.000  
  23452262.596                       -3445.473          24.000  
 23 10 29 17 06 57.9940000  0 11G10G25G32G23G12G19G13G15G24G17G22
  21751404.632   114304358.8532      -1367.670          33.000  
  21169265.348   111245255.122        3318.671          42.000  
  22372998.666   117571018.357        3070.290          30.000  
  22362977.040   117518176.109       -3097.451          41.000  
  18824646.581    98924186.301        1625.226          45.000  
  20223672.299   106276088.480        -649.085          39.000  
  23128824.054                       -4029.292          23.000  
  20924733.314   109960196.099       -3773.906          46.000  
  18375729.335    96565098.843       -1083.625          45.000  
  21865161.711                       -2435.420          27.000  
  23452921.004                       -3445.898          25.000  
 23 10 29 17 06 58.9940000  0 11G10G25G32G23G12G19G13G15G24G17G22
  21751665.770   114305726.8852      -1369.057          32.000  
  21168634.161   111241936.716        3318.133          42.000  
  22372416.773   117567947.944        3069.579          31.000  
  22363566.339   117521273.960       -3098.194          42.000  
  18824338.039    98922561.508        1624.381          45.000  
  20223796.582   106276737.750        -649.856          39.000  
  23129593.312                       -4026.228          24.000  
  20925451.430   109963970.147       -3774.228          46.000  
  18375935.953    96566182.754       -1084.230          45.000  
  21865616.313                       -2433.455          24.000  
  23453580.491   123249377.3483      -3446.342          25.000  
 23 10 29 17 06 59.9940000  0 11G10G25G32G23G12G19G13G15G24G17G22
  21751922.053   114307095.7202      -1369.494          31.000  
  21168002.749   111238618.803        3317.488          42.000  
  22371842.270   117564877.969        3069.231          32.000  
  22364155.340   117524372.302       -3098.420          40.000  
  18824029.129    98920937.537        1623.674          45.000  
  20223921.231   106277388.032        -650.592          39.000  
  23130361.305                       -4022.235          24.000  
  20926169.135   109967744.750       -3774.981          46.000  
  18376142.781    96567267.452       -1085.038          46.000  
  21866077.043                       -2437.569          23.000  
  23454237.352   123252823.3112      -3446.297          25.000  
 23 10 29 17 07 00.9940000  0 11G10G25G32G23G12G19G13G15G24G17G22
  21752174.895   114308464.6982      -1369.704          30.000  
  21167371.454   111235300.707        3318.499          42.000  
  22371268.466   117561807.867        3069.833          34.000  
  22364744.747   117527470.494       -3098.281          41.000  
  18823721.025    98919313.649        1623.752          46.000  
  20224045.152   106278038.536        -650.511          37.000  
  23131123.109                       -4022.046          23.000  
  20926887.321   109971519.142       -3774.416          46.000  
  18376349.270    96568352.179       -1084.681          46.000  
  21866542.071                       -2432.023          23.000  
  23454893.300                       -3445.917          24.000  
 23 10 29 17 07 01.9940000  0 11G10G25G32G23G12G19G13G15G24G17G22
  21752430.903                       -1369.727          28.000  
  21166740.154   111231982.727        3317.637          42.000  
  22370683.386   117558737.875        3069.326          33.000  
  22365334.227   117530568.757       -3098.391          41.000  
  18823412.660    98917690.156        1623.051          46.000  
  20224170.154   106278689.671        -651.440          39.000  
  23131890.725                       -4038.383          23.000  
  20927605.648   109975293.676       -3775.015          46.000  
  18376555.634    96569437.286       -1085.632          46.000  
  21866998.521                       -2436.287          21.000  
  23455554.028                       -3444.810          25.000  
