     2.11           OBSERVATION DATA    M (MIXED)           RINEX VERSION / TYPE
teqc  2019Feb25                         20231227 22:03:20UTCPGM / RUN BY / DATE
Linux 2.6.32-573.12.1.x86_64|x86_64|gcc|Linux 64|=+         COMMENT
teqc  2019Feb25                         20231227 22:03:20UTCCOMMENT
teqc  2019Feb25     IGN-RGP             20231227 11:02:19UTCCOMMENT
teqc  2019Feb25     Administrateur RGP  20231227 11:02:19UTCCOMMENT
teqc  2019Feb25     IGN-RGP             20231227 11:02:16UTCCOMMENT
teqc  2019Feb25     IGN-RGP             20231227 11:02:15UTCCOMMENT
BIT 2 OF LLI FLAGS DATA COLLECTED UNDER A/S CONDITION       COMMENT
IGNF                                                        MARKER NAME
10001M009                                                   MARKER NUMBER
Automatic           IGN                                     OBSERVER / AGENCY
1834194             LEICA GR50          4.51                REC # / TYPE / VERS
5000113963          TRM57971.00     NONE                    ANT # / TYPE
  4201694.1440   177888.8370  4779371.7670                  APPROX POSITION XYZ
        0.0000        0.0000        0.0000                  ANTENNA: DELTA H/E/N
     1     1                                                WAVELENGTH FACT L1/2
    21    L1    L2    C1    P1    P2    D1    D2    S1    S2# / TYPES OF OBSERV
          L5    C5    D5    S5    L7    C7    D7    S7    L8# / TYPES OF OBSERV
          C8    D8    S8                                    # / TYPES OF OBSERV
    30.0000                                                 INTERVAL
DefaultJobName                                              COMMENT
DefaultUserDiscription                                      COMMENT
Project creator:                                            COMMENT
 SNR is mapped to RINEX snr flag value [0-9]                COMMENT
  L1 & L2: min(max(int(snr_dBHz/6), 0), 9)                  COMMENT
    18                                                      LEAP SECONDS
Forced Modulo Decimation to 30 seconds                      COMMENT
teqc_2019 edited: all GLONASS satellites excluded           COMMENT
teqc_2019 edited: all SBAS satellites excluded              COMMENT
  2023    12    27    10     0    0.0000000     GPS         TIME OF FIRST OBS
                                                            END OF HEADER
 23 12 27 10  0  0.0000000  0 20G05G07G08G13G14G15G17G18G20G22G23G24
                                G30E04E09E19E21E31E34E36
 113817451.017 8  88688903.98548  21658747.660                    21658746.740
     -2559.453       -1994.382          49.900          50.050



 131352994.135 6 102352958.12446  24995659.940                    24995663.420
     -3001.299       -2338.684          40.300          40.050



 132329367.402 6 103113812.82346  25181436.800                    25181441.260
     -1292.014       -1006.762          37.500          37.950    98817403.522 7
  25181440.620        -964.610          43.200


 104595776.501 8  81503204.50348  19903913.300                    19903910.480
       -69.285         -53.989          49.600          49.700



 111305869.988 8  86731859.02448  21180788.960                    21180788.720
      -228.882        -178.350          49.200          48.300    83118055.842 9
  21180794.520        -170.891          54.850


 109562802.611 8  85373592.50948  20849111.640                    20849110.380
      2170.100        1690.985          51.150          48.750



 131940237.099 6 102810588.66846  25107392.500                    25107398.640
      2801.097        2182.683          39.500          39.000



 129044618.102 7 100554233.85546  24556385.360                    24556385.920
     -1433.299       -1116.857          42.400          36.950    96364479.764 7
  24556391.780       -1070.198          43.150


 125481684.127 7  97777887.54746  23878384.760                    23878385.900
     -3767.971       -2936.084          42.050          38.150



 111378184.796 8  86788215.47548  21194549.820                    21194548.720
       930.086         724.743          50.100          48.200



 127363499.322 6  99244270.91646  24236477.860                    24236478.260
      3162.959        2464.645          41.350          40.700    95109108.360 7
  24236483.480        2361.917          46.800


 122308973.587 7  95305727.17746  23274618.760                    23274622.700
      3361.385        2619.261          43.400          41.800    91334655.935 8
  23274624.420        2510.035          49.100


 117846755.913 7  91828637.11247  22425496.900                    22425499.520
     -2587.556       -2016.279          45.750          45.800    88002445.325 8
  22425499.620       -1932.252          51.900


 123621482.370 8                  23524383.380
      -725.408                          51.750                    92314759.769 9
  23524386.080        -541.672          54.100    94722962.748 9  23524383.780
      -555.878          54.800    93518860.910 9  23524385.180        -548.793
        57.000
 128475270.336 8                  24448031.700
      1708.162                          51.000                    95939344.295 8
  24448036.080        1275.550          52.250    98442099.096 8  24448034.000
      1308.824          53.150    97190715.846 9  24448035.320        1292.197
        55.250
 145260876.365 6                  27642241.960
     -2593.481                          39.500                   108474013.491 6
  27642251.120       -1936.792          41.250   111303775.606 6  27642248.040
     -1987.221          40.300   109888895.202 7  27642249.480       -1962.072
        43.550
 139170894.516 8                  26483343.340
     -2198.931                          48.000                   103926330.397 7
  26483348.480       -1642.101          45.750   106637441.765 7  26483346.780
     -1684.943          46.050   105281891.236 8  26483347.380       -1663.552
        48.450
 134387570.850 8                  25573092.060
      2833.642                          48.050                   100354412.649 7
  25573098.160        2115.989          47.900   102972339.039 8  25573097.080
      2171.246          48.400   101663379.991 8  25573098.060        2143.643
        50.800
 145479754.746 7                  27683887.060
      -103.801                          44.850                   108637484.325 7
  27683893.540         -77.488          43.550   111471496.484 7  27683889.840
       -79.533          42.650   110054486.554 7  27683892.560         -78.429
        45.850
 145129659.959 7                  27617271.320
     -2249.606                          43.900                   108376098.703 7
  27617278.600       -1679.876          42.600   111203284.465 7  27617273.900
     -1723.785          42.000   109789693.232 7  27617277.940       -1701.783
        45.050
 23 12 27 10  0 30.0000000  0 20G05G07G08G13G14G15G17G18G20G22G23G24
                                G30E04E09E19E21E31E34E36
 113894465.335 8  88748915.09348  21673402.960                    21673401.900
     -2574.420       -2006.043          50.300          50.300



 131443045.371 6 102423127.64846  25012796.100                    25012799.860
     -3001.768       -2339.050          40.600          40.850



 132368386.484 5 103144217.30746  25188861.640                    25188866.100
     -1308.938       -1019.948          35.650          36.350    98846541.203 7
  25188865.880        -977.680          42.700


 104598068.653 8  81504990.56948  19904349.520                    19904346.820
       -83.263         -64.882          50.000          49.850



 111313031.064 8  86737439.07948  21182151.480                    21182151.500
      -248.160        -193.371          48.650          48.550    83123403.405 9
  21182156.860        -185.374          54.350


 109497903.089 8  85323021.45148  20836761.660                    20836760.380
      2156.993        1680.774          50.850          49.000



 131856233.521 6 102745131.68946  25091407.100                    25091413.200
      2799.522        2181.458          41.000          41.150



 129087855.320 7 100587925.10646  24564613.340                    24564613.520
     -1448.895       -1129.012          43.650          36.950    96396767.222 7
  24564620.640       -1081.983          43.100


 125594771.492 6  97866007.42846  23899904.780                    23899905.800
     -3771.028       -2938.472          41.050          38.850



 111350570.822 8  86766698.11848  21189294.980                    21189294.100
       911.388         710.174          50.300          48.350



 127268764.830 7  99170451.83146  24218450.300                    24218450.780
      3153.008        2456.890          42.900          40.200    95038365.054 7
  24218456.060        2354.509          46.300


 122208229.649 7  95227225.43647  23255447.920                    23255451.780
      3355.564        2614.728          43.650          42.850    91259425.122 8
  23255453.640        2505.581          48.950


 117924484.453 7  91889204.76147  22440288.240                    22440290.820
     -2593.936       -2021.250          47.250          46.950    88060489.308 8
  22440290.720       -1937.001          51.700


 123643375.699 8                  23528549.600
      -733.861                          52.200                    92331108.662 8
  23528552.340        -548.053          53.850    94739738.129 9  23528549.920
      -562.325          54.800    93535423.048 9  23528551.360        -555.200
        57.000
 128424111.898 8                  24438296.600
      1702.735                          51.400                    95901141.562 8
  24438301.180        1271.513          51.900    98402899.777 8  24438298.980
      1304.684          53.150    97152014.822 9  24438300.260        1288.085
        55.200
 145338735.024 6                  27657058.280
     -2596.592                          38.650                   108532154.489 6
  27657067.400       -1939.030          40.950   111363433.367 6  27657063.940
     -1989.638          39.800   109947794.584 7  27657065.680       -1964.320
        43.250
 139237002.276 8                  26495923.440
     -2207.925                          48.250                   103975696.495 7
  26495928.840       -1648.702          46.250   106688095.677 7  26495926.640
     -1691.721          45.900   105331901.240 8  26495927.260       -1670.187
        48.800
 134302664.312 8                  25556934.800
      2827.046                          48.400                   100291008.475 7
  25556940.900        2111.058          47.500   102907280.827 8  25556939.660
      2166.219          48.350   101599148.802 8  25556940.820        2138.600
        50.700
 145483094.716 7                  27684522.820
      -118.565                          45.550                   108639978.410 7
  27684528.540         -88.525          43.050   111474055.645 7  27684525.140
       -90.833          42.700   110057013.183 7  27684528.280         -89.769
        45.800
 145197280.515 7                  27630139.260
     -2258.086                          43.600                   108426594.459 7
  27630146.100       -1686.077          42.600   111255097.521 7  27630141.800
     -1730.301          42.500   109840847.642 7  27630145.860       -1708.125
        45.500
 23 12 27 10  1  0.0000000  0 20G05G07G08G13G14G15G17G18G20G22G23G24
                                G30E04E09E19E21E31E34E36
 113971935.155 8  88809281.12748  21688144.980                    21688143.820
     -2590.304       -2018.421          50.100          50.050



 131533122.268 6 102493317.18646  25029937.440                    25029941.220
     -3003.434       -2340.346          41.650          41.700



 132407933.440 6 103175033.18446  25196387.100                    25196391.600
     -1327.433       -1034.363          38.300          38.200    98876073.091 7
  25196391.640        -991.308          44.000


 104600785.963 8  81507107.93548  19904866.700                    19904864.000
       -97.990         -76.357          50.000          49.850



 111320779.117 8  86743476.51548  21183625.720                    21183625.980
      -268.323        -209.084          48.650          48.400    83129189.287 9
  21183630.920        -200.491          54.150


 109433402.426 8  85272761.18848  20824487.540                    20824486.260
      2143.096        1669.944          50.350          49.350



 131772292.072 6 102679723.09146  25075433.640                    25075439.440
      2796.826        2179.359          38.900          39.200



 129131567.265 7 100621986.30645  24572931.820                    24572931.380
     -1465.351       -1141.831          44.750          35.550    96429409.169 7
  24572939.520       -1094.147          43.550


 125707945.610 6  97954194.92946  23921441.240                    23921442.180
     -3774.288       -2941.007          41.650          37.050



 111323523.176 8  86745622.04848  21184147.980                    21184147.240
       891.764         694.882          50.550          48.250



 127174335.991 7  99096870.91846  24200480.940                    24200481.620
      3142.266        2448.521          42.100          40.950    94967850.018 7
  24200486.780        2346.346          46.200


 122107673.967 7  95148870.38847  23236312.960                    23236316.740
      3348.401        2609.146          43.250          42.550    91184334.865 8
  23236318.460        2500.339          48.300


 118002409.877 7  91949925.83747  22455117.180                    22455119.620
     -2601.010       -2026.763          47.500          47.850    88118680.330 8
  22455119.740       -1942.417          51.900


 123665529.300 8                  23532765.340
      -743.193                          52.000                    92347651.909 8
  23532768.080        -554.952          53.900    94756712.946 9  23532765.600
      -569.435          54.900    93552182.079 9  23532767.080        -562.185
        57.300
 128373123.054 8                  24428593.860
      1696.456                          51.800                    95863065.471 8
  24428598.460        1266.793          51.850    98363830.401 8  24428596.180
      1299.870          53.200    97113442.086 9  24428597.480        1283.313
        55.400
 145416688.025 6                  27671892.560
     -2600.318                          38.850                   108590365.940 6
  27671901.560       -1941.826          41.050   111423163.414 6  27671897.900
     -1992.506          39.900   110006765.331 7  27671899.900       -1967.201
        43.600
 139303382.176 7                  26508555.280
     -2217.497                          47.850                   104025265.819 7
  26508560.940       -1655.947          46.600   106738958.133 7  26508558.180
     -1699.184          45.700   105382117.128 8  26508559.020       -1677.574
        49.050
 134217964.415 8                  25540816.980
      2819.545                          48.400                   100227758.583 7
  25540822.940        2105.461          47.700   102842380.944 8  25540821.680
      2160.366          48.600   101535073.916 8  25540822.880        2132.902
        51.050
 145486886.605 7                  27685244.480
      -134.345                          44.900                   108642809.939 7
  27685249.680        -100.253          42.600   111476961.050 7  27685246.680
      -102.978          42.950   110059881.643 7  27685249.900        -101.531
        45.900
 145265154.469 7                  27643055.420
     -2267.054                          43.150                   108477279.448 7
  27643062.100       -1692.910          42.800   111307104.742 7  27643058.180
     -1737.148          43.100   109892193.756 7  27643061.960       -1715.005
        45.950
 23 12 27 10  1 30.0000000  0 20G05G07G08G13G14G15G17G18G20G22G23G24
                                G30E04E09E19E21E31E34E36
 114049858.192 8  88870000.31948  21702973.300                    21702971.920
     -2605.528       -2030.283          50.800          50.850



 131623224.197 7 102563526.26847  25047083.720                    25047087.540
     -3004.300       -2341.020          42.450          42.250



 132448007.061 6 103206259.49746  25204013.000                    25204017.280
     -1345.094       -1048.119          38.700          37.650    98905998.300 6
  25204017.360       -1004.258          41.600


 104603929.184 8  81509557.17648  19905464.880                    19905462.260
      -112.486         -87.652          50.150          50.000



 111329114.076 8  86749971.28348  21185211.680                    21185212.120
      -288.013        -224.426          48.850          48.150    83135413.441 9
  21185216.700        -215.111          54.100


 109369303.214 8  85222813.74648  20812289.700                    20812288.600
      2129.475        1659.331          50.400          49.250



 131688416.428 6 102614365.79046  25059472.620                    25059478.280
      2794.412        2177.476          41.500          41.800



 129175752.126 7 100656415.99845  24581340.320                    24581339.540
     -1481.160       -1154.153          44.600          34.350    96462404.267 7
  24581348.060       -1105.984          43.900


 125821204.194 7  98042448.22246  23942993.660                    23942994.840
     -3777.196       -2943.272          43.000          39.550



 111297043.071 8  86724988.22247  21179109.000                    21179108.280
       872.765         680.077          51.000          47.550



 127080215.926 7  99023530.60946  24182570.400                    24182570.960
      3131.587        2440.200          42.800          39.850    94897565.550 7
  24182576.320        2338.679          46.450


 122007308.065 7  95070663.21047  23217214.160                    23217217.740
      3341.959        2604.124          43.550          42.900    91109386.330 8
  23217219.460        2495.594          48.200


 118080531.242 7  92010799.58547  22469983.360                    22469985.620
     -2607.562       -2031.869          47.950          47.750    88177017.648 8
  22469985.860       -1947.264          51.750


 123687943.758 8                  23537030.720
      -751.879                          52.400                    92364389.963 9
  23537033.420        -561.487          54.150    94773887.650 9  23537030.960
      -576.126          54.800    93569138.457 9  23537032.440        -568.800
        57.350
 128322305.066 8                  24418923.640
      1690.652                          52.300                    95825116.958 8
  24418928.220        1262.492          52.000    98324891.935 8  24418925.860
      1295.421          53.100    97074998.597 9  24418927.200        1278.966
        55.400
 145494735.615 6                  27686744.680
     -2603.440                          38.650                   108648648.021 6
  27686753.680       -1944.350          41.100   111482965.895 6  27686749.900
     -1994.766          39.950   110065807.609 7  27686752.120       -1969.456
        43.600
 139370032.944 7                  26521238.440
     -2226.614                          47.750                   104075037.400 7
  26521244.400       -1662.815          46.800   106790028.120 7  26521241.140
     -1706.019          45.600   105432537.908 8  26521242.420       -1684.367
        49.250
 134133472.956 8                  25524738.680
      2812.404                          48.250                   100164664.365 8
  25524744.940        2100.256          48.050   102777640.782 8  25524743.280
      2154.986          48.400   101471156.722 8  25524744.660        2127.650
        51.200
 145491130.498 7                  27686052.060
      -149.402                          44.250                   108645979.027 7
  27686057.200        -111.615          42.850   111480212.806 7  27686054.700
      -114.487          43.650   110063092.069 7  27686057.540        -113.008
        46.200
 145333280.163 7                  27656019.320
     -2275.659                          43.150                   108528152.428 7
  27656025.980       -1699.157          42.800   111359304.857 7  27656022.540
     -1743.586          43.350   109943730.296 7  27656025.940       -1721.364
        46.100
 23 12 27 10  2  0.0000000  0 20G05G07G08G13G14G15G17G18G20G22G23G24
                                G30E04E09E19E21E31E34E36
 114128233.383 8  88931071.83548  21717887.640                    21717886.220
     -2620.095       -2041.635          50.050          50.000



 131713351.700 7 102633755.23147  25064234.860                    25064238.520
     -3004.605       -2341.259          42.750          42.700



 132488607.184 6 103237896.02046  25211738.860                    25211743.200
     -1362.076       -1061.354          38.250          38.150    98936316.729 7
  25211743.440       -1017.141          43.800


 104607500.259 8  81512339.80948  19906144.460                    19906141.960
      -126.015         -98.194          49.850          49.800



 111338036.977 8  86756924.18048  21186909.560                    21186910.100
      -307.034        -239.248          48.600          48.600    83142076.638 8
  21186914.460        -229.399          53.600


 109305608.629 8  85173181.59648  20800168.900                    20800168.100
      2116.572        1649.277          50.000          49.600



 131604610.712 6 102549062.97046  25043524.860                    25043530.340
      2792.336        2175.857          39.600          39.850



 129220409.196 7 100691213.62645  24589838.460                    24589837.740
     -1496.407       -1166.034          42.850          35.350    96495751.977 7
  24589846.280       -1117.421          43.650


 125934545.861 6  98130766.26746  23964561.940                    23964563.360
     -3779.206       -2944.841          41.500          38.450



 111271132.474 8  86704798.17248  21174178.440                    21174177.660
       854.308         665.695          50.500          48.000



 126986408.858 7  98950434.17046  24164719.480                    24164719.880
      3121.529        2432.358          43.050          40.000    94827514.803 7
  24164725.400        2331.165          46.000


 121907134.603 7  94992606.02947  23198151.900                    23198155.400
      3336.105        2599.565          43.150          43.050    91034581.527 7
  23198156.800        2491.102          46.900


 118158848.588 7  92071826.05047  22484886.780                    22484889.040
     -2613.597       -2036.570          47.850          47.600    88235501.340 8
  22484889.460       -1951.813          51.300


 123710620.786 8                  23541346.000
      -760.240                          51.700                    92381324.086 8
  23541348.700        -567.714          53.800    94791263.537 9  23541346.280
      -582.526          54.700    93586293.462 9  23541347.780        -575.106
        57.250
 128271660.340 8                  24409286.400
      1685.263                          51.850                    95787297.826 8
  24409290.920        1258.491          51.750    98286086.221 8  24409288.460
      1291.332          52.950    97036686.176 9  24409289.900        1274.923
        55.350
 145572878.697 6                  27701615.080
     -2606.440                          38.950                   108707001.380 6
  27701623.920       -1946.151          40.950   111542841.574 6  27701619.980
     -1997.033          39.400   110124922.134 7  27701622.480       -1971.653
        43.550
 139436954.378 7                  26533973.120
     -2235.123                          46.950                   104125011.106 7
  26533979.320       -1669.025          46.800   106841305.502 7  26533975.860
     -1712.604          45.900   105483163.459 8  26533977.300       -1690.869
        49.450
 134049192.934 8                  25508700.760
      2805.801                          48.100                   100101728.020 7
  25508707.060        2095.274          47.550   102713062.605 8  25508704.880
      2149.953          48.200   101407399.460 8  25508706.600        2122.619
        51.000
 145495827.653 7                  27686945.720
      -164.085                          44.250                   108649486.591 7
  27686951.340        -122.479          42.350   111483811.879 7  27686949.000
      -125.684          43.650   110066645.385 7  27686951.420        -124.094
        46.100
 145401656.982 7                  27669031.020
     -2283.539                          42.900                   108579212.935 7
  27669037.600       -1705.031          42.250   111411697.381 7  27669034.780
     -1749.637          43.400   109995456.818 7  27669037.680       -1727.426
        45.950
 23 12 27 10  2 30.0000000  0 21G05G07G08G13G14G15G17G18G20G22G23G24
                                G30E04E05E09E19E21E31E34E36
 114207057.615 8  88992493.26948  21732887.420                    21732886.040
     -2635.355       -2053.525          49.900          49.550



 131803503.097 7 102704002.83147  25081390.520                    25081393.980
     -3005.649       -2342.071          42.850          42.800



 132529731.452 6 103269940.96946  25219564.120                    25219568.620
     -1379.891       -1075.236          36.950          36.250    98967026.454 7
  25219569.400       -1030.503          43.550


 104611498.017 8  81515454.92448  19906905.180                    19906902.700
      -140.776        -109.696          49.800          49.550



 111347546.253 8  86764333.98948  21188719.100                    21188719.640
      -327.023        -254.824          48.700          48.400    83149177.701 8
  21188723.840        -244.290          53.550


 109242319.541 8  85123865.43148  20788125.240                    20788124.780
      2102.350        1638.194          49.850          49.550



 131520876.593 6 102483815.90246  25027590.520                    25027596.000
      2789.416        2173.582          39.100          39.050



 129265535.145 7 100726376.63745  24598425.720                    24598424.920
     -1512.498       -1178.574          43.000          35.750    96529449.840 7
  24598433.140       -1129.427          43.550


 126047966.610 6  98219145.93846  23986145.260                    23986146.920
     -3782.110       -2947.104          41.200          38.700



 111245791.190 8  86685051.73547  21169356.180                    21169355.240
       834.810         650.502          50.600          47.350



 126892916.419 6  98877582.91946  24146928.420                    24146928.620
      3110.993        2424.148          41.900          40.900    94757699.043 7
  24146934.340        2322.957          45.550


 121807153.767 7  94914698.93547  23179126.200                    23179129.460
      3329.139        2594.136          42.750          42.900    90959920.572 7
  23179130.760        2485.987          46.650


 118237359.512 8  92133003.34047  22499826.980                    22499829.100
     -2620.573       -2042.007          48.250          47.800    88294129.576 8
  22499829.880       -1956.992          51.300


 123733559.515 8                  23545711.020
      -769.412                          52.050                    92398453.635 8
  23545713.800        -574.588          53.900    94808839.950 9  23545711.300
      -589.565          54.300    93603646.443 9  23545712.940        -582.076
        56.900
 143962640.345 6                  27395179.920
      2704.802                          40.650                   107504595.940 6
  27395186.560        2019.866          39.900   110309052.922 6  27395184.040
      2072.381          40.300   108906823.573 7  27395185.440        2046.290
        43.050
 128221188.743 8                  24399682.120
      1679.133                          52.150                    95749607.998 8
  24399686.520        1253.862          51.900    98247413.182 8  24399683.960
      1286.590          52.700    96998504.745 9  24399685.520        1270.220
        55.150
 145651115.712 6                  27716503.280
     -2609.644                          38.200                   108765424.933 6
  27716512.140       -1948.940          40.650   111602789.242 6  27716508.000
     -1999.770          39.400   110184107.744 7  27716510.720       -1974.387
        43.100
 139504143.798 7                  26546758.740
     -2244.548                          46.950                   104175184.926 7
  26546765.260       -1676.073          47.350   106892788.224 7  26546761.640
     -1719.821          45.700   105533991.727 8  26546763.140       -1697.964
        49.600
 133965124.744 8                  25492702.980
      2798.323                          48.300                   100038949.872 7
  25492709.320        2089.632          47.950   102648646.766 8  25492707.120
      2144.136          48.350   101343802.470 8  25492708.920        2116.885
        51.050
 145500976.732 7                  27687925.420
      -179.721                          43.900                   108653331.605 7
  27687931.760        -134.201          42.950   111487757.206 7  27687929.360
      -137.676          43.650   110070540.554 7  27687931.180        -135.889
        46.100
 145470281.822 7                  27682089.820
     -2291.979                          43.450                   108630458.656 7
  27682096.420       -1711.599          42.000   111464279.943 7  27682094.020
     -1756.107          43.150   110047370.943 7  27682096.560       -1733.739
        45.600
 23 12 27 10  3  0.0000000  0 21G05G07G08G13G14G15G17G18G20G22G23G24
                                G30E04E05E09E19E21E31E34E36
 114286324.822 8  89054259.86548  21747971.480                    21747970.240
     -2649.614       -2064.637          49.600          49.500



 131893674.340 6 102774265.94946  25098549.880                    25098553.040
     -3005.944       -2342.299          41.850          41.750



 132571375.829 6 103302391.17046  25227488.860                    25227493.180
     -1396.655       -1088.304          36.600          37.050    98998124.575 7
  25227494.200       -1042.936          42.700


 104615919.861 8  81518900.49748  19907746.560                    19907744.060
      -154.500        -120.390          49.800          49.700



 111357638.304 8  86772197.90648  21190639.540                    21190640.060
      -346.061        -269.658          48.850          48.450    83156713.949 8
  21190644.200        -258.371          53.450


 109179434.973 8  85074864.48348  20776158.540                    20776158.320
      2089.317        1628.040          50.000          49.400



 131437214.042 6 102418624.55846  25011669.860                    25011675.360
      2787.413        2172.020          38.500          38.500



 129311124.651 7 100761900.87446  24607101.160                    24607100.800
     -1527.223       -1190.047          42.600          38.500    96563493.855 7
  24607108.140       -1140.515          43.550


 126161460.675 6  98307582.73146  24007742.480                    24007744.360
     -3784.214       -2948.744          41.900          39.050



 111221016.596 8  86665746.86947  21164641.680                    21164640.560
       816.497         636.232          50.600          47.550



 126799738.445 7  98804976.72546  24129197.160                    24129197.380
      3100.436        2415.923          42.400          38.700    94688118.098 7
  24129203.080        2315.438          45.450


 121707363.650 7  94836940.47347  23160136.720                    23160139.920
      3323.362        2589.635          43.350          43.000    90885402.038 7
  23160140.900        2481.631          46.150


 118316059.598 8  92194328.04548  22514803.120                    22514805.100
     -2626.485       -2046.613          48.400          48.350    88352899.070 8
  22514806.480       -1961.257          51.900


 123756757.128 8                  23550125.340
      -777.347                          51.950                    92415776.500 8
  23550128.200        -580.562          53.900    94826614.722 9  23550125.440
      -595.718          54.400    93621195.265 9  23550127.360        -588.146
        57.050
 143881466.947 6                  27379733.120
      2706.632                          40.600                   107443979.214 6
  27379740.160        2020.986          39.700   110246854.886 6  27379736.840
      2073.908          40.150   108845416.202 7  27379738.820        2047.534
        42.950
 128170888.166 8                  24390110.280
      1673.985                          52.250                    95712045.877 8
  24390114.720        1250.008          52.200    98208871.175 8  24390112.000
      1282.664          53.000    96960452.677 9  24390113.620        1266.362
        55.550
 145729443.582 6                  27731408.820
     -2612.354                          39.350                   108823916.278 6
  27731417.560       -1950.680          40.650   111662806.491 6  27731413.220
     -2001.794          39.400   110243362.036 7  27731416.240       -1976.220
        43.150
 139571596.464 7                  26559594.480
     -2252.745                          46.850                   104225555.313 7
  26559601.320       -1682.177          47.900   106944472.643 7  26559597.520
     -1726.096          45.900   105585019.131 8  26559599.100       -1704.163
        50.000
 133881266.867 8                  25476745.400
      2791.826                          48.600                    99976328.763 8
  25476752.060        2084.776          48.250   102584392.045 8  25476749.280
      2139.263          48.350   101280364.554 8  25476751.240        2112.039
        51.300
 145506574.372 7                  27688990.240
      -194.009                          43.600                   108657511.626 7
  27688997.580        -144.786          42.800   111492046.269 7  27688994.800
      -148.620          43.800   110074775.106 7  27688996.400        -146.830
        46.200
 145539149.667 7                  27695194.880
     -2299.642                          43.400                   108681885.816 7
  27695201.600       -1717.237          42.400   111517048.676 7  27695199.500
     -1761.827          43.600   110099468.901 7  27695201.640       -1739.574
        45.950
 23 12 27 10  3 30.0000000  0 21G05G07G08G13G14G15G17G18G20G22G23G24
                                G30E04E05E09E19E21E31E34E36
 114366041.461 8  89116376.66948  21763141.000                    21763140.060
     -2664.456       -2076.202          49.850          49.900



 131983873.505 6 102844550.84146  25115714.380                    25115717.540
     -3006.764       -2342.936          41.850          41.500



 132613547.925 6 103335252.60145  25235513.860                    25235518.080
     -1414.114       -1101.904          36.850          35.700    99029616.797 7
  25235519.060       -1056.112          42.650


 104620776.152 8  81522684.60448  19908670.560                    19908668.240
      -168.702        -131.457          49.200          49.050



 111368321.754 8  86780522.65248  21192672.500                    21192673.020
      -365.648        -284.921          48.700          48.300    83164691.819 8
  21192677.100        -272.989          53.550


 109116966.164 8  85026187.49448  20764271.100                    20764270.740
      2075.579        1617.334          49.700          49.100



 131353635.055 6 102353498.28946  24995765.080                    24995770.400
      2784.489        2169.743          37.800          38.050



 129357184.703 7 100797791.75246  24615866.100                    24615866.140
     -1542.911       -1202.271          43.150          36.200    96597889.262 7
  24615872.800       -1152.066          43.850


 126275034.596 6  98396081.75146  24029355.020                    24029357.020
     -3786.840       -2950.789          41.650          37.050



 111196818.495 8  86646891.21047  21160036.860                    21160035.680
       797.116         621.130          50.500          47.600



 126706886.721 7  98732624.76046  24111528.060                    24111528.280
      3090.081        2407.854          42.200          40.100    94618780.803 7
  24111533.820        2307.453          45.500


 121607774.658 7  94759338.73547  23141185.600                    23141188.540
      3316.619        2584.382          44.050          43.600    90811033.700 7
  23141189.180        2476.742          46.350


 118394956.625 8  92255806.20748  22529816.760                    22529818.620
     -2632.871       -2051.590          48.350          48.100    88411815.626 8
  22529820.580       -1966.111          52.400


 123780223.024 8                  23554590.760
      -786.293                          52.000                    92433299.705 9
  23554593.540        -587.142          54.000    94844595.057 9  23554590.560
      -602.443          54.300    93638947.035 9  23554592.840        -594.771
        57.000
 143800267.697 6                  27364281.540
      2707.453                          41.200                   107383343.309 6
  27364288.360        2021.740          40.900   110184637.196 6  27364285.520
      2074.620          41.550   108783989.403 7  27364287.200        2048.272
        44.100
 128120768.673 8                  24380572.880
      1667.949                          52.300                    95674618.980 8
  24380577.480        1245.603          52.700    98170467.923 8  24380574.560
      1278.095          53.150    96922537.604 9  24380576.140        1261.862
        55.750
 145807870.532 6                  27746333.200
     -2615.901                          39.350                   108882481.637 6
  27746341.740       -1953.152          40.000   111722899.653 6  27746337.380
     -2004.098          39.550   110302691.294 7  27746340.600       -1978.555
        42.850
 139639319.927 7                  26572481.680
     -2261.590                          46.400                   104276127.921 8
  26572488.860       -1688.812          48.200   106996364.557 7  26572484.960
     -1732.925          46.150   105636251.394 8  26572486.660       -1710.844
        50.200
 133797629.911 8                  25460829.800
      2784.561                          48.950                    99913872.618 8
  25460836.540        2079.376          48.200   102520306.613 8  25460833.380
      2133.620          48.450   101217093.766 8  25460835.560        2106.484
        51.200
 145512629.476 7                  27690142.260
      -209.172                          43.950                   108662033.245 7
  27690150.080        -156.104          43.000   111496685.860 7  27690147.020
      -160.298          43.250   110079355.702 7  27690148.700        -158.247
        46.100
 145608267.537 7                  27708347.420
     -2307.816                          43.400                   108733499.709 7
  27708354.380       -1723.229          42.650   111570009.034 7  27708352.600
     -1768.187          43.300   110151756.030 7  27708354.300       -1745.712
        45.850
 23 12 27 10  4  0.0000000  0 21G05G07G08G13G14G15G17G18G20G22G23G24
                                G30E04E05E09E19E21E31E34E36
 114446197.542 8  89178835.89848  21778394.120                    21778393.440
     -2679.092       -2087.605          49.250          49.250



 132074092.477 6 102914851.15046  25132882.620                    25132885.740
     -3006.885       -2343.035          39.700          39.250



 132656238.680 6 103368518.18246  25243637.600                    25243641.840
     -1431.825       -1115.706          37.200          37.650    99061496.296 7
  25243642.920       -1068.956          43.550


 104626058.987 8  81526801.09048  19909675.740                    19909673.620
      -183.271        -142.809          49.500          49.600



 111379588.256 8  86789301.72048  21194816.420                    21194816.980
      -385.351        -300.274          48.450          48.250    83173105.090 8
  21194821.000        -287.695          53.650


 109054907.057 8  84977829.76648  20752461.620                    20752461.100
      2061.772        1606.576          49.950          49.500



 131270134.872 6 102288433.36746  24979875.340                    24979880.620
      2781.627        2167.508          40.850          41.200



 129403705.233 7 100834041.42446  24624718.600                    24624719.000
     -1558.408       -1214.351          43.100          36.300    96632628.537 7
  24624725.200       -1163.777          44.300


 126388677.628 6  98484634.60946  24050980.500                    24050982.540
     -3789.040       -2952.501          41.700          39.050



 111173189.935 8  86628479.33947  21155540.440                    21155539.200
       778.119         606.326          50.400          47.750



 126614356.256 7  98660523.10546  24093920.060                    24093920.140
      3078.823        2399.084          42.750          40.500    94549683.396 7
  24093925.680        2299.218          45.700


 121508380.176 7  94681888.56747  23122271.400                    23122274.220
      3309.832        2579.092          44.550          44.000    90736810.640 7
  23122274.660        2471.651          46.600


 118474041.480 8  92317430.72648  22544866.120                    22544868.040
     -2639.365       -2056.649          48.700          48.650    88470872.443 8
  22544870.320       -1970.902          52.800


 123803949.614 8                  23559105.800
      -795.294                          52.000                    92451017.581 9
  23559108.460        -593.849          54.000    94862775.148 8  23559105.360
      -609.361          53.900    93656896.019 9  23559107.920        -601.585
        56.850
 143719034.965 7                  27348823.480
      2708.249                          42.000                   107322682.302 7
  27348830.460        2022.514          42.700   110122393.760 7  27348827.800
      2075.131          42.300   108722537.188 7  27348829.220        2048.798
        45.400
 128070823.447 8                  24371068.660
      1661.987                          51.900                    95637322.236 8
  24371073.400        1241.082          52.950    98132198.217 8  24371070.300
      1273.453          53.100    96884754.381 9  24371071.820        1257.272
        55.800
 145886388.566 6                  27761274.780
     -2618.831                          39.500                   108941115.041 6
  27761283.360       -1955.604          40.050   111783062.629 6  27761278.820
     -2006.612          38.850   110362089.488 7  27761282.220       -1980.972
        42.400
 139707304.749 7                  26585418.660
     -2270.419                          45.850                   104326895.709 8
  26585426.040       -1695.502          48.350   107048456.753 7  26585422.240
     -1739.798          46.000   105687681.381 8  26585423.940       -1717.608
        50.200
 133714207.602 8                  25444955.180
      2777.133                          49.050                    99851576.760 8
  25444961.780        2073.861          48.800   102456385.644 8  25444958.740
      2127.958          48.300   101153985.351 8  25444960.820        2100.888
        51.400
 145519133.867 7                  27691379.900
      -224.154                          42.950                   108666890.395 7
  27691387.660        -167.498          43.100   111501669.710 7  27691384.680
      -171.900          43.000   110084276.207 7  27691386.480        -169.775
        46.050
 145677625.676 7                  27721545.780
     -2315.874                          43.850                   108785293.044 7
  27721553.020       -1729.456          43.050   111623153.503 7  27721551.240
     -1774.496          43.150   110204224.930 7  27721552.800       -1752.001
        46.000
 23 12 27 10  4 30.0000000  0 21G05G07G08G13G14G15G17G18G20G22G23G24
                                G30E04E05E09E19E21E31E34E36
 114526788.090 8  89241633.66648  21793729.940                    21793729.660
     -2693.545       -2098.869          49.200          49.100



 132164328.491 6 102985164.79446  25150053.940                    25150057.280
     -3008.211       -2344.066          40.100          40.700



 132699443.963 6 103402184.66946  25251859.460                    25251863.600
     -1448.911       -1129.019          39.800          40.050    99093760.035 7
  25251864.920       -1081.640          43.200


 104631766.623 8  81531248.58048  19910761.840                    19910759.780
      -197.423        -153.837          49.800          49.700



 111391435.358 8  86798533.20148  21197070.820                    21197071.460
      -404.509        -315.202          48.450          48.350    83181951.920 8
  21197075.480        -302.057          53.700


 108993258.073 8  84929791.60548  20740730.340                    20740729.540
      2048.170        1595.977          50.500          48.800



 131186714.697 6 102223430.70346  24964000.820                    24964006.120
      2779.419        2165.783          40.100          40.100



 129450682.029 7 100870646.63346  24633657.960                    24633658.800
     -1573.546       -1226.142          43.400          36.400    96667708.513 7
  24633664.520       -1174.947          44.350


 126502385.623 6  98573238.07246  24072618.480                    24072620.660
     -3791.312       -2954.277          41.550          38.350



 111150129.563 8  86610510.21347  21151152.200                    21151151.000
       759.204         591.588          50.750          47.550



 126522147.852 7  98588672.40846  24076373.300                    24076373.580
      3068.100        2390.727          42.750          37.850    94480826.480 7
  24076378.820        2291.337          45.600


 121409179.513 7  94604589.43147  23103394.180                    23103396.820
      3303.307        2574.007          44.900          43.400    90662732.300 7
  23103396.940        2466.900          46.750


 118553310.910 8  92379199.06648  22559950.700                    22559952.740
     -2645.364       -2061.325          48.550          48.600    88530067.089 8
  22559954.960       -1975.437          52.400


 123827935.183 8                  23563670.140
      -803.798                          52.100                    92468928.865 9
  23563672.720        -600.273          54.000    94881153.685 8  23563669.680
      -615.913          53.950    93675040.926 9  23563672.280        -608.080
        56.950
 143637767.223 6                  27333358.900
      2709.522                          41.800                   107261995.168 7
  27333365.680        2023.485          42.050   110060123.504 6  27333363.040
      2076.178          41.700   108661058.488 7  27333364.600        2049.782
        44.800
 128021051.490 8                  24361597.260
      1656.240                          51.600                    95600154.877 8
  24361602.180        1236.812          52.850    98094061.275 8  24361599.020
      1269.085          53.100    96847102.226 9  24361600.500        1252.966
        55.850
 145964995.431 6                  27776233.200
     -2621.384                          39.750                   108999814.763 6
  27776241.880       -1957.675          39.050   111843293.693 6  27776237.120
     -2008.891          38.500   110421554.882 6  27776240.740       -1983.233
        41.700
 139775547.368 7                  26598404.760
     -2278.925                          46.300                   104377856.020 8
  26598412.200       -1701.818          48.400   107100746.463 7  26598408.580
     -1746.146          46.100   105739306.393 8  26598410.240       -1723.969
        50.400
 133630999.508 8                  25429121.340
      2770.089                          49.400                    99789440.875 8
  25429128.180        2068.589          48.550   102392628.812 8  25429124.540
      2122.552          48.000   101091038.994 8  25429126.820        2095.563
        51.250
 145526085.359 7                  27692702.640
      -239.132                          43.350                   108672081.405 7
  27692710.520        -178.451          43.100   111506996.146 7  27692707.860
      -183.271          43.550   110089534.927 7  27692709.260        -180.888
        46.150
 145747220.042 7                  27734789.100
     -2323.631                          42.800                   108837262.751 7
  27734796.780       -1735.242          43.250   111676478.962 7  27734794.940
     -1780.444          42.900   110256872.509 7  27734796.240       -1757.775
        46.100
 23 12 27 10  5  0.0000000  0 21G05G07G08G13G14G15G17G18G20G22G23G24
                                G30E04E05E09E19E21E31E34E36
 114607816.226 8  89304772.43048  21809149.120                    21809148.980
     -2708.213       -2110.298          49.150          49.300



 132254585.459 6 103055494.74646  25167229.140                    25167232.700
     -3009.081       -2344.741          40.800          40.900



 132743168.438 6 103436255.74246  25260180.220                    25260184.420
     -1466.307       -1142.577          39.050          38.800    99126411.505 7
  25260185.520       -1094.802          44.000


 104637904.226 8  81536031.11148  19911929.880                    19911927.720
      -211.654        -164.926          49.950          49.750



 111403867.326 8  86808220.41148  21199436.620                    21199437.240
      -424.141        -330.500          48.450          48.550    83191235.492 8
  21199441.340        -316.744          53.950


 108932025.956 8  84882078.26748  20729078.400                    20729077.400
      2034.082        1585.000          50.750          48.950



 131103381.824 6 102158496.04446  24948142.980                    24948148.180
      2776.159        2163.243          40.000          39.900



 129498117.657 7 100907609.39546  24642684.680                    24642685.600
     -1588.842       -1238.061          43.550          38.000    96703131.133 7
  24642691.140       -1186.298          45.200


 126616159.989 6  98661893.26946  24094269.220                    24094271.380
     -3793.477       -2955.964          41.850          38.550



 111127642.543 8  86592987.85247  21146873.140                    21146871.920
       739.945         576.580          51.250          47.600



 126430269.127 7  98517078.63746  24058889.280                    24058889.920
      3056.989        2382.070          42.250          39.550    94412215.763 7
  24058894.760        2282.868          45.700


 121310178.702 7  94527446.03447  23084554.940                    23084557.480
      3296.648        2568.821          45.050          43.600    90588803.232 7
  23084557.540        2461.817          47.350


 118632768.397 8  92441113.95048  22575071.140                    22575073.240
     -2651.724       -2066.279          48.800          48.850    88589402.170 8
  22575075.000       -1980.112          52.100


 123852184.836 8                  23568284.720
      -812.687                          52.050                    92487037.345 9
  23568287.380        -606.895          54.250    94899734.563 9  23568284.480
      -622.748          54.400    93693385.607 9  23568286.840        -614.831
        56.950
 143556469.970 6                  27317888.660
      2710.228                          39.800                   107201285.983 6
  27317895.500        2023.910          40.850   109997830.609 6  27317892.920
      2076.788          40.800   108599557.443 7  27317894.400        2050.447
        43.450
 127971458.601 8                  24352159.680
      1650.059                          50.650                    95563121.246 8
  24352164.800        1232.172          52.850    98056061.545 8  24352161.760
      1264.363          53.350    96809585.546 9  24352163.280        1248.298
        55.750
 146043695.451 6                  27791209.220
     -2624.839                          38.750                   109058584.068 6
  27791218.120       -1960.289          39.300   111903596.089 6  27791213.240
     -2011.308          38.600   110481090.744 6  27791217.000       -1985.853
        41.650
 139844051.014 7                  26611440.660
     -2287.652                          46.150                   104429011.250 8
  26611448.020       -1708.377          48.550   107153236.197 7  26611444.580
     -1753.018          46.550   105791128.879 8  26611446.160       -1730.731
        50.300
 133548011.964 8                  25413329.560
      2762.596                          49.550                    99727469.669 8
  25413336.020        2062.949          48.300   102329040.976 8  25413332.540
      2116.733          48.750   101028259.472 8  25413334.780        2089.845
        51.100
 145533488.459 7                  27694111.420
      -254.264                          43.950                   108677609.658 7
  27694119.480        -189.871          43.900   111512668.610 7  27694117.020
      -194.922          43.850   110095135.281 7  27694118.000        -192.426
        46.400
 145817053.523 7                  27748077.820
     -2331.844                          42.900                   108889411.007 7
  27748085.900       -1741.199          43.200   111729987.634 7  27748083.860
     -1786.763          43.650   110309700.974 7  27748085.300       -1763.961
        46.000
 23 12 27 10  5 30.0000000  0 21G05G07G08G13G14G15G17G18G20G22G23G24
                                G30E04E05E09E19E21E31E34E36
 114689277.079 8  89368248.36148  21824650.720                    21824650.800
     -2722.890       -2121.733          49.700          49.750



 132344860.968 6 103125839.18346  25184408.040                    25184411.600
     -3009.780       -2345.288          40.800          40.850



 132787408.028 6 103470728.17446  25268598.780                    25268603.280
     -1483.502       -1155.975          36.600          36.550    99159447.580 7
  25268603.940       -1107.711          44.950


 104644470.537 8  81541147.71448  19913179.480                    19913177.240
      -226.255        -176.303          49.800          49.600



 111416881.774 8  86818361.50048  21201913.380                    21201913.940
      -443.779        -345.804          49.050          48.700    83200954.030 9
  21201918.120        -331.400          54.300


 108871210.776 8  84834689.82948  20717505.800                    20717504.820
      2019.890        1573.940          50.800          49.750



 131020137.374 6 102093630.26646  24932302.020                    24932307.140
      2773.210        2160.947          40.000          39.650



 129546008.117 7 100944926.57746  24651797.980                    24651799.000
     -1604.454       -1250.225          43.250          36.200    96738893.416 7
  24651804.440       -1197.921          45.450


 126729996.494 7  98750596.86246  24115931.720                    24115934.180
     -3795.784       -2957.759          42.700          37.550



 111105727.816 8  86575911.43747  21142703.020                    21142701.760
       720.688         561.575          51.550          47.600



 126338721.146 6  98445742.53646  24041468.200                    24041469.080
      3045.753        2373.313          41.650          39.800    94343852.021 7
  24041473.740        2274.512          45.850


 121211377.217 7  94450457.95247  23065753.620                    23065756.100
      3289.665        2563.378          45.300          43.400    90515023.010 7
  23065756.060        2456.653          47.450


 118712410.916 8  92503173.00348  22590226.820                    22590228.920
     -2658.028       -2071.192          48.450          48.400    88648875.437 8
  22590230.220       -1984.908          51.850


 123876697.064 8                  23572949.140
      -821.623                          51.750                    92505341.902 9
  23572952.100        -613.544          54.450    94918516.634 9  23572949.400
      -629.568          54.650    93711928.919 9  23572951.360        -621.549
        56.950
 143475141.885 6                  27302412.500
      2711.014                          39.000                   107140553.779 6
  27302419.520        2024.553          39.800   109935514.089 6  27302416.780
      2077.278          38.900   108538033.088 6  27302418.200        2051.081
        41.900
 127922043.999 8                  24342755.940
      1643.915                          50.550                    95526220.767 8
  24342761.140        1227.607          52.800    98018198.447 8  24342758.440
      1259.648          53.350    96772203.759 9  24342760.020        1243.622
        55.600
 146122486.610 6                  27806202.500
     -2628.029                          37.900                   109117421.394 6
  27806211.780       -1962.474          38.300   111963968.338 6  27806206.760
     -2013.762          38.300   110540695.525 6  27806210.560       -1988.130
        40.850
 139912812.281 7                  26624525.720
     -2296.565                          45.900                   104480358.883 8
  26624532.820       -1714.954          48.700   107205923.343 7  26624529.520
     -1759.649          46.750   105843146.272 8  26624531.120       -1737.314
        50.400
 133465244.756 8                  25397579.640
      2755.022                          49.900                    99665663.001 8
  25397585.940        2057.286          48.750   102265621.962 8  25397582.540
      2110.937          48.600   100965646.636 8  25397584.800        2084.088
        51.050
 145541341.087 7                  27695605.820
      -269.457                          43.750                   108683473.579 7
  27695614.080        -201.240          44.350   111518685.501 7  27695612.100
      -206.567          44.200   110101075.688 7  27695612.260        -203.875
        46.650
 145887122.271 7                  27761411.500
     -2339.708                          42.900                   108941734.973 7
  27761419.800       -1747.240          43.100   111783676.582 7  27761417.500
     -1792.774          43.650   110362707.426 7  27761419.000       -1769.937
        45.900
 23 12 27 10  6  0.0000000  0 21G05G07G08G13G14G15G17G18G20G22G23G24
                                G30E04E05E09E19E21E31E34E36
 114771170.840 8  89432061.62548  21840234.840                    21840234.820
     -2737.070       -2132.783          50.150          50.100



 132435156.684 6 103196199.37146  25201590.860                    25201594.140
     -3010.244       -2345.647          40.500          40.200



 132832164.322 6 103505603.27146  25277115.240                    25277120.140
     -1500.651       -1169.337          36.400          36.750    99192869.468 7
  25277120.760       -1120.445          44.700


 104651468.728 8  81546600.82948  19914511.280                    19914508.980
      -240.570        -187.459          49.750          49.350



 111430480.770 8  86828958.08148  21204501.420                    21204501.780
      -463.109        -360.865          49.550          48.450    83211109.072 9
  21204506.200        -345.728          54.450


 108810817.065 8  84787629.82048  20706013.360                    20706012.480
      2005.952        1563.081          50.350          49.350



 130936987.663 6 102028838.23646  24916479.120                    24916484.180
      2770.201        2158.600          40.950          41.400



 129594353.666 7 100982598.36145  24660997.740                    24660998.700
     -1619.144       -1261.677          43.050          34.650    96774995.541 7
  24661004.540       -1209.057          45.350


 126843895.202 6  98839348.96346  24137606.180                    24137608.420
     -3797.803       -2959.331          41.550          36.350



 111084388.444 8  86559283.34947  21138642.420                    21138641.100
       701.568         546.678          51.600          47.550



 126247509.251 6  98374668.33246  24024111.060                    24024112.120
      3034.528        2364.565          41.750          38.650    94275739.254 7
  24024116.640        2266.198          46.050


 121112778.873 7  94373628.17247  23046990.820                    23046993.300
      3283.063        2558.233          44.800          43.650    90441394.497 7
  23046993.400        2451.717          47.700


 118792239.771 8  92565377.25648  22605417.920                    22605419.840
     -2664.195       -2075.999          48.350          48.450    88708487.830 8
  22605420.900       -1989.364          51.600


 123901474.693 8                  23577664.000
      -830.430                          51.700                    92523844.651 9
  23577667.380        -620.087          54.500    94937502.060 9  23577664.780
      -636.248          54.650    93730673.008 9  23577666.360        -628.175
        57.200
 143393786.258 6                  27286931.100
      2712.303                          41.900                   107079801.001 6
  27286938.120        2025.498          40.650   109873176.476 6  27286935.440
      2078.313          40.050   108476487.904 7  27286936.840        2051.785
        43.000
 127872811.311 8                  24333387.080
      1638.059                          50.850                    95489456.129 8
  24333392.100        1223.216          52.600    97980474.729 8  24333389.700
      1255.137          53.150    96734959.580 9  24333391.360        1239.168
        55.600
 146201370.996 6                  27821213.440
     -2631.078                          37.750                   109176328.332 6
  27821223.160       -1964.559          38.000   112024412.005 6  27821218.240
     -2016.128          37.750   110600370.822 6  27821221.780       -1990.281
        40.800
 139981832.151 7                  26637659.900
     -2304.880                          45.350                   104531899.637 8
  26637666.820       -1721.240          48.450   107258808.654 7  26637663.680
     -1766.161          46.900   105895359.303 8  26637665.300       -1743.718
        50.550
 133382701.985 8                  25381872.380
      2747.638                          49.750                    99604023.950 8
  25381878.700        2051.839          48.250   102202374.930 8  25381874.960
      2105.354          48.750   100903203.592 8  25381877.420        2078.625
        51.100
 145549645.512 7                  27697186.140
      -284.384                          43.550                   108689674.878 7
  27697194.780        -212.321          44.850   111525048.575 7  27697193.060
      -217.802          44.100   110107357.874 7  27697192.500        -215.073
        47.050
 145957426.937 7                  27774790.020
     -2347.500                          43.050                   108994235.069 7
  27774798.480       -1752.858          42.800   111837546.278 7  27774796.140
     -1798.786          43.400   110415892.322 7  27774797.680       -1775.746
        45.750
 23 12 27 10  6 30.0000000  0 21G05G07G08G13G14G15G17G18G20G22G23G24
                                G30E04E05E09E19E21E31E34E36
 114853493.023 8  89496208.70948  21855900.480                    21855900.340
     -2751.550       -2144.066          50.600          50.550



 132525470.362 6 103266573.59246  25218777.180                    25218780.180
     -3011.076       -2346.295          40.350          41.550



 132877434.061 6 103540878.36446  25285729.640                    25285734.520
     -1517.802       -1182.701          37.500          37.650    99226674.803 7
  25285735.240       -1133.475          44.100


 104658897.498 8  81552389.46148  19915924.920                    19915922.580
      -255.174        -198.838          50.150          49.650



 111444662.088 8  86840008.42247  21207200.280                    21207200.420
      -482.708        -376.137          49.800          47.950    83221698.987 9
  21207205.080        -360.479          54.400


 108750845.415 8  84740898.69348  20694601.020                    20694600.360
      1991.753        1552.017          49.850          49.650



 130853934.089 6 101964121.19646  24900674.600                    24900679.620
      2766.524        2155.733          39.650          38.700



 129643150.488 7 101020621.79846  24670283.400                    24670284.400
     -1634.208       -1273.412          43.000          37.550    96811434.652 7
  24670290.460       -1220.449          45.400


 126957851.815 6  98928146.12546  24159291.480                    24159293.700
     -3799.854       -2960.933          41.200          38.850



 111063623.594 8  86543102.93847  21134691.180                    21134689.680
       682.267         531.637          51.600          47.800



 126156634.616 6  98303856.96346  24006818.160                    24006819.520
      3023.479        2355.959          41.200          39.750    94207878.367 7
  24006823.840        2257.566          45.550


 121014383.352 7  94296956.43247  23028266.580                    23028269.080
      3275.982        2552.715          44.800          43.050    90367917.401 7
  23028269.360        2446.552          47.600


 118872252.129 7  92627724.48947  22620643.760                    22620645.520
     -2670.334       -2080.781          47.800          47.800    88768237.248 8
  22620646.660       -1994.107          51.200


 123926516.411 8                  23582429.200
      -839.460                          51.750                    92542544.610 9
  23582432.880        -626.866          54.500    94956689.848 9  23582430.280
      -643.227          54.700    93749616.882 9  23582431.620        -635.042
        57.300
 143312402.068 6                  27271444.340
      2713.188                          41.550                   107019026.936 6
  27271451.320        2025.983          39.650   109810817.052 6  27271448.700
      2078.639          40.850   108414921.147 7  27271450.160        2052.257
        43.050
 127823759.956 8                  24324052.980
      1631.760                          51.400                    95452826.900 8
  24324057.680        1218.450          52.550    97942889.947 8  24324055.460
      1250.310          53.200    96697852.578 9  24324057.200        1234.366
        55.650
 146280346.925 6                  27836241.960
     -2634.033                          36.400                   109235303.675 6
  27836252.040       -1967.213          38.200   112084925.825 6  27836247.020
     -2018.287          37.600   110660115.422 6  27836250.540       -1992.938
        40.650
 140051107.476 7                  26650842.580
     -2313.669                          45.650                   104583631.146 8
  26650849.380       -1727.798          48.000   107311889.690 7  26650846.420
     -1772.864          47.100   105947765.571 8  26650848.040       -1750.291
        50.500
 133300383.610 8                  25366207.800
      2739.884                          50.250                    99542552.466 8
  25366213.780        2046.005          48.000   102139299.844 8  25366210.480
      2099.487          48.900   100840930.305 8  25366212.840        2072.755
        51.300
 145558399.807 7                  27698852.140
      -299.591                          44.400                   108696212.106 7
  27698861.080        -223.717          44.800   111531756.355 7  27698859.420
      -229.557          44.100   110113980.380 7  27698858.440        -226.603
        47.000
 146027963.859 7                  27788212.740
     -2355.302                          42.850                   109046908.633 7
  27788221.640       -1758.871          42.700   111891593.937 7  27788218.900
     -1804.709          43.550   110469252.940 7  27788220.560       -1781.820
        45.800
 23 12 27 10  7  0.0000000  0 21G05G07G08G13G14G15G17G18G20G22G23G24
                                G30E04E05E09E19E21E31E34E36
 114936238.793 8  89560685.86348  21871646.700                    21871646.360
     -2765.397       -2154.858          50.550          50.550



 132615798.604 6 103336959.15346  25235966.200                    25235969.040
     -3011.685       -2346.771          40.650          40.750



 132923213.113 6 103576550.34345  25294440.740                    25294445.980
     -1534.704       -1195.877          36.350          35.350    99260860.447 7
  25294446.500       -1145.934          44.600


 104666754.370 8  81558511.68248  19917420.040                    19917417.700
      -269.204        -209.771          49.850          49.700



 111459422.287 8  86851509.84748  21210009.280                    21210009.140
      -501.760        -390.982          49.750          48.100    83232721.177 9
  21210014.100        -374.698          54.450


 108691295.085 8  84694495.87548  20683268.740                    20683268.300
      1977.884        1541.209          50.000          49.300



 130770976.392 6 101899478.91446  24884888.220                    24884893.420
      2763.653        2153.496          39.100          38.300



 129692393.413 7 101058992.84846  24679654.060                    24679654.940
     -1649.109       -1285.022          43.300          37.200    96848206.872 7
  24679661.380       -1231.333          45.850


 127071860.795 6  99016984.10546  24180986.740                    24180988.380
     -3801.657       -2962.339          41.450          36.100



 111043430.876 8  86527368.34747  21130848.720                    21130847.020
       663.324         516.876          51.650          47.200



 126066097.329 6  98233308.41946  23989589.460                    23989590.920
      3012.268        2347.222          41.800          39.000    94140269.346 7
  23989595.180        2249.319          45.600


 120916188.994 7  94220441.40147  23009580.600                    23009582.860
      3269.692        2547.813          44.600          42.650    90294590.526 7
  23009583.720        2441.706          47.800


 118952443.868 7  92690211.49147  22635903.580                    22635905.420
     -2676.185       -2085.342          47.100          47.300    88828120.621 8
  22635906.360       -1998.436          50.550


 123951819.609 8                  23587244.240
      -847.864                          51.700                    92561439.822 9
  23587248.120        -633.185          54.600    94976077.984 9  23587245.460
      -649.702          54.650    93768758.555 9  23587246.660        -641.424
        57.150
 143230987.067 6                  27255951.740
      2714.201                          41.500                   106958229.859 6
  27255958.700        2026.791          40.800   109748433.963 6  27255956.220
      2079.834          41.600   108353331.057 7  27255957.620        2053.385
        43.900
 127774888.100 8                  24314753.100
      1625.896                          51.100                    95416331.702 8
  24314757.560        1214.144          52.450    97905442.698 8  24314755.460
      1245.866          53.150    96660881.352 9  24314757.160        1230.025
        55.400
 146359410.935 6                  27851287.240
     -2637.328                          37.500                   109294344.726 6
  27851297.620       -1969.218          37.400   112145507.102 6  27851292.720
     -2020.274          37.750   110719926.577 6  27851296.100       -1994.708
        40.100
 140120633.797 7                  26664073.080
     -2321.802                          45.900                   104635550.111 7
  26664079.580       -1733.750          47.650   107365163.063 7  26664076.900
     -1779.113          47.150   106000361.744 8  26664078.500       -1756.401
        50.200
 133218288.260 8                  25350585.520
      2732.577                          49.350                    99481247.548 8
  25350591.520        2040.629          48.300   102076395.670 8  25350588.260
      2093.861          48.850   100778825.760 8  25350590.680        2067.241
        51.200
 145567600.820 7                  27700603.280
      -314.267                          43.900                   108703082.904 7
  27700612.280        -234.607          44.750   111538806.416 7  27700610.460
      -240.852          43.500   110120940.809 7  27700609.460        -237.678
        46.650
 146098728.196 7                  27801678.720
     -2362.670                          43.200                   109099752.023 6
  27801687.920       -1764.341          41.950   111945815.860 7  27801684.880
     -1810.432          43.250   110522785.598 7  27801686.560       -1787.370
        45.100
 23 12 27 10  7 30.0000000  0 21G05G07G08G13G14G15G17G18G20G22G23G24
                                G30E04E05E09E19E21E31E34E36
 115019410.717 8  89625495.07548  21887473.920                    21887473.400
     -2779.413       -2165.778          49.750          49.850



 132706145.757 6 103407359.45846  25253158.740                    25253161.540
     -3011.505       -2346.630          39.950          40.200



 132969505.730 6 103612622.47346  25303249.920                    25303255.000
     -1551.386       -1208.869          37.600          38.800    99295429.595 7
  25303255.480       -1158.627          44.750


 104675044.966 8  81564971.88548  19918997.720                    19918995.420
      -283.532        -220.935          49.950          49.950



 111474766.242 8  86863466.15748  21212929.160                    21212928.920
      -521.111        -406.062          49.550          48.050    83244179.291 9
  21212934.120        -389.122          54.650


 108632173.642 8  84648427.24348  20672018.200                    20672017.620
      1963.685        1530.145          50.250          49.200



 130688123.414 6 101834918.26546  24869121.560                    24869127.100
      2759.796        2150.493          39.300          39.550



 129742085.627 7 101097713.97746  24689110.200                    24689110.840
     -1663.846       -1296.506          43.250          36.950    96885314.604 7
  24689117.960       -1242.421          46.650


 127185924.937 7  99105865.06846  24202692.760                    24202694.040
     -3802.794       -2963.221          42.500          36.600



 111023816.317 8  86512084.26847  21127116.220                    21127114.300
       644.263         502.023          51.350          47.650



 125975905.646 6  98163029.22346  23972426.480                    23972427.940
      3000.568        2338.105          41.750          40.100    94072918.430 7
  23972432.280        2240.827          45.850


 120818202.665 7  94144088.47047  22990934.260                    22990936.380
      3262.677        2542.346          44.150          42.500    90221418.983 8
  22990937.980        2436.467          48.400


 119032819.247 7  92752841.59247  22651198.400                    22651200.280
     -2682.164       -2090.001          47.500          47.650    88888141.127 8
  22651200.980       -2002.898          50.250


 123977390.113 8                  23592110.240
      -856.680                          51.950                    92580534.635 9
  23592114.180        -639.742          54.700    94995670.927 9  23592111.420
      -656.435          54.400    93788102.433 9  23592112.600        -648.059
        57.250
 143149547.165 6                  27240454.280
      2714.920                          41.900                   106897414.179 6
  27240461.300        2027.402          38.800   109686031.773 6  27240458.720
      2080.634          40.400   108291722.137 7  27240460.060        2053.864
        42.200
 127726202.251 8                  24305488.600
      1619.871                          51.100                    95379975.414 8
  24305492.980        1209.661          52.750    97868137.987 8  24305490.900
      1241.205          53.100    96624050.855 9  24305492.500        1225.402
        55.650
 146438568.157 6                  27866350.520
     -2640.083                          37.950                   109353455.458 6
  27866360.980       -1971.434          38.700   112206159.883 6  27866356.300
     -2022.861          37.700   110779808.320 6  27866359.220       -1997.192
        40.950
 140190415.058 7                  26677352.060
     -2330.144                          45.850                   104687659.446 7
  26677358.380       -1740.044          47.750   107418631.775 7  26677355.840
     -1785.461          47.150   106053150.765 8  26677357.440       -1762.726
        50.300
 133136423.027 8                  25335006.980
      2725.075                          49.800                    99420114.478 8
  25335013.160        2034.932          48.450   102013667.820 8  25335009.860
      2088.104          48.950   100716895.302 8  25335012.240        2061.532
        51.450
 145577253.695 7                  27702440.220
      -329.254                          44.150                   108710291.120 7
  27702449.100        -245.844          44.600   111546202.686 7  27702447.240
      -252.227          43.100   110128243.050 7  27702446.580        -248.966
        46.650
 146169723.467 7                  27815188.700
     -2370.180                          42.600                   109152767.864 7
  27815198.100       -1769.919          42.000   112000214.706 7  27815194.840
     -1816.104          42.900   110576492.942 7  27815196.460       -1793.062
        45.050
 23 12 27 10  8  0.0000000  0 21G05G07G08G13G14G15G17G18G20G22G23G24
                                G30E04E05E09E19E21E31E34E36
 115103000.254 8  89690629.69948  21903380.500                    21903379.920
     -2793.258       -2176.566          49.900          49.900



 132796505.640 6 103477769.64846  25270353.660                    25270356.320
     -3012.032       -2347.043          41.100          41.100



 133016304.204 6 103649088.77146  25312155.600                    25312160.640
     -1568.195       -1221.973          37.800          37.800    99330376.472 7
  25312160.740       -1171.266          43.150


 104683763.932 8  81571765.88048  19920656.860                    19920654.580
      -297.704        -231.978          49.850          49.800



 111490687.376 8  86875872.21548  21215958.800                    21215958.520
      -540.271        -420.990          49.250          48.350    83256068.420 9
  21215963.900        -403.430          54.000


 108573477.237 8  84602689.80348  20660848.640                    20660847.720
      1949.568        1519.145          50.750          48.900



 130605372.191 6 101770436.88746  24853374.240                    24853380.100
      2756.722        2148.101          39.750          40.500



 129792218.997 7 101136778.84846  24698650.320                    24698650.880
     -1678.472       -1307.900          42.900          37.650    96922751.750 7
  24698658.520       -1253.308          46.500


 127300036.001 6  99194782.59245  24224407.600                    24224408.240
     -3804.387       -2964.461          41.900          34.350



 111004774.543 8  86497246.51747  21123492.680                    21123490.580
       625.255         487.211          51.200          47.750



 125886056.487 7  98093016.92446  23955328.800                    23955330.120
      2989.465        2329.454          42.200          39.000    94005823.343 7
  23955334.620        2232.224          45.600


 120720419.682 7  94067893.96347  22972326.600                    22972328.400
      3256.231        2537.324          43.900          42.400    90148399.260 8
  22972330.860        2431.460          48.600


 119113371.152 8  92815609.26847  22666526.900                    22666528.640
     -2687.830       -2094.414          48.200          47.950    88948293.475 8
  22666529.440       -2007.187          49.850


 124003222.280 8                  23597026.100
      -865.425                          52.100                    92599824.856 9
  23597029.900        -646.256          54.000    95015464.376 9  23597027.040
      -663.113          54.450    93807644.270 9  23597028.340        -654.693
        57.150
 143068077.089 7                  27224951.120
      2716.283                          42.450                   106836575.982 6
  27224958.000        2028.351          39.800   109623606.525 6  27224955.620
      2081.296          41.350   108230090.402 7  27224956.860        2054.847
        43.550
 127677697.583 8                  24296258.540
      1613.865                          51.450                    95343754.425 8
  24296263.040        1205.149          52.400    97830972.095 8  24296260.760
      1236.575          53.250    96587357.410 9  24296262.320        1220.875
        55.750
 146517812.306 6                  27881430.360
     -2642.895                          37.650                   109412631.062 6
  27881441.020       -1973.444          38.450   112266879.246 6  27881436.240
     -2025.032          37.800   110839755.801 6  27881439.120       -1999.235
        41.100
 140260443.779 7                  26690678.040
     -2338.282                          45.800                   104739953.587 7
  26690684.320       -1746.185          47.000   107472290.114 7  26690681.920
     -1791.737          47.500   106106127.002 8  26690683.460       -1768.922
        50.300
 133054783.536 8                  25319471.340
      2717.564                          49.050                    99359149.996 8
  25319477.540        2029.354          48.200   101951112.962 8  25319474.480
      2082.299          49.200   100655135.629 8  25319476.760        2055.849
        51.650
 145587352.210 7                  27704362.100
      -344.023                          44.100                   108717832.130 7
  27704370.580        -256.878          44.150   111553940.434 7  27704368.580
      -263.498          42.900   110135882.432 7  27704368.500        -260.154
        46.600
 146240941.786 6                  27828741.000
     -2377.222                          41.800                   109205950.264 6
  27828750.740       -1775.423          41.000   112054784.484 7  27828747.040
     -1821.805          42.750   110630369.027 7  27828748.860       -1798.609
        44.700
 23 12 27 10  8 30.0000000  0 21G05G07G08G13G14G15G17G18G20G22G23G24
                                G30E04E05E09E19E21E31E34E36
 115187009.485 8  89756091.35148  21919366.740                    21919366.240
     -2807.440       -2187.618          48.900          48.900



 132886881.485 6 103548192.29346  25287551.680                    25287554.260
     -3013.217       -2347.964          41.500          40.850



 133063611.208 5 103685951.31845  25321157.760                    25321162.600
     -1585.496       -1235.456          32.750          32.650    99365703.007 6
  25321162.120       -1183.827          40.200


 104692915.716 8  81578897.12648  19922398.380                    19922395.940
      -312.430        -243.453          50.050          49.600



 111507189.015 8  86888730.61447  21219098.800                    21219098.600
      -559.884        -436.274          49.050          47.900    83268391.043 8
  21219104.040        -418.047          53.950


 108515211.777 8  84557288.16648  20649761.200                    20649760.060
      1934.835        1507.665          51.350          49.350



 130522729.735 6 101706040.29746  24837647.860                    24837653.760
      2752.911        2145.130          39.700          40.100



 129842795.069 7 101176188.68446  24708274.800                    24708275.220
     -1693.448       -1319.573          43.300          38.350    96960519.504 7
  24708283.300       -1264.462          46.800


 127414195.096 6  99283737.51745  24246131.480                    24246131.740
     -3806.085       -2965.787          41.450          33.300



 110986309.965 8  86482858.52547  21119978.900                    21119976.740
       605.638         471.925          51.050          47.700



 125796556.725 7  98023276.88846  23938297.620                    23938298.800
      2977.115        2319.830          42.950          41.500    93938989.121 7
  23938303.560        2223.422          46.000


 120622845.318 7  93991862.01847  22953758.560                    22953760.340
      3248.995        2531.685          43.650          42.400    90075535.342 8
  22953763.720        2426.160          48.750


 119194102.365 8  92878516.65148  22681889.580                    22681891.060
     -2694.149       -2099.338          48.250          48.350    89008579.704 8
  22681892.200       -2011.806          49.850


 124029320.331 8                  23601992.520
      -874.443                          52.100                    92619313.625 9
  23601996.100        -653.012          54.050    95035461.552 9  23601993.200
      -670.014          54.150    93827387.244 9  23601994.700        -661.522
        57.350
 142986581.432 7                  27209443.180
      2716.867                          42.300                   106775718.680 7
  27209450.360        2028.879          42.000   109561161.677 6  27209447.340
      2081.784          40.650   108168439.323 7  27209449.000        2055.407
        44.650
 127629379.087 8                  24287063.960
      1607.428                          51.950                    95307672.461 8
  24287068.520        1200.362          52.650    97793948.856 8  24287066.000
      1231.661          52.950    96550804.808 9  24287067.560        1216.024
        55.950
 146597147.245 6                  27896527.660
     -2645.871                          38.100                   109471874.485 6
  27896538.360       -1975.904          37.600   112327668.176 6  27896533.720
     -2027.599          38.050   110899771.983 6  27896536.360       -2001.614
        41.100
 140330722.293 7                  26704051.600
     -2346.816                          46.150                   104792434.262 7
  26704057.820       -1752.509          47.000   107526139.846 7  26704055.560
     -1798.219          47.400   106159292.205 8  26704057.020       -1775.387
        50.350
 132973375.283 8                  25303979.780
      2709.661                          49.500                    99298358.213 8
  25303986.200        2023.487          48.750   101888735.300 8  25303983.100
      2076.268          48.950   100593550.910 8  25303985.260        2049.903
        52.050
 145597899.959 7                  27706369.460
      -359.242                          43.700                   108725708.612 7
  27706377.640        -268.268          44.150   111562022.418 7  27706375.380
      -275.181          42.800   110143861.666 7  27706375.940        -271.657
        46.800
 146312385.136 6                  27842336.020
     -2385.304                          40.950                   109259300.692 6
  27842346.120       -1781.227          40.950   112109526.640 7  27842342.480
     -1827.597          42.250   110684415.322 7  27842344.020       -1804.412
        44.650
 23 12 27 10  9  0.0000000  0 21G05G07G08G13G14G15G17G18G20G22G23G24
                                G30E04E05E09E19E21E31E34E36
 115271433.369 8  89821876.13048  21935431.920                    21935431.520
     -2821.302       -2198.420          48.400          48.350



 132977270.749 6 103618625.41846  25304752.240                    25304754.860
     -3013.393       -2348.102          41.300          41.000



 133111423.617 5 103723207.66146  25330256.020                    25330260.940
     -1602.746       -1248.890          35.500          36.350    99401407.048 7
  25330260.160       -1196.667          42.700


 104702499.040 8  81586364.64348  19924221.980                    19924219.540
      -326.863        -254.699          49.850          49.850



 111524268.857 8  86902039.56848  21222348.840                    21222348.700
      -579.291        -451.396          49.000          48.400    83281145.448 9
  21222354.120        -432.562          54.000


 108457377.676 8  84512222.65148  20638755.880                    20638754.780
      1920.294        1496.333          51.100          49.550



 130440197.559 6 101641729.65546  24821942.540                    24821948.540
      2748.668        2141.828          39.900          39.650



 129893809.928 7 101215940.46546  24717982.740                    24717983.000
     -1708.229       -1331.088          42.850          38.250    96998614.924 7
  24717991.360       -1275.454          46.900


 127528397.674 6  99372726.34446  24267863.680                    24267863.000
     -3807.604       -2966.967          40.600          37.000



 110968421.301 8  86468919.30547  21116574.700                    21116572.700
       586.363         456.906          51.200          47.550



 125707407.410 7  97953809.92546  23921333.140                    23921334.080
      2965.319        2310.641          43.350          39.900    93872416.645 7
  23921339.180        2214.444          46.400


 120525479.209 7  93915992.34346  22935230.060                    22935232.060
      3241.764        2526.052          43.700          41.650    90002826.913 8
  22935236.000        2420.766          49.450


 119275009.956 7  92941561.48447  22697285.840                    22697286.940
     -2700.116       -2103.988          46.750          46.700    89068997.652 8
  22697288.500       -2016.353          49.800


 124055682.926 8                  23607009.260
      -883.401                          52.250                    92638999.945 9
  23607012.560        -659.709          54.100    95055661.436 9  23607009.720
      -676.939          54.350    93847330.342 9  23607011.380        -668.302
        56.950
 142905059.244 6                  27193930.040
      2717.240                          40.350                   106714841.553 6
  27193937.380        2029.342          40.600   109498696.476 6  27193933.740
      2082.297          39.800   108106768.169 7  27193936.060        2055.755
        43.050
 127581246.171 8                  24277904.620
      1600.966                          52.050                    95271729.077 8
  24277909.200        1195.530          52.750    97757067.806 8  24277906.520
      1226.764          53.100    96514392.593 9  24277908.120        1211.153
        55.650
 146676570.889 6                  27911641.860
     -2649.340                          38.500                   109531184.145 6
  27911652.560       -1978.379          38.300   112388525.049 6  27911648.060
     -2029.929          38.500   110959855.255 6  27911650.260       -2004.161
        41.050
 140401247.444 7                  26717472.120
     -2355.256                          46.200                   104845099.102 7
  26717478.360       -1758.804          46.950   107580178.555 7  26717476.140
     -1804.699          47.750   106212643.980 8  26717477.460       -1781.723
        50.000
 132892198.154 8                  25288532.120
      2701.631                          49.100                    99237739.032 8
  25288538.800        2017.500          48.800   101826534.731 8  25288535.600
      2070.129          49.300   100532141.036 8  25288537.640        2043.817
        51.750
 145608894.994 7                  27708461.660
      -374.295                          42.850                   108733919.064 7
  27708469.860        -279.469          43.850   111570447.100 7  27708466.840
      -286.759          42.650   110152179.239 7  27708468.580        -283.183
        46.150
 146384049.855 6                  27855973.160
     -2392.770                          41.250                   109312816.431 6
  27855983.740       -1786.815          41.550   112164438.479 6  27855979.720
     -1833.350          41.550   110738629.109 7  27855981.420       -1810.088
        44.100
 23 12 27 10  9 30.0000000  0 21G05G07G08G13G14G15G17G18G20G22G23G24
                                G30E04E05E09E19E21E31E34E36
 115356270.441 8  89887982.86248  21951575.660                    21951575.440
     -2834.629       -2208.804          48.100          48.000



 133067673.673 6 103689069.15946  25321955.320                    25321958.080
     -3013.834       -2348.448          41.200          41.100



 133159740.150 5 103760856.86545  25339450.340                    25339455.180
     -1618.808       -1261.411          35.700          35.150    99437487.499 7
  25339455.080       -1208.949          44.600


 104712514.933 8  81594169.20448  19926127.980                    19926125.720
      -341.055        -265.759          50.250          49.800



 111541926.783 8  86915798.97247  21225709.000                    21225708.800
      -598.205        -466.134          49.200          47.850    83294331.537 8
  21225714.120        -446.662          53.900


 108399977.170 8  84467495.01748  20627832.920                    20627831.980
      1906.193        1485.346          50.150          50.050



 130357778.936 6 101577507.47746  24806258.880                    24806264.660
      2745.290        2139.192          40.950          40.600



 129945261.833 6 101256032.77746  24727773.760                    24727774.360
     -1722.133       -1341.924          41.800          37.550    97037036.719 7
  24727782.580       -1286.081          47.250


 127642641.932 6  99461747.60645  24289603.720                    24289603.040
     -3808.853       -2967.940          41.750          34.700



 110951109.701 8  86455429.74047  21113280.340                    21113278.580
       567.420         442.146          50.950          47.900



 125618611.988 7  97884618.72446  23904436.020                    23904436.740
      2953.914        2301.753          43.850          40.550    93806108.411 7
  23904442.160        2205.893          46.800


 120428323.223 7  93840286.38347  22916741.680                    22916744.000
      3235.047        2520.815          43.350          42.050    89930275.379 8
  22916748.240        2415.815          49.150


 119356093.340 7  93004743.28747  22712715.400                    22712716.580
     -2705.790       -2108.409          46.350          46.100    89129546.868 8
  22712718.080       -2020.434          49.300


 124082310.945 8                  23612076.520
      -892.013                          52.400                    92658884.468 9
  23612079.580        -666.086          54.100    95076064.687 9  23612076.760
      -683.469          54.050    93867474.232 9  23612078.560        -674.788
        57.050
 142823511.674 6                  27178412.060
      2718.593                          41.450                   106653945.413 6
  27178419.520        2030.278          40.600   109436211.783 6  27178415.600
      2083.079          40.250   108045077.747 7  27178418.360        2056.710
        43.550
 127533300.478 8                  24268780.820
      1595.119                          52.150                    95235925.502 8
  24268785.380        1191.160          52.650    97720330.225 8  24268782.560
      1222.250          52.750    96478122.011 9  24268784.300        1206.747
        55.650
 146756083.580 6                  27926772.860
     -2651.866                          39.100                   109590560.323 6
  27926783.720       -1980.299          39.300   112449450.191 6  27926779.220
     -2031.810          37.900   111020005.916 6  27926781.160       -2006.165
        41.600
 140472018.212 7                  26730939.420
     -2363.089                          46.400                   104897947.364 7
  26730945.720       -1764.606          46.950   107634405.462 7  26730943.400
     -1810.622          47.300   106266181.566 8  26730944.640       -1787.622
        50.050
 132811254.246 8                  25273128.880
      2694.333                          49.550                    99177294.030 8
  25273135.480        2011.953          49.000   101764512.893 8  25273132.660
      2064.450          49.300   100470907.617 8  25273134.420        2038.198
        52.150
 145620337.466 7                  27710639.060
      -388.729                          42.950                   108742463.655 7
  27710647.040        -290.361          43.150   111579214.610 7  27710643.900
      -297.805          42.850   110160835.292 7  27710646.400        -294.125
        46.100
 146455934.602 6                  27869652.320
     -2399.867                          41.550                   109366496.460 7
  27869663.240       -1792.032          42.200   112219518.888 6  27869659.020
     -1838.747          41.500   110793009.326 7  27869660.760       -1815.444
        44.800
 23 12 27 10 10  0.0000000  0 21G05G07G08G13G14G15G17G18G20G22G23G24
                                G30E04E05E09E19E21E31E34E36
 115441513.598 8  89954406.02448  21967796.760                    21967796.720
     -2847.836       -2219.095          48.550          48.550



 133158085.150 6 103759519.57446  25339160.000                    25339163.040
     -3013.577       -2348.243          41.500          41.750



 133208555.275 6 103798894.54546  25348739.540                    25348744.020
     -1635.188       -1274.173          36.650          37.250    99473940.233 7
  25348744.860       -1221.273          44.350


 104722959.258 8  81602307.62148  19928115.500                    19928113.420
      -355.076        -276.684          50.350          49.900



 111560157.864 8  86930004.99647  21229178.280                    21229177.960
      -617.021        -480.797          49.400          47.950    83307945.649 8
  21229183.220        -460.810          53.750


 108343008.432 8  84423103.82948  20616992.000                    20616991.120
      1892.097        1474.363          49.950          49.800



 130275472.928 6 101513373.01546  24790596.400                    24790602.380
      2741.771        2136.447          40.250          40.200



 129997144.260 7 101296460.55046  24737646.700                    24737647.680
     -1736.129       -1352.830          42.600          38.550    97075779.993 7
  24737655.460       -1296.714          47.600


 127756921.247 6  99550796.15546  24311350.440                    24311350.260
     -3809.720       -2968.622          41.200          36.950



 110934371.356 8  86442386.86447  21110095.080                    21110093.580
       548.671         427.536          50.800          47.900



 125530169.102 7  97815702.22446  23887606.020                    23887606.740
      2942.491        2292.851          44.050          41.300    93740063.452 7
  23887612.140        2197.253          47.100


 120331374.403 7  93764741.84247  22898292.860                    22898295.460
      3228.562        2515.764          44.050          43.150    89857878.547 8
  22898299.680        2410.792          48.800


 119437347.145 7  93068057.86447  22728177.300                    22728178.760
     -2711.009       -2112.477          45.700          45.650    89190223.360 8
  22728180.140       -2024.586          49.350


 124109200.467 8                  23617193.540
      -900.568                          52.250                    92678964.269 9
  23617196.500        -672.435          54.100    95096668.313 8  23617193.600
      -690.027          53.950    93887815.945 9  23617195.500        -681.220
        57.050
 142741935.173 6                  27162888.840
      2719.938                          40.700                   106593027.698 6
  27162896.200        2030.974          40.150   109373704.924 6  27162892.380
      2083.897          40.400   107983365.459 7  27162895.120        2057.485
        43.500
 127485538.895 8                  24259692.120
      1589.166                          52.750                    95200259.411 8
  24259696.580        1186.714          52.550    97683733.714 8  24259693.620
      1217.634          52.650    96441990.714 9  24259695.540        1202.181
        55.650
 146835680.827 6                  27941919.920
     -2654.576                          38.300                   109649999.588 6
  27941931.040       -1982.062          38.800   112510440.108 6  27941926.380
     -2033.877          38.650   111080220.486 6  27941928.360       -2007.726
        41.600
 140543028.886 7                  26744452.380
     -2370.825                          46.750                   104950974.778 7
  26744458.760       -1770.381          46.550   107688816.204 7  26744456.260
     -1816.640          47.200   106319900.644 8  26744457.520       -1793.564
        49.800
 132730540.945 8                  25257769.460
      2686.745                          49.100                    99117021.250 8
  25257776.360        2006.328          49.000   101702667.757 8  25257773.440
      2058.668          49.050   100409848.656 8  25257775.060        2032.525
        52.050
 145632222.864 7                  27712900.760
      -403.406                          43.350                   108751339.023 7
  27712908.300        -301.118          42.550   111588321.532 7  27712905.620
      -309.064          43.500   110169826.432 7  27712908.280        -305.115
        46.100
 146528033.113 6                  27883372.200
     -2406.821                          41.500                   109420336.118 7
  27883383.120       -1797.104          42.350   112274763.075 6  27883379.080
     -1843.951          41.300   110847551.253 7  27883380.860       -1820.538
        44.900
 23 12 27 10 10 30.0000000  0 21G05G07G08G13G14G15G17G18G20G22G23G24
                                G30E04E05E09E19E21E31E34E36
 115527165.432 8  90021147.63848  21984095.760                    21984095.880
     -2861.981       -2230.118          48.100          48.050



 133248510.327 6 103829980.60146  25356367.220                    25356370.460
     -3014.503       -2348.971          40.600          40.500



 133257872.890 6 103837323.76146  25358124.720                    25358128.980
     -1652.558       -1287.707          37.850          37.550    99510768.239 7
  25358130.140       -1233.981          43.200


 104733838.109 8  81610784.61948  19930185.680                    19930183.780
      -369.986        -288.302          50.200          50.050



 111578966.795 8  86944661.29147  21232757.560                    21232757.060
      -636.674        -496.109          49.250          47.750    83321991.275 8
  21232762.320        -475.523          53.800


 108286478.925 8  84379054.88948  20606234.700                    20606233.680
      1876.933        1462.545          50.800          49.600



 130193288.054 6 101449332.91346  24774957.060                    24774963.040
      2737.178        2132.868          40.500          40.950



 130049460.256 6 101337226.17346  24747602.220                    24747603.360
     -1751.200       -1364.577          41.050          40.150    97114847.017 7
  24747610.740       -1307.771          47.650


 127871238.132 6  99639874.01046  24333104.220                    24333104.280
     -3811.357       -2969.893          40.150          36.750



 110918212.204 8  86429795.30248  21107020.040                    21107018.780
       528.881         412.115          50.600          48.200



 125442087.038 7  97747066.89746  23870844.720                    23870845.440
      2929.994        2283.113          44.150          40.600    93674287.941 7
  23870850.780        2187.864          47.200


 120234639.542 7  93689364.00847  22879884.900                    22879887.580
      3220.935        2509.818          44.700          43.850    89785641.449 8
  22879891.660        2405.107          48.200


 119518775.612 7  93131508.56847  22743672.620                    22743674.240
     -2717.310       -2117.386          46.650          46.300    89251030.263 8
  22743676.000       -2029.186          50.100


 124136357.156 8                  23622361.300
      -909.889                          52.250                    92699243.577 9
  23622364.340        -679.429          54.050    95117476.650 9  23622361.340
      -697.162          54.300    93908359.766 9  23622363.280        -688.293
        56.850
 142660335.863 7                  27147361.240
      2720.348                          42.050                   106532092.952 6
  27147368.520        2031.312          39.550   109311180.586 6  27147364.860
      2084.347          40.050   107921635.918 7  27147367.440        2057.744
        42.550
 127437967.923 8                  24250639.880
      1582.370                          52.950                    95164735.650 8
  24250644.140        1181.605          52.600    97647283.239 8  24250640.980
      1212.441          52.950    96406003.596 9  24250643.060        1197.023
        55.550
 146915367.468 6                  27957084.060
     -2657.791                          38.500                   109709505.675 6
  27957095.240       -1984.688          38.300   112571498.518 6  27957090.840
     -2036.477          39.300   111140502.760 6  27957092.440       -2010.696
        41.250
 140614283.300 7                  26758011.800
     -2379.413                          46.750                   105004184.208 7
  26758018.180       -1776.808          46.350   107743413.701 7  26758015.560
     -1823.180          47.400   106373804.107 8  26758016.740       -1800.017
        49.550
 132650065.172 8                  25242455.200
      2678.354                          49.450                    99056925.840 8
  25242461.960        2000.059          48.600   101641004.621 8  25242459.340
      2052.256          49.850   100348969.383 8  25242460.800        2026.128
        51.900
 145644556.156 7                  27715247.940
      -418.627                          43.500                   108760548.896 7
  27715254.720        -312.646          42.200   111597771.641 7  27715253.060
      -320.820          44.000   110179156.428 7  27715255.220        -316.791
        45.850
 146600348.833 7                  27897133.580
     -2414.308                          42.350                   109474337.983 7
  27897144.480       -1802.772          42.850   112330173.711 7  27897140.300
     -1849.847          42.400   110902257.496 7  27897142.360       -1826.279
        45.250
 23 12 27 10 11  0.0000000  0 21G05G07G08G13G14G15G17G18G20G22G23G24
                                G30E04E05E09E19E21E31E34E36
 115613221.170 8  90088203.99648  22000471.720                    22000471.820
     -2875.023       -2240.279          48.250          48.000



 133338945.512 6 103900449.43146  25373576.480                    25373579.720
     -3014.544       -2349.001          39.850          40.350



 133307688.821 6 103876141.34746  25367604.560                    25367608.960
     -1668.447       -1300.085          36.750          36.800    99547968.435 7
  25367610.300       -1246.113          44.550


 104745149.257 8  81619598.47648  19932338.140                    19932336.440
      -384.118        -299.313          49.950          49.850



 111598350.183 8  86959765.21747  21236446.120                    21236445.480
      -655.522        -510.797          49.200          47.650    83336465.873 8
  21236450.900        -489.564          53.950


 108230387.874 8  84335347.60248  20595561.020                    20595559.780
      1862.559        1451.345          51.550          49.050



 130111224.482 6 101385387.25246  24759340.660                    24759346.880
      2733.420        2129.938          39.600          39.450



 130102204.710 6 101378325.67246  24757639.000                    24757640.920
     -1764.868       -1375.224          39.300          38.300    97154233.996 7
  24757647.420       -1318.148          47.400


 127985587.103 6  99728976.84745  24354864.200                    24354864.280
     -3811.828       -2970.255          40.300          33.850



 110902630.015 8  86417653.32447  21104054.840                    21104053.680
       509.917         397.338          50.250          47.850



 125354365.893 7  97678712.82346  23854152.080                    23854152.820
      2918.146        2273.884          44.300          40.050    93608781.964 7
  23854157.900        2179.161          47.100


 120138117.239 7  93614151.79747  22861517.440                    22861520.080
      3213.994        2504.409          44.750          43.800    89713563.063 7
  22861523.760        2400.044          47.700


 119600374.859 7  93195092.34047  22759200.460                    22759202.380
     -2722.540       -2121.462          46.700          46.800    89311964.707 8
  22759204.460       -2033.237          50.600


 124163778.640 8                  23627579.400
      -918.242                          52.200                    92719720.624 9
  23627582.520        -685.771          54.100    95138487.883 9  23627579.480
      -703.656          54.050    93929103.907 9  23627581.440        -694.731
        57.250
 142578711.880 6                  27131829.000
      2721.396                          40.650                   106471139.728 6
  27131836.200        2032.133          39.400   109248637.294 6  27131832.620
      2085.329          40.150   107859887.668 7  27131835.000        2058.660
        42.900
 127390585.935 8                  24241623.560
      1576.350                          52.800                    95129353.003 8
  24241627.620        1177.115          52.600    97610977.562 8  24241624.320
      1207.821          52.650    96370159.434 9  24241626.540        1192.490
        55.800
 146995140.491 6                  27972264.620
     -2660.659                          37.850                   109769076.272 6
  27972275.620       -1987.024          38.950   112632623.136 6  27972271.460
     -2038.614          38.350   111200850.352 6  27972272.740       -2012.797
        41.800
 140685777.180 7                  26771616.800
     -2387.142                          46.700                   105057572.453 7
  26771623.160       -1782.499          46.150   107798194.684 7  26771620.420
     -1829.016          47.050   106427888.725 8  26771621.540       -1805.831
        49.750
 132569825.744 8                  25227185.940
      2670.898                          49.000                    98997006.951 8
  25227192.580        1994.377          48.900   101579522.623 8  25227190.500
      2046.391          49.650   100288268.936 8  25227191.640        2020.426
        52.400
 145657334.248 7                  27717679.580
      -433.134                          43.100                   108770090.938 7
  27717686.200        -323.563          42.550   111607562.586 7  27717684.840
      -331.974          43.900   110188822.916 7  27717686.600        -327.778
        46.350
 146672877.099 6                  27910935.400
     -2420.902                          41.900                   109528498.570 7
  27910946.360       -1807.963          42.950   112385747.198 7  27910942.280
     -1855.157          42.750   110957124.541 7  27910944.260       -1831.583
        45.950
 23 12 27 10 11 30.0000000  0 21G05G07G08G13G14G15G17G18G20G22G23G24
                                G30E04E05E09E19E21E31E34E36
 115699682.665 8  90155576.50448  22016924.920                    22016925.140
     -2888.329       -2250.648          48.800          48.650



 133429394.397 6 103970928.95346  25390788.380                    25390791.540
     -3014.814       -2349.212          38.650          38.150



 133358005.909 6 103915349.41646  25377179.740                    25377184.100
     -1685.618       -1313.469          36.000          36.000    99585542.773 7
  25377185.300       -1258.494          44.750


 104756896.984 8  81628752.53248  19934573.600                    19934572.060
      -398.455        -310.484          49.950          49.950



 111618311.558 8  86975319.53447  21240244.600                    21240243.920
      -674.538        -525.614          48.850          47.500    83351372.093 9
  21240249.520        -503.777          54.100


 108174741.736 8  84291986.99148  20584972.020                    20584970.680
      1847.818        1439.858          51.100          49.450



 130029289.766 6 101321542.02746  24743748.800                    24743755.240
      2729.530        2126.908          38.650          38.600



 130155379.639 6 101419760.56146  24767757.700                    24767760.480
     -1778.955       -1386.201          38.850          38.650    97193942.433 7
  24767765.820       -1328.677          47.550


 128099970.714 6  99818106.66845  24376630.920                    24376631.260
     -3812.637       -2970.889          39.100          30.250



 110887629.240 8  86405964.39147  21101200.280                    21101199.060
       490.688         382.354          50.400          47.950



 125267012.807 7  97610645.53046  23837529.440                    23837530.300
      2905.930        2264.362          44.150          41.300    93543550.812 7
  23837535.040        2170.039          47.300


 120041813.073 7  93539109.58247  22843191.580                    22843194.100
      3206.865        2498.855          45.200          43.000    89641647.595 7
  22843197.340        2394.684          47.400


 119682148.027 7  93258811.65547  22774761.500                    22774763.640
     -2728.247       -2125.908          46.000          45.900    89373029.031 8
  22774765.780       -2037.312          50.550


 124191469.524 8                  23632848.820
      -927.038                          52.200                    92740398.842 9
  23632852.040        -692.307          54.250    95159705.537 9  23632848.880
      -710.373          54.300    93950051.843 9  23632850.860        -701.334
        57.100
 142497068.072 6                  27116292.820
      2722.030                          39.900                   106410171.732 6
  27116300.220        2032.742          40.850   109186078.885 6  27116296.620
      2085.712          40.750   107798124.451 7  27116299.040        2059.331
        43.850
 127343398.347 8                  24232644.140
      1570.119                          52.700                    95094115.530 8
  24232648.060        1172.459          52.550    97574820.844 8  24232644.620
      1203.066          52.800    96334462.338 9  24232646.980        1187.765
        55.550
 147075003.953 6                  27987462.380
     -2663.464                          38.400                   109828714.324 6
  27987473.400       -1988.883          39.350   112693817.024 6  27987469.460
     -2040.669          39.050   111261266.318 6  27987470.460       -2014.666
        41.950
 140757513.332 7                  26785267.820
     -2394.993                          46.700                   105111141.615 7
  26785274.220       -1788.485          45.900   107853161.288 7  26785271.280
     -1834.998          46.900   106482156.603 8  26785272.440       -1811.731
        49.200
 132489828.533 8                  25211962.720
      2662.902                          49.400                    98937268.933 8
  25211969.340        1988.555          48.600   101518226.190 8  25211967.100
      2040.403          49.900   100227751.713 8  25211968.480        2014.481
        52.150
 145670561.088 7                  27720196.180
      -447.943                          42.950                   108779968.035 7
  27720203.440        -334.448          42.700   111617697.351 7  27720202.080
      -343.262          44.100   110198828.841 7  27720203.360        -338.855
        46.200
 146745620.242 7                  27924778.220
     -2427.674                          42.450                   109582819.599 7
  27924788.940       -1813.076          42.550   112441485.323 7  27924784.940
     -1860.306          43.000   111012154.113 7  27924787.000       -1836.661
        45.750
 23 12 27 10 12  0.0000000  0 21G05G07G08G13G14G15G17G18G20G22G23G24
                                G30E04E05E09E19E21E31E34E36
 115786536.381 8  90223254.64048  22033452.800                    22033452.920
     -2901.772       -2261.125          49.100          49.050



 133519846.135 6 104041410.65346  25408000.720                    25408003.860
     -3015.348       -2349.626          39.250          39.300



 133408812.078 6 103954938.58146  25386848.000                    25386852.520
     -1701.963       -1326.205          38.000          38.100    99623482.356 7
  25386853.420       -1270.643          43.050


 104769071.198 8  81638238.91348  19936890.260                    19936888.640
      -413.125        -321.916          49.850          49.800



 111638839.545 8  86991315.36347  21244150.880                    21244150.220
      -693.832        -540.648          48.700          47.950    83366701.424 9
  21244156.000        -518.083          54.250


 108119531.945 8  84248966.39448  20574465.940                    20574464.640
      1832.942        1428.269          51.350          49.250



 129947476.447 6 101257791.37146  24728179.900                    24728186.580
      2724.775        2123.204          38.200          39.100



 130208971.999 6 101461520.72946  24777955.860                    24777959.180
     -1793.333       -1397.408          40.650          40.500    97233962.566 7
  24777963.840       -1339.228          47.250


 128214375.482 6  99907252.96046  24398401.340                    24398402.460
     -3813.882       -2971.867          39.600          37.200



 110873199.785 8  86394720.65148  21098454.460                    21098453.080
       471.351         367.285          50.550          48.000



 125180019.967 7  97542858.94746  23820975.360                    23820976.260
      2893.614        2254.767          44.900          41.650    93478588.674 7
  23820980.800        2160.879          47.350


 119945717.757 7  93464230.08947  22824905.500                    22824907.740
      3199.570        2493.171          45.750          44.400    89569888.059 7
  22824910.640        2389.342          47.350


 119764083.366 7  93322657.31047  22790353.220                    22790355.660
     -2733.974       -2130.370          46.600          46.200    89434214.442 8
  22790357.660       -2041.587          50.550


 124219419.476 8                  23638167.560
      -936.132                          52.200                    92761270.524 9
  23638170.820        -699.035          54.250    95181121.698 9  23638167.660
      -717.278          54.250    93971195.765 9  23638169.580        -708.152
        57.000
 142415394.550 6                  27100751.040
      2722.950                          40.900                   106349181.568 6
  27100758.580        2033.388          40.900   109123497.693 6  27100754.620
      2086.240          40.800   107736338.783 7  27100757.320        2059.845
        43.750
 127296395.633 8                  24223699.780
      1563.563                          52.800                    95059016.111 8
  24223703.620        1167.610          52.600    97538805.784 8  24223700.120
      1198.051          52.750    96298905.098 9  24223702.620        1182.830
        55.400
 147154946.855 6                  28002675.300
     -2666.230                          38.050                   109888411.758 6
  28002686.140       -1990.786          38.100   112755071.810 6  28002682.680
     -2042.868          39.550   111321742.440 6  28002683.480       -2016.790
        41.500
 140829479.538 7                  26798962.600
     -2402.869                          47.500                   105164882.554 7
  26798969.120       -1794.245          46.000   107908304.176 7  26798965.880
     -1841.080          46.600   106536598.513 8  26798967.120       -1817.617
        49.000
 132410064.420 8                  25196783.960
      2654.798                          49.200                    98877704.984 8
  25196790.120        1982.487          48.750   101457108.390 8  25196788.560
      2034.176          50.350   100167410.836 8  25196789.720        2008.364
        52.250
 145684225.649 7                  27722796.160
      -462.848                          42.500                   108790172.012 7
  27722804.400        -345.588          43.350   111628167.500 7  27722802.460
      -354.594          43.750   110209165.910 7  27722803.400        -350.161
        46.250
 146818565.710 7                  27938659.560
     -2435.059                          42.950                   109637291.680 7
  27938669.940       -1818.252          42.750   112497378.438 7  27938666.260
     -1865.795          43.050   111067336.711 7  27938668.180       -1841.985
        45.650
 23 12 27 10 12 30.0000000  0 21G05G07G08G13G14G15G17G18G20G22G23G24
                                G30E04E05E09E19E21E31E34E36
 115873790.207 8  90291244.55048  22050056.820                    22050056.960
     -2915.112       -2271.520          49.400          49.500



 133610310.551 6 104111902.22946  25425215.660                    25425218.580
     -3015.659       -2349.871          37.800          37.800



 133460116.377 6 103994915.92746  25396611.120                    25396615.580
     -1718.514       -1339.098          38.200          37.500    99661794.000 7
  25396616.100       -1283.092          43.350


 104781683.102 8  81648066.35648  19939290.220                    19939288.520
      -427.713        -333.283          50.350          49.950



 111659943.846 8  87007760.27247  21248166.880                    21248166.260
      -713.040        -555.615          49.200          47.500    83382461.126 9
  21248172.080        -532.440          54.150


 108064770.636 8  84206295.27848  20564045.180                    20564043.960
      1817.922        1416.564          51.100          49.050



 129865798.253 6 101194146.06646  24712636.800                    24712643.520
      2720.258        2119.686          37.900          37.650



 130262989.933 6 101503612.52346  24788235.200                    24788238.740
     -1807.428       -1408.389          40.650          40.500    97274300.514 7
  24788242.900       -1349.884          47.350


 128328809.187 6  99996421.82946  24420177.600                    24420178.900
     -3814.994       -2972.732          39.050          36.200



 110859352.480 8  86383930.53547  21095819.340                    21095817.900
       451.921         352.146          50.650          47.550



 125093400.792 7  97475363.54146  23804492.300                    23804493.160
      2881.146        2245.050          45.450          40.950    93413905.573 7
  23804497.660        2151.449          47.250


 119849843.112 7  93389522.56447  22806661.400                    22806663.360
      3192.271        2487.482          45.650          44.550    89498293.344 7
  22806666.000        2383.750          47.500


 119846190.242 7  93386636.65547  22805977.600                    22805980.140
     -2739.559       -2134.724          46.100          46.100    89495527.979 8
  22805981.980       -2045.876          50.250


 124247639.261 8                  23643537.620
      -945.051                          52.300                    92782343.711 9
  23643540.960        -705.736          54.100    95202744.622 9  23643537.800
      -724.126          54.300    93992543.821 9  23643539.640        -714.937
        56.900
 142333702.714 6                  27085205.800
      2723.182                          41.000                   106288177.681 6
  27085213.020        2033.823          40.900   109060902.445 6  27085209.280
      2086.696          40.550   107674539.215 7  27085212.160        2060.349
        43.600
 127249589.463 8                  24214792.800
      1556.980                          52.900                    95024063.469 8
  24214796.620        1162.664          52.450    97502941.324 8  24214793.100
      1193.024          52.950    96263496.551 9  24214795.640        1177.836
        55.400
 147234979.734 6                  28017905.140
     -2669.300                          37.550                   109948176.368 6
  28017915.620       -1993.059          38.600   112816395.483 6  28017912.960
     -2045.266          38.850   111382286.574 6  28017913.160       -2019.058
        41.350
 140901684.868 7                  26812702.840
     -2410.645                          47.000                   105218802.068 7
  26812709.560       -1800.229          45.750   107963630.288 7  26812705.920
     -1847.197          46.150   106591221.328 8  26812707.360       -1823.672
        48.600
 132330545.486 8                  25181651.840
      2646.622                          49.750                    98818324.137 8
  25181657.920        1976.338          48.750   101396178.449 8  25181656.260
      2027.963          49.950   100107255.444 8  25181657.680        2002.135
        52.050
 145698338.033 7                  27725481.420
      -477.871                          42.250                   108800710.405 7
  27725490.600        -356.788          43.400   111638980.813 7  27725488.120
      -366.080          43.250   110219841.763 7  27725488.840        -361.479
        46.050
 146891721.989 7                  27952580.960
     -2442.041                          42.700                   109691921.225 7
  27952590.960       -1823.442          42.600   112553433.112 7  27952587.580
     -1871.123          43.150   111122678.826 7  27952589.580       -1847.322
        45.450
 23 12 27 10 13  0.0000000  0 21G05G07G08G13G14G15G17G18G20G22G23G24
                                G30E04E05E09E19E21E31E34E36
 115961437.385 8  90359540.96748  22066735.640                    22066735.680
     -2927.520       -2281.187          48.800          48.850



 133700782.892 6 104182400.01446  25442432.000                    25442434.740
     -3015.353       -2349.629          39.000          39.450



 133511912.437 6 104035276.44245  25406467.420                    25406471.600
     -1734.098       -1351.246          36.700          31.100    99700472.878 7
  25406472.320       -1294.953          43.500


 104794729.056 8  81658232.01248  19941772.860                    19941771.020
      -441.483        -344.014          49.650          49.400



 111681619.833 8  87024650.65847  21252291.780                    21252291.120
      -731.403        -569.924          49.300          47.800    83398647.746 9
  21252296.880        -546.198          54.000


 108010456.526 8  84163972.62748  20553709.420                    20553708.400
      1803.619        1405.419          50.950          49.750



 129784254.349 6 101130605.52346  24697119.180                    24697125.840
      2716.396        2116.677          39.200          40.000



 130317427.166 6 101546031.03546  24798594.360                    24798597.780
     -1820.387       -1418.488          39.600          39.050    97314951.585 7
  24798601.840       -1359.771          47.000


 128443265.396 6 100085608.16045  24441958.000                    24441959.340
     -3814.802       -2972.580          38.900          35.650



 110846083.626 8  86373591.15847  21093294.300                    21093292.880
       433.313         337.646          50.400          47.850



 125007154.193 7  97408158.41846  23788080.180                    23788080.780
      2869.306        2235.824          45.100          40.250    93349500.686 7
  23788085.500        2142.606          47.500


 119754186.594 7  93314985.00247  22788458.700                    22788460.540
      3185.669        2482.339          45.350          44.250    89426861.512 7
  22788462.920        2378.790          47.650


 119928463.689 7  93450745.79047  22821633.820                    22821636.220
     -2744.533       -2138.598          47.350          47.300    89556965.883 8
  22821637.820       -2049.513          50.050


 124276125.379 8                  23648958.340
      -953.330                          52.100                    92803615.776 8
  23648961.640        -711.938          53.850    95224571.617 9  23648958.620
      -730.499          54.350    94014093.352 9  23648960.380        -721.235
        57.000
 142251989.120 6                  27069656.320
      2724.787                          40.550                   106227157.634 6
  27069663.660        2034.746          41.300   108998290.573 6  27069659.800
      2087.912          40.650   107612723.263 7  27069662.840        2061.303
        44.100
 127202977.046 8                  24205922.740
      1551.094                          52.550                    94989255.503 8
  24205926.560        1158.284          52.250    97467225.327 8  24205923.060
      1188.488          53.200    96228234.566 9  24205925.560        1173.402
        55.650
 147315097.866 6                  28033151.200
     -2671.458                          38.250                   110008004.641 6
  28033161.540       -1994.816          39.550   112877784.524 6  28033159.380
     -2046.848          38.500   111442895.236 6  28033159.140       -2020.876
        41.750
 140974123.863 7                  26826487.400
     -2417.873                          46.350                   105272896.060 7
  26826494.380       -1805.522          45.300   108019135.432 7  26826490.420
     -1852.705          46.050   106646020.898 8  26826492.080       -1829.100
        48.550
 132251269.401 8                  25166566.020
      2639.036                          49.300                    98759124.617 8
  25166571.780        1970.716          48.350   101335434.574 8  25166570.220
      2022.166          50.600   100047283.747 8  25166571.720        1996.409
        52.450
 145712893.904 7                  27728251.500
      -492.038                          42.900                   108811580.009 7
  27728260.820        -367.460          43.150   111650133.960 7  27728257.900
      -376.981          43.350   110230853.133 7  27728258.680        -372.206
        46.250
 146965083.249 7                  27966541.280
     -2448.202                          42.750                   109746703.823 7
  27966551.380       -1828.122          42.050   112609644.831 7  27966547.640
     -1875.813          43.800   111178175.978 7  27966549.900       -1851.900
        45.750
 23 12 27 10 13 30.0000000  0 21G05G07G08G13G14G15G17G18G20G22G23G24
                                G30E04E05E09E19E21E31E34E36
 116049472.422 8  90428139.60348  22083488.240                    22083488.260
     -2940.862       -2291.584          49.050          48.950



 133791259.783 6 104252901.33046  25459649.480                    25459651.980
     -3016.158       -2350.257          40.850          40.900



 133564196.075 6 104076016.95145  25416416.520                    25416420.720
     -1750.903       -1364.344          37.750          34.600    99739515.850 7
  25416421.520       -1307.479          43.950


 104808205.870 8  81668733.39548  19944337.440                    19944335.520
      -456.493        -355.710          49.800          49.750



 111703863.297 8  87041983.23447  21256524.760                    21256523.960
      -750.782        -585.025          49.900          47.150    83415258.135 8
  21256529.580        -560.736          53.750


 107956588.054 8  84121997.21748  20543458.580                    20543457.560
      1788.155        1393.368          51.250          49.600



 129702844.674 6 101067169.65846  24681627.420                    24681633.640
      2711.349        2112.749          39.550          39.650



 130372278.004 6 101588771.86446  24809032.060                    24809035.380
     -1835.107       -1429.959          39.800          39.950    97355911.495 7
  24809039.640       -1370.383          47.250


 128557738.070 6 100174807.35545  24463741.840                    24463743.060
     -3816.110       -2973.602          39.700          35.100



 110833390.293 8  86363700.24147  21090878.720                    21090877.440
       413.456         322.173          50.350          47.950



 124921279.685 7  97341243.23146  23771738.840                    23771739.060
      2856.161        2225.580          44.500          40.950    93285373.634 7
  23771744.200        2132.910          47.250


 119658746.190 7  93240615.85247  22770297.120                    22770298.940
      3177.749        2476.168          44.950          43.600    89355591.057 7
  22770301.060        2373.044          47.850


 120010899.181 7  93514981.20947  22837321.000                    22837322.920
     -2750.440       -2143.202          46.950          47.000    89618524.811 8
  22837324.420       -2053.923          49.950


 124304874.724 8                  23654429.100
      -962.679                          51.800                    92825084.408 8
  23654432.360        -718.923          53.750    95246600.302 9  23654429.460
      -737.652          54.150    94035842.007 9  23654431.220        -728.276
        56.750
 142170251.376 6                  27054102.360
      2724.935                          39.050                   106166119.540 6
  27054109.760        2034.942          40.650   108935660.220 6  27054105.780
      2087.901          39.700   107550889.023 7  27054108.780        2061.527
        43.100
 127156556.131 8                  24197089.020
      1544.171                          52.100                    94954590.540 8
  24197092.940        1153.123          52.150    97431656.054 8  24197089.580
      1183.228          53.450    96193117.451 9  24197091.920        1168.153
        55.600
 147395297.773 6                  28048412.920
     -2674.487                          37.900                   110067893.978 6
  28048423.280       -1997.178          39.300   112939236.264 6  28048421.260
     -2049.437          39.550   111503565.764 7  28048421.040       -2023.224
        42.100
 141046791.674 7                  26840315.560
     -2426.114                          46.400                   105327160.930 7
  26840322.740       -1811.674          45.200   108074815.909 7  26840318.600
     -1858.924          45.750   106700993.569 8  26840320.300       -1835.241
        48.100
 132172234.321 8                  25151526.100
      2630.522                          49.800                    98700105.070 8
  25151531.580        1964.338          48.700   101274875.379 8  25151530.240
      2015.571          50.200    99987494.378 8  25151531.780        1989.936
        52.300
 145727889.478 7                  27731105.360
      -507.188                          43.800                   108822777.936 7
  27731114.380        -378.704          43.450   111661624.028 7  27731111.220
      -388.556          42.600   110242197.132 7  27731112.280        -383.629
        46.000
 147038644.215 7                  27980539.660
     -2455.321                          42.550                   109801635.569 6
  27980549.520       -1833.462          41.600   112666009.597 7  27980545.880
     -1881.375          43.400   111233824.238 7  27980548.120       -1857.429
        45.300
 23 12 27 10 14  0.0000000  0 21G05G07G08G13G14G15G17G18G20G22G23G24
                                G30E04E05E09E19E21E31E34E36
 116137898.134 8  90497042.66148  22100315.160                    22100315.080
     -2954.021       -2301.840          48.650          48.850



 133881746.081 6 104323410.01546  25476868.820                    25476871.040
     -3016.515       -2350.535          40.150          40.000



 133616944.292 6 104117115.55045  25426459.120                    25426463.280
     -1767.155       -1377.004          36.500          33.900    99778925.945 7
  25426464.260       -1319.726          43.300


 104822119.659 8  81679575.27648  19946985.100                    19946983.200
      -471.049        -367.052          50.150          49.900



 111726679.132 8  87059761.82347  21260866.600                    21260865.640
      -770.015        -600.012          50.000          47.600    83432295.942 8
  21260871.180        -575.052          53.950


 107903173.198 8  84080375.25648  20533294.200                    20533293.160
      1772.963        1381.530          51.600          49.950



 129621578.157 6 101003845.49346  24666162.960                    24666168.660
      2706.348        2108.856          41.200          41.150



 130427545.735 6 101631837.54346  24819549.080                    24819552.240
     -1849.398       -1441.095          39.650          39.550    97397182.746 7
  24819556.980       -1380.855          47.100


 128672230.571 6 100264022.01745  24485529.160                    24485530.260
     -3816.582       -2973.967          39.450          34.250



 110821278.576 8  86354262.53648  21088573.880                    21088572.820
       393.918         306.950          50.550          48.100



 124835785.858 7  97274624.69146  23755469.960                    23755469.840
      2843.378        2215.621          45.100          40.100    93221530.861 7
  23755475.400        2123.313          47.550


 119563528.934 7  93166420.59947  22752177.960                    22752179.820
      3170.383        2470.428          44.900          44.100    89284487.263 8
  22752181.780        2367.382          48.600


 120093501.370 7  93579346.53147  22853039.800                    22853041.300
     -2756.343       -2147.799          46.800          46.950    89680208.224 8
  22853042.380       -2058.106          49.600


 124333893.337 8                  23659951.060
      -971.775                          51.950                    92846754.110 8
  23659954.300        -725.735          53.950    95268835.303 8  23659951.520
      -744.619          53.850    94057794.360 9  23659953.300        -735.178
        56.750
 142088495.959 6                  27038544.980
      2725.295                          40.850                   106105068.246 6
  27038552.380        2035.330          40.750   108873016.272 6  27038548.420
      2088.602          38.900   107489041.424 7  27038551.400        2061.784
        43.150
 127110333.574 8                  24188292.980
      1537.420                          52.100                    94920073.700 8
  24188296.940        1148.104          52.200    97396238.780 8  24188294.020
      1178.027          53.400    96158150.391 9  24188296.040        1163.083
        55.650
 147475584.957 6                  28063691.080
     -2677.710                          38.100                   110127848.517 6
  28063701.260       -1999.698          39.350   113000754.801 6  28063699.680
     -2051.723          39.600   111564302.312 7  28063699.400       -2025.685
        42.200
 141119692.476 7                  26854188.080
     -2433.822                          46.950                   105381599.792 7
  26854195.500       -1817.560          45.650   108130674.924 7  26854191.140
     -1864.899          45.000   106756142.504 8  26854192.840       -1841.179
        48.050
 132093447.514 8                  25136533.320
      2622.057                          49.550                    98641270.923 8
  25136538.800        1958.045          49.000   101214506.401 8  25136537.000
      2009.056          49.850    99927892.815 8  25136539.000        1983.578
        52.300
 145743329.952 7                  27734044.260
      -522.133                          44.650                   108834308.111 7
  27734052.260        -389.906          42.950   111673455.004 7  27734049.180
      -400.087          42.050   110253877.705 7  27734050.660        -394.896
        45.600
 147112408.644 7                  27994576.760
     -2462.074                          43.350                   109856719.293 6
  27994586.100       -1838.648          41.650   112722530.294 7  27994582.820
     -1886.642          42.900   111289626.450 7  27994585.140       -1862.668
        45.150
 23 12 27 10 14 30.0000000  0 21G05G07G08G13G14G15G17G18G20G22G23G24
                                G30E04E05E09E19E21E31E34E36
 116226708.254 8  90566245.27448  22117215.240                    22117215.100
     -2966.646       -2311.674          48.450          48.600



 133972237.133 6 104393922.35346  25494088.860                    25494091.280
     -3016.239       -2350.322          41.650          41.500



 133670205.601 6 104158617.86846  25436594.460                    25436598.140
     -1783.041       -1389.381          36.900          36.000    99818699.080 7
  25436599.520       -1331.761          42.800


 104836466.920 8  81690754.93348  19949715.360                    19949713.480
      -485.443        -378.269          49.700          49.850



 111750062.573 8  87077982.69947  21265316.480                    21265315.380
      -788.916        -614.739          49.650          47.600    83449757.615 8
  21265320.720        -589.130          53.900


 107850209.590 8  84039104.90848  20523215.620                    20523214.700
      1757.931        1369.816          50.850          50.150



 129540453.852 7 100940632.25247  24650725.640                    24650730.640
      2701.754        2105.280          42.350          42.600



 130483223.937 6 101675223.04646  24830144.480                    24830147.260
     -1862.514       -1451.313          39.000          39.000    97438760.522 7
  24830152.540       -1390.986          47.000


 128786736.546 6 100353247.13846  24507319.200                    24507320.980
     -3817.165       -2974.429          38.450          37.300



 110809744.759 8  86345275.12748  21086379.100                    21086378.180
       374.913         292.140          50.550          48.700



 124750671.543 7  97208301.88146  23739273.180                    23739272.960
      2830.901        2205.898          44.850          40.300    93157971.513 7
  23739278.800        2113.896          47.650


 119468532.152 7  93092397.15147  22734100.660                    22734102.660
      3163.013        2464.686          44.300          44.000    89213548.129 8
  22734104.540        2361.923          49.250


 120176265.207 7  93643837.79047  22868789.240                    22868790.840
     -2761.417       -2151.755          47.100          47.250    89742012.343 8
  22868791.520       -2062.183          50.600


 124363177.556 8                  23665523.560
      -980.547                          51.400                    92868622.152 8
  23665526.880        -732.260          53.950    95291273.822 8  23665524.120
      -751.347          53.750    94079947.642 9  23665525.940        -741.796
        56.550
 142006719.575 6                  27022983.680
      2726.206                          41.100                   106044001.305 6
  27022990.720        2035.905          39.600   108810356.319 6  27022987.040
      2088.900          38.900   107427177.964 7  27022989.860        2062.427
        42.050
 127064306.563 8                  24179534.200
      1530.951                          51.850                    94885702.874 8
  24179537.980        1143.225          52.150    97360971.324 8  24179535.800
      1173.069          53.650    96123331.250 9  24179537.440        1158.139
        55.550
 147555955.125 6                  28078985.360
     -2680.220                          39.200                   110187865.010 6
  28078995.200       -2001.497          40.000   113062336.971 6  28078993.880
     -2053.915          39.300   111625101.652 7  28078993.320       -2027.826
        42.300
 141192820.796 7                  26868103.940
     -2441.424                          46.750                   105436208.534 7
  26868111.460       -1823.243          45.550   108186708.243 7  26868106.900
     -1870.700          44.300   106811463.543 7  26868108.760       -1846.991
        47.550
 132014906.542 8                  25121587.380
      2613.885                          49.650                    98582620.327 8
  25121592.680        1951.943          49.150   101154325.777 8  25121591.000
      2002.879          49.950    99868477.201 8  25121592.980        1977.438
        52.250
 145759211.011 7                  27737066.700
      -536.706                          44.950                   108846167.289 7
  27737073.520        -400.940          43.000   111685623.555 6  27737070.500
      -411.222          41.600   110265891.579 7  27737072.920        -406.129
        45.100
 147186370.540 7                  28008651.320
     -2468.484                          42.700                   109911950.464 6
  28008660.400       -1843.549          41.500   112779202.286 6  28008657.280
     -1891.583          41.850   111345578.027 7  28008659.720       -1867.495
        44.400
 23 12 27 10 15  0.0000000  0 21G05G07G08G13G14G15G17G18G20G22G23G24
                                G30E04E05E09E19E21E31E34E36
 116315896.388 8  90635742.42748  22134187.140                    22134187.080
     -2979.339       -2321.566          48.350          48.550



 134062728.744 6 104464435.12846  25511309.060                    25511311.560
     -3016.364       -2350.419          40.350          40.500



 133723946.962 6 104200494.27845  25446821.260                    25446824.680
     -1799.272       -1402.030          37.800          35.000    99858830.677 7
  25446826.420       -1343.765          43.600


 104851244.051 8  81702269.55448  19952527.380                    19952525.600
      -499.826        -389.477          50.000          49.950



 111774008.974 8  87096642.24247  21269873.320                    21269872.240
      -807.762        -629.424          49.750          47.500    83467639.675 8
  21269877.380        -603.159          53.450


 107797695.564 8  83998184.89548  20513222.460                    20513221.580
      1742.790        1358.020          50.700          49.700



 129459470.957 7 100877529.21847  24635315.180                    24635319.420
      2696.733        2101.371          42.950          43.000



 130539306.448 6 101718923.61246  24840816.680                    24840818.940
     -1876.193       -1461.972          39.550          39.200    97480640.206 7
  24840824.820       -1401.159          46.500


 128901249.397 6 100442477.63946  24529110.380                    24529112.580
     -3816.687       -2974.049          38.700          36.100



 110798785.374 8  86336735.33748  21084293.720                    21084292.700
       355.526         277.033          50.900          48.100



 124665935.857 7  97142274.10246  23723148.500                    23723148.120
      2817.940        2195.799          44.550          39.200    93094694.905 7
  23723154.200        2104.404          47.200


 119373753.454 7  93018543.64347  22716064.820                    22716067.100
      3155.394        2458.748          44.850          43.400    89142771.858 8
  22716068.860        2356.422          49.150


 120259185.776 7  93708451.18547  22884568.760                    22884570.600
     -2766.798       -2155.947          47.200          47.150    89803933.496 8
  22884571.020       -2066.063          50.500


 124392723.883 8                  23671145.940
      -989.348                          51.150                    92890685.919 8
  23671149.320        -738.810          53.550    95313913.168 8  23671146.540
      -758.089          53.850    94102299.196 9  23671148.440        -748.464
        56.400
 141924919.210 6                  27007417.680
      2726.821                          40.950                   105982916.536 6
  27007424.920        2036.370          39.350   108747678.032 6  27007421.200
      2089.332          37.850   107365296.431 6  27007423.880        2062.933
        41.400
 127018472.491 8                  24170812.220
      1524.408                          51.750                    94851476.120 8
  24170815.740        1138.346          51.750    97325851.710 9  24170814.340
      1168.059          54.100    96088658.068 9  24170815.580        1153.182
        55.600
 147636404.232 6                  28094294.520
     -2683.094                          38.300                   110247940.454 6
  28094304.480       -2003.719          39.900   113123979.602 6  28094302.880
     -2055.868          39.400   111685960.674 7  28094302.420       -2029.660
        42.250
 141266171.332 7                  26882062.020
     -2448.786                          47.000                   105490983.210 7
  26882069.620       -1828.696          44.750   108242911.842 7  26882064.900
     -1876.451          44.350   106866952.678 7  26882067.020       -1852.562
        47.150
 131936609.151 8                  25106687.740
      2605.758                          49.300                    98524151.645 8
  25106693.020        1945.771          48.950   101094331.804 8  25106691.060
      1996.552          49.850    99809245.880 8  25106693.380        1971.145
        52.150
 145775528.361 7                  27740172.280
      -551.311                          44.850                   108858352.268 7
  27740178.160        -411.761          42.850   111698126.421 7  27740175.300
      -422.515          42.050   110278235.499 7  27740178.140        -417.117
        45.350
 147260524.225 7                  28022762.320
     -2475.113                          42.600                   109967324.825 6
  28022771.420       -1848.276          40.850   112836021.226 7  28022768.160
     -1896.609          42.250   111401674.671 7  28022770.840       -1872.346
        44.100
 23 12 27 10 15 30.0000000  0 21G05G07G08G13G14G15G17G18G20G22G23G24
                                G30E04E05E09E19E21E31E34E36
 116405469.745 7  90705539.77048  22151232.480                    22151232.260
     -2992.187       -2331.576          47.950          48.000



 134153230.626 6 104534955.91246  25528531.060                    25528534.000
     -3016.997       -2350.912          40.000          39.350



 133778177.362 6 104242751.85145  25457140.960                    25457144.540
     -1815.931       -1415.009          37.650          32.800    99899327.422 7
  25457146.120       -1355.759          42.550


 104866461.378 8  81714127.18048  19955423.120                    19955421.480
      -514.583        -400.975          49.650          49.700



 111798527.382 8  87115747.50447  21274538.960                    21274538.000
      -826.762        -644.230          49.650          47.850    83485948.890 8
  21274542.920        -617.350          53.400


 107745643.505 8  83957624.84348  20503317.140                    20503316.180
      1727.361        1345.996          50.900          49.550



 129378642.650 7 100814546.70947  24619934.060                    24619937.540
      2691.684        2097.435          43.400          43.750



 130595800.764 6 101762945.06746  24851567.280                    24851569.180
     -1889.581       -1472.405          38.850          38.300    97522827.442 7
  24851575.680       -1411.297          46.350


 129015777.096 6 100531719.71346  24550904.700                    24550907.160
     -3817.839       -2974.946          39.950          37.050



 110788410.495 8  86328651.01148  21082319.580                    21082318.400
       336.194         261.970          51.200          48.550



 124581591.599 7  97076551.33146  23707098.260                    23707097.880
      2805.132        2185.819          44.200          41.150    93031710.608 7
  23707104.060        2094.614          47.050


 119279204.091 7  92944868.85647  22698072.680                    22698075.180
      3148.089        2453.057          45.350          43.600    89072166.872 8
  22698076.960        2350.740          49.700


 120342271.970 7  93773193.62447  22900379.840                    22900381.580
     -2772.218       -2160.172          47.850          47.800    89865978.324 8
  22900382.160       -2070.114          50.900


 124422542.651 8                  23676820.200
      -998.490                          51.350                    92912953.128 8
  23676823.600        -745.606          53.500    95336761.272 8  23676820.720
      -765.111          53.950    94124856.851 9  23676822.800        -755.355
        56.650
 141843105.688 6                  26991849.140
      2727.336                          41.750                   105921821.890 6
  26991856.500        2036.824          38.750   108684989.616 6  26991852.720
      2089.933          38.500   107303404.904 6  26991855.240        2063.423
        41.550
 126972842.450 8                  24162129.020
      1517.679                          51.850                    94817401.739 8
  24162132.440        1133.364          51.800    97290888.443 9  24162131.660
      1162.893          54.400    96054139.240 9  24162132.580        1148.146
        55.950
 147716941.949 6                  28109620.560
     -2685.920                          38.500                   110308082.034 6
  28109630.460       -2005.725          40.200   113185690.145 6  28109628.540
     -2058.062          39.750   111746886.741 7  28109628.520       -2031.855
        42.750
 141339752.578 7                  26896064.080
     -2456.341                          46.750                   105545930.178 7
  26896071.620       -1834.375          44.650   108299292.207 7  26896066.920
     -1882.192          44.350   106922616.345 7  26896069.140       -1858.257
        47.350
 131858566.893 8                  25091836.740
      2597.195                          49.300                    98465873.443 8
  25091842.020        1939.548          48.900   101034533.281 8  25091839.820
      1990.100          50.200    99750207.514 8  25091842.280        1964.853
        52.500
 145792291.509 7                  27743362.420
      -566.121                          44.350                   108870870.134 7
  27743367.880        -422.732          42.800   111710970.851 7  27743365.220
      -433.725          42.550   110290916.652 7  27743368.160        -428.312
        45.800
 147334877.677 6                  28036911.340
     -2481.574                          41.600                   110022848.370 6
  28036920.520       -1853.302          41.250   112892993.215 6  28036917.460
     -1901.526          41.950   111457922.443 7  28036919.820       -1877.357
        44.500
 23 12 27 10 16  0.0000000  0 21G05G07G08G13G14G15G17G18G20G22G23G24
                                G30E04E05E09E19E21E31E34E36
 116495418.868 8  90775629.90448  22168349.360                    22168349.180
     -3004.685       -2341.315          48.900          49.000



 134243735.542 6 104605479.07446  25545753.600                    25545756.860
     -3017.324       -2351.165          39.900          39.850



 133832888.382 6 104285383.86245  25467551.980                    25467556.180
     -1832.536       -1427.942          37.900          34.550    99940183.048 7
  25467557.340       -1367.961          45.400


 104882112.747 8  81726323.03248  19958401.480                    19958399.880
      -529.112        -412.296          49.900          49.900



 111823610.305 8  87135292.64848  21279311.980                    21279311.240
      -845.649        -658.947          49.600          48.100    83504679.663 8
  21279315.960        -631.525          53.500


 107694048.360 8  83917420.83248  20493498.800                    20493497.880
      1712.058        1334.071          50.500          49.950



 129297965.115 7 100751681.70147  24604581.500                    24604584.660
      2686.547        2093.432          43.750          44.400



 130652697.827 6 101807280.33646  24862394.720                    24862395.900
     -1903.296       -1483.092          40.750          37.700    97565315.390 7
  24862403.180       -1421.373          45.600


 129130310.344 6 100620966.01345  24572699.960                    24572702.420
     -3817.828       -2974.944          40.900          33.550



 110778613.563 8  86321017.03948  21080455.440                    21080453.920
       316.646         246.738          51.350          48.250



 124497634.930 7  97011130.57846  23691121.720                    23691121.420
      2792.033        2175.611          44.300          40.950    92969015.732 7
  23691127.660        2084.804          47.050


 119184878.764 7  92871368.62547  22680123.160                    22680125.880
      3140.316        2447.000          46.100          44.300    89001729.166 8
  22680127.600        2344.979          49.700


 120425516.072 7  93838059.10847  22916220.840                    22916222.700
     -2777.636       -2164.394          47.200          46.800    89928141.073 8
  22916223.580       -2074.282          50.900


 124452627.401 8                  23682545.160
     -1007.484                          51.800                    92935418.965 8
  23682548.540        -752.352          53.500    95359813.176 8  23682545.460
      -771.990          53.600    94147615.721 9  23682547.800        -762.153
        56.350
 141761273.057 6                  26976276.920
      2727.829                          41.100                   105860713.010 6
  26976284.360        2037.073          38.100   108622286.600 6  26976280.660
      2090.316          37.500   107241498.952 6  26976283.120        2063.823
        40.900
 126927410.945 8                  24153483.720
      1510.896                          52.100                    94783475.619 8
  24153487.100        1128.269          51.900    97256077.299 8  24153486.520
      1157.675          53.850    96019770.610 9  24153487.340        1142.969
        55.800
 147797561.067 6                  28124962.020
     -2688.741                          38.850                   110368284.416 6
  28124972.020       -2007.939          40.250   113247463.046 6  28124969.640
     -2060.165          39.750   111807874.385 7  28124970.060       -2034.068
        42.800
 141413556.380 7                  26910108.440
     -2464.049                          46.150                   105601043.322 7
  26910116.040       -1840.020          44.800   108355843.097 7  26910111.320
     -1887.936          43.650   106978448.362 7  26910113.560       -1863.939
        47.050
 131780774.577 8                  25077033.220
      2588.601                          49.350                    98407781.902 8
  25077038.380        1933.107          48.850   100974926.298 8  25077036.260
      1983.537          49.850    99691358.253 8  25077038.780        1958.306
        52.200
 145809493.271 7                  27746635.840
      -580.937                          43.800                   108883715.555 7
  27746641.240        -433.692          43.050   111724151.396 6  27746638.720
      -445.182          41.950   110303929.629 7  27746641.620        -439.452
        45.600
 147409422.255 7                  28051096.680
     -2488.230                          42.300                   110078514.626 6
  28051105.660       -1858.003          40.550   112950111.685 6  28051103.240
     -1906.617          41.750   111514314.799 7  28051105.480       -1882.170
        44.050
 23 12 27 10 16 30.0000000  0 21G05G07G08G13G14G15G17G18G20G22G23G24
                                G30E04E05E09E19E21E31E34E36
 116585737.898 8  90846008.27348  22185536.680                    22185536.220
     -3016.905       -2350.839          48.950          49.000



 134334240.096 6 104676001.97646  25562976.060                    25562979.680
     -3016.896       -2350.830          40.650          41.300



 133888075.031 6 104328386.37146  25478053.620                    25478058.040
     -1847.964       -1439.974          36.900          36.300    99981393.837 7
  25478058.960       -1379.648          44.250


 104898195.400 8  81738854.94448  19961461.900                    19961460.220
      -543.361        -423.399          50.100          50.000



 111849253.683 8  87155274.50348  21284191.700                    21284191.180
      -864.148        -673.362          49.800          48.000    83523828.949 8
  21284195.760        -645.374          53.650


 107642909.043 8  83877572.01648  20483767.220                    20483766.460
      1697.025        1322.357          50.700          49.800



 129217438.454 7 100688934.21447  24589257.360                    24589260.260
      2681.686        2089.646          43.650          43.350



 130709992.076 6 101851925.12546  24873297.620                    24873298.540
     -1916.673       -1493.515          40.750          38.100    97608099.948 7
  24873306.040       -1431.191          45.550


 129244843.364 6 100710212.31945  24594495.320                    24594497.300
     -3817.633       -2974.787          38.850          35.550



 110769391.875 8  86313831.30747  21078700.720                    21078698.880
       297.771         232.029          51.800          47.650



 124414065.619 7  96946011.68446  23675218.920                    23675218.840
      2779.119        2165.548          45.250          39.800    92906610.123 7
  23675224.860        2075.271          47.000


 119090775.717 7  92798041.59047  22662215.980                    22662218.800
      3132.914        2441.231          46.050          44.000    88931457.434 8
  22662220.600        2339.525          49.750


 120508913.916 7  93903044.38347  22932091.000                    22932092.780
     -2782.700       -2168.339          47.650          47.850    89990418.619 8
  22932093.980       -2077.929          50.900


 124482975.412 8                  23688320.320
     -1016.002                          52.350                    92958081.398 8
  23688323.660        -758.738          53.600    95383066.811 8  23688320.420
      -778.544          53.750    94170573.759 9  23688322.900        -768.639
        56.600
 141679419.048 6                  26960700.560
      2728.728                          40.700                   105799588.193 6
  26960708.280        2037.559          37.600   108559567.226 6  26960704.840
      2090.933          37.600   107179576.866 6  26960706.860        2064.170
        40.500
 126882176.049 8                  24144875.940
      1504.491                          52.400                    94749696.305 8
  24144879.340        1123.431          52.150    97221416.784 8  24144878.460
      1152.768          53.800    95985550.699 9  24144879.480        1138.093
        55.850
 147878258.482 6                  28140318.300
     -2691.173                          37.700                   110428545.284 6
  28140328.460       -2009.610          39.900   113309295.963 6  28140325.600
     -2062.164          39.750   111868921.273 7  28140326.540       -2035.803
        42.600
 141487578.071 7                  26924194.220
     -2471.167                          46.050                   105656319.182 7
  26924201.960       -1845.354          44.700   108412560.942 7  26924197.140
     -1893.370          43.550   107034445.215 7  26924199.500       -1869.392
        47.050
 131703230.648 8                  25062277.060
      2580.633                          49.800                    98349875.822 8
  25062282.280        1927.008          49.100   100915509.614 8  25062279.940
      1977.285          49.950    99632696.872 8  25062282.600        1952.102
        52.450
 145827130.090 7                  27749991.740
      -595.200                          43.000                   108896885.852 7
  27749997.840        -444.434          43.000   111737665.278 7  27749995.020
      -456.206          42.650   110317271.722 7  27749997.960        -450.367
        45.850
 147484152.979 7                  28065317.480
     -2494.159                          42.750                   110134319.925 6
  28065326.520       -1862.513          40.900   113007372.773 6  28065324.380
     -1911.285          41.350   111570848.002 7  28065326.300       -1886.851
        44.050
 23 12 27 10 17  0.0000000  0 21G05G07G08G13G14G15G17G18G20G22G23G24
                                G30E04E05E09E19E21E31E34E36
 116676431.431 8  90916678.46848  22202795.280                    22202794.820
     -3029.131       -2360.365          49.300          49.350



 134424750.089 6 104746529.12746  25580199.620                    25580203.520
     -3016.582       -2350.586          38.150          38.050



 133943742.221 6 104371763.35945  25488646.800                    25488651.160
     -1863.458       -1452.046          38.300          33.350   100022963.512 7
  25488652.080       -1391.567          42.450


 104914716.275 8  81751728.34548  19964605.680                    19964603.880
      -557.784        -434.638          49.850          49.750



 111875463.240 8  87175697.54347  21289179.240                    21289178.940
      -882.942        -688.008          50.100          47.650    83543401.029 8
  21289183.400        -659.345          53.850


 107592234.316 8  83838085.21948  20474124.060                    20474123.360
      1681.559        1310.305          50.650          49.350



 129137072.371 7 100626311.79747  24573963.620                    24573966.640
      2676.155        2085.332          43.250          43.500



 130767687.675 6 101896882.64946  24884277.020                    24884277.740
     -1929.762       -1503.716          41.000          37.850    97651184.236 7
  24884285.220       -1441.038          45.150


 129359380.588 6 100799461.74445  24616291.080                    24616293.460
     -3817.653       -2974.802          38.700          33.550



 110760752.202 8  86307099.09747  21077056.700                    21077054.640
       278.420         216.950          51.700          47.150



 124330893.156 7  96881202.02646  23659391.780                    23659391.860
      2765.941        2155.280          45.950          39.750    92844500.879 7
  23659397.580        2065.355          47.200


 118996902.916 7  92724893.97147  22644352.600                    22644355.460
      3125.384        2435.364          46.600          43.750    88861357.647 8
  22644357.200        2333.863          49.450


 120592471.098 7  93968153.81247  22947991.300                    22947993.180
     -2787.677       -2172.219          46.700          46.350    90052815.153 8
  22947994.680       -2081.824          51.250


 124513593.624 8                  23694147.040
     -1024.992                          52.450                    92980945.600 8
  23694150.280        -765.399          53.550    95406527.472 8  23694146.960
      -785.390          53.950    94193736.190 9  23694149.380        -775.398
        56.650
 141597551.121 6                  26945121.400
      2729.435                          40.850                   105738452.929 6
  26945129.600        2038.149          37.900   108496837.158 6  26945126.100
      2091.308          39.650   107117644.194 6  26945127.860        2064.748
        41.550
 126837145.571 8                  24136307.100
      1497.773                          52.750                    94716069.642 8
  24136310.620        1118.429          52.400    97186912.904 8  24136309.100
      1147.586          53.600    95951485.425 9  24136310.460        1133.025
        55.900
 147959040.413 6                  28155690.520
     -2693.949                          37.200                   110488869.258 6
  28155701.020       -2011.935          39.800   113371193.622 6  28155697.300
     -2064.124          39.950   111930032.091 7  28155699.100       -2038.086
        42.650
 141561822.852 7                  26938322.500
     -2478.419                          46.300                   105711761.630 7
  26938330.320       -1850.731          44.650   108469449.744 7  26938325.340
     -1899.023          43.500   107090610.840 7  26938327.960       -1874.837
        47.050
 131625943.320 8                  25047569.700
      2572.082                          50.000                    98292161.343 8
  25047574.980        1920.711          48.800   100856289.532 8  25047572.500
      1970.786          50.350    99574229.590 8  25047575.200        1945.722
        52.550
 145845208.132 7                  27753431.340
      -609.909                          43.050                   108910385.614 7
  27753438.380        -455.433          43.350   111751517.215 7  27753435.760
      -467.363          43.150   110330947.568 7  27753438.200        -461.378
        46.250
 147559074.582 7                  28079574.700
     -2500.425                          43.050                   110190267.764 6
  28079583.560       -1867.232          40.500   113064780.112 6  28079581.900
     -1915.811          41.850   111627525.588 7  28079583.440       -1891.568
        44.050
 23 12 27 10 17 30.0000000  0 21G05G07G08G13G14G15G17G18G20G22G23G24
                                G30E04E05E09E19E21E31E34E36
 116767491.177 8  90987634.01648  22220123.560                    22220122.860
     -3041.599       -2370.078          49.350          49.400



 134515259.940 6 104817056.12846  25597423.040                    25597427.220
     -3017.384       -2351.215          38.500          37.900



 133999883.275 6 104415509.61945  25499330.280                    25499334.400
     -1879.720       -1464.722          36.550          34.150   100064887.013 7
  25499335.260       -1403.363          43.150


 104931670.278 8  81764939.23048  19967831.900                    19967829.960
      -572.571        -446.160          49.900          49.950



 111902232.683 8  87196556.85748  21294273.380                    21294273.200
      -901.665        -702.597          49.850          48.400    83563391.216 9
  21294277.660        -673.411          54.000


 107542021.046 8  83798957.99048  20464568.760                    20464567.940
      1665.891        1298.096          50.550          49.550



 129056864.521 7 100563812.61947  24558699.820                    24558703.100
      2670.694        2081.074          43.250          43.050



 130825776.811 6 101942146.83946  24895331.160                    24895331.840
     -1943.126       -1514.124          40.500          38.000    97694562.381 7
  24895339.260       -1450.914          45.650


 129473913.739 6 100888708.11546  24638086.440                    24638088.720
     -3817.685       -2974.827          38.400          37.750



 110752689.396 8  86300816.39747  21075522.400                    21075520.300
       258.990         201.811          51.200          47.650



 124248114.970 7  96816699.58246  23643639.560                    23643639.860
      2752.417        2144.741          45.700          41.800    92782686.041 7
  23643645.300        2055.462          47.300


 118903256.318 7  92651922.60947  22626532.260                    22626535.140
      3117.595        2429.294          46.650          44.400    88791426.758 8
  22626536.780        2328.121          49.000


 120676181.177 7  94033382.36347  22963920.600                    22963922.400
     -2792.834       -2176.237          46.500          46.350    90115325.836 8
  22963924.320       -2085.678          51.300


 124544476.913 8                  23700024.180
     -1034.143                          52.300                    93004007.757 8
  23700027.440        -772.255          53.700    95430191.257 8  23700024.000
      -792.371          53.750    94217099.161 9  23700026.280        -782.308
        56.600
 141515664.567 6                  26929538.660
      2729.735                          39.550                   105677303.787 6
  26929547.300        2038.343          38.550   108434092.857 6  26929544.020
      2091.556          40.200   107055697.468 6  26929545.640        2064.981
        41.950
 126792315.284 8                  24127776.340
      1490.827                          52.700                    94682592.468 8
  24127780.100        1113.271          52.800    97152562.410 8  24127777.780
      1142.311          53.350    95917571.590 9  24127779.500        1127.820
        55.950
 148039901.124 6                  28171077.540
     -2696.753                          36.300                   110549252.030 6
  28171088.420       -2013.796          39.850   113433151.639 6  28171084.420
     -2066.419          38.750   111991202.484 7  28171086.600       -2040.049
        42.450
 141636283.848 7                  26952492.000
     -2485.730                          45.350                   105767365.545 7
  26952499.720       -1856.247          44.500   108526504.201 7  26952494.760
     -1904.735          43.100   107146940.025 7  26952497.580       -1880.457
        46.750
 131548908.697 8                  25032910.560
      2563.376                          49.850                    98234635.550 8
  25032915.720        1914.274          49.150   100797263.073 8  25032913.440
      1964.200          50.150    99515953.467 8  25032916.020        1939.188
        52.600
 145863721.383 7                  27756954.040
      -624.610                          43.350                   108924210.395 7
  27756961.720        -466.324          43.250   111765702.649 7  27756959.220
      -478.467          42.800   110344952.676 7  27756961.180        -472.374
        46.050
 147634179.620 7                  28093866.720
     -2506.728                          43.250                   110246352.571 6
  28093875.620       -1871.798          40.350   113122328.037 6  28093874.400
     -1920.698          41.550   111684341.964 7  28093875.560       -1896.385
        43.800
 23 12 27 10 18  0.0000000  0 21G05G07G08G13G14G15G17G18G20G22G23G24
                                G30E04E05E09E19E21E31E34E36
 116858919.198 8  91058876.52648  22237521.860                    22237521.180
     -3053.691       -2379.504          48.850          48.950



 134605774.219 6 104887586.68946  25614647.580                    25614651.700
     -3017.194       -2351.058          40.250          39.800



 134056500.470 6 104459626.92946  25510104.200                    25510108.040
     -1894.774       -1476.450          38.100          37.550   100107166.060 7
  25510108.960       -1415.190          44.700


 104949062.561 8  81778491.65548  19971141.520                    19971139.560
      -587.004        -457.406          49.850          49.650



 111929565.825 8  87217855.42647  21299474.880                    21299474.640
      -920.436        -717.223          49.900          47.950    83583802.337 9
  21299479.180        -687.354          54.250


 107492276.068 8  83760195.66248  20455102.720                    20455101.560
      1650.422        1286.043          50.700          49.900



 128976823.502 7 100501443.33846  24543467.900                    24543471.280
      2665.447        2076.983          42.400          41.850



 130884261.661 6 101987719.35646  24906460.640                    24906461.520
     -1955.688       -1523.911          40.750          37.600    97738236.049 7
  24906468.520       -1460.629          45.450


 129588445.577 6 100977953.42145  24659881.300                    24659883.640
     -3817.904       -2974.994          40.350          34.600



 110745208.646 8  86294987.24348  21074098.780                    21074096.900
       239.684         186.767          50.800          48.300



 124165738.666 7  96752510.30746  23627963.820                    23627964.260
      2739.178        2134.426          46.100          40.250    92721171.322 7
  23627969.540        2045.555          47.600


 118809841.993 7  92579132.22247  22608756.060                    22608758.980
      3109.978        2423.359          46.250          44.800    88721669.301 8
  22608760.220        2322.379          48.750


 120760047.849 7  94098732.97047  22979879.860                    22979881.160
     -2798.001       -2180.263          46.750          46.550    90177953.483 8
  22979883.480       -2089.521          51.350


 124575630.358 8                  23705952.640
     -1042.922                          52.150                    93027271.646 8
  23705956.020        -778.767          53.750    95454062.034 9  23705952.420
      -799.115          54.050    94240666.493 9  23705954.600        -788.946
        56.550
 141433765.021 6                  26913953.640
      2730.337                          40.650                   105616144.925 6
  26913962.400        2038.741          38.600   108371338.540 6  26913959.300
      2092.264          40.400   106993740.888 7  26913960.900        2065.451
        42.100
 126747691.128 8                  24119284.780
      1484.108                          52.900                    94649269.225 8
  24119288.800        1108.260          53.050    97118369.859 8  24119285.840
      1137.174          53.750    95883813.696 9  24119287.740        1122.730
        56.000
 148120845.092 6                  28186480.660
     -2699.354                          36.700                   110609696.993 6
  28186491.920       -2015.874          40.250   113495173.482 6  28186487.320
     -2068.484          39.350   112052435.884 7  28186490.080       -2042.114
        42.600
 141710964.329 7                  26966703.280
     -2492.874                          45.650                   105823133.350 7
  26966710.860       -1861.641          44.700   108583726.823 7  26966705.960
     -1910.228          43.150   107203435.242 7  26966708.880       -1885.909
        46.800
 131472133.072 8                  25018300.660
      2554.947                          50.050                    98177303.173 8
  25018306.140        1907.868          49.400   100738435.046 8  25018303.400
      1957.695          50.550    99457873.261 8  25018306.080        1932.778
        52.650
 145882674.168 7                  27760560.420
      -639.037                          43.400                   108938363.362 7
  27760568.460        -477.130          43.100   111780224.832 7  27760566.120
      -489.657          43.050   110359290.255 7  27760567.840        -483.458
        45.850
 147709470.868 7                  28108194.340
     -2512.615                          43.350                   110302576.464 6
  28108203.140       -1876.565          39.250   113180018.627 6  28108202.300
     -1925.359          41.400   111741299.201 7  28108203.060       -1900.960
        42.900
 23 12 27 10 18 30.0000000  0 21G05G07G08G13G14G15G17G18G20G22G23G24
                                G30E04E05E09E19E21E31E34E36
 116950707.174 8  91130399.52748  22254988.680                    22254987.920
     -3065.641       -2388.814          48.700          48.700



 134696286.506 6 104958115.62745  25631871.380                    25631875.740
     -3017.324       -2351.165          36.600          35.900



 134113586.966 6 104504109.84146  25520967.460                    25520971.020
     -1910.636       -1488.811          40.300          36.550   100149795.510 7
  25520972.380       -1426.818          44.500


 104966887.694 8  81792381.35848  19974533.600                    19974531.740
      -601.404        -468.627          50.250          50.150



 111957455.924 8  87239587.98348  21304782.320                    21304781.960
      -938.915        -731.621          49.950          48.200    83604629.367 9
  21304786.680        -701.142          54.600


 107442995.415 8  83721795.14048  20445725.040                    20445723.740
      1634.954        1273.989          50.800          50.250



 128896945.972 6 100439201.36746  24528267.240                    24528270.580
      2660.185        2072.879          41.750          41.400



 130943134.099 6 102033593.86646  24917663.860                    24917665.340
     -1968.914       -1534.224          40.850          39.250    97782199.082 7
  24917671.500       -1470.210          45.900


 129702967.558 6 101067191.04446  24681674.580                    24681677.000
     -3817.117       -2974.387          40.000          36.950



 110738303.915 8  86289606.93548  21072784.780                    21072783.180
       220.605         171.900          50.700          48.850



 124083761.274 7  96688631.84946  23612364.020                    23612364.500
      2725.809        2124.008          46.400          40.300    92659954.479 7
  23612369.640        2035.551          47.850


 118716655.566 7  92506519.39947  22591023.240                    22591026.160
      3102.357        2417.420          46.050          44.750    88652081.997 8
  22591027.000        2316.728          48.600


 120844064.342 7  94164200.32647  22995867.680                    22995868.700
     -2802.991       -2184.149          46.400          46.100    90240692.987 8
  22995871.360       -2093.159          51.850


 124607048.515 8                  23711931.420
     -1051.570                          52.050                    93050733.218 9
  23711934.900        -785.343          54.000    95478135.641 9  23711931.220
      -805.766          54.050    94264434.085 9  23711933.300        -795.568
        56.600
 141351847.610 6                  26898365.460
      2730.883                          41.150                   105554972.671 6
  26898374.060        2039.388          39.200   108308570.519 6  26898371.040
      2092.469          40.150   106931770.749 7  26898372.740        2065.927
        42.250
 126703268.558 8                  24110831.480
      1477.441                          52.950                    94616096.524 8
  24110835.800        1103.261          53.500    97084331.782 8  24110832.520
      1132.061          53.900    95850208.304 9  24110834.340        1117.667
        56.200
 148201866.474 5                  28201898.460
     -2701.893                          34.800                   110670199.758 6
  28201910.000       -2017.695          39.700   113557254.603 6  28201905.260
     -2070.404          39.750   112113727.821 7  28201908.320       -2043.958
        42.350
 141785857.056 7                  26980954.940
     -2499.901                          45.000                   105879059.633 7
  26980962.540       -1866.733          45.300   108641112.082 7  26980957.640
     -1915.442          43.100   107260091.014 7  26980960.620       -1891.075
        46.900
 131395612.220 8                  25003739.320
      2546.569                          49.850                    98120161.019 8
  25003744.760        1901.619          49.700   100679802.249 8  25003742.280
      1951.175          50.850    99399985.789 8  25003744.660        1926.374
        52.850
 145902060.112 7                  27764249.340
      -653.245                          42.200                   108952839.828 7
  27764257.900        -487.970          43.200   111795078.957 7  27764255.660
      -500.633          43.550   110373955.541 7  27764256.940        -494.270
        45.900
 147784940.702 7                  28122555.980
     -2518.578                          43.200                   110358933.622 6
  28122564.920       -1880.734          40.650   113237846.017 6  28122564.100
     -1929.780          40.700   111798391.476 7  28122564.460       -1905.323
        43.150
 23 12 27 10 19  0.0000000  0 21G05G07G08G13G14G15G17G18G20G22G23G24
                                G30E04E05E09E19E21E31E34E36
 117042856.925 8  91202204.42148  22272524.240                    22272523.460
     -3077.437       -2398.006          48.950          49.000



 134786801.139 6 105028646.41845  25649095.720                    25649100.320
     -3017.355       -2351.189          36.550          35.850



 134171145.696 6 104548960.76046  25531920.520                    25531924.100
     -1926.570       -1501.223          37.950          37.000   100192777.672 7
  25531925.320       -1438.492          43.250


 104985150.280 8  81806611.93248  19978009.020                    19978007.260
      -615.913        -479.933          50.650          50.500



 111985906.547 8  87261757.31047  21310196.340                    21310195.840
      -957.644        -746.216          49.800          47.750    83625874.958 9
  21310200.800        -715.059          54.350


 107394185.166 8  83683761.18248  20436436.860                    20436435.560
      1619.267        1261.767          50.850          50.000



 128817239.654 7 100377092.69947  24513099.340                    24513102.280
      2654.230        2068.236          42.250          42.350



 131002396.125 6 102079772.00046  24928941.120                    24928943.040
     -1981.827       -1544.282          41.700          37.700    97826453.092 7
  24928948.420       -1479.864          45.600


 129817482.007 6 101156422.75645  24703465.940                    24703469.100
     -3816.979       -2974.282          37.500          35.950



 110731979.856 8  86284679.10147  21071581.260                    21071579.940
       201.287         156.848          51.050          47.900



 124002190.228 7  96625070.02546  23596841.480                    23596842.020
      2712.406        2113.563          46.250          40.400    92599041.075 7
  23596847.080        2025.485          47.950


 118623702.956 7  92434088.77147  22573334.840                    22573337.760
      3094.740        2411.484          45.900          44.750    88582669.312 8
  22573338.280        2310.920          48.650


 120928234.242 7  94229787.20447  23011884.620                    23011885.540
     -2808.072       -2188.109          45.800          45.850    90303547.057 8
  23011888.460       -2096.935          51.850


 124638736.276 8                  23717961.460
     -1060.616                          52.150                    93074396.106 8
  23717964.940        -791.997          53.750    95502415.833 9  23717961.340
      -812.682          54.050    94288405.623 9  23717963.300        -802.365
        56.700
 141269917.671 6                  26882774.880
      2731.216                          40.600                   105493791.051 6
  26882783.600        2039.863          39.000   108245792.852 6  26882780.120
      2092.970          39.650   106869791.111 6  26882782.080        2066.480
        41.950
 126659053.318 8                  24102417.560
      1470.536                          52.800                    94583078.648 8
  24102422.100        1098.113          53.400    97050452.571 9  24102418.780
      1126.771          54.000    95816759.762 9  24102420.440        1112.454
        56.550
 148283077.20415                  28217331.460
     -2704.561                          34.850                   110730763.244 6
  28217343.460       -2019.643          39.100   113619398.021 6  28217338.720
     -2072.306          39.250   112175081.296 6  28217341.840       -2046.015
        41.850
 141860965.118 7                  26995247.700
     -2507.110                          45.550                   105935146.743 7
  26995255.160       -1872.166          44.950   108698662.341 7  26995250.400
     -1920.846          43.350   107316909.704 7  26995253.400       -1896.549
        47.200
 131319352.260 8                  24989227.580
      2537.873                          50.100                    98063213.691 8
  24989233.320        1895.059          49.950   100621369.327 8  24989230.620
      1944.491          50.550    99342295.662 8  24989232.940        1919.771
        53.100
 145921883.361 7                  27768021.260
      -667.753                          42.250                   108967642.835 7
  27768030.080        -498.760          42.200   111810268.129 7  27768027.640
      -511.789          42.850   110388951.639 7  27768029.220        -505.298
        45.450
 147860591.759 7                  28136952.120
     -2524.542                          44.100                   110415426.190 6
  28136960.920       -1885.107          39.800   113295812.283 6  28136960.360
     -1934.594          39.750   111855620.896 7  28136960.360       -1909.869
        42.600
 23 12 27 10 19 30.0000000  0 21G05G07G08G13G14G15G17G18G20G22G23G24
                                G30E04E05E09E19E21E31E34E36
 117135363.074 8  91274287.02948  22290127.580                    22290126.980
     -3089.251       -2407.212          48.600          48.600



 134877421.099 5 105099307.65845  25666320.060                    25666324.600
     -3017.175       -2351.050          35.500          35.600



 134229171.874 6 104594175.91445  25542962.540                    25542966.100
     -1941.938       -1513.206          36.900          34.300   100236108.846 7
  25542967.720       -1449.948          43.950


 105003848.397 8  81821181.88848  19981567.360                    19981565.740
      -630.360        -491.190          51.100          50.350



 112014914.106 8  87284360.60147  21315716.180                    21315715.660
      -976.076        -760.579          49.950          47.250    83647536.437 9
  21315720.820        -728.834          54.200


 107345845.270 8  83646093.73848  20427238.120                    20427236.840
      1603.620        1249.574          51.300          49.750



 128737705.039 7 100315117.75847  24497964.500                    24497967.200
      2648.666        2063.896          42.250          42.200



 131062042.664 7 102126249.71846  24940291.500                    24940293.920
     -1994.313       -1554.012          42.300          39.750    97870994.205 7
  24940298.560       -1489.277          45.450


 129931983.814 6 101245644.74945  24725254.820                    24725258.220
     -3816.497       -2973.899          37.200          35.300



 110726233.908 8  86280201.74547  21070487.800                    21070486.620
       182.089         141.887          51.450          47.750



 123921025.680 7  96561824.96846  23581396.260                    23581396.820
      2698.846        2102.998          45.750          40.550    92538431.236 8
  23581401.940        2015.332          48.100


 118530982.898 7  92361839.37547  22555690.580                    22555693.660
      3086.919        2405.393          45.550          44.500    88513430.280 8
  22555694.000        2305.221          48.850


 121012553.875 7  94295490.74847  23027930.020                    23027931.120
     -2813.130       -2192.052          45.700          45.900    90366512.914 8
  23027934.320       -2100.569          52.200


 124670691.291 8                  23724042.340
     -1069.426                          52.600                    93098258.571 8
  23724045.660        -798.597          53.650    95526900.804 8  23724042.180
      -819.451          53.700    94312579.336 9  23724044.180        -808.997
        56.400
 141187973.459 6                  26867181.540
      2731.721                          41.950                   105432598.725 6
  26867190.360        2040.117          39.650   108183004.259 6  26867186.400
      2093.383          39.350   106807800.639 7  26867188.880        2066.757
        42.300
 126615043.985 8                  24094042.640
      1463.700                          52.800                    94550214.536 8
  24094047.480        1093.067          53.450    97016731.137 8  24094044.220
      1121.617          53.700    95783466.987 9  24094045.760        1107.350
        56.300
 148364258.542 5                  28232780.000
     -2707.254                          35.900                   110791385.465 6
  28232792.020       -2021.429          39.500   113681601.718 6  28232787.060
     -2074.104          37.800   112236494.254 6  28232790.260       -2047.768
        41.650
 141936284.409 7                  27009580.640
     -2513.888                          45.750                   105991391.598 7
  27009587.920       -1877.206          45.100   108756374.468 7  27009583.540
     -1926.239          43.150   107373888.185 7  27009586.320       -1901.652
        47.100
 131243352.040 8                  24974765.280
      2529.229                          50.650                    98006460.295 8
  24974771.220        1888.742          49.800   100563135.412 8  24974768.460
      1937.980          50.550    99284802.007 8  24974770.520        1913.360
        53.000
 145942140.635 7                  27771876.120
      -682.260                          42.700                   108982769.975 7
  27771884.760        -509.414          42.300   111825789.892 7  27771881.880
      -522.820          42.800   110404276.083 7  27771884.040        -516.028
        45.350
 147936419.462 7                  28151381.840
     -2530.217                          43.700                   110472050.630 6
  28151390.840       -1889.258          38.500   113353913.880 6  28151390.220
     -1938.619          39.400   111912983.913 6  28151389.980       -1913.992
        41.600
 23 12 27 10 20  0.0000000  0 21G05G07G08G13G14G15G17G18G20G22G23G24
                                G30E04E05E09E19E21E31E34E36
 117228224.827 8  91346646.74448  22307798.560                    22307797.900
     -3100.901       -2416.290          48.200          48.050



 134967934.999 6 105169837.91746  25683544.520                    25683548.840
     -3016.125       -2350.230          36.750          36.800



 134287664.720 6 104639754.73145  25554093.380                    25554097.300
     -1957.010       -1524.946          36.800          35.000   100279788.576 7
  25554098.280       -1461.538          42.300


 105022983.324 8  81836092.21648  19985208.700                    19985207.080
      -644.723        -502.382          50.600          50.600



 112044478.676 8  87307397.93247  21321341.900                    21321341.460
      -994.358        -774.824          49.200          47.250    83669613.874 8
  21321346.720        -742.533          53.800


 107297978.626 8  83608795.06948  20418129.360                    20418128.140
      1588.022        1237.420          50.650          50.200



 128658346.681 7 100253280.07447  24482863.120                    24482865.320
      2642.666        2059.219          42.050          42.200



 131122072.319 6 102173025.97146  24951714.940                    24951717.400
     -2006.686       -1563.654          41.200          40.550    97915821.425 7
  24951721.540       -1498.637          45.350


 130046471.846 6 101334855.99846  24747041.140                    24747044.760
     -3815.791       -2973.347          38.300          37.300



 110721067.394 8  86276175.89448  21069504.640                    21069503.460
       162.922         126.952          50.950          48.150



 123840271.641 7  96498899.77446  23566029.080                    23566029.800
      2685.350        2092.480          45.000          41.200    92478127.935 8
  23566034.940        2005.288          48.200


 118438497.894 7  92289773.13247  22538091.020                    22538094.160
      3079.229        2399.400          44.800          44.400    88444366.799 8
  22538094.660        2299.521          49.100


 121097023.420 7  94361311.07647  23044003.840                    23044005.320
     -2817.749       -2195.651          45.750          46.050    90429590.702 8
  23044008.880       -2104.146          51.900


 124702915.024 8                  23730174.340
     -1078.158                          52.300                    93122321.707 8
  23730177.380        -805.075          53.350    95551591.678 8  23730174.180
      -826.123          53.800    94336956.345 9  23730176.200        -815.570
        56.550
 141106016.977 6                  26851586.020
      2732.604                          40.750                   105371397.267 6
  26851594.860        2040.324          39.950   108120206.258 6  26851590.560
      2093.795          38.650   106745800.919 7  26851593.380        2067.046
        42.550
 126571242.902 8                  24085707.340
      1456.943                          52.250                    94517505.951 8
  24085712.440        1088.009          53.250    96983169.284 8  24085709.160
      1116.359          53.600    95750331.764 9  24085710.720        1102.231
        56.350
 148445519.358 6                  28248243.900
     -2709.607                          36.050                   110852067.035 6
  28248255.620       -2023.317          39.350   113743866.338 6  28248250.480
     -2076.255          37.750   112297967.348 6  28248254.000       -2049.939
        41.750
 142011814.608 7                  27023953.740
     -2520.673                          45.650                   106047793.945 7
  27023960.920       -1882.300          45.250   108814248.211 7  27023956.740
     -1931.530          43.400   107431026.228 7  27023959.340       -1906.915
        47.400
 131167614.251 8                  24960352.840
      2520.661                          49.950                    97949902.873 8
  24960358.920        1882.316          50.100   100505102.585 8  24960356.280
      1931.395          50.300    99227506.881 8  24960358.180        1906.861
        53.200
 145962832.547 7                  27775813.800
      -696.533                          42.250                   108998221.663 6
  27775822.300        -520.035          41.900   111841644.656 7  27775819.000
      -533.559          43.200   110419929.317 7  27775821.540        -526.816
        45.650
 148012423.000 7                  28165845.100
     -2536.092                          43.600                   110528806.394 6
  28165854.240       -1893.784          39.050   113412150.251 6  28165853.000
     -1942.975          38.600   111970479.981 6  28165853.000       -1918.398
        41.750
 23 12 27 10 20 30.0000000  0 21G05G07G08G13G14G15G17G18G20G22G23G24
                                G30E04E05E09E19E21E31E34E36
 117321433.591 7  91419276.83548  22325535.520                    22325535.260
     -3113.318       -2425.965          47.850          48.200



                                  25700768.400                    25700772.160
     -3018.147       -2351.803          33.900          34.100



 134346617.686 6 104685692.09144  25565311.800                    25565315.080
     -1973.357       -1537.691          39.400          29.600   100323811.854 7
  25565316.340       -1473.647          44.000


 105042550.152 8  81851339.09748  19988932.140                    19988930.460
      -660.015        -514.297          50.350          50.300



 112074593.976 8  87330864.39948  21327072.400                    21327072.120
     -1013.538        -789.770          49.000          48.150    83692102.560 8
  21327077.260        -756.896          53.550


 107250582.089 8  83571862.72148  20409110.060                    20409108.860
      1571.403        1224.471          50.950          50.050



 128579162.390 6 100191577.98946  24467795.080                    24467797.120
      2636.025        2054.046          41.550          41.700



 131182477.338 6 102220094.72746  24963209.700                    24963212.460
     -2020.269       -1574.237          41.450          40.300    97960928.942 7
  24963215.940       -1508.646          45.050


 130160938.316 6 101424050.43546  24768823.640                    24768827.420
     -3815.794       -2973.353          39.850          36.850



 110716475.134 8  86272597.52048  21068630.780                    21068629.460
       142.974         111.408          51.350          48.050



 123759925.602 7  96436292.51747  23550739.580                    23550740.440
      2670.805        2081.148          44.950          42.200    92418129.298 8
  23550745.560        1994.492          48.600


 118346243.962 7  92217886.96647  22520535.400                    22520538.720
      3070.571        2392.656          44.750          44.700    88375475.876 8
  22520539.360        2293.033          49.400


 121181636.522 7  94427243.29647  23060105.400                    23060107.000
     -2823.500       -2200.133          47.350          47.400    90492775.730 8
  23060110.580       -2108.364          51.450


 124735402.431 8                  23736356.540
     -1087.828                          52.750                    93146581.748 8
  23736359.340        -812.352          53.350    95576484.592 8  23736356.420
      -833.548          53.800    94361532.823 9  23736358.380        -822.954
        56.650
 141024043.834 7                  26835987.320
      2732.257                          42.500                   105310183.305 6
  26835996.060        2040.211          39.400   108057395.440 6  26835991.280
      2093.509          38.600   106683788.528 7  26835994.440        2066.824
        42.050
 126527645.951 8                  24077411.040
      1449.266                          52.700                    94484949.811 8
  24077416.220        1082.227          53.250    96949763.846 8  24077412.800
      1110.480          53.350    95717350.982 9  24077414.480        1096.351
        56.350
 148526854.069 5                  28263721.680
     -2712.835                          35.300                   110912803.787 6
  28263733.220       -2025.903          39.350   113806187.555 6  28263728.320
     -2078.878          37.900   112359496.319 6  28263731.680       -2052.251
        41.700
 142087548.952 7                  27038365.780
     -2528.467                          45.900                   106104348.745 7
  27038372.720       -1888.062          45.450   108872278.348 7  27038368.760
     -1937.395          43.600   107488318.700 7  27038371.220       -1912.670
        47.800
 131092135.076 8                  24945989.600
      2511.104                          50.500                    97893538.566 8
  24945995.940        1875.181          50.000   100447267.894 8  24945993.080
      1924.084          50.400    99170407.383 8  24945994.920        1899.640
        53.300
 145983953.231 7                  27779833.020
      -711.850                          43.550                   109013993.563 6
  27779841.140        -531.379          41.950   111857827.999 7  27779837.860
      -545.397          43.200   110435906.943 7  27779840.600        -538.512
        45.700
 148088595.115 7                  28180340.340
     -2542.578                          42.550                   110585688.013 6
  28180349.660       -1898.575          37.900   113470515.730 6  28180348.120
     -1948.197          38.100   112028103.531 6  28180348.200       -1923.441
        40.800
 23 12 27 10 21  0.0000000  0 21G05G07G08G13G14G15G17G18G20G22G23G24
                                G30E04E05E09E19E21E31E34E36
 117414996.949 7  91492183.25348  22343339.980                    22343339.620
     -3124.603       -2434.759          47.900          48.200



 135148958.898 5 105310883.84645  25717991.120                    25717995.680
     -3017.760       -2351.503          32.600          31.700



 134406039.409 6 104731994.79645  25576619.300                    25576622.660
     -1988.134       -1549.196          37.800          34.150   100368185.221 7
  25576624.200       -1484.794          43.350


 105062559.850 8  81866931.06248  19992739.740                    19992738.080
      -674.152        -525.313          50.050          49.950



 112105269.599 8  87354767.46847  21332909.600                    21332909.540
     -1031.783        -803.987          49.050          47.600    83715009.659 8
  21332914.380        -770.436          53.400


 107203668.391 8  83535306.59948  20400182.700                    20400181.480
      1555.855        1212.354          51.100          50.200



 128500166.190 7 100130022.45747  24452762.720                    24452764.680
      2630.094        2049.422          42.950          43.500



 131243265.760 6 102267462.18946  24974777.300                    24974780.120
     -2032.308       -1583.621          41.100          38.200    98006322.767 7
  24974783.400       -1517.761          44.850


 130275391.244 6 101513234.35446  24790603.400                    24790607.160
     -3814.874       -2972.630          38.950          36.200



 110712467.801 8  86269474.93347  21067868.180                    21067866.740
       124.036          96.652          51.300          47.250



 123680001.047 7  96374013.67047  23535530.340                    23535531.300
      2657.197        2070.545          44.050          43.250    92358445.409 8
  23535536.560        1984.292          48.700


 118254233.126 7  92146190.19047  22503026.240                    22503029.500
      3063.065        2386.803          45.350          44.600    88306766.474 8
  22503030.420        2287.383          49.600


 121266402.866 7  94493294.91347  23076236.280                    23076238.120
     -2827.878       -2203.544          47.300          47.350    90556075.185 8
  23076241.520       -2111.754          51.550


 124768164.505 8                  23742590.980
     -1096.489                          52.750                    93171046.901 8
  23742593.620        -818.815          53.350    95601587.970 9  23742590.980
      -840.181          54.000    94386317.086 9  23742592.820        -829.450
        56.900
 140942065.640 6                  26820387.680
      2732.868                          41.900                   105248965.639 6
  26820396.160        2040.695          40.100   107994580.807 6  26820391.640
      2094.025          39.900   106621772.374 7  26820394.640        2067.386
        43.300
 126484265.021 8                  24069155.900
      1442.567                          52.450                    94452554.971 8
  24069161.040        1077.242          53.150    96916523.919 8  24069157.580
      1105.375          53.400    95684533.596 9  24069159.340        1091.328
        56.500
 148608272.856 6                  28279215.280
     -2715.548                          37.000                   110973603.311 6
  28279227.020       -2027.579          39.400   113868573.145 6  28279221.880
     -2080.462          36.850   112421088.880 6  28279225.140       -2053.898
        41.600
 142163496.572 7                  27052818.440
     -2534.995                          46.100                   106161062.824 7
  27052825.060       -1893.051          45.350   108930471.939 7  27052821.500
     -1942.490          44.200   107545772.536 8  27052823.700       -1917.723
        48.200
 131016926.690 8                  24931677.840
      2502.517                          50.200                    97837376.450 8
  24931684.220        1868.819          50.150   100389640.685 8  24931681.580
      1917.517          50.400    99113512.724 8  24931683.260        1893.140
        53.650
 146005512.700 7                  27783935.900
      -725.793                          43.300                   109030093.139 7
  27783943.700        -542.070          42.050   111874347.535 7  27783940.520
      -556.164          43.650   110452216.484 7  27783943.120        -549.088
        46.100
 148164944.506 7                  28194869.340
     -2547.895                          42.850                   110642701.996 6
  28194878.820       -1902.561          38.550   113529017.075 6  28194876.400
     -1952.146          37.200   112085861.184 6  28194877.040       -1927.375
        41.300
 23 12 27 10 21 30.0000000  0 20G05G08G13G14G15G17G18G20G22G23G24G30
                                E04E05E09E19E21E31E34E36
 117508896.298 7  91565351.47347  22361208.400                    22361208.300
     -3136.442       -2443.985          47.600          47.850



 134465911.739 6 104778648.56346  25588012.720                    25588015.800
     -2004.048       -1561.590          38.900          36.300   100412895.146 7
  25588017.520       -1496.645          42.750


 105082995.588 8  81882855.00748  19996628.420                    19996626.660
      -689.222        -537.056          50.200          50.100



 112136487.720 8  87379093.27348  21338850.140                    21338850.240
     -1050.525        -818.591          49.100          48.450    83738321.897 8
  21338854.720        -784.508          53.050


 107157222.593 8  83499115.07248  20391344.420                    20391343.320
      1539.484        1199.599          51.400          49.950



 128421344.576 6 100068602.96647  24437763.580                    24437765.700
      2623.785        2044.507          41.650          42.400



 131304418.421 6 102315113.47846  24986414.220                    24986417.020
     -2045.142       -1593.623          40.400          40.000    98051988.557 7
  24986420.260       -1527.465          44.200


 130389811.669 6 101602392.97845  24812376.960                    24812380.680
     -3814.424       -2972.279          38.750          34.950



 110709028.457 8  86266794.93348  21067213.740                    21067212.140
       104.262          81.243          51.000          48.100



 123600484.005 7  96312052.36546  23520398.680                    23520399.720
      2642.862        2059.375          44.100          41.350    92299065.843 8
  23520405.100        1973.536          48.600


 118162450.082 7  92074670.92947  22485560.640                    22485563.560
      3054.581        2380.192          45.550          44.850    88238227.176 8
  22485564.880        2281.154          49.450


 121351304.733 7  94559452.15147  23092392.960                    23092394.640
     -2833.230       -2207.713          47.300          47.150    90619475.857 8
  23092397.900       -2115.741          50.150


 124801184.815 8                  23748874.580
     -1105.936                          52.650                    93195704.889 8
  23748877.180        -825.893          53.300    95626889.216 9  23748874.700
      -847.437          54.100    94411296.706 9  23748876.400        -836.689
        56.700
 140860066.482 7                  26804784.000
      2732.873                          42.100                   105187732.344 6
  26804792.240        2040.632          39.950   107931750.134 6  26804787.900
      2093.791          40.650   106559740.389 7  26804790.820        2067.257
        43.400
 126441084.586 8                  24060938.920
      1435.024                          52.600                    94420309.853 8
  24060943.860        1071.626          53.000    96883437.628 8  24060940.580
      1099.594          53.550    95651867.893 9  24060942.360        1085.587
        56.300
 148689758.584 6                  28294721.880
     -2718.035                          37.600                   111034452.835 6
  28294733.440       -2029.879          38.800   113931010.052 6  28294727.700
     -2082.601          36.350   112482732.103 6  28294731.440       -2056.174
        40.850
 142239639.350 7                  27067308.240
     -2542.383                          46.000                   106217922.607 7
  27067314.540       -1898.421          45.050   108988815.036 7  27067311.320
     -1947.985          44.700   107603373.976 8  27067313.240       -1923.189
        48.000
 130941973.872 8                  24917414.760
      2493.244                          50.300                    97781405.174 8
  24917421.140        1861.848          49.950   100332209.283 8  24917418.380
      1910.374          50.600    99056811.382 8  24917420.180        1886.114
        53.300
 146027493.704 7                  27788118.900
      -740.960                          43.100                   109046507.468 7
  27788126.480        -553.089          42.400   111891190.076 7  27788123.640
      -567.479          43.600   110468844.921 7  27788125.840        -560.245
        45.950
 148241452.607 6                  28209428.480
     -2553.903                          41.700                   110699834.504 6
  28209437.860       -1907.066          37.950   113587640.024 6  28209434.640
     -1956.892          37.500   112143738.916 6  28209436.320       -1931.917
        40.650
 23 12 27 10 22  0.0000000  0 20G05G08G13G14G15G17G18G20G22G23G24G30
                                E04E05E09E19E21E31E34E36
 117603144.116 7  91638791.23147  22379143.180                    22379142.940
     -3147.572       -2452.657          47.750          47.850



 134526248.099 6 104825663.85345  25599494.420                    25599498.060
     -2019.474       -1573.616          37.500          34.550   100457951.395 7
  25599498.940       -1507.772          42.400


 105103873.749 8  81899123.70048  20000601.400                    20000599.500
      -703.567        -548.234          50.550          50.350



 112168262.920 8  87403853.16148  21344896.880                    21344897.000
     -1068.777        -832.813          49.350          48.300    83762050.121 8
  21344901.120        -798.037          53.200


 107111262.037 8  83463301.65848  20382598.460                    20382597.300
      1523.564        1187.192          51.100          49.900



 128342716.323 6 100007334.20846  24422801.160                    24422803.620
      2617.155        2039.344          41.500          41.500



 131365948.331 6 102363058.73546  24998122.720                    24998125.640
     -2057.381       -1603.156          39.250          37.600    98097936.050 7
  24998129.100       -1536.446          44.300


 130504213.066 6 101691536.73346  24834146.980                    24834151.060
     -3813.482       -2971.555          36.150          36.500



 110706172.731 8  86264569.69647  21066670.260                    21066668.660
        85.081          66.297          50.950          47.800



 123521392.965 7  96250423.00647  23505348.080                    23505349.100
      2629.021        2048.590          44.150          42.800    92240004.370 8
  23505354.700        1963.218          48.800


 118070911.758 7  92003342.37247  22468141.620                    22468144.180
      3046.947        2374.245          45.850          44.650    88169870.645 8
  22468145.840        2275.339          49.950


 121436356.822 7  94625726.41247  23108577.860                    23108579.820
     -2837.740       -2211.229          46.100          46.000    90682988.688 8
  23108582.580       -2119.142          49.950


 124834479.243 8                  23755210.280
     -1114.603                          52.450                    93220567.578 8
  23755212.980        -832.351          53.600    95652400.502 9  23755210.540
      -854.047          54.100    94436483.693 9  23755212.160        -843.194
        56.700
 140778062.862 7                  26789179.400
      2733.170                          42.050                   105126495.714 6
  26789187.580        2040.979          40.800   107868916.047 6  26789183.320
      2094.234          40.800   106497705.042 7  26789186.220        2067.624
        43.750
 126398121.437 8                  24052763.320
      1428.217                          52.750                    94388227.005 8
  24052768.040        1066.506          53.350    96850517.834 8  24052765.080
      1094.355          53.750    95619366.573 9  24052766.720        1080.424
        56.400
 148771327.045 6                  28310244.060
     -2720.519                          36.950                   111095364.150 6
  28310255.520       -2031.413          39.400   113993510.388 6  28310249.640
     -2084.529          36.600   112544437.933 6  28310253.480       -2058.075
        41.250
 142315991.361 7                  27081837.760
     -2548.819                          45.950                   106274938.664 7
  27081843.780       -1903.239          45.550   109047318.477 7  27081840.940
     -1953.043          44.850   107661133.726 8  27081842.600       -1928.154
        48.100
 130867293.756 8                  24903203.500
      2484.478                          50.150                    97725637.526 8
  24903209.860        1855.373          50.050   100274986.833 8  24903207.260
      1903.769          50.700    99000316.331 8  24903209.020        1879.587
        53.300
 146049911.139 7                  27792385.000
      -754.560                          42.950                   109063247.733 7
  27792392.960        -563.582          43.300   111908367.058 7  27792389.760
      -578.351          43.400   110485803.545 7  27792391.780        -570.946
        46.250
 148318133.012 6                  28224020.460
     -2559.058                          41.900                   110757095.686 6
  28224029.960       -1911.094          39.200   113646395.001 6  28224026.120
     -1960.854          37.600   112201747.006 6  28224028.280       -1936.084
        41.400
 23 12 27 10 22 30.0000000  0 20G05G08G13G14G15G17G18G20G22G23G24G30
                                E04E05E09E19E21E31E34E36
 117697732.726 8  91712496.51448  22397142.860                    22397142.660
     -3158.463       -2461.145          48.300          48.400



 134587041.316 5 104873035.19744  25611063.100                    25611067.060
     -2033.922       -1584.868          34.650          29.300   100503348.943 6
  25611067.760       -1518.710          41.650


 105125189.321 8  81915733.22648  20004657.680                    20004655.820
      -717.560        -559.138          51.000          50.250



 112200588.837 8  87429042.18147  21351048.460                    21351048.580
     -1086.400        -846.546          50.050          47.850    83786189.610 8
  21351052.440        -811.287          53.500


 107065783.809 8  83427864.08848  20373944.120                    20373942.940
      1508.183        1175.208          50.800          49.800



 128264279.238 6  99946214.47146  24407875.180                    24407877.840
      2611.580        2035.001          41.200          41.050



 131427847.719 6 102411291.88446  25009901.700                    25009904.500
     -2069.007       -1612.217          38.850          36.950    98144159.480 7
  25009908.540       -1545.068          44.800


 130618587.825 6 101780659.78146  24855911.980                    24855915.900
     -3811.513       -2970.014          40.300          36.100



 110703895.467 8  86262795.21347  21066236.920                    21066235.360
        66.582          51.882          51.600          47.550



 123442725.444 7  96189123.65347  23490378.120                    23490379.200
      2615.448        2038.012          44.650          42.150    92181259.149 8
  23490385.000        1953.112          49.000


 117979614.311 7  91932201.50247  22450768.420                    22450770.720
      3039.477        2368.424          46.250          43.550    88101694.003 8
  22450772.600        2269.753          50.300


 121521552.863 7  94692112.85547  23124789.980                    23124792.440
     -2842.077       -2214.608          45.550          45.550    90746609.014 8
  23124794.820       -2122.243          49.200


 124868042.839 8                  23761597.200
     -1122.969                          52.900                    93245631.265 8
  23761600.060        -838.535          53.850    95678118.033 9  23761597.480
      -860.426          54.000    94461874.304 9  23761599.160        -849.486
        56.650
 140696050.393 7                  26773573.120
      2734.190                          43.100                   105065252.495 6
  26773581.300        2041.846          41.000   107806075.195 6  26773577.140
      2094.992          41.100   106435663.002 7  26773579.860        2068.347
        43.750
 126355371.594 8                  24044628.260
      1421.740                          52.850                    94356303.459 8
  24044632.920        1061.707          53.700    96817761.498 8  24044630.140
      1089.367          53.700    95587026.631 9  24044631.680        1075.553
        56.400
 148852972.458 6                  28325780.720
     -2722.423                          37.500                   111156332.905 6
  28325792.600       -2033.078          40.250   114056069.626 6  28325786.540
     -2085.938          36.750   112606201.937 6  28325790.140       -2059.623
        41.550
 142392545.963 7                  27096405.740
     -2555.006                          46.000                   106332105.999 7
  27096411.600       -1907.797          45.750   109105977.142 7  27096408.960
     -1957.641          44.850   107719046.719 8  27096410.500       -1932.661
        48.200
 130792882.585 8                  24889043.480
      2476.221                          50.500                    97670070.719 8
  24889049.660        1849.144          50.300   100217970.451 8  24889047.120
      1897.364          50.600    98944024.740 8  24889049.060        1873.239
        53.200
 146072759.213 7                  27796733.040
      -768.483                          43.200                   109080309.548 7
  27796741.220        -573.784          43.600   111925873.978 7  27796737.980
      -588.765          43.250   110503087.915 7  27796739.760        -581.307
        46.150
 148394978.594 6                  28238643.780
     -2564.167                          40.650                   110814480.211 6
  28238653.500       -1914.676          38.850   113705276.519 6  28238649.260
     -1964.715          37.400   112259880.025 6  28238651.740       -1939.795
        41.050
 23 12 27 10 23  0.0000000  0 20G05G08G13G14G15G17G18G20G22G23G24G30
                                E04E05E09E19E21E31E34E36
 117792657.228 8  91786463.54248  22415206.540                    22415206.320
     -3169.626       -2469.842          48.400          48.250



 134648287.283 6 104920759.39145  25622717.860                    25622721.840
     -2049.240       -1596.805          38.300          34.350   100549084.636 7
  25622722.420       -1530.024          44.850


 105146939.865 8  81932681.68848  20008796.700                    20008794.920
      -732.156        -570.512          51.250          50.000



 112233461.969 8  87454657.59847  21357304.140                    21357304.240
     -1104.742        -860.838          49.950          47.750    83810737.720 8
  21357308.020        -825.020          53.600


 107020787.455 8  83392802.02348  20365381.400                    20365380.380
      1491.850        1162.481          50.850          49.450



 128186034.471 6  99885244.68346  24392985.580                    24392988.780
      2605.247        2030.068          40.850          40.950



 131490111.642 6 102459809.08146  25021750.200                    25021752.620
     -2081.403       -1621.882          39.550          38.250    98190655.131 7
  25021757.380       -1554.340          44.250


 130732930.891 6 101869758.14745  24877671.040                    24877674.580
     -3811.092       -2969.685          39.700          32.100



 110702194.210 8  86261469.56647  21065913.160                    21065911.760
        47.192          36.772          51.750          47.700



 123364481.810 7  96128154.60047  23475488.800                    23475489.820
      2600.970        2026.730          44.750          42.050    92122830.483 8
  23475495.740        1942.367          48.950


 117888556.698 7  91861247.54147  22433440.860                    22433443.160
      3031.331        2362.076          46.900          42.600    88033696.475 8
  22433445.080        2263.659          50.450


 121606889.555 7  94758608.87447  23141028.760                    23141031.840
     -2846.967       -2218.419          45.500          45.550    90810334.382 8
  23141033.200       -2125.922          48.450


 124901873.525 8                  23768034.940
     -1132.024                          52.600                    93270894.414 8
  23768037.920        -845.414          53.750    95704040.221 9  23768035.260
      -867.446          54.000    94487466.972 9  23768036.980        -856.429
        56.350
 140614027.671 7                  26757964.860
      2734.588                          43.350                   105004001.626 6
  26757972.800        2041.893          41.250   107743226.493 6  26757969.120
      2095.193          41.400   106373613.204 7  26757971.560        2068.676
        43.750
 126312833.869 8                  24036533.580
      1414.505                          52.600                    94324538.317 8
  24036538.200        1056.258          53.750    96785167.688 8  24036535.420
      1083.850          53.600    95554847.156 9  24036536.980        1070.025
        56.150
 148934692.135 6                  28341331.500
     -2725.293                          38.350                   111217357.073 6
  28341343.680       -2034.830          39.500   114118685.795 6  28341337.600
     -2088.173          37.850   112668022.084 6  28341341.100       -2061.484
        41.300
 142469299.312 7                  27111011.440
     -2561.759                          45.800                   106389421.750 7
  27111017.260       -1912.963          45.800   109164788.086 7  27111014.760
     -1962.774          45.050   107777110.072 8  27111016.260       -1937.953
        48.000
 130718739.466 8                  24874934.440
      2467.019                          50.600                    97614704.064 8
  24874940.500        1842.312          50.300   100161159.453 8  24874938.100
      1890.316          50.800    98887935.912 8  24874940.100        1866.318
        53.100
 146096034.890 7                  27801162.480
      -783.006                          43.400                   109097690.686 7
  27801170.920        -584.550          43.850   111943708.551 7  27801167.420
      -599.820          43.100   110520695.766 7  27801169.080        -592.146
        46.050
 148471985.019 6                  28253297.600
     -2569.453                          41.250                   110871984.831 6
  28253307.300       -1918.690          39.900   113764281.324 6  28253302.980
     -1968.926          37.800   112318134.736 6  28253305.760       -1943.899
        41.700
 23 12 27 10 23 30.0000000  0 20G05G08G13G14G15G17G18G20G22G23G24G30
                                E04E05E09E19E21E31E34E36
 117887915.644 8  91860690.76348  22433333.800                    22433333.420
     -3181.161       -2478.829          48.450          48.450



 134709985.374 6 104968835.70545  25634458.460                    25634462.640
     -2064.457       -1608.672          37.200          33.000   100595157.796 7
  25634463.600       -1541.617          44.350


 105169126.709 8  81949970.13248  20013018.680                    20013017.020
      -747.228        -582.255          50.150          50.100



 112266882.324 8  87480699.41648  21363663.860                    21363664.040
     -1123.376        -875.358          49.100          48.600    83835694.457 8
  21363667.940        -838.848          53.750


 106976275.736 8  83358117.58048  20356910.960                    20356910.060
      1475.258        1149.553          50.650          50.150



 128107985.917 6  99824427.88446  24378133.180                    24378136.800
      2598.153        2024.544          40.950          40.700



 131552738.653 6 102508609.25546  25033667.840                    25033669.880
     -2094.084       -1631.758          39.350          38.800    98237421.888 7
  25033675.300       -1563.498          44.500


 130847241.313 6 101958831.10046  24899423.800                    24899427.460
     -3809.852       -2968.721          39.550          37.050



 110701070.024 8  86260593.58547  21065699.300                    21065697.980
        27.647          21.544          51.450          47.950



 123286666.062 7  96067518.97747  23460680.860                    23460681.980
      2586.473        2015.433          44.750          43.300    92064721.352 8
  23460687.980        1931.463          48.750


 117797741.351 7  91790482.37247  22416159.360                    22416161.720
      3022.830        2355.453          46.850          44.800    87965879.855 8
  22416163.660        2257.438          50.400


 121692366.984 7  94825214.56747  23157294.500                    23157298.000
     -2851.940       -2222.294          45.950          45.350    90874164.824 7
  23157298.740       -2129.604          47.950


 124935972.644 8                  23774523.780
     -1141.358                          52.450                    93296358.014 8
  23774526.800        -852.312          53.650    95730168.097 9  23774524.120
      -874.563          54.100    94513262.708 9  23774525.880        -863.478
        56.400
 140531996.641 7                  26742354.940
      2734.211                          42.100                   104942744.548 6
  26742362.760        2041.771          41.350   107680371.423 7  26742359.500
      2094.979          42.350   106311557.135 7  26742361.660        2068.400
        44.350
 126270510.583 8                  24028479.740
      1406.934                          52.100                    94292933.300 8
  24028484.220        1050.631          53.500    96752738.188 8  24028481.400
      1078.060          53.450    95522829.897 9  24028483.080        1064.344
        56.050
 149016486.783 6                  28356896.360
     -2728.139                          36.650                   111278437.270 6
  28356908.860       -2037.021          38.300   114181359.403 6  28356903.300
     -2090.386          37.850   112729898.986 6  28356906.180       -2063.612
        40.650
 142546250.987 7                  27125654.780
     -2568.470                          45.050                   106446885.601 7
  27125660.600       -1918.153          45.600   109223751.004 7  27125658.240
     -1968.199          45.300   107835323.452 8  27125659.720       -1943.115
        48.100
 130644866.981 8                  24860876.980
      2457.699                          50.000                    97559539.503 8
  24860882.940        1835.246          50.150   100104555.810 8  24860880.540
      1883.184          50.950    98832051.811 8  24860882.640        1859.204
        53.150
 146119738.584 7                  27805673.280
      -797.436                          42.850                   109115391.461 7
  27805682.020        -595.616          43.850   111961871.089 7  27805678.160
      -611.041          42.750   110538627.432 7  27805679.900        -603.370
        45.950
 148549151.453 6                  28267981.800
     -2574.995                          40.250                   110929608.954 6
  28267991.940       -1923.087          40.050   113823408.702 6  28267987.660
     -1973.314          38.800   112376510.471 7  28267990.400       -1948.116
        42.250
 23 12 27 10 24  0.0000000  0 21G05G08G13G14G15G17G18G19G20G22G23G24
                                G30E04E05E09E19E21E31E34E36
 117983502.932 7  91935174.23647  22451523.680                    22451523.500
     -3191.558       -2486.932          47.750          47.700



 134772131.726 6 105017261.38146  25646284.340                    25646289.020
     -2079.260       -1620.209          36.950          37.300   100641565.715 7
  25646289.780       -1552.575          44.200


 105191748.515 8  81967597.51148  20017323.340                    20017321.880
      -761.342        -593.253          50.050          50.000



 112300846.711 8  87507165.14648  21370126.960                    21370127.220
     -1141.125        -889.188          48.600          48.050    83861057.460 8
  21370131.400        -852.246          53.800


 106932248.636 8  83323810.76448  20348532.840                    20348532.020
      1459.413        1137.205          50.650          50.600



 128030135.108 6  99763765.23546  24363318.340                    24363322.380
      2591.413        2019.295          39.700          39.650



 131615724.142 6 102557688.71946  25045653.780                    25045655.700
     -2105.325       -1640.516          40.550          38.550    98284456.377 7
  25045661.580       -1572.304          44.100


 136067088.502 5                  25892705.240
      3211.071                          33.550



 130961514.495 6 102047875.04845  24921169.500                    24921173.520
     -3808.410       -2967.595          38.700          34.200



 110700520.586 8  86260165.44648  21065594.760                    21065593.520
         8.617           6.715          51.300          48.700



 123209278.957 7  96007217.35947  23445954.480                    23445955.660
      2572.364        2004.439          44.950          42.950    92006932.297 8
  23445961.700        1920.931          48.600


 117707167.667 7  91719905.52347  22398923.780                    22398926.460
      3015.421        2349.682          46.200          44.950    87898243.744 8
  22398928.300        2251.467          50.400


 121777982.219 7  94891927.67447  23173586.700                    23173590.100
     -2856.047       -2225.494          45.300          45.450    90938098.243 7
  23173590.340       -2132.817          47.600


 124970338.552 8                  23781063.460
     -1149.995                          52.300                    93322020.839 8
  23781066.300        -858.767          53.550    95756500.392 8  23781063.780
      -881.180          53.900    94539260.267 9  23781065.540        -869.975
        56.600
 140449956.228 6                  26726743.120
      2734.771                          41.750                   104881480.484 7
  26726751.080        2042.204          42.050   107617509.194 7  26726748.000
      2095.559          42.050   106249493.988 7  26726750.080        2068.918
        44.850
 126228400.959 8                  24020466.480
      1400.033                          51.950                    94261487.837 8
  24020470.740        1045.446          53.150    96720472.400 8  24020468.060
      1072.780          53.100    95490974.269 9  24020469.840        1059.125
        56.050
 149098354.274 6                  28372475.060
     -2730.338                          36.800                   111339571.859 6
  28372487.900       -2038.542          38.550   114244088.799 6  28372483.020
     -2091.887          37.050   112791830.988 6  28372485.020       -2065.303
        40.750
 142623397.585 7                  27140335.200
     -2574.812                          45.400                   106504494.985 7
  27140341.040       -1922.764          45.650   109282863.248 7  27140338.700
     -1972.933          45.100   107893684.271 8  27140340.260       -1947.887
        48.350
 130571264.631 8                  24846870.940
      2448.921                          50.050                    97504576.658 8
  24846876.640        1828.661          50.250   100048159.162 8  24846874.460
      1876.433          50.700    98776372.065 8  24846876.620        1852.545
        53.350
 146143867.700 7                  27810264.880
      -811.518                          43.600                   109133409.874 7
  27810273.940        -605.858          44.750   111980359.580 7  27810269.980
      -621.831          43.400   110556880.880 7  27810271.700        -613.817
        46.900
 148626473.995 6                  28282695.680
     -2580.219                          39.600                   110987349.674 6
  28282705.920       -1926.638          39.300   113882655.675 6  28282702.360
     -1976.812          39.300   112435004.331 7  28282704.620       -1951.714
        42.200
 23 12 27 10 24 30.0000000  0 21G05G08G13G14G15G17G18G19G20G22G23G24
                                G30E04E05E09E19E21E31E34E36
 118079422.180 7  92009916.39948  22469776.680                    22469776.260
     -3202.844       -2495.726          47.900          48.000



 134834729.128 6 105066038.57546  25658196.020                    25658200.640
     -2093.759       -1631.500          38.100          37.300   100688310.491 7
  25658201.980       -1563.756          45.550


 105214809.939 8  81985567.44348  20021711.660                    20021710.380
      -776.062        -604.724          49.850          50.050



 112335358.568 8  87534057.48647  21376694.220                    21376694.620
     -1159.486        -903.497          48.800          47.800    83886829.279 8
  21376699.060        -865.868          53.650


 106888712.906 8  83289886.84148  20340248.360                    20340247.500
      1442.960        1124.385          51.400          51.600



 127952489.368 6  99703262.44846  24348542.340                    24348546.800
      2584.694        2014.062          41.100          40.900



 131679070.142 6 102607049.11446  25057708.380                    25057710.220
     -2117.501       -1650.007          41.250          36.950    98331760.079 7
  25057716.360       -1581.251          43.900


 135970710.502 5                  25874366.780
      3213.663                          32.050



 131075752.156 6 102136891.25545  24942908.020                    24942912.000
     -3807.427       -2966.827          36.800          34.800



 110700550.393 8  86260188.66748  21065600.420                    21065599.240
       -10.610          -8.269          51.400          48.350



 123132327.749 7  95947255.39547  23431311.160                    23431312.320
      2557.866        1993.144          45.850          42.000    91949468.762 8
  23431318.240        1909.988          48.450


 117616841.542 7  91649521.61147  22381735.240                    22381738.260
      3006.740        2342.917          45.700          45.100    87830792.500 8
  22381740.040        2245.227          50.000


 121863738.920 7  94958750.97047  23189905.620                    23189909.180
     -2860.870       -2229.252          45.950          46.000    91002137.245 8
  23189909.620       -2136.370          48.450


 125004976.028 8                  23787654.880
     -1159.091                          52.550                    93347886.463 8
  23787657.480        -865.586          53.350    95783040.774 8  23787655.160
      -888.137          53.950    94565463.271 9  23787656.880        -876.890
        56.650
 140367911.945 7                  26711130.580
      2734.956                          42.000                   104820213.584 7
  26711138.620        2042.248          42.500   107554644.013 7  26711135.640
      2095.503          42.250   106187427.949 7  26711137.680        2068.875
        45.400
 126186510.757 8                  24012494.940
      1392.723                          52.050                    94230206.223 8
  24012498.980        1039.986          52.750    96688374.747 8  24012496.480
      1067.139          53.000    95459284.637 9  24012498.380        1053.569
        55.900
 149180306.720 6                  28388068.640
     -2732.863                          36.650                   111400763.898 6
  28388081.720       -2040.604          38.700   114306877.209 6  28388076.900
     -2094.019          37.500   112853821.206 6  28388078.800       -2067.221
        41.050
 142700742.198 7                  27155053.340
     -2581.499                          45.550                   106562252.226 7
  27155059.220       -1927.646          45.600   109342127.210 7  27155056.840
     -1977.931          45.000   107952194.869 8  27155058.480       -1952.784
        48.300
 130497938.443 8                  24832917.540
      2439.628                          50.500                    97449820.049 8
  24832923.200        1821.760          50.200    99991974.123 8  24832920.940
      1869.252          50.850    98720901.239 8  24832923.120        1845.542
        53.550
 146168425.996 7                  27814938.480
      -825.744                          43.850                   109151748.822 7
  27814947.400        -616.714          43.900   111999176.946 7  27814943.560
      -632.778          43.250   110575459.030 7  27814945.140        -624.680
        46.650
 148703955.220 6                  28297439.640
     -2585.067                          38.600                   111045208.888 6
  28297450.180       -1930.490          40.350   113942024.326 6  28297446.920
     -1980.993          39.850   112493618.262 7  28297448.940       -1955.731
        43.100
 23 12 27 10 25  0.0000000  0 22G05G08G13G14G15G17G18G19G20G22G23G24
                                G30E04E05E09E19E21E24E31E34E36
 118175662.623 7  92084908.83047  22488090.700                    22488090.660
     -3213.417       -2503.966          47.100          47.200



 134897767.658 6 105115159.48545  25670191.980                    25670196.080
     -2108.810       -1643.229          37.800          35.200   100735384.715 7
  25670197.780       -1574.709          45.750


 105238303.686 8  82003874.25348  20026182.260                    20026181.040
      -790.442        -615.929          49.950          49.950



 112370409.302 8  87561369.72847  21383364.120                    21383364.420
     -1177.337        -917.405          48.600          47.950    83913003.504 8
  21383369.200        -879.174          53.900


 106845662.877 8  83256341.37448  20332056.360                    20332055.400
      1426.912        1111.880          51.600          51.350



 127875044.833 6  99642916.48146  24333804.700                    24333809.520
      2578.231        2009.026          40.750          41.150



 131742766.627 6 102656682.64246  25069829.640                    25069831.360
     -2129.025       -1658.984          40.550          39.600    98379325.525 7
  25069837.780       -1589.902          44.350


 135874239.560 5 105876055.71445  25856009.620                    25856014.840
      3217.773        2507.370          31.300          31.000



 131189945.211 6 102225872.64245  24964638.360                    24964642.180
     -3805.869       -2965.619          38.900          32.500



 110701152.102 8  86260657.52048  21065714.940                    21065713.720
       -29.611         -23.074          51.100          48.150



 123055807.913 7  95887629.57447  23416750.020                    23416751.100
      2543.437        1981.900          45.650          43.550    91892327.350 8
  23416756.840        1899.263          48.850


 117526756.944 7  91579325.91747  22364592.520                    22364595.880
      2998.661        2336.623          45.550          45.400    87763521.632 8
  22364597.620        2239.237          50.150


 121949628.694 7  95025678.04047  23206249.860                    23206252.640
     -2865.087       -2232.537          43.400          43.650    91066275.640 7
  23206253.740       -2139.613          47.350


 125039877.977 8                  23794296.580
     -1167.879                          52.550                    93373949.579 8
  23794299.080        -872.103          53.700    95809783.799 9  23794296.920
      -894.829          54.400    94591866.343 9  23794298.540        -883.467
        56.750
 140285857.320 7                  26695516.040
      2735.280                          42.100                   104758938.948 7
  26695524.220        2042.625          42.600   107491770.930 7  26695521.440
      2095.936          43.350   106125354.091 7  26695523.180        2069.305
        45.700
 126144833.861 8                  24004564.100
      1385.651                          51.950                    94199083.898 8
  24004567.800        1034.737          52.900    96656440.530 8  24004565.440
      1061.735          53.200    95427756.366 9  24004567.540        1048.242
        55.850
 149262320.362 6                  28403675.500
     -2735.104                          36.500                   111462007.580 6
  28403688.620       -2042.146          37.750   114369718.613 6  28403684.400
     -2095.581          39.400   112915863.753 6  28403685.960       -2068.854
        41.300
 142778275.993 7                  27169807.360
     -2587.519                          45.200                   106620150.748 7
  27169813.420       -1932.267          45.950   109401536.130 7  27169810.980
     -1982.629          45.450   108010848.595 8  27169812.760       -1957.422
        48.600
 152013125.844 6                  28927136.120
      3218.039                          37.000                   113516325.851 6
  28927146.380        2402.811          37.600   116477624.797 6  28927144.800
      2465.603          38.550   114996978.479 6  28927145.300        2434.231
        40.900
 130424882.515 8                  24819015.600
      2430.696                          50.500                    97395265.250 8
  24819020.960        1815.118          50.450    99935996.164 8  24819018.940
      1862.434          51.150    98665634.860 8  24819021.060        1838.793
        53.600
 146193405.503 7                  27819691.720
      -839.776                          42.050                   109170402.295 7
  27819700.420        -627.002          43.800   112018317.039 7  27819696.940
      -643.450          43.700   110594355.821 7  27819698.700        -635.210
        46.550
 148781585.868 6                  28312211.940
     -2590.075                          37.950                   111103179.700 6
  28312223.020       -1934.307          40.200   114001507.398 6  28312219.980
     -1984.578          39.850   112552345.203 7  28312221.720       -1959.472
        42.850
 23 12 27 10 25 30.0000000  0 21G05G08G13G14G15G17G18G20G22G23G24G30
                                E04E05E09E19E21E24E31E34E36
 118272229.581 7  92160155.70147  22506466.860                    22506466.780
     -3223.664       -2511.949          47.200          46.850



 134961254.814 6 105164629.93446  25682273.280                    25682277.460
     -2123.155       -1654.405          38.050          36.700   100782793.872 7
  25682278.900       -1585.546          44.050


 105262238.554 8  82022524.78148  20030736.880                    20030735.580
      -804.538        -626.914          50.100          49.900



 112406006.190 8  87589107.55447  21390138.020                    21390138.120
     -1195.046        -931.205          49.100          47.350    83939585.583 8
  21390143.120        -892.512          53.600


 106803108.830 8  83223182.39548  20323958.740                    20323957.700
      1410.705        1099.252          51.750          51.750



 127797812.890 6  99582736.22546  24319107.400                    24319112.620
      2571.343        2003.660          40.900          41.100



 131806819.550 7 102706593.91946  25082018.820                    25082020.460
     -2140.591       -1667.996          42.700          38.350    98427157.150 7
  25082026.720       -1598.508          43.000


 131304099.674 6 102314823.98145  24986361.320                    24986365.440
     -3803.894       -2964.081          38.500          35.700



 110702334.122 8  86261578.56847  21065939.860                    21065938.560
       -48.500         -37.792          51.350          47.900



 122979730.628 7  95828348.59947  23402273.060                    23402274.180
      2529.068        1970.704          46.000          43.350    91835516.424 8
  23402279.520        1888.551          48.400


 117436923.713 7  91509326.10947  22347497.580                    22347501.160
      2990.799        2330.496          45.950          45.500    87696438.493 8
  22347503.000        2233.310          49.800


 122035659.124 7  95092714.63647  23222620.820                    23222623.320
     -2869.400       -2235.897          45.400          45.400    91130519.076 8
  23222624.340       -2142.820          48.400


 125075053.127 8                  23800990.140
     -1176.616                          52.150                    93400216.715 8
  23800992.740        -878.629          53.450    95836736.173 9  23800990.680
      -901.556          54.150    94618476.093 9  23800992.180        -890.090
        56.600
 140203801.748 6                  26679901.360
      2735.790                          41.350                   104697663.664 7
  26679909.620        2042.891          42.750   107428897.163 7  26679907.020
      2096.102          42.900   106063279.566 7  26679908.640        2069.456
        45.650
 126103379.987 8                  23996675.720
      1378.587                          52.300                    94168128.112 8
  23996679.200        1029.432          52.700    96624677.204 8  23996676.820
      1056.264          52.950    95396396.811 9  23996679.120        1042.867
        55.700
 149344411.635 6                  28419297.180
     -2737.031                          37.050                   111523309.288 6
  28419310.080       -2043.947          37.950   114432619.519 6  28419306.500
     -2097.303          38.550   112977965.054 6  28419307.600       -2070.516
        40.950
 142856006.050 7                  27184598.760
     -2593.883                          45.350                   106678195.803 7
  27184605.020       -1936.879          45.400   109461095.428 7  27184602.520
     -1987.431          45.250   108069650.765 8  27184604.440       -1962.159
        48.250
 151916587.086 6                  28908765.240
      3218.763                          38.950                   113444235.727 6
  28908775.060        2403.431          41.200   116403654.039 6  28908773.120
      2466.178          41.150   114923948.040 7  28908774.480        2434.768
        44.000
 130352106.824 8                  24805167.080
      2421.643                          50.800                    97340919.717 8
  24805172.360        1808.338          50.500    99880232.913 8  24805170.160
      1855.526          51.050    98610580.464 8  24805172.320        1831.977
        53.600
 146218814.054 7                  27824526.540
      -853.580                          42.950                   109189376.148 7
  27824535.020        -637.464          43.900   112037785.860 7  27824531.980
      -654.145          43.400   110613577.159 7  27824533.780        -645.786
        46.650
 148859372.490 6                  28327014.220
     -2595.232                          37.150                   111161266.960 6
  28327025.640       -1937.908          40.000   114061110.016 6  28327022.740
     -1988.277          40.250   112611190.140 7  28327024.160       -1963.040
        42.900
 23 12 27 10 26  0.0000000  0 22G05G08G13G14G15G17G18G19G20G22G23G24
                                G30E04E05E09E19E21E24E31E34E36
 118369113.162 7  92235649.28447  22524903.080                    22524903.240
     -3235.270       -2520.994          46.700          46.750



 135025180.886 6 105214442.45045  25694438.060                    25694441.800
     -2138.389       -1666.281          38.650          35.900   100830530.856 7
  25694443.540       -1596.994          44.050


 105286607.315 8  82041513.40448  20035374.180                    20035372.760
      -820.260        -639.164          50.850          50.250



 112442140.581 8  87617264.21047  21397014.220                    21397014.060
     -1214.016        -945.985          48.700          47.550    83966569.032 8
  21397019.260        -906.497          53.700


 106761045.563 8  83190405.84648  20315954.400                    20315953.360
      1393.321        1085.706          50.850          50.850



 127720789.066 6  99522718.11146  24304449.780                    24304455.300
      2563.402        1997.472          41.450          41.300



 131871218.725 6 102756775.02246  25094273.720                    25094275.460
     -2152.740       -1677.459          41.700          37.600    98475247.343 7
  25094281.720       -1607.567          43.650


 135681045.002 5 105725497.22045  25819242.220                    25819248.260
      3222.819        2511.298          35.450          32.850



 131418205.570 6 102403737.41145  25008074.980                    25008079.140
     -3803.091       -2963.460          38.600          35.600



 110704088.563 8  86262945.65547  21066273.720                    21066272.320
       -68.590         -53.447          51.450          47.750



 122904091.159 7  95769408.79147  23387879.380                    23387880.580
      2513.240        1958.371          45.250          43.200    91779032.447 8
  23387885.460        1876.916          48.750


 117347335.671 7  91439517.37347  22330449.500                    22330452.980
      2981.627        2323.350          46.300          44.600    87629538.471 8
  22330454.960        2226.530          50.150


 122121821.794 7  95159854.33746  23239016.920                    23239018.320
     -2874.842       -2240.140          42.300          41.950    91194861.214 8
  23239020.960       -2146.779          48.950


 125110494.284 8                  23807734.140
     -1186.296                          51.450                    93426682.494 8
  23807737.060        -885.873          53.750    95863892.368 9  23807735.000
      -908.991          54.250    94645287.085 9  23807736.460        -897.427
        56.750
 140121738.705 6                  26664285.300
      2734.767                          41.650                   104636382.802 7
  26664293.560        2042.273          42.850   107366017.674 7  26664291.060
      2095.600          43.550   106001199.384 7  26664292.540        2069.012
        45.950
 126062142.851 8                  23988828.580
      1370.416                          52.450                    94137334.184 8
  23988832.080        1023.362          53.150    96593079.949 8  23988829.580
      1050.053          52.900    95365201.218 9  23988831.900        1036.729
        55.900
 149426572.657 6                  28434932.140
     -2740.437                          37.100                   111584663.026 6
  28434944.900       -2046.196          37.200   114495573.802 6  28434941.720
     -2099.769          38.150   113040119.071 6  28434942.580       -2073.038
        40.600
 142933923.346 7                  27199425.880
     -2600.854                          45.600                   106736380.703 7
  27199432.260       -1942.201          45.650   109520798.207 7  27199429.800
     -1992.852          45.450   108128594.607 8  27199431.720       -1967.508
        48.350
 151820031.568 6                  28890390.480
      3218.199                          38.700                   113372133.052 6
  28890400.640        2403.312          39.900   116329670.357 6  28890398.700
      2466.146          39.500   114850904.869 7  28890400.020        2434.721
        42.600
 130279605.278 8                  24791370.700
      2411.614                          51.300                    97286778.913 8
  24791375.800        1800.831          50.550    99824679.744 8  24791373.800
      1847.873          51.150    98555733.484 8  24791375.720        1824.329
        53.650
 146244643.370 7                  27829441.700
      -868.536                          42.700                   109208664.219 7
  27829449.940        -648.623          44.500   112057577.102 7  27829446.780
      -665.538          42.850   110633116.816 7  27829448.960        -657.056
        46.650
 148937305.619 6                  28341844.240
     -2600.861                          36.150                   111219463.666 6
  28341855.940       -1942.225          41.100   114120824.888 6  28341853.260
     -1992.638          39.750   112670145.928 7  28341854.280       -1967.395
        43.200
 23 12 27 10 26 30.0000000  0 22G05G08G13G14G15G17G18G19G20G22G23G24
                                G30E04E05E09E19E21E24E31E34E36
 118466312.997 7  92311389.31447  22543399.540                    22543399.960
     -3245.107       -2528.659          45.850          46.150



                                  25706686.320                    25706690.220
     -2152.403       -1677.192          29.500          28.200   100878595.419 5
  25706691.820       -1607.577          34.700


 105311412.005 8  82060841.71748  20040094.500                    20040093.000
      -834.102        -649.949          50.600          50.400



 112478813.049 8  87645840.14947  21403992.800                    21403992.420
     -1231.282        -959.441          48.700          47.800    83993954.310 8
  21403997.780        -919.539          53.450


 106719476.338 8  83158014.26548  20308043.980                    20308043.060
      1377.479        1073.360          51.000          51.050



 127643978.438 6  99462866.11246  24289832.840                    24289838.520
      2556.884        1992.392          41.650          41.600



 131935963.450 7 102807225.35746  25106594.220                    25106596.100
     -2163.669       -1685.980          42.200          39.750    98523595.568 7
  25106602.320       -1615.735          42.350


 135584301.896 6 105650113.09245  25800832.420                    25800837.180
      3226.037        2513.798          36.500          35.050



 131532262.510 6 102492612.73945  25029779.760                    25029783.940
     -3800.868       -2961.722          39.050          34.650



 110706417.190 8  86264760.17147  21066716.860                    21066715.380
       -87.188         -67.939          51.750          47.600



 122828894.076 7  95710813.69747  23373569.800                    23373571.160
      2499.142        1947.384          44.750          44.150    91722878.829 8
  23373575.640        1866.228          48.550


 117257996.130 7  91369902.26847  22313448.700                    22313451.960
      2973.793        2317.245          47.000          45.250    87562824.018 8
  22313454.280        2220.702          50.300


 122208117.601 7  95227097.77347  23255438.560                    23255439.720
     -2878.600       -2243.065          46.700          46.850    91259302.827 7
  23255441.940       -2149.644          47.550


 125146203.593 8                  23814529.140
     -1194.714                          51.400                    93453348.513 8
  23814532.380        -892.197          53.550    95891254.024 9  23814530.340
      -915.479          54.300    94672300.921 9  23814531.720        -903.826
        56.650
 140039670.971 7                  26648668.340
      2735.670                          42.200                   104575098.473 7
  26648676.700        2042.828          43.350   107303134.619 7  26648674.240
      2096.191          43.800   105939115.691 7  26648675.680        2069.626
        46.250
 126021125.560 8                  23981023.300
      1363.646                          52.450                    94106704.416 8
  23981027.040        1018.252          53.250    96561651.141 8  23981024.360
      1044.794          53.150    95334171.933 9  23981026.520        1031.527
        55.950
 149508804.802 6                  28450580.940
     -2742.213                          37.800                   111646069.897 6
  28450593.140       -2047.928          36.250   114558582.611 6  28450590.040
     -2101.087          38.100   113102326.904 6  28450591.160       -2074.501
        39.850
 143012028.363 7                  27214288.740
     -2606.556                          45.300                   106794705.766 7
  27214295.220       -1946.554          45.300   109580644.811 7  27214292.900
     -1997.250          45.750   108187680.439 8  27214294.720       -1971.907
        48.250
 151723462.488 6                  28872013.580
      3219.571                          37.100                   113300020.382 6
  28872024.000        2403.964          37.900   116255676.446 6  28872021.780
      2466.482          38.200   114777851.573 6  28872023.040        2435.151
        40.850
 130207381.232 8                  24777627.140
      2402.901                          51.200                    97232845.333 8
  24777632.140        1794.330          50.600    99769339.203 8  24777629.960
      1841.117          51.150    98501096.418 8  24777631.960        1817.772
        53.650
 146270894.619 7                  27834437.260
      -881.911                          42.400                   109228267.369 7
  27834445.360        -658.595          44.250   112077691.673 7  27834442.080
      -675.845          43.400   110652975.673 7  27834444.600        -667.192
        46.650
 149015385.170 6                  28356702.240
     -2604.878                          36.250                   111277769.673 6
  28356714.300       -1945.180          41.650   114180651.998 6  28356711.540
     -1996.089          40.700   112729212.488 7  28356712.560       -1970.640
        43.850
 23 12 27 10 27  0.0000000  0 22G05G08G13G14G15G17G18G19G20G22G23G24
                                G30E04E05E09E19E21E24E31E34E36
 118563829.649 7  92387376.20847  22561956.220                    22561956.760
     -3255.601       -2536.835          45.850          46.100




                                                                 100926989.225 6
  25719023.600       -1618.313          38.100


 105336656.318 8  82080512.60448  20044898.420                    20044896.880
      -848.575        -661.228          50.550          50.150



 112516026.030 8  87674837.26747  21411074.200                    21411073.700
     -1249.168        -973.379          48.800          47.550    84021743.199 8
  21411079.160        -932.845          53.650


 106678407.090 8  83126012.26348  20300228.780                    20300227.880
      1360.834        1060.391          51.250          51.200



 127567387.715 6  99403185.46746  24275257.980                    24275263.520
      2549.877        1986.932          41.300          41.300



 132001054.678 7 102857945.69145  25118980.800                    25118982.780
     -2175.255       -1695.008          42.700          34.350    98572202.525 7
  25118988.940       -1624.329          42.550


 135487476.012 5 105574664.80245  25782406.620                    25782413.160
      3228.965        2516.087          35.800          35.600



 131646271.837 6 102581450.88145  25051475.100                    25051479.420
     -3798.905       -2960.194          36.300          32.300



 110709323.230 8  86267024.62247  21067269.860                    21067268.340
      -106.236         -82.781          51.800          47.150



 122754145.724 7  95652568.25847  23359345.600                    23359347.200
      2484.435        1935.924          44.950          44.150    91667060.286 8
  23359351.280        1855.201          48.650


 117168909.952 7  91300484.60847  22296496.200                    22296499.240
      2965.407        2310.712          47.100          45.050    87496298.782 8
  22296501.700        2214.396          50.950


 122294549.287 7  95294447.05947  23271886.140                    23271887.340
     -2882.978       -2246.479          44.850          45.000    91323845.893 8
  23271889.760       -2152.996          49.600


 125182184.897 8                  23821375.940
     -1203.763                          51.550                    93480217.649 8
  23821379.500        -898.942          53.800    95918824.094 9  23821377.340
      -922.344          54.750    94699520.524 9  23821378.740        -910.634
        56.800
 139957603.074 7                  26633051.340
      2735.825                          42.100                   104513814.018 7
  26633059.860        2042.842          43.850   107240251.443 7  26633057.280
      2096.219          44.150   105877031.879 7  26633058.680        2069.641
        46.700
 125980332.924 8                  23973260.720
      1356.261                          52.350                    94076242.414 8
  23973264.860        1012.730          53.750    96530394.465 8  23973261.920
      1039.184          53.650    95303312.595 9  23973263.860        1025.946
        56.350
 149591111.553 6                  28466243.740
     -2744.618                          37.300                   111707532.476 6
  28466255.220       -2049.521          36.950   114621648.628 6  28466252.620
     -2103.236          38.300   113164591.203 6  28466253.920       -2076.305
        40.300
 143090323.226 7                  27229187.680
     -2612.587                          44.850                   106853172.595 7
  27229194.340       -1951.096          45.650   109640636.870 7  27229192.200
     -2001.978          45.950   108246909.887 8  27229193.820       -1976.548
        48.550
 151626885.323 6                  28853635.300
      3219.428                          40.050                   113227901.589 6
  28853645.660        2403.999          39.950   116181676.178 6  28853643.400
      2466.787          39.900   114704792.036 7  28853644.440        2435.478
        42.650
 130135439.722 8                  24763937.320
      2393.513                          51.750                    97179122.740 8
  24763942.300        1787.344          50.650    99714215.156 8  24763940.200
      1834.008          51.850    98446673.100 8  24763941.920        1810.676
        53.850
 146297570.676 7                  27839513.540
      -896.146                          42.700                   109248187.741 7
  27839521.880        -669.182          44.350   112098131.701 7  27839518.040
      -686.647          43.550   110673155.884 7  27839521.000        -677.935
        46.800
 149093612.855 6                  28371588.920
     -2609.669                          37.200                   111336186.331 7
  28371600.520       -1948.928          42.050   114240592.579 6  28371597.920
     -1999.711          41.850   112788391.104 7  28371599.100       -1974.263
        44.650
 23 12 27 10 27 30.0000000  0 22G05G08G13G14G15G17G18G19G20G22G23G24
                                G30E04E05E09E19E21E24E31E34E36
 118661651.404 7  92463600.84147  22580571.160                    22580571.780
     -3265.719       -2544.719          46.100          46.100




                                                                 100975704.355 6
  25731437.600       -1629.298          39.350


 105362331.838 8  82100519.50148  20049784.360                    20049782.800
      -863.052        -672.507          50.400          50.100



 112553769.513 8  87704247.76147  21418256.540                    21418256.040
     -1266.942        -987.229          48.250          47.700    84049928.258 8
  21418261.540        -946.112          53.400


 106637830.823 8  83094394.41148  20292507.380                    20292506.360
      1344.200        1047.429          51.450          51.650



 127491011.281 7  99343671.73047  24260723.980                    24260729.080
      2542.237        1980.975          42.200          42.300



 132066481.079 7 102908927.21745  25131431.020                    25131433.100
     -2186.624       -1703.866          42.250          33.400    98621059.820 6
  25131439.200       -1632.809          41.650


 135390561.337 6 105499147.32645  25763963.940                    25763970.160
      3231.662        2518.198          37.250          35.300



 131760222.743 6 102670243.49445  25073159.000                    25073164.100
     -3797.371       -2958.995          36.300          33.550



 110712797.810 8  86269732.09348  21067931.120                    21067929.520
      -125.355         -97.679          51.550          48.000



 122679840.140 7  95594667.85247  23345205.660                    23345207.440
      2469.260        1924.102          45.300          43.050    91611572.399 8
  23345211.280        1844.099          48.600


 117080069.822 7  91231258.67147  22279590.500                    22279593.400
      2957.071        2304.217          47.350          45.400    87429957.282 8
  22279595.900        2208.275          51.000


 122381107.194 7  95361894.74647  23288357.840                    23288358.600
     -2887.364       -2249.895          47.250          47.150    91388483.193 8
  23288361.480       -2156.198          48.200


 125218429.741 8                  23828273.000
     -1212.553                          51.600                    93507283.590 8
  23828276.820        -905.507          53.800    95946596.101 9  23828274.460
      -929.078          54.300    94726939.500 9  23828275.900        -917.306
        56.750
 139875527.281 6                  26617432.820
      2735.992                          41.850                   104452523.660 7
  26617441.360        2043.006          43.550   107177362.198 7  26617438.520
      2096.375          43.250   105814942.079 7  26617440.140        2069.711
        46.100
 125939757.518 8                  23965539.460
      1348.876                          52.050                    94045942.622 8
  23965544.040        1007.278          53.650    96499304.237 8  23965540.720
      1033.525          53.350    95272617.581 9  23965542.520        1020.434
        56.250
 149673483.709 6                  28481918.920
     -2746.923                          38.550                   111769043.923 5
  28481929.660       -2051.121          35.850   114684764.713 6  28481927.380
     -2104.687          37.350   113226904.971 6  28481929.080       -2077.876
        39.250
 143168797.889 7                  27244120.840
     -2618.924                          45.000                   106911773.664 7
  27244127.760       -1955.642          45.550   109700766.684 7  27244125.760
     -2006.638          45.750   108306275.330 8  27244127.140       -1981.220
        48.350
 151530292.481 6                  28835253.900
      3220.003                          38.350                   113155770.989 6
  28835264.160        2404.499          37.850   116107663.878 6  28835262.180
      2467.174          40.950   114631720.584 7  28835262.820        2435.824
        42.000
 130063773.522 8                  24750299.760
      2384.210                          51.450                    97125605.743 8
  24750304.700        1780.419          50.650    99659302.071 8  24750302.480
      1826.867          51.350    98392458.059 8  24750304.360        1803.636
        53.800
 146324662.063 7                  27844668.980
      -909.968                          43.050                   109268418.289 7
  27844677.160        -679.562          43.850   112118890.014 7  27844673.360
      -697.287          43.750   110693650.304 7  27844676.380        -688.406
        46.650
 149171977.923 6                  28386501.360
     -2614.623                          36.200                   111394705.562 6
  28386512.920       -1952.312          41.600   114300638.439 6  28386510.320
     -2003.317          41.600   112847673.648 7  28386511.720       -1977.791
        44.450
 23 12 27 10 28  0.0000000  0 21G05G13G14G15G17G18G19G20G22G23G24G30
                                E04E05E09E19E21E24E31E34E36
 118759784.914 7  92540068.39147  22599245.480                    22599246.080
     -3275.980       -2552.716          46.650          46.550



 105388447.512 8  82120869.35248  20054753.980                    20054752.500
      -877.428        -683.711          50.100          50.150



 112592050.849 8  87734077.36347  21425541.140                    21425540.740
     -1284.601       -1000.987          48.200          47.550    84078514.954 8
  21425546.240        -959.216          53.300


 106597758.032 8  83063168.88048  20284881.780                    20284880.580
      1327.854        1034.691          51.600          51.600



 127414860.870 6  99284334.08246  24246233.020                    24246237.580
      2535.073        1975.393          41.550          41.900



 132132248.649 7 102960174.60745  25143946.240                    25143948.420
     -2197.531       -1712.365          42.750          35.650    98670171.880 6
  25143954.480       -1641.002          40.550


 135293569.131 5 105423569.47745  25745506.160                    25745512.900
      3235.068        2520.859          33.350          32.850



 131874121.160 6 102758995.20645  25094833.640                    25094838.400
     -3795.004       -2957.157          37.950          35.950



 110716849.240 8  86272889.04948  21068702.100                    21068700.520
      -144.188        -112.354          51.600          48.200



 122605988.680 7  95537121.29947  23331152.140                    23331153.900
      2454.884        1912.897          44.900          43.950    91556423.634 8
  23331157.720        1832.987          48.700


 116991485.713 7  91162232.22547  22262733.480                    22262736.180
      2948.968        2297.902          47.600          45.100    87363806.981 8
  22262738.820        2202.160          51.250


 122467799.033 7  95429446.73447  23304855.020                    23304856.520
     -2891.614       -2253.211          44.300          44.500    91453220.552 8
  23304858.160       -2159.225          48.600


 125254947.025 8                  23835222.000
     -1221.341                          51.750                    93534552.971 8
  23835226.000        -912.059          53.750    95974576.863 9  23835223.380
      -935.846          54.150    94754564.573 9  23835224.920        -923.981
        56.650
 139793453.121 6                  26601814.520
      2736.268                          41.650                   104391234.520 7
  26601823.300        2043.251          43.850   107114474.220 7  26601820.060
      2096.469          43.300   105752853.522 7  26601821.900        2069.859
        46.400
 125899409.190 8                  23957861.440
      1341.622                          52.250                    94015812.408 8
  23957866.180        1001.862          53.500    96468388.010 8  23957862.700
      1028.025          53.600    95242094.359 9  23957864.400        1014.942
        56.200
 149755929.661 6                  28497608.220
     -2748.785                          38.150                   111830610.454 6
  28497618.540       -2052.979          36.000   114747937.370 6  28497616.300
     -2106.232          37.800   113289274.567 6  28497618.340       -2079.711
        39.550
 143247459.401 7                  27259089.720
     -2624.551                          45.200                   106970514.289 7
  27259096.700       -1959.933          45.250   109761039.688 7  27259094.840
     -2011.149          45.750   108365782.143 8  27259096.060       -1985.559
        48.200
 151433694.278 6                  28816871.540
      3220.396                          40.650                   113083636.400 6
  28816881.680        2404.894          41.200   116033647.507 6  28816879.820
      2467.748          41.650   114558645.104 7  28816880.680        2436.279
        44.100
 129992392.659 8                  24736716.500
      2375.074                          51.450                    97072301.830 8
  24736721.580        1773.586          50.700    99604607.622 8  24736719.340
      1819.897          51.750    98338458.874 8  24736721.060        1796.751
        53.900
 146352176.641 7                  27849904.920
      -923.685                          42.550                   109288964.859 7
  27849913.380        -689.880          44.250   112139972.560 7  27849909.600
      -707.771          44.400   110714464.870 7  27849912.160        -698.887
        47.100
 149250487.238 6                  28401441.520
     -2619.020                          36.900                   111453332.483 6
  28401452.820       -1955.772          41.800   114360794.749 6  28401450.260
     -2006.680          41.100   112907065.268 7  28401451.640       -1981.296
        44.350
 23 12 27 10 28 30.0000000  0 22G05G08G13G14G15G17G18G19G20G22G23G24
                                G30E04E05E09E19E21E24E31E34E36
 118858223.786 7  92616773.89547  22617978.040                    22617978.420
     -3286.586       -2560.980          47.150          46.850




                                                                 101074093.481 5
  25756513.880       -1651.198          33.850


 105415000.541 8  82141560.00248  20059806.920                    20059805.300
      -892.731        -695.635          50.800          50.500



 112630865.618 8  87764322.62848  21432927.220                    21432927.020
     -1303.020       -1015.340          48.200          48.100    84107499.999 8
  21432932.480        -973.021          53.200


 106558187.405 8  83032334.65048  20277351.700                    20277350.320
      1310.354        1021.057          51.400          51.350



 127338936.572 7  99225172.55647  24231785.260                    24231788.940
      2526.688        1968.857          42.250          42.200



 132198351.643 7 103011683.38446  25156525.200                    25156527.800
     -2209.127       -1721.400          42.400          36.300    98719534.448 6
  25156533.320       -1649.801          40.000


 135196499.414 5 105347931.14445  25727033.800                    25727040.320
      3236.599        2522.041          33.500          32.900



 131987961.894 6 102847701.89346  25116497.240                    25116502.240
     -3793.983       -2956.367          38.600          36.800



 110721474.239 8  86276492.94548  21069582.220                    21069580.700
      -163.976        -127.773          51.200          48.550



 122532590.922 7  95479928.28847  23317185.020                    23317186.660
      2438.678        1900.271          45.250          43.300    91501613.675 8
  23317190.560        1821.069          48.800


 116903155.795 7  91093403.84747  22245924.720                    22245927.320
      2939.836        2290.786          47.050          45.300    87297846.489 8
  22245930.020        2195.322          51.300


 122554620.824 7  95497100.00247  23321376.680                    23321377.700
     -2896.575       -2257.072          45.900          45.850    91518054.895 8
  23321380.640       -2162.984          49.250


 125291733.860 8                  23842222.380
     -1231.053                          51.800                    93562023.649 8
  23842226.460        -919.281          53.750    96002764.172 9  23842223.600
      -943.264          54.250    94782393.564 9  23842225.220        -931.274
        56.750
 139711378.471 6                  26586196.080
      2735.349                          41.050                   104329945.011 7
  26586205.160        2042.671          44.100   107051585.826 7  26586201.360
      2096.047          42.900   105690764.572 7  26586203.600        2069.334
        46.350
 125859286.051 8                  23950226.320
      1333.371                          52.550                    93985850.355 8
  23950230.940         995.680          53.200    96437644.334 8  23950227.580
      1021.660          53.800    95211741.497 9  23950229.180        1008.685
        56.250
 149838446.212 6                  28513310.760
     -2752.041                          37.050                   111892229.669 5
  28513321.000       -2054.991          35.000   114811164.102 6  28513318.620
     -2108.540          36.050   113351697.534 6  28513320.820       -2081.748
        38.650
 143326303.323 7                  27274093.240
     -2631.508                          44.850                   107029391.111 7
  27274100.240       -1964.999          45.000   109821452.433 7  27274098.640
     -2016.267          45.950   108425426.925 8  27274099.680       -1990.623
        48.300
 151337089.082 6                  28798488.020
      3219.887                          40.850                   113011496.543 6
  28798497.960        2404.493          40.350   115959625.679 6  28798496.020
      2467.253          41.000   114485564.258 7  28798497.020        2435.982
        43.550
 129921295.461 8                  24723187.060
      2364.860                          51.300                    97019209.747 8
  24723192.320        1765.960          50.800    99550130.533 8  24723189.960
      1812.117          51.600    98284674.295 9  24723191.800        1788.992
        54.000
 146380110.565 6                  27855220.320
      -938.476                          41.900                   109309824.573 7
  27855228.980        -700.771          43.200   112161376.444 7  27855225.820
      -719.043          44.550   110735596.668 7  27855227.740        -710.020
        46.750
 149329135.581 6                  28416408.300
     -2624.016                          37.600                   111512063.271 6
  28416419.240       -1959.764          41.950   114421057.656 6  28416416.540
     -2010.798          41.800   112966562.117 7  28416418.040       -1985.297
        44.800
 23 12 27 10 29  0.0000000  0 21G05G13G14G15G17G18G19G20G22G23G24G30
                                E04E05E09E19E21E24E31E34E36
 118956958.932 7  92693710.26347  22636766.980                    22636767.260
     -3296.609       -2568.790          47.700          47.550



 105441984.344 8  82162586.33348  20064941.900                    20064940.020
      -907.048        -706.791          50.800          50.200



 112670206.241 8  87794977.64047  21440413.440                    21440413.340
     -1320.565       -1029.012          48.350          47.750    84136877.723 8
  21440418.800        -986.146          53.250


 106519114.356 8  83001888.13548  20269916.320                    20269914.880
      1293.628        1008.022          51.350          51.450



 127263234.972 7  99166184.52246  24217379.600                    24217382.900
      2519.313        1963.107          42.000          41.650



 132264781.106 6 103063446.58446  25169166.360                    25169168.940
     -2220.389       -1730.168          41.550          37.250    98769140.781 6
  25169174.320       -1657.860          39.600


 135099348.270 5 105272229.38244  25708546.060                    25708552.780
      3238.757        2523.713          34.500          28.000



 132101736.242 6 102936356.85045  25138148.080                    25138153.300
     -3791.779       -2954.642          39.050          35.750



 110726666.198 8  86280538.62548  21070570.160                    21070568.760
      -182.993        -142.592          51.250          48.300



 122459643.255 7  95423085.99747  23303303.500                    23303305.100
      2423.594        1888.517          45.850          42.750    91447139.819 8
  23303309.020        1809.831          49.000


 116815075.200 7  91024769.73947  22229163.360                    22229165.960
      2931.236        2284.084          46.800          44.950    87232072.170 8
  22229168.660        2188.975          51.300


 122641565.399 7  95564848.94847  23337921.580                    23337922.900
     -2901.000       -2260.523          44.050          43.950    91582980.927 7
  23337925.620       -2166.057          47.800


 125328784.209 8                  23849273.000
     -1239.822                          52.100                    93589691.106 8
  23849277.020        -925.867          53.800    96031153.389 8  23849274.060
      -950.042          53.850    94810421.900 9  23849275.660        -937.953
        56.750
 139629298.015 6                  26570576.440
      2735.646                          40.850                   104268651.157 7
  26570585.840        2042.729          43.850   106988692.997 7  26570581.620
      2096.169          43.000   105628671.226 7  26570584.060        2069.534
        46.500
 125819383.062 8                  23942633.100
      1325.929                          52.750                    93956052.690 8
  23942637.480         990.137          53.100    96407069.340 8  23942634.440
      1015.938          53.750    95181555.164 9  23942635.880        1003.066
        56.300
 149921026.317 6                  28529025.440
     -2754.384                          37.500                   111953896.435 5
  28529035.520       -2056.631          35.200   114874439.529 5  28529033.080
     -2110.264          34.900   113414168.621 6  28529035.400       -2083.153
        38.100
 143405321.886 7                  27289129.960
     -2637.375                          44.400                   107088398.341 7
  27289136.960       -1969.422          44.750   109881998.993 7  27289135.700
     -2020.725          45.950   108485203.816 8  27289136.500       -1995.022
        48.300
 151240472.107 6                  28780102.120
      3220.334                          41.250                   112939347.868 6
  28780112.060        2404.788          40.600   115885594.830 6  28780109.880
      2467.437          40.650   114412474.500 7  28780111.140        2436.142
        43.550
 129850477.074 8                  24709710.700
      2355.419                          51.300                    96966325.867 8
  24709716.200        1758.946          50.900    99495867.080 8  24709713.700
      1804.890          51.500    98231100.625 9  24709715.520        1781.902
        54.100
 146408456.736 6                  27860614.160
      -952.319                          41.050                   109330992.146 7
  27860622.920        -711.043          43.550   112183096.209 7  27860620.420
      -729.660          44.650   110757040.331 7  27860621.720        -720.329
        46.950
 149407914.913 6                  28431399.900
     -2629.038                          37.350                   111570891.813 7
  28431410.540       -1962.969          42.200   114481420.847 6  28431407.760
     -2014.043          40.800   113026157.978 7  28431409.200       -1988.443
        44.650
 23 12 27 10 29 30.0000000  0 21G05G13G14G15G17G18G19G20G22G23G24G30
                                E04E05E09E19E21E24E31E34E36
 119055994.255 8  92770880.54347  22655613.100                    22655613.140
     -3306.174       -2576.244          48.000          47.900



 105469405.542 8  82183953.48448  20070160.060                    20070158.080
      -921.489        -718.045          51.100          50.150



 112710077.580 8  87826046.20747  21448000.700                    21448000.620
     -1337.973       -1042.577          48.900          47.700    84166651.767 8
  21448006.180        -999.095          53.500


 106480546.920 8  82971835.61648  20262577.200                    20262575.860
      1277.091         995.137          51.750          51.650



 127187765.954 7  99107377.65947  24203018.200                    24203020.880
      2511.871        1957.307          42.300          42.600



 132331540.517 6 103115466.80246  25181870.160                    25181873.020
     -2230.877       -1738.349          41.900          36.000    98818993.517 6
  25181877.960       -1665.842          40.050


 135002125.101 6 105196471.54545  25690044.940                    25690051.320
      3242.201        2526.412          36.650          30.200



 132215448.386 6 103024963.29846  25159787.120                    25159792.460
     -3789.235       -2952.661          40.100          37.650



 110732430.880 8  86285030.58948  21071667.100                    21071665.820
      -201.700        -157.168          51.400          48.150



 122387154.578 7  95366601.37447  23289509.320                    23289510.820
      2408.698        1876.911          46.000          42.850    91393008.731 8
  23289514.820        1798.521          49.400


 116727251.426 7  90956335.75947  22212450.900                    22212453.540
      2923.137        2277.772          47.100          45.550    87166489.638 8
  22212456.080        2182.843          51.400


 122728637.934 7  95632697.59347  23354491.080                    23354492.700
     -2904.525       -2263.269          45.800          45.350    91648002.578 8
  23354494.900       -2168.961          49.250


 125366104.504 8                  23856375.040
     -1248.577                          52.700                    93617560.144 8
  23856378.940        -932.380          53.950    96059749.447 8  23856375.820
      -956.688          53.900    94838654.449 9  23856377.500        -944.528
        56.700
 139547218.917 6                  26554957.020
      2735.877                          41.600                   104207358.338 7
  26554966.760        2042.982          44.150   106925801.229 7  26554962.280
      2096.406          42.350   105566578.935 7  26554964.920        2069.658
        46.050
 125779707.670 8                  23935083.280
      1318.631                          53.400                    93926424.984 8
  23935087.300         984.717          53.100    96376668.735 9  23935084.540
      1010.391          54.000    95151541.012 9  23935085.920         997.545
        56.200
 150003676.196 6                  28544753.420
     -2755.999                          38.300                   112015615.308 5
  28544763.420       -2058.402          35.200   114937768.456 5  28544760.900
     -2111.687          35.600   113476692.526 6  28544763.280       -2085.043
        38.300
 143484519.837 7                  27304200.820
     -2642.854                          44.250                   107147539.547 7
  27304207.800       -1973.619          44.600   109942683.032 7  27304206.760
     -2025.196          45.950   108545116.444 7  27304207.460       -1999.411
        47.950
 151143851.033 6                  28761715.500
      3220.745                          40.950                   112867196.084 6
  28761725.420        2405.117          40.250   115811560.765 6  28761722.760
      2467.818          40.650   114339381.583 7  28761724.360        2436.431
        43.200
 129779945.073 8                  24696288.760
      2346.250                          51.500                    96913655.870 8
  24696294.520        1752.037          51.250    99441823.085 8  24696291.940
      1797.808          51.600    98177743.630 9  24696293.780        1774.942
        54.150
 146437220.603 6                  27866087.440
      -965.896                          41.300                   109352471.611 7
  27866096.500        -721.230          43.800   112205136.015 7  27866094.300
      -740.075          44.400   110778799.972 7  27866095.220        -730.733
        46.800
 149486829.250 6                  28446416.940
     -2632.469                          39.400                   111629821.201 7
  28446427.640       -1965.925          42.950   114541887.582 6  28446424.800
     -2017.265          41.400   113085856.042 7  28446426.260       -1991.586
        45.000
 23 12 27 10 30  0.0000000  0 21G05G13G14G15G17G18G19G20G22G23G24G30
                                E04E05E09E19E21E24E31E34E36
 119155329.823 8  92848284.76348  22674516.320                    22674516.040
     -3316.296       -2584.130          48.000          48.150



 105497266.818 8  82205663.54748  20075461.920                    20075459.900
      -936.015        -729.362          51.250          49.900



 112750481.109 8  87857529.47547  21455689.320                    21455689.140
     -1355.652       -1056.353          48.650          47.600    84196823.236 8
  21455694.840       -1012.374          53.250


 106442489.874 8  82942180.79848  20255335.240                    20255333.980
      1260.047         981.855          51.800          52.000



 127112535.479 7  99048756.63447  24188702.260                    24188704.520
      2503.622        1950.878          42.100          42.600



 132398630.070 6 103167744.29845  25194636.940                    25194640.120
     -2241.599       -1746.704          41.950          35.200    98869092.767 6
  25194644.560       -1674.045          39.700


 134904835.776 6 105120662.05245  25671531.280                    25671537.340
      3244.208        2527.963          36.800          35.750



 132329098.757 6 103113521.56245  25181414.360                    25181419.640
     -3787.370       -2951.215          38.900          35.150



 110738770.809 8  86289970.80447  21072873.480                    21072872.300
      -221.016        -172.219          51.300          47.950



 122315130.391 7  95310478.67247  23275803.500                    23275804.940
      2393.060        1864.723          45.800          42.000    91339224.496 8
  23275809.020        1786.906          49.400


 116639688.680 7  90888105.17147  22195788.140                    22195790.840
      2914.547        2271.080          47.000          45.050    87101102.033 8
  22195793.160        2176.271          51.350


 122815840.531 7  95700647.58947  23371085.180                    23371086.740
     -2908.984       -2266.744          44.800          45.000    91713121.275 8
  23371089.480       -2172.236          49.250


 125403697.806 8                  23863529.040
     -1257.637                          52.750                    93645633.048 8
  23863532.680        -939.179          53.750    96088554.686 8  23863529.440
      -963.655          53.650    94867093.520 9  23863531.280        -951.416
        56.700
 139465144.977 6                  26539338.780
      2735.675                          41.600                   104146069.349 7
  26539348.660        2042.888          43.200   106862913.399 7  26539344.060
      2096.124          42.100   105504490.523 7  26539346.620        2069.527
        45.800
 125740263.936 8                  23927577.580
      1310.905                          53.650                    93896970.273 8
  23927581.080         978.859          52.650    96346445.634 8  23927578.720
      1004.422          53.900    95121702.103 9  23927580.020         991.650
        56.200
 150086398.326 6                  28560495.040
     -2758.243                          37.500                   112077388.066 5
  28560505.520       -2059.974          35.500   115001152.730 5  28560502.580
     -2113.872          34.750   113539271.048 6  28560504.760       -2087.002
        38.200
 143563898.617 7                  27319306.100
     -2649.014                          44.200                   107206815.769 7
  27319313.020       -1978.193          44.600   110003505.603 7  27319312.280
     -2029.749          45.650   108605165.836 8  27319312.760       -2003.947
        48.000
 151047230.104 6                  28743328.900
      3220.836                          40.800                   112795044.409 6
  28743338.860        2404.964          39.800   115737526.832 6  28743336.000
      2467.650          38.800   114266288.790 7  28743337.680        2436.192
        42.350
 129709703.762 8                  24682922.100
      2336.374                          51.300                    96861202.939 8
  24682928.180        1744.758          51.150    99388001.823 8  24682925.480
      1790.288          51.350    98124606.535 9  24682927.320        1767.488
        54.350
 146466404.122 6                  27871640.720
      -980.003                          41.350                   109374264.473 7
  27871649.780        -731.667          43.550   112227497.391 7  27871647.480
      -750.826          43.900   110800877.085 7  27871648.660        -741.236
        46.750
 149565879.687 6                  28461460.040
     -2637.202                          38.350                   111688852.156 7
  28461470.720       -1969.343          42.700   114602458.483 6  28461467.480
     -2020.742          41.700   113145656.972 7  28461469.260       -1995.084
        45.350
