     2.11           OBSERVATION DATA    M (MIXED)           RINEX VERSION / TYPE
teqc  2019Feb25                         20231216 19:40:19UTCPGM / RUN BY / DATE
Linux 2.6.32-573.12.1.x86_64|x86_64|gcc|Linux 64|=+         COMMENT
teqc  2019Feb25                         20231216 19:40:18UTCCOMMENT
teqc  2019Feb25     IGN-RGP             20231216 12:02:18UTCCOMMENT
teqc  2019Feb25     Administrateur RGP  20231216 12:02:17UTCCOMMENT
teqc  2019Feb25     IGN-RGP             20231216 12:02:15UTCCOMMENT
teqc  2019Feb25     IGN-RGP             20231216 12:02:14UTCCOMMENT
BIT 2 OF LLI FLAGS DATA COLLECTED UNDER A/S CONDITION       COMMENT
IGNF                                                        MARKER NAME
10001M009                                                   MARKER NUMBER
Automatic           IGN                                     OBSERVER / AGENCY
1834194             LEICA GR50          4.51                REC # / TYPE / VERS
5000113963          TRM57971.00     NONE                    ANT # / TYPE
  4201694.1440   177888.8370  4779371.7670                  APPROX POSITION XYZ
        0.0000        0.0000        0.0000                  ANTENNA: DELTA H/E/N
     1     1                                                WAVELENGTH FACT L1/2
    21    L1    L2    C1    P1    P2    D1    D2    S1    S2# / TYPES OF OBSERV
          L5    C5    D5    S5    L7    C7    D7    S7    L8# / TYPES OF OBSERV
          C8    D8    S8                                    # / TYPES OF OBSERV
    30.0000                                                 INTERVAL
DefaultJobName                                              COMMENT
DefaultUserDiscription                                      COMMENT
Project creator:                                            COMMENT
 SNR is mapped to RINEX snr flag value [0-9]                COMMENT
  L1 & L2: min(max(int(snr_dBHz/6), 0), 9)                  COMMENT
    18                                                      LEAP SECONDS
Forced Modulo Decimation to 30 seconds                      COMMENT
teqc_2019 edited: all GLONASS satellites excluded           COMMENT
teqc_2019 edited: all SBAS satellites excluded              COMMENT
  2023    12    16    11     0    0.0000000     GPS         TIME OF FIRST OBS
                                                            END OF HEADER
 23 12 16 11  0  0.0000000  0 22G05G07G08G13G14G15G17G18G20G22G23G24
                                G30E02E03E05E08E13E15E24E25E26
 116459447.443 8  90747595.23948  22161506.920                    22161506.200
     -3006.150       -2342.458          48.350          48.150



 134064225.735 6 104465592.07446  25511599.180                    25511602.920
     -3018.135       -2351.798          41.400          40.950



 133588847.163 5 104095229.81345  25421112.180                    25421116.500
     -1773.718       -1382.114          35.950          35.850    99757939.444 7
  25421117.640       -1324.947          43.900


 104850769.419 8  81701884.65448  19952440.640                    19952438.700
      -493.564        -384.596          49.950          49.850



 111791579.174 8  87110346.53047  21273219.200                    21273218.200
      -811.237        -632.135          49.650          47.200    83480773.098 8
  21273222.780        -605.797          53.100


 107941889.236 8  84110561.63248  20540663.240                    20540662.220
      1776.821        1384.536          50.950          49.750



 129486195.545 7 100898352.11447  24640400.300                    24640403.220
      2699.076        2103.160          42.300          42.200



 130514717.514 6 101699757.26946  24836137.840                    24836139.980
     -1870.458       -1457.506          38.550          37.950    97462286.206 7
  24836145.800       -1397.119          46.350


 128908786.284 6 100448360.34146  24530546.500                    24530548.580
     -3818.923       -2975.798          39.100          37.050



 110807790.127 8  86343767.11348  21086009.100                    21086007.900
       334.771         260.860          50.800          48.300



 124605367.182 7  97095058.96446  23711617.320                    23711616.860
      2811.081        2190.452          44.200          41.250    93049466.232 7
  23711622.520        2099.229          47.100


 119516626.347 7  93129874.54047  22743256.920                    22743258.260
      3164.627        2465.945          43.900          44.000    89249469.399 8
  22743260.280        2363.234          48.400


 120339715.001 7  93771192.02947  22899894.840                    22899896.860
     -2773.044       -2160.817          47.150          46.950    89864060.370 8
  22899897.440       -2070.788          50.750


 143212231.585 7                  27252376.360
      3214.822                          44.200                   106944253.250 7
  27252385.000        2400.499          44.200   109734076.366 7  27252379.800
      2463.246          43.800   108339169.463 7  27252382.520        2431.858
        47.000
 122795879.944 8                  23367280.600
       587.139                          52.150                    91698228.536 8
  23367284.700         438.416          53.800    94090342.919 9  23367281.780
       449.868          54.850    92894289.379 9  23367283.860         444.171
        57.150
 122130040.570 8                  23240580.620
     -1873.562                          50.700                    91201002.512 8
  23240586.040       -1399.107          51.350    93580154.628 8  23240582.680
     -1435.614          51.250    92390579.226 9  23240584.920       -1417.392
        54.300
 138580608.505 7                  26371013.820
      2481.521                          47.900                   103485539.089 7
  26371016.980        1853.152          46.800   106185153.134 7  26371014.720
      1901.400          47.500   104835339.263 8  26371017.320        1877.305
        50.100
 145200930.865 7                  27630830.200
     -1448.973                          42.350                   108429267.614 7
  27630839.600       -1082.005          43.550   111257844.420 7  27630834.440
     -1110.263          42.900   109843554.170 7  27630836.740       -1096.127
        46.050
 150041161.633 6                  28551900.460
     -2830.492                          41.250                   112043713.559 6
  28551909.680       -2113.656          41.700   114966588.237 6  28551906.240
     -2168.814          40.150   113505149.560 7  28551908.640       -2141.275
        43.950
 130761003.433 8                  24882984.500
     -1268.752                          50.800                    97646232.499 8
  24882987.720        -947.426          50.500   100193511.663 8  24882985.760
      -972.134          51.400    98919864.233 8  24882987.080        -959.777
        53.750
 126688837.726 8                  24108073.800
      1700.156                          51.750                    94605359.839 8
  24108078.280        1269.569          51.900    97073305.905 8  24108076.560
      1302.711          53.050    95839331.525 9  24108077.820        1286.118
        55.300
 148887192.850 6                  28332291.620
       901.423                          40.750                   111182020.364 7
  28332297.520         673.095          42.100   114082407.191 6  28332294.300
       690.714          41.650   112632215.428 7  28332296.780         681.886
        45.000
 23 12 16 11  0 30.0000000  0 22G05G07G08G13G14G15G17G18G20G22G23G24
                                G30E02E03E05E08E13E15E24E25E26
 116549817.547 8  90818013.41648  22178703.900                    22178703.020
     -3018.357       -2351.969          48.800          48.600



 134154765.952 6 104536142.77446  25528828.420                    25528832.460
     -3018.000       -2351.693          40.600          40.850



 133642314.991 6 104136893.00445  25431286.720                    25431291.000
     -1790.237       -1394.993          36.050          35.200    99797866.576 7
  25431292.200       -1336.799          43.050


 104865794.730 8  81713592.67848  19955299.840                    19955297.980
      -507.987        -395.835          49.850          49.850



 111816196.238 8  87129528.61447  21277903.620                    21277902.760
      -829.957        -646.721          49.700          47.850    83499155.919 8
  21277907.240        -619.695          53.100


 107888806.212 8  84069198.25048  20530562.000                    20530560.980
      1761.870        1372.887          50.700          50.350



 129405291.121 7 100835309.25347  24625005.580                    24625008.100
      2694.416        2099.531          43.000          43.200



 130571046.515 6 101743649.87746  24846857.040                    24846858.980
     -1884.460       -1468.411          38.450          37.550    97504349.923 7
  24846865.100       -1407.042          46.100


 129023366.907 6 100537643.79846  24552350.720                    24552353.180
     -3819.414       -2976.175          39.700          36.750



 110798033.266 8  86336164.37248  21084152.540                    21084151.120
       315.606         245.927          50.800          48.300



 124521225.002 7  97029493.62446  23695605.580                    23695605.180
      2798.322        2180.510          44.600          40.000    92986632.788 7
  23695610.800        2089.737          47.000


 119421794.305 7  93055979.51447  22725210.860                    22725212.580
      3157.222        2460.175          44.550          44.050    89178653.336 8
  22725214.380        2357.808          48.900


 120422981.776 7  93836075.11847  22915740.180                    22915742.280
     -2778.163       -2164.806          47.300          47.400    89926239.973 8
  22915743.240       -2074.565          50.850


 143115821.761 7                  27234030.020
      3212.674                          44.100                   106872259.124 7
  27234038.760        2399.034          44.200   109660204.093 7  27234033.020
      2461.586          43.900   108266236.262 7  27234036.040        2430.340
        46.800
 122778392.423 8                  23363952.940
       578.707                          52.100                    91685169.674 8
  23363956.860         432.134          53.850    94076943.391 9  23363953.980
       443.427          55.200    92881060.184 9  23363956.100         437.778
        57.150
 122186351.743 8                  23251296.260
     -1880.559                          50.600                    91243052.980 8
  23251302.000       -1404.271          51.050    93623302.078 8  23251298.440
     -1440.902          51.600    92433178.187 9  23251300.720       -1422.621
        54.050
 138506195.847 7                  26356853.740
      2479.348                          47.850                   103429971.200 7
  26356857.320        1851.447          47.500   106128135.637 7  26356854.260
      1899.800          47.200   104779046.573 8  26356857.140        1875.604
        50.150
 145244581.399 7                  27639136.660
     -1461.079                          42.750                   108461863.748 7
  27639146.180       -1091.052          43.650   111291290.895 7  27639141.640
     -1119.512          43.750   109876575.472 7  27639143.300       -1105.248
        46.250
 150126095.465 6                  28568062.800
     -2831.611                          39.200                   112107138.159 7
  28568072.240       -2114.618          42.850   115031667.424 6  28568068.280
     -2169.777          41.600   113569401.441 7  28568071.160       -2142.197
        44.850
 130799248.451 8                  24890262.080
     -1280.925                          50.500                    97674792.051 8
  24890265.820        -956.537          50.600   100222816.249 8  24890263.440
      -981.464          51.650    98948796.302 8  24890264.860        -969.007
        53.700
 126638012.447 8                  24098402.020
      1688.248                          51.700                    94567405.897 8
  24098406.700        1260.738          52.000    97034361.862 8  24098404.940
      1293.586          53.400    95800882.532 9  24098406.040        1277.130
        55.350
 148860358.460 6                  28327185.420
       887.638                          40.950                   111161981.628 6
  28327191.540         662.885          41.400   114061845.713 7  28327187.960
       680.129          42.550   112611915.331 7  28327190.280         671.439
        44.600
 23 12 16 11  1  0.0000000  0 22G05G07G08G13G14G15G17G18G20G22G23G24
                                G30E02E03E05E08E13E15E24E25E26
 116640559.227 8  90888721.13248  22195971.620                    22195970.820
     -3031.064       -2361.872          48.750          48.450



 134245309.977 6 104606696.47846  25546058.220                    25546062.740
     -3018.493       -2352.076          39.100          39.300



 133696266.572 6 104178933.16545  25441553.320                    25441557.500
     -1806.876       -1407.956          37.400          34.950    99838155.088 7
  25441558.980       -1349.093          42.200


 104881254.965 8  81725639.60048  19958241.760                    19958240.040
      -522.836        -407.404          50.050          50.000



 111841378.767 8  87149151.32447  21282695.640                    21282694.960
      -849.016        -661.572          50.000          46.500    83517961.013 8
  21282699.440        -634.014          53.600


 107836177.815 8  84028189.11948  20520547.160                    20520546.220
      1746.450        1360.870          50.950          49.650



 129324536.665 7 100772383.33347  24609639.300                    24609641.400
      2689.010        2095.319          44.150          44.200



 130627780.341 6 101787857.91546  24857653.280                    24857654.620
     -1897.873       -1478.868          39.500          37.400    97546715.952 7
  24857661.560       -1417.295          46.150


 129137953.654 6 100626932.01445  24574156.100                    24574158.220
     -3819.902       -2976.549          40.600          32.800



 110788855.265 8  86329012.68747  21082406.080                    21082404.460
       295.985         230.638          51.350          47.200



 124437472.961 7  96964232.30446  23679668.040                    23679667.860
      2785.052        2170.170          45.000          39.650    92924090.697 7
  23679673.320        2079.782          47.350


 119327185.009 7  92982258.03747  22707207.240                    22707209.120
      3149.686        2454.303          45.400          42.350    89108003.598 8
  22707210.920        2352.076          49.750


 120506406.363 7  93901081.17947  22931615.620                    22931617.480
     -2783.750       -2169.159          47.750          47.750    89988537.425 8
  22931618.900       -2078.712          51.250


 143019484.903 7                  27215697.520
      3209.794                          44.600                   106800319.475 7
  27215706.140        2396.979          44.650   109586387.749 7  27215700.640
      2459.429          44.150   108193358.265 7  27215703.520        2428.223
        47.200
 122761166.028 8                  23360674.940
       569.738                          52.350                    91672305.811 9
  23360678.760         425.425          54.100    94063743.953 9  23360675.940
       436.562          55.250    92868028.536 9  23360678.080         430.960
        57.550
 122242878.925 8                  23262053.160
     -1888.054                          51.250                    91285264.761 8
  23262059.040       -1409.904          51.400    93666615.043 8  23262055.220
     -1446.690          51.600    92475940.556 9  23262057.580       -1428.291
        54.350
 138431852.750 7                  26342706.820
      2476.815                          47.750                   103374455.232 8
  26342710.800        1849.518          48.100   106071171.423 7  26342707.000
      1897.797          46.550   104722806.483 8  26342710.080        1873.682
        50.400
 145288604.552 7                  27647514.060
     -1473.877                          43.750                   108494738.088 7
  27647523.560       -1100.605          43.400   111325022.847 7  27647519.600
     -1129.291          44.200   109909878.616 7  27647520.820       -1114.941
        46.600
 150211074.229 6                  28584233.620
     -2833.407                          41.100                   112170596.256 7
  28584243.280       -2115.875          42.050   115096780.946 7  28584239.300
     -2171.305          42.000   113633687.250 7  28584242.220       -2143.511
        44.900
 130837865.812 8                  24897610.660
     -1293.602                          51.100                    97703629.662 8
  24897614.820        -966.010          51.000   100252406.149 8  24897611.960
      -991.236          51.550    98978010.055 9  24897613.520        -978.604
        54.000
 126587551.329 8                  24088799.540
      1675.758                          51.850                    94529723.897 8
  24088804.480        1251.393          52.300    96995696.848 8  24088802.480
      1284.025          53.450    95762709.024 9  24088803.560        1267.693
        55.650
 148833946.697 6                  28322159.400
       873.007                          41.350                   111142258.493 7
  28322165.860         652.074          42.000   114041608.068 7  28322162.020
       669.027          42.000   112591934.938 7  28322164.580         660.516
        44.700
 23 12 16 11  1 30.0000000  0 22G05G07G08G13G14G15G17G18G20G22G23G24
                                G30E02E03E05E08E13E15E24E25E26
 116731668.423 8  90959715.21248  22213309.240                    22213308.520
     -3042.968       -2371.146          49.250          49.100



 134335856.309 6 104677251.98946  25563288.580                    25563293.500
     -3018.149       -2351.805          38.750          38.650



 133750699.917 6 104221348.80146  25451911.800                    25451915.620
     -1822.187       -1419.885          36.750          36.000    99878803.486 7
  25451917.660       -1360.918          43.000


 104897149.448 8  81738024.90148  19961266.360                    19961264.680
      -537.044        -418.476          49.750          49.700



 111867124.642 8  87169212.99147  21287594.940                    21287594.440
      -867.535        -676.003          49.750          47.750    83537186.774 8
  21287598.980        -647.885          53.850


 107784004.948 8  83987534.94548  20510618.880                    20510617.880
      1731.430        1349.166          50.750          49.400



 129243934.740 7 100709576.33047  24594301.800                    24594303.760
      2684.372        2091.709          43.900          43.650



 130684915.385 6 101832378.63746  24868525.860                    24868526.900
     -1911.198       -1489.251          40.500          39.200    97589381.616 7
  24868534.180       -1427.134          45.800


 129252542.664 6 100716222.02545  24595961.700                    24595964.220
     -3819.446       -2976.198          38.850          35.550



 110780255.050 8  86322311.22947  21080769.560                    21080767.840
       277.000         215.844          50.950          47.650



 124354112.696 7  96899276.26646  23663805.120                    23663805.180
      2772.306        2160.239          45.250          40.150    92861841.166 7
  23663810.400        2070.057          47.500


 119232798.652 7  92908710.26447  22689246.080                    22689248.200
      3142.511        2448.711          45.450          43.500    89037520.340 8
  22689249.960        2346.696          50.000


 120589986.533 7  93966208.46747  22947520.460                    22947522.420
     -2788.628       -2172.961          46.750          47.000    90050951.053 8
  22947524.200       -2082.379          51.550


 142923221.453 7                  27197379.000
      3207.566                          44.400                   106728434.629 7
  27197387.280        2395.236          45.050   109512627.616 7  27197382.100
      2457.633          44.050   108120535.783 7  27197385.040        2426.397
        47.200
 122744200.527 8                  23357446.540
       561.177                          52.150                    91659636.766 9
  23357450.360         419.047          54.150    94050744.417 9  23357447.520
       429.965          55.150    92855194.246 9  23357449.680         424.515
        57.350
 122299620.840 8                  23272851.020
     -1894.951                          51.450                    91327636.896 8
  23272856.960       -1415.024          51.300    93710092.546 8  23272852.920
     -1451.917          51.600    92518865.379 9  23272855.260       -1433.521
        54.100
 138357579.071 7                  26328573.060
      2474.689                          47.950                   103318991.117 8
  26328577.420        1847.946          48.400   106014260.405 7  26328572.660
      1896.096          45.900   104666618.919 8  26328576.140        1872.033
        50.150
 145332997.944 7                  27655962.000
     -1486.019                          44.350                   108527888.956 7
  27655971.100       -1109.596          42.750   111359038.520 7  27655967.780
     -1138.560          44.800   109943461.887 7  27655968.680       -1124.035
        46.350
 150296094.652 6                  28600412.500
     -2834.809                          39.650                   112234085.515 7
  28600422.360       -2116.827          42.700   115161926.434 6  28600418.040
     -2171.979          40.750   113698004.624 7  28600420.980       -2144.319
        44.700
 130876853.275 8                  24905029.740
     -1305.726                          51.100                    97732743.655 8
  24905034.240        -975.044          51.350   100282279.640 8  24905030.940
     -1000.470          51.300    99007503.799 8  24905032.600        -987.771
        53.950
 126537454.217 8                  24079266.320
      1663.774                          51.650                    94492313.712 8
  24079271.520        1242.487          52.550    96957310.745 8  24079269.260
      1274.905          53.250    95724810.880 9  24079270.400        1258.688
        55.550
 148807957.241 6                  28317213.880
       859.063                          40.950                   111122850.714 7
  28317220.440         641.761          42.250   114021694.003 6  28317216.700
       658.377          41.350   112572274.010 7  28317218.940         650.064
        44.500
 23 12 16 11  2  0.0000000  0 22G05G07G08G13G14G15G17G18G20G22G23G24
                                G30E02E03E05E08E13E15E24E25E26
 116823144.809 7  91030995.41947  22230716.660                    22230716.040
     -3055.213       -2380.689          47.950          47.850



 134426407.165 6 104747811.00846  25580519.800                    25580525.060
     -3018.440       -2352.035          39.250          38.950



 133805616.278 6 104264140.90746  25462362.020                    25462366.760
     -1838.106       -1432.289          38.250          37.500    99919812.575 7
  25462367.980       -1372.872          43.500


 104913481.336 8  81750751.03148  19964374.180                    19964372.460
      -551.537        -429.770          49.650          49.650



 111893435.811 8  87189715.15147  21292601.860                    21292601.500
      -886.233        -690.574          49.850          47.900    83556834.670 9
  21292606.180        -661.879          54.000


 107732292.109 8  83947239.22348  20500778.160                    20500777.040
      1716.173        1337.277          50.700          49.450



 129163491.424 7 100646893.02647  24578994.200                    24578996.060
      2678.989        2087.519          43.050          42.900



 130742452.064 6 101877212.28446  24879475.020                    24879475.680
     -1924.662       -1499.743          40.000          37.250    97632347.189 7
  24879482.980       -1437.020          44.800


 129367134.574 6 100805514.21446  24617767.780                    24617770.760
     -3819.412       -2976.173          38.650          36.250



 110772235.732 8  86316062.40548  21079243.480                    21079241.860
       257.848         200.920          50.350          48.350



 124271149.982 7  96834629.99546  23648017.860                    23648018.060
      2758.728        2149.657          45.600          41.550    92799888.484 7
  23648023.140        2060.229          47.500


 119138639.415 7  92835339.47347  22671328.200                    22671330.520
      3134.982        2442.844          46.000          43.550    88967206.679 8
  22671332.200        2341.020          50.150


 120673724.080 7  94031458.39047  22963455.060                    22963457.080
     -2793.656       -2176.878          46.200          45.950    90113482.213 8
  22963459.220       -2086.229          51.600


 142827035.880 7                  27179075.120
      3204.988                          44.050                   106656607.936 7
  27179083.400        2393.411          44.350   109438927.161 7  27179078.240
      2455.829          43.650   108047772.204 7  27179081.320        2424.617
        46.800
 122727499.704 8                  23354268.460
       552.456                          52.050                    91647165.384 9
  23354272.260         412.492          54.000    94037947.693 9  23354269.500
       423.279          55.050    92842560.192 9  23354271.660         417.878
        57.150
 122356580.311 8                  23283690.280
     -1902.081                          51.300                    91370171.504 8
  23283696.180       -1420.417          51.300    93753736.758 8  23283692.000
     -1457.473          51.250    92561954.785 8  23283694.320       -1438.905
        53.800
 138283378.785 7                  26314453.260
      2472.229                          47.100                   103263581.791 8
  26314457.760        1846.172          48.350   105957405.602 7  26314452.360
      1894.245          45.350   104610486.847 8  26314456.060        1870.253
        49.800
 145377763.018 7                  27664480.640
     -1498.213                          44.150                   108561317.348 6
  27664489.060       -1118.667          41.550   111393338.960 7  27664486.560
     -1147.908          44.550   109977326.300 7  27664487.160       -1133.254
        45.600
 150381157.750 6                  28616599.280
     -2835.857                          39.400                   112297606.513 7
  28616609.540       -2117.773          43.750   115227104.554 7  28616605.220
     -2173.037          42.850   113762354.183 7  28616608.220       -2145.370
        46.000
 130916212.655 8                  24912519.680
     -1318.038                          50.800                    97762135.386 8
  24912524.440        -984.187          51.450   100312438.122 8  24912520.760
     -1009.909          51.100    99037278.907 8  24912522.480        -997.051
        53.850
 126487725.007 8                  24069803.100
      1651.599                          51.450                    94455178.269 8
  24069808.540        1233.336          52.350    96919206.551 8  24069805.960
      1265.519          53.000    95687191.065 9  24069807.220        1249.394
        55.250
 148782393.874 6                  28312349.280
       845.494                          39.400                   111103761.108 7
  28312355.980         631.282          42.550   114002106.449 7  28312352.580
       647.612          42.700   112552935.429 7  28312354.400         639.504
        45.050
 23 12 16 11  2 30.0000000  0 22G05G07G08G13G14G15G17G18G20G22G23G24
                                G30E02E03E05E08E13E15E24E25E26
 116914982.760 8  91102557.35848  22248192.880                    22248192.560
     -3066.865       -2389.769          48.000          48.150



 134516958.644 6 104818370.47546  25597751.300                    25597756.700
     -3017.853       -2351.579          39.600          38.900



 133861010.242 6 104307305.21045  25472903.100                    25472907.820
     -1853.749       -1444.475          37.600          33.700    99961178.282 7
  25472909.020       -1384.483          44.950


 104930247.393 8  81763815.46948  19967564.620                    19967562.760
      -565.632        -440.753          49.400          49.350



 111920307.829 8  87210654.34148  21297715.640                    21297715.340
      -904.595        -704.881          49.650          48.600    83576901.383 9
  21297720.120        -675.572          54.150


 107681038.319 8  83907301.20448  20491024.800                    20491023.720
      1701.214        1325.622          50.450          49.800



 129083206.482 7 100584333.23547  24563716.580                    24563718.880
      2673.683        2083.385          42.750          42.600



 130800384.332 6 101922354.20946  24890499.360                    24890500.020
     -1937.322       -1509.606          40.700          38.200    97675608.182 7
  24890507.120       -1446.690          44.800


 129481723.276 6 100894804.01146  24639573.560                    24639576.320
     -3819.124       -2975.951          38.500          37.700



 110764794.118 8  86310263.73548  21077827.300                    21077825.980
       238.935         186.183          50.150          48.450



 124188584.087 7  96770292.94646  23632306.100                    23632306.440
      2745.893        2139.657          46.150          40.950    92738232.144 7
  23632311.380        2050.565          47.550


 119044705.149 7  92762143.97447  22653453.120                    22653455.560
      3127.835        2437.275          45.950          43.350    88897061.012 8
  22653457.180        2335.706          49.800


 120757614.450 7  94096827.38447  22979418.800                    22979420.520
     -2798.322       -2180.516          46.250          46.150    90176127.463 8
  22979423.000       -2089.780          51.350


 142730926.342 7                  27160785.640
      3202.513                          42.900                   106584838.025 7
  27160794.220        2391.636          44.500   109365284.941 7  27160788.800
      2454.075          44.200   107975066.135 7  27160792.040        2422.869
        47.350
 122711060.970 8                  23351140.240
       543.993                          52.050                    91634889.706 8
  23351143.980         406.234          53.850    94025351.786 9  23351141.480
       416.832          55.250    92830124.397 9  23351143.500         411.539
        57.650
 122413753.778 8                  23294570.200
     -1908.925                          51.250                    91412865.911 8
  23294576.080       -1425.530          51.100    93797544.930 8  23294571.800
     -1462.704          51.250    92605206.074 9  23294574.080       -1444.091
        54.250
 138209249.426 7                  26300346.960
      2470.188                          47.250                   103208225.422 7
  26300351.380        1844.633          47.750   105900605.125 7  26300345.820
      1892.778          45.750   104554408.430 8  26300349.420        1868.731
        50.050
 145422894.974 7                  27673069.100
     -1510.180                          44.400                   108595019.743 6
  27673076.800       -1127.693          40.900   111427920.525 7  27673074.880
     -1157.029          44.150   110011468.287 7  27673075.360       -1142.347
        45.550
 150466258.063 6                  28632793.260
     -2836.848                          40.150                   112361155.377 6
  28632803.760       -2118.539          40.750   115292311.148 6  28632799.800
     -2173.714          40.500   113826731.917 7  28632802.160       -2146.146
        43.600
 130955939.341 8                  24920079.560
     -1329.935                          50.900                    97791801.416 8
  24920084.400        -993.137          51.500   100342878.048 8  24920080.540
     -1019.016          51.250    99067331.885 9  24920082.280       -1006.105
        54.350
 126438361.224 8                  24060409.460
      1639.766                          51.250                    94418315.706 8
  24060415.080        1224.497          52.350    96881382.360 8  24060412.160
      1256.409          53.000    95649847.684 9  24060413.640        1240.438
        55.650
 148757254.086 6                  28307565.200
       831.326                          38.900                   111084987.825 7
  28307572.160         620.772          42.650   113982843.431 7  28307569.080
       636.993          42.900   112533917.279 7  28307570.680         628.864
        45.700
 23 12 16 11  3  0.0000000  0 22G05G07G08G13G14G15G17G18G20G22G23G24
                                G30E02E03E05E08E13E15E24E25E26
 117007180.702 7  91174399.82247  22265737.500                    22265737.260
     -3079.358       -2399.503          47.750          47.550



 134607510.985 6 104888930.71246  25614982.960                    25614988.260
     -3018.686       -2352.226          38.500          37.750



 133916881.275 6 104350841.07745  25483534.840                    25483539.400
     -1870.494       -1457.529          37.000          33.950   100002900.261 7
  25483540.780       -1396.721          43.100


 104947448.616 8  81777219.00748  19970837.940                    19970835.860
      -580.760        -452.540          50.000          50.000



 111947740.388 8  87232030.32448  21302936.080                    21302935.720
      -923.812        -719.854          49.750          48.200    83597386.683 9
  21302940.680        -689.838          54.400


 107630246.315 8  83867723.01948  20481359.380                    20481358.340
      1685.184        1313.130          50.750          49.650



 129003083.087 7 100521899.36047  24548469.500                    24548472.060
      2668.053        2078.999          42.750          42.250



 130858710.404 6 101967802.98146  24901598.540                    24901599.480
     -1950.740       -1520.062          41.150          37.800    97719163.250 7
  24901606.220       -1456.802          44.850


 129596306.676 6 100984089.67545  24661378.320                    24661381.000
     -3819.389       -2976.151          39.750          35.650



 110757930.819 8  86304915.69948  21076521.220                    21076520.160
       219.086         170.715          50.400          48.800



 124106418.454 7  96706267.79046  23616670.500                    23616670.820
      2732.133        2128.935          46.300          40.950    92676874.722 7
  23616675.820        2040.196          47.800


 118950997.877 7  92689125.36347  22635621.260                    22635623.740
      3119.650        2430.897          46.400          44.850    88827084.855 8
  22635625.220        2329.651          49.650


 120841657.255 7  94162315.19047  22995411.700                    22995413.020
     -2804.112       -2185.025          47.000          47.150    90238886.561 8
  22995415.820       -2093.927          51.650


 142634895.127 7                  27142511.220
      3199.565                          44.100                   106513126.582 7
  27142519.740        2389.313          44.400   109291702.753 7  27142514.720
      2451.619          44.050   107902419.322 7  27142517.720        2420.485
        47.400
 122694885.937 8                  23348062.200
       534.648                          52.300                    91622810.948 8
  23348065.880         399.266          53.850    94012957.933 9  23348063.640
       409.670          55.000    92817888.093 9  23348065.520         404.445
        57.650
 122471141.832 8                  23305490.880
     -1916.542                          50.950                    91455720.552 8
  23305496.740       -1431.165          51.300    93841517.528 8  23305492.340
     -1468.500          50.800    92648619.696 9  23305494.680       -1449.851
        54.250
 138135192.710 7                  26286254.380
      2467.335                          47.050                   103152923.319 7
  26286258.720        1842.433          47.400   105843860.343 7  26286253.660
      1890.520          46.050   104498384.982 8  26286256.680        1866.488
        50.050
 145468393.100 7                  27681727.140
     -1522.795                          44.150                   108628995.565 6
  27681733.920       -1137.159          40.200   111462782.667 7  27681732.600
     -1166.816          43.100   110045887.268 7  27681733.260       -1152.029
        44.700
 150551394.388 6                  28648994.360
     -2838.607                          40.250                   112424731.072 7
  28649005.040       -2119.667          42.000   115357545.407 6  28649000.980
     -2174.962          40.850   113891136.893 7  28649003.040       -2147.337
        44.600
 130996032.936 8                  24927709.240
     -1342.676                          51.000                    97821741.428 8
  24927714.120       -1002.604          51.700   100373599.113 8  24927710.200
     -1028.729          50.950    99097662.421 9  24927711.900       -1015.650
        54.550
 126389364.535 8                  24051085.700
      1627.061                          51.600                    94381727.279 8
  24051091.420        1215.007          52.350    96843839.454 8  24051088.180
      1246.695          52.800    95612782.019 9  24051089.900        1230.836
        55.750
 148732539.329 6                  28302862.080
       816.640                          38.750                   111066531.923 6
  28302869.000         609.798          41.900   113963906.073 7  28302866.200
       625.718          42.450   112515220.652 7  28302867.600         617.797
        45.300
 23 12 16 11  3 30.0000000  0 22G05G07G08G13G14G15G17G18G20G22G23G24
                                G30E02E03E05E08E13E15E24E25E26
 117099735.027 7  91246519.96948  22283350.000                    22283350.100
     -3091.182       -2408.718          47.950          48.100



 134698063.612 6 104959491.08446  25632214.580                    25632220.100
     -3018.634       -2352.185          38.050          37.900



 133973226.498 6 104394746.57345  25494257.080                    25494261.080
     -1886.372       -1469.898          36.550          33.050   100044976.385 7
  25494262.800       -1408.662          42.900


 104965085.272 8  81790961.83548  19974194.160                    19974192.100
      -595.334        -463.897          50.350          50.000



 111975732.247 8  87253842.12947  21308262.860                    21308262.480
      -942.535        -734.444          49.950          47.700    83618289.651 9
  21308267.620        -703.893          54.500


 107579917.479 8  83828505.74548  20471782.080                    20471780.980
      1669.680        1301.049          50.650          49.350



 128923124.662 7 100459594.06047  24533253.700                    24533256.580
      2662.341        2074.548          42.350          42.550



 130917427.533 7 102013556.49845  24912772.160                    24912773.500
     -1963.880       -1530.304          42.200          35.650    97763010.350 7
  24912779.680       -1466.568          45.350


 129710882.377 6 101073369.31745  24683181.560                    24683184.420
     -3819.016       -2975.855          39.500          34.750



 110751645.631 8  86300018.14647  21075325.160                    21075324.340
       199.595         155.528          51.000          47.750



 124024655.720 7  96642556.57946  23601111.460                    23601111.920
      2718.468        2118.286          46.300          40.250    92615818.135 8
  23601116.840        2030.053          48.100


 118857518.631 7  92616284.43747  22617832.700                    22617835.280
      3112.024        2424.955          46.850          44.600    88757278.994 8
  22617836.440        2323.796          49.200


 120925851.194 7  94227920.77947  23011433.300                    23011434.460
     -2809.342       -2189.102          45.800          46.150    90301758.553 8
  23011437.240       -2097.769          51.700


 142538943.700 7                  27124252.140
      3196.862                          44.150                   106441474.674 7
  27124260.320        2387.225          44.650   109218181.664 7  27124256.060
      2449.548          44.550   107829832.820 7  27124258.700        2418.373
        47.600
 122678975.269 8                  23345034.460
       525.684                          52.250                    91610929.608 8
  23345038.080         392.543          53.900    94000766.642 9  23345036.020
       402.793          55.200    92805851.778 9  23345037.820         397.677
        57.650
 122528744.144 8                  23316452.240
     -1923.920                          50.800                    91498735.206 8
  23316458.160       -1436.745          51.400    93885654.304 8  23316453.660
     -1474.117          50.950    92692195.410 9  23316456.060       -1455.448
        54.300
 138061209.525 7                  26272175.760
      2464.708                          46.800                   103097676.112 7
  26272179.900        1840.436          47.150   105787171.912 7  26272175.740
      1888.415          47.150   104442417.163 8  26272178.060        1864.436
        50.150
 145514255.880 7                  27690454.580
     -1535.092                          43.800                   108663243.697 6
  27690460.560       -1146.434          40.650   111497924.208 7  27690459.580
     -1176.216          42.300   110080582.105 7  27690460.480       -1161.316
        44.550
 150636564.466 6                  28665201.620
     -2839.762                          40.000                   112488332.026 6
  28665212.360       -2120.620          41.150   115422805.484 6  28665208.660
     -2175.919          40.250   113955567.407 7  28665210.460       -2148.301
        43.850
 131036492.106 8                  24935408.500
     -1354.969                          51.100                    97851954.439 8
  24935413.240       -1011.789          51.850   100404600.296 8  24935409.480
     -1038.185          51.350    99128269.521 9  24935411.100       -1024.994
        54.700
 126340735.682 8                  24041831.980
      1614.562                          51.900                    94345413.539 8
  24041837.700        1205.699          52.550    96806578.399 8  24041834.240
      1237.172          52.900    95575994.621 9  24041836.180        1221.441
        55.750
 148708250.205 6                  28298239.860
       802.491                          38.900                   111048393.871 7
  28298246.980         599.086          42.100   113945294.850 7  28298244.060
       614.768          42.500   112496846.014 7  28298245.620         606.849
        45.400
 23 12 16 11  4  0.0000000  0 22G05G07G08G13G14G15G17G18G20G22G23G24
                                G30E02E03E05E08E13E15E24E25E26
 117192645.021 8  91318917.28148  22301030.140                    22301030.080
     -3102.499       -2417.535          48.250          48.250



 134788617.505 5 105030052.46545  25649446.400                    25649452.040
     -3017.499       -2351.307          35.600          33.300



 134030046.173 5 104439021.73045  25505069.740                    25505073.240
     -1901.990       -1482.068          35.650          33.550   100087406.765 7
  25505075.020       -1419.808          43.150


 104983158.921 8  81805045.18848  19977633.600                    19977631.640
      -609.295        -474.775          50.500          50.550



 112004283.974 8  87276090.20447  21313696.060                    21313695.640
      -960.661        -748.568          49.700          47.650    83639610.703 9
  21313701.000        -717.262          54.350


 107530055.593 8  83789652.32748  20462293.740                    20462292.420
      1654.787        1289.444          50.800          49.800



 128843335.658 7 100397420.78847  24518070.140                    24518073.180
      2657.102        2070.467          42.400          42.600



 130976534.808 7 102059614.06246  24924020.040                    24924021.860
     -1975.836       -1539.615          42.750          38.850    97807148.802 7
  24924027.260       -1475.720          45.250


 129825449.639 6 101162642.30746  24704982.760                    24704986.200
     -3817.835       -2974.946          37.850          37.300



 110745940.509 8  86295572.59148  21074239.580                    21074238.760
       180.991         141.031          51.100          48.250



 123943300.214 7  96579162.69947  23585629.880                    23585630.480
      2705.465        2108.155          45.900          42.200    92555065.670 8
  23585635.360        2020.372          48.300


 118764270.373 7  92543623.49847  22600088.100                    22600090.660
      3104.898        2419.401          46.400          45.450    88687645.602 8
  22600091.520        2318.587          48.900


 121010196.768 7  94293644.51747  23027483.640                    23027485.000
     -2813.427       -2192.283          46.000          46.000    90364743.784 8
  23027487.920       -2100.964          52.200


 142443075.174 7                  27106008.800
      3194.849                          43.950                   106369884.676 7
  27106016.680        2385.710          44.300   109144724.093 7  27106013.060
      2447.973          44.250   107757309.039 7  27106015.480        2416.799
        47.600
 122663331.451 8                  23342057.480
       517.546                          51.800                    91599247.539 8
  23342061.040         386.488          53.850    93988779.825 9  23342059.080
       396.587          55.000    92794017.335 9  23342060.900         391.510
        57.700
 122586562.220 8                  23327454.580
     -1930.369                          50.850                    91541910.974 8
  23327460.520       -1441.444          51.300    93929956.412 8  23327456.060
     -1479.090          50.800    92735934.349 9  23327458.540       -1460.275
        54.300
 137987302.554 7                  26258111.740
      2462.866                          47.050                   103042485.826 7
  26258115.660        1839.139          46.650   105730541.881 7  26258112.440
      1887.137          47.600   104386507.007 8  26258114.060        1863.091
        50.300
 145560483.434 7                  27699251.380
     -1546.430                          43.450                   108697764.233 6
  27699257.120       -1154.977          40.700   111533345.280 6  27699255.860
     -1184.941          41.150   110115552.909 7  27699257.340       -1169.930
        44.200
 150721768.119 6                  28681415.320
     -2840.173                          40.100                   112551957.919 7
  28681426.060       -2120.790          43.250   115488091.258 7  28681422.720
     -2176.198          42.850   114020023.234 7  28681424.400       -2148.437
        46.300
 131077317.315 8                  24943177.320
     -1366.351                          50.900                    97882440.781 8
  24943181.940       -1020.353          51.800   100435881.946 8  24943178.360
     -1046.962          51.150    99159153.514 9  24943179.960       -1033.648
        54.750
 126292477.231 8                  24032648.780
      1603.004                          51.800                    94309376.405 8
  24032654.400        1197.027          52.350    96769601.170 8  24032650.780
      1228.272          52.800    95539487.442 9  24032652.940        1212.635
        55.850
 148684389.204 6                  28293699.360
       788.900                          39.700                   111030575.507 6
  28293706.300         589.032          41.250   113927011.677 7  28293703.320
       604.332          42.700   112478795.235 7  28293704.900         596.770
        45.250
 23 12 16 11  4 30.0000000  0 22G05G07G08G13G14G15G17G18G20G22G23G24
                                G30E02E03E05E08E13E15E24E25E26
 117285905.818 8  91391587.92648  22318777.100                    22318777.280
     -3114.442       -2426.842          48.250          48.000



 134879170.726 5 105100613.30245  25666678.180                    25666683.780
     -3017.902       -2351.616          35.800          35.450



 134087336.564 6 104483663.74146  25515971.680                    25515975.260
     -1917.252       -1493.960          36.750          36.700   100130188.684 7
  25515976.720       -1431.858          44.150


 105001668.199 8  81819467.98348  19981155.960                    19981154.200
      -624.219        -486.405          50.800          50.650



 112033392.850 8  87298772.42747  21319235.160                    21319234.760
      -979.548        -763.284          49.700          46.900    83661347.815 9
  21319240.300        -731.411          54.350


 107480660.680 8  83751162.77048  20452894.320                    20452892.740
      1638.728        1276.930          50.900          49.650



 128763717.599 6 100335380.77947  24502919.420                    24502922.380
      2651.085        2065.783          41.750          42.050



 131036028.031 7 102105972.30546  24935341.380                    24935343.500
     -1989.376       -1550.164          43.000          38.950    97851575.426 7
  24935348.380       -1485.602          45.650


 129940004.007 6 101251905.32745  24726781.660                    24726784.540
     -3818.100       -2975.148          36.950          32.050



 110740813.134 8  86291577.22847  21073263.900                    21073262.980
       161.251         125.650          51.200          47.500



 123862353.075 7  96516087.04646  23570226.000                    23570226.640
      2691.516        2097.286          45.900          40.950    92494618.172 8
  23570231.600        2009.929          48.600


 118671252.656 7  92471142.21947  22582387.320                    22582389.820
      3096.931        2413.195          46.800          44.750    88618184.378 8
  22582390.340        2312.566          48.900


 121094691.364 7  94359484.35347  23043562.320                    23043563.800
     -2818.821       -2196.487          45.750          45.600    90427840.251 8
  23043567.320       -2105.011          52.100


 142347289.569 7                  27087781.340
      3191.521                          44.300                   106298356.559 7
  27087788.940        2383.268          44.400   109071329.997 7  27087785.360
      2445.508          44.950   107684847.929 7  27087787.960        2414.438
        47.500
 122647953.783 8                  23339131.080
       508.183                          51.900                    91587764.209 9
  23339134.680         379.476          54.000    93976996.926 9  23339132.800
       389.377          55.250    92782384.221 9  23339134.640         384.419
        57.350
 122644594.323 8                  23338497.600
     -1938.002                          50.950                    91585246.560 8
  23338503.560       -1447.127          51.300    93974422.502 8  23338499.340
     -1484.936          51.200    92779835.184 9  23338501.760       -1466.018
        54.000
 137913471.174 7                  26244062.180
      2459.835                          47.900                   102987352.003 7
  26244065.680        1836.936          46.350   105673969.803 8  26244063.420
      1884.854          48.300   104330654.055 8  26244064.560        1860.915
        49.900
 145607072.774 7                  27708117.100
     -1558.853                          43.400                   108732554.913 6
  27708122.780       -1164.058          41.500   111569043.569 6  27708120.880
     -1194.559          41.050   110150797.394 7  27708123.040       -1179.251
        44.200
 150807001.639 6                  28697634.760
     -2841.733                          39.850                   112615606.189 7
  28697645.520       -2121.918          42.250   115553399.948 7  28697642.640
     -2177.379          42.950   114084501.721 7  28697643.960       -2149.627
        45.250
 131118505.805 8                  24951015.260
     -1378.979                          51.000                    97913198.405 8
  24951019.640       -1029.763          51.800   100467441.954 8  24951016.340
     -1056.640          51.700    99190312.335 9  24951017.960       -1043.191
        54.450
 126244588.481 8                  24023535.900
      1590.232                          52.150                    94273615.357 8
  24023541.420        1187.460          52.600    96732907.223 8  24023537.740
      1218.479          53.050    95503259.946 9  24023540.040        1202.984
        55.550
 148660955.451 6                  28289240.260
       774.155                          39.500                   111013076.254 7
  28289247.240         578.035          42.050   113909055.885 6  28289243.660
       593.129          41.550   112461067.719 7  28289245.740         585.650
        44.600
 23 12 16 11  5  0.0000000  0 22G05G07G08G13G14G15G17G18G20G22G23G24
                                G30E02E03E05E08E13E15E24E25E26
 117379513.383 7  91464528.80447  22336590.080                    22336589.880
     -3125.866       -2435.742          47.900          47.950



 134969721.496 6 105171172.18946  25683909.740                    25683915.060
     -3018.546       -2352.121          37.750          37.450



 134145094.483 6 104528670.00146  25526962.400                    25526966.100
     -1932.438       -1505.796          40.650          37.250   100173319.780 7
  25526967.580       -1443.399          44.150


 105020611.545 8  81834229.01848  19984760.920                    19984759.200
      -638.598        -497.609          50.750          50.750



 112063055.901 8  87321886.47647  21324879.660                    21324879.340
      -997.752        -777.470          48.850          47.600    83683498.776 9
  21324884.940        -745.227          54.050


 107431732.694 8  83713037.05248  20443583.760                    20443582.060
      1623.243        1264.865          50.800          49.900



 128684271.363 6 100273474.69946  24487801.280                    24487804.180
      2645.603        2061.511          41.800          41.950



 131095902.671 6 102152627.80946  24946735.300                    24946737.700
     -2002.062       -1560.050          41.750          39.800    97896286.919 7
  24946741.940       -1495.084          45.450


 130054541.494 6 101341155.18946  24748577.400                    24748580.780
     -3817.612       -2974.767          38.500          36.200



 110736262.042 8  86288030.91847  21072397.900                    21072396.740
       142.155         110.771          50.900          47.600



 123781815.139 7  96453330.26547  23554899.980                    23554900.740
      2677.767        2086.572          44.950          42.050    92434476.259 8
  23554905.680        1999.668          48.600


 118578464.941 7  92398840.15947  22564730.180                    22564732.740
      3089.036        2407.043          45.400          44.950    88548894.904 8
  22564733.100        2306.764          48.950


 121179331.900 7  94425437.91947  23059669.000                    23059670.600
     -2823.667       -2200.263          46.100          45.900    90491045.719 8
  23059674.320       -2108.594          51.900


 142251586.540 7                  27069569.640
      3188.642                          44.050                   106226890.087 7
  27069577.000        2381.187          43.700   108997999.183 7  27069573.580
      2443.272          44.350   107612449.288 7  27069576.200        2412.197
        47.150
 122632841.155 8                  23336255.060
       499.442                          51.450                    91576478.803 9
  23336258.860         372.910          54.050    93965417.118 9  23336256.920
       382.642          54.850    92770951.616 9  23336258.800         377.771
        57.500
 122702838.364 8                  23349581.000
     -1944.865                          50.700                    91628740.434 8
  23349587.060       -1452.373          51.350    94019051.003 8  23349583.100
     -1490.254          51.050    92823896.374 9  23349585.300       -1471.326
        54.150
 137839714.510 8                  26230026.960
      2457.327                          48.000                   102932273.974 7
  26230030.140        1834.998          46.150   105617454.974 8  26230028.420
      1882.856          48.400   104274857.624 8  26230029.300        1858.947
        50.150
 145654020.546 7                  27717051.080
     -1570.888                          42.200                   108767613.273 6
  27717056.880       -1172.920          41.900   111605016.529 6  27717054.360
     -1203.683          40.700   110186313.049 7  27717057.040       -1188.256
        44.550
 150892261.213 6                  28713859.040
     -2842.460                          40.150                   112679273.902 6
  28713869.960       -2122.541          39.600   115618728.558 6  28713867.320
     -2177.861          41.200   114148999.888 7  28713868.560       -2150.224
        43.350
 131160054.486 8                  24958921.720
     -1390.864                          50.800                    97944225.017 8
  24958925.820       -1038.699          51.600   100499277.956 8  24958922.800
     -1065.764          51.500    99221743.638 9  24958924.500       -1052.234
        54.600
 126197068.459 8                  24014493.180
      1577.881                          51.750                    94238129.664 8
  24014498.560        1178.260          52.450    96696495.814 8  24014494.900
      1209.020          52.800    95467311.395 9  24014497.280        1193.613
        55.650
 148637947.939 6                  28284862.380
       759.799                          40.200                   110995895.207 6
  28284868.920         567.458          41.300   113891426.676 6  28284865.380
       582.337          41.750   112443662.603 7  28284867.480         574.839
        44.650
 23 12 16 11  5 30.0000000  0 22G05G07G08G13G14G15G17G18G20G22G23G24
                                G30E02E03E05E08E13E15E24E25E26
 117473467.923 7  91537740.02547  22354469.080                    22354468.920
     -3137.857       -2445.088          47.900          47.950



 135060405.557 4 105241895.66144  25701140.960                    25701146.080
     -3019.066       -2352.515          29.900          29.900



 134203320.318 5 104574040.95245  25538042.160                    25538046.620
     -1949.000       -1518.697          35.800          34.950   100216800.282 7
  25538047.380       -1455.343          42.500


 105039991.903 8  81849330.58448  19988448.960                    19988447.140
      -653.585        -509.287          50.550          50.500



 112093274.591 8  87345433.49347  21330629.880                    21330629.660
     -1016.839        -792.342          48.700          47.300    83706064.651 8
  21330635.180        -759.267          53.800


 107383276.693 8  83675279.12148  20434362.920                    20434361.260
      1607.069        1252.262          51.000          49.900



 128605002.842 7 100211707.15547  24472716.940                    24472719.600
      2639.300        2056.604          42.600          42.950



 131156158.812 6 102199580.56846  24958201.740                    24958204.260
     -2015.377       -1570.425          41.700          39.000    97941283.273 7
  24958208.040       -1504.802          45.150


 130169061.437 6 101430391.34746  24770370.040                    24770373.500
     -3817.278       -2974.506          39.050          36.000



 110732289.948 8  86284935.77747  21071642.040                    21071640.640
       122.550          95.493          51.300          47.350



 123701691.703 7  96390896.47247  23539652.840                    23539653.840
      2663.598        2075.532          44.700          42.800    92374643.887 8
  23539658.760        1989.053          48.800


 118485911.031 7  92326720.29947  22547117.480                    22547120.060
      3080.891        2400.696          45.300          44.750    88479780.054 8
  22547120.440        2300.713          49.300


 121264119.927 7  94491506.39347  23075803.900                    23075805.860
     -2829.050       -2204.458          47.250          47.150    90554361.317 8
  23075809.640       -2112.533          51.900


 142155970.221 7                  27051374.500
      3185.665                          44.250                   106155488.381 7
  27051381.900        2378.781          44.650   108924734.807 7  27051378.500
      2440.849          45.250   107540116.253 7  27051380.940        2409.762
        47.600
 122617997.064 8                  23333430.180
       490.146                          51.700                    91565393.926 9
  23333434.300         366.007          54.300    93954043.071 9  23333432.100
       375.608          54.850    92759722.152 9  23333434.060         370.775
        57.250
 122761296.844 8                  23360705.240
     -1952.513                          51.050                    91672394.422 8
  23360711.220       -1457.953          51.300    94063843.802 8  23360707.800
     -1496.061          51.350    92868119.765 8  23360709.640       -1476.994
        53.850
 137766036.216 8                  26216006.780
      2454.341                          49.350                   102877254.454 7
  26216009.520        1832.905          46.200   105561000.180 8  26216008.120
      1880.715          48.750   104219120.470 8  26216009.000        1856.772
        50.050
 145701327.894 7                  27726053.440
     -1583.233                          43.550                   108802940.144 7
  27726059.660       -1182.186          42.900   111641264.980 6  27726056.780
     -1213.002          41.550   110222100.721 7  27726059.560       -1197.728
        45.000
 150977547.411 6                  28730088.340
     -2843.528                          38.600                   112742961.616 6
  28730098.840       -2123.511          40.950   115684077.667 6  28730096.740
     -2178.709          39.850   114213518.300 7  28730097.900       -2151.224
        43.100
 131201964.815 8                  24966896.980
     -1403.287                          51.250                    97975521.674 8
  24966900.800       -1047.854          51.450   100531391.057 8  24966898.040
     -1075.202          51.750    99253448.518 9  24966899.820       -1061.532
        54.300
 126149920.636 8                  24005521.200
      1565.185                          52.100                    94202921.919 8
  24005526.500        1168.801          52.650    96660369.598 8  24005522.980
      1199.340          52.900    95431644.417 9  24005525.340        1184.040
        55.400
 148615369.939 6                  28280566.200
       745.284                          40.750                   110979034.919 6
  28280572.440         556.681          41.550   113874126.576 7  28280568.980
       570.992          42.800   112426582.406 7  28280571.180         563.733
        44.650
 23 12 16 11  6  0.0000000  0 21G05G08G13G14G15G17G18G20G22G23G24G30
                                E02E03E05E08E13E15E24E25E26
 117567764.151 7  91611217.50747  22372413.160                    22372412.840
     -3149.020       -2453.784          47.550          47.400



 134262010.551 6 104619773.73846  25549210.420                    25549214.820
     -1964.052       -1530.422          37.100          36.400   100260627.548 7
  25549215.880       -1466.846          44.400


 105059807.730 8  81864771.47148  19992219.720                    19992217.840
      -667.953        -520.484          50.100          50.200



 112124046.101 8  87369411.27247  21336485.320                    21336485.320
     -1035.081        -806.558          48.650          47.950    83729043.356 8
  21336490.560        -773.012          53.400


 107335292.428 8  83637888.78148  20425231.800                    20425230.200
      1591.280        1239.958          51.300          49.700



 128525913.323 6 100150079.19046  24457666.540                    24457669.740
      2632.957        2051.666          41.900          41.800



 131216792.092 6 102246827.21246  24969739.820                    24969742.680
     -2027.704       -1580.031          41.450          38.750    97986561.285 7
  24969745.940       -1514.093          45.100


 130283560.228 6 101519611.03446  24792158.540                    24792162.360
     -3816.859       -2974.181          38.550          37.550



 110728894.885 8  86282290.26847  21070995.980                    21070994.420
       103.388          80.562          51.000          47.300



 123621983.842 7  96328786.49646  23524484.820                    23524485.940
      2649.756        2064.747          44.300          41.900    92315121.829 8
  23524490.880        1978.697          48.600


 118393590.508 7  92254782.32347  22529549.160                    22529551.900
      3073.194        2394.699          44.950          44.300    88410839.497 8
  22529552.360        2294.854          49.500


 121349052.648 7  94557687.63247  23091966.460                    23091968.340
     -2833.771       -2208.138          47.250          47.150    90617784.983 8
  23091972.040       -2116.084          50.550


 142060440.639 7                  27033196.060
      3182.633                          43.850                   106084151.385 7
  27033203.000        2376.668          44.300   108851536.844 7  27033200.060
      2438.727          45.100   107467848.774 7  27033202.280        2407.642
        47.550
 122603420.710 8                  23330656.420
       481.120                          52.000                    91554508.979 9
  23330660.780         359.291          54.300    93942874.172 9  23330658.200
       368.663          54.900    92748695.229 9  23330660.260         363.975
        57.300
 122819967.918 8                  23371869.920
     -1959.376                          50.900                    91716207.175 8
  23371875.940       -1463.282          51.000    94108799.501 8  23371872.860
     -1501.412          51.600    92912503.993 8  23371874.420       -1482.358
        53.900
 137692435.648 8                  26202001.320
      2451.845                          50.050                   102822293.000 7
  26202003.740        1830.893          46.100   105504604.970 8  26202002.520
      1878.669          48.700   104163442.131 8  26202003.520        1854.813
        50.050
 145748991.722 7                  27735123.580
     -1595.042                          43.650                   108838533.213 7
  27735130.480       -1191.000          43.200   111677786.585 7  27735127.180
     -1222.081          42.100   110258158.050 7  27735129.880       -1206.550
        45.650
 151062856.651 6                  28746322.440
     -2844.121                          40.900                   112806666.434 6
  28746332.700       -2123.973          41.950   115749444.382 7  28746330.480
     -2179.381          42.250   114278054.060 7  28746331.820       -2151.654
        44.850
 131244233.932 8                  24974940.580
     -1415.177                          51.400                    98007086.265 8
  24974944.080       -1056.744          51.250   100563779.074 8  24974941.540
     -1084.357          52.050    99285424.823 9  24974943.420       -1070.559
        54.400
 126103144.228 8                  23996619.860
      1552.838                          52.100                    94167991.547 8
  23996625.140        1159.514          52.500    96624527.991 8  23996621.720
      1189.820          53.100    95396258.421 9  23996624.020        1174.696
        55.550
 148593220.503 6                  28276351.480
       730.939                          41.550                   110962494.712 6
  28276357.360         545.879          41.550   113857154.898 7  28276354.300
       560.098          43.250   112409826.462 7  28276356.480         552.920
        45.050
 23 12 16 11  6 30.0000000  0 21G05G08G13G14G15G17G18G20G22G23G24G30
                                E02E03E05E08E13E15E24E25E26
 117662401.777 7  91684961.00247  22390422.120                    22390421.800
     -3160.198       -2462.496          47.600          47.550



 134321166.188 6 104665869.08345  25560467.220                    25560471.960
     -1979.581       -1542.532          36.950          34.900   100304802.345 6
  25560472.260       -1478.303          41.500


 105080061.433 8  81880553.55748  19996073.780                    19996071.740
      -682.352        -531.702          50.150          50.150



 112155371.664 8  87393820.79447  21342446.400                    21342446.480
     -1053.401        -820.833          49.000          47.800    83752435.816 8
  21342451.320        -786.653          53.300


 107287784.543 8  83600869.65348  20416191.280                    20416189.820
      1575.602        1227.741          50.750          50.100



 128447008.574 6 100088595.19746  24442651.380                    24442654.340
      2626.997        2047.021          41.250          41.500



 131277802.292 6 102294367.53846  24981349.620                    24981352.420
     -2039.838       -1589.486          40.550          38.750    98032120.752 7
  24981355.640       -1523.256          44.550


 130398037.865 6 101608814.20645  24813943.140                    24813946.660
     -3815.811       -2973.368          38.500          35.800



 110726078.958 8  86280096.03547  21070460.080                    21070458.500
        84.187          65.600          50.800          47.700



 123542696.632 7  96267004.30747  23509396.900                    23509398.020
      2635.808        2053.878          43.900          42.950    92255913.912 8
  23509403.040        1968.358          48.700


 118301507.047 7  92183029.06147  22512026.020                    22512028.740
      3065.351        2388.589          45.300          44.200    88342075.962 8
  22512029.480        2289.144          49.850


 121434131.399 7  94623982.64247  23108156.560                    23108158.680
     -2838.200       -2211.588          46.350          46.250    90681317.711 8
  23108161.880       -2119.553          50.000


 141965001.641 7                  27015034.720
      3179.940                          44.500                   106012882.056 7
  27015041.220        2374.535          43.950   108778408.323 7  27015038.640
      2436.386          44.600   107395649.842 7  27015040.840        2405.504
        47.250
 122589115.316 8                  23327934.320
       472.361                          51.950                    91543826.365 9
  23327938.800         352.694          54.450    93931912.880 9  23327935.900
       361.896          54.650    92737873.277 9  23327938.020         357.311
        57.450
 122878853.835 8                  23383075.400
     -1966.480                          50.450                    91760180.351 8
  23383081.340       -1468.474          51.050    94153919.809 8  23383078.740
     -1506.776          51.100    92957050.736 8  23383080.080       -1487.632
        53.950
 137618916.286 8                  26188011.260
      2449.281                          49.800                   102767392.176 7
  26188013.580        1829.029          46.800   105448271.962 8  26188012.060
      1876.799          48.300   104107825.223 8  26188013.460        1852.891
        50.350
 145797012.893 7                  27744261.820
     -1606.693                          44.150                   108874393.137 7
  27744269.260       -1199.814          43.650   111714581.998 7  27744265.800
     -1230.976          43.200   110294485.724 7  27744268.180       -1215.431
        46.300
 151148189.535 6                  28762560.960
     -2844.769                          37.150                   112870388.876 6
  28762570.960       -2124.271          40.050   115814829.168 6  28762568.700
     -2179.787          40.900   114342607.684 7  28762570.340       -2152.166
        43.300
 131286863.032 8                  24983052.680
     -1426.997                          51.300                    98038919.668 8
  24983056.000       -1065.569          51.300   100596442.920 8  24983053.580
     -1093.405          52.000    99317673.446 9  24983055.480       -1079.466
        54.600
 126056742.501 8                  23987789.780
      1540.482                          51.600                    94133340.966 8
  23987795.100        1150.343          52.750    96588973.480 8  23987791.860
      1180.320          52.900    95361155.872 9  23987794.000        1165.360
        55.750
 148571502.805 6                  28272219.080
       716.725                          40.550                   110946276.898 6
  28272224.840         535.038          41.600   113840513.982 7  28272221.700
       549.094          42.600   112393397.087 7  28272223.800         542.142
        45.000
 23 12 16 11  7  0.0000000  0 21G05G08G13G14G15G17G18G20G22G23G24G30
                                E02E03E05E08E13E15E24E25E26
 117757375.437 7  91758966.34447  22408495.080                    22408495.040
     -3171.153       -2471.033          47.100          47.300



 134380781.956 6 104712323.08445  25571811.620                    25571815.280
     -1994.588       -1554.218          39.250          33.650   100349320.706 7
  25571816.520       -1489.569          44.550


 105100750.306 8  81896674.73648  20000010.680                    20000008.440
      -696.803        -542.964          50.550          49.900



 112187247.035 8  87418658.73947  21348512.180                    21348512.320
     -1071.566        -834.987          49.250          47.600    83776238.839 8
  21348516.740        -800.213          53.400


 107240751.697 8  83564220.68448  20407241.180                    20407239.760
      1559.935        1215.534          51.200          49.500



 128368288.363 6 100027255.09346  24427671.140                    24427674.720
      2621.027        2042.369          41.550          41.400



 131339183.786 6 102342197.20446  24993030.000                    24993032.580
     -2051.854       -1598.850          40.950          38.150    98077957.511 7
  24993036.020       -1532.460          44.400


 130512488.404 6 101697996.20146  24835722.460                    24835726.240
     -3814.371       -2972.247          36.350          36.750



 110723839.083 8  86278350.67247  21070033.840                    21070032.300
        65.244          50.839          51.250          47.600



 123463829.753 7  96205549.66247  23494388.960                    23494390.080
      2621.812        2042.974          44.350          42.900    92197019.886 8
  23494395.220        1957.937          48.900


 118209658.838 7  92111459.09747  22494547.800                    22494550.340
      3057.688        2382.617          46.000          44.100    88273488.098 8
  22494551.420        2283.303          50.200


 121519352.149 7  94690388.30647  23124373.520                    23124375.920
     -2842.985       -2215.316          46.400          46.550    90744956.443 8
  23124378.740       -2123.050          49.250


 141869651.841 7                  26996890.300
      3176.886                          44.750                   105941679.309 7
  26996896.460        2372.310          44.100   108705348.094 7  26996893.920
      2434.283          44.800   107323518.364 7  26996896.380        2403.199
        47.400
 122575078.722 8                  23325263.420
       463.579                          52.300                    91533344.472 9
  23325267.820         346.149          54.700    93921157.547 9  23325264.800
       355.188          54.850    92727254.665 9  23325266.940         350.647
        57.650
 122937951.423 8                  23394321.120
     -1973.369                          50.550                    91804311.586 8
  23394327.140       -1473.585          51.100    94199202.302 8  23394324.740
     -1512.026          51.200    93001757.598 9  23394326.040       -1492.833
        54.050
 137545476.098 8                  26174036.100
      2446.730                          50.150                   102712550.485 7
  26174038.540        1827.150          47.400   105391999.629 8  26174036.620
      1874.813          48.050   104052268.212 8  26174038.400        1850.980
        50.600
 145845386.995 7                  27753467.100
     -1618.300                          44.800                   108910516.582 7
  27753475.220       -1208.419          44.000   111751647.805 7  27753471.700
     -1239.883          44.250   110331080.350 7  27753473.560       -1224.232
        46.900
 151233540.981 6                  28778802.980
     -2845.394                          40.050                   112934125.319 6
  28778812.680       -2125.006          36.850   115880228.261 6  28778810.260
     -2180.329          38.500   114407175.441 6  28778812.440       -2152.707
        40.300
 131329847.903 8                  24991232.540
     -1438.651                          51.600                    98071018.754 8
  24991235.700       -1074.355          51.450   100629379.365 8  24991233.380
     -1102.347          52.300    99350191.214 9  24991235.240       -1088.377
        54.750
 126010713.314 8                  23979030.580
      1528.143                          51.850                    94098968.582 8
  23979036.040        1141.137          53.050    96553704.411 8  23979032.860
      1170.913          53.250    95326335.149 9  23979034.840        1156.031
        55.950
 148550214.517 6                  28268168.280
       702.477                          41.150                   110930379.692 7
  28268173.700         524.551          42.750   113824202.102 7  28268170.900
       538.289          42.650   112377292.554 7  28268172.920         531.373
        45.550
 23 12 16 11  7 30.0000000  0 21G05G08G13G14G15G17G18G20G22G23G24G30
                                E02E03E05E08E13E15E24E25E26
 117852685.448 7  91833233.78047  22426632.020                    22426632.040
     -3182.045       -2479.519          47.250          47.250



 134440859.595 6 104759136.82845  25583244.040                    25583247.920
     -2009.794       -1566.074          38.200          35.600   100394183.905 7
  25583248.660       -1500.853          42.850


 105121878.042 8  81913137.88048  20004031.160                    20004028.940
      -710.972        -554.005          50.700          50.400



 112219674.614 8  87443926.95848  21354683.100                    21354683.240
     -1089.667        -849.092          49.350          48.150    83800454.225 8
  21354687.340        -813.645          53.400


 107194199.376 8  83527946.13548  20398382.600                    20398381.180
      1544.425        1203.447          51.100          49.950



 128289759.502 6  99966064.07946  24412727.340                    24412731.080
      2614.997        2037.670          40.650          40.800



 131400937.495 6 102390316.85046  25004781.180                    25004783.680
     -2063.831       -1608.183          39.500          39.100    98124072.174 7
  25004787.480       -1541.381          44.750


 130626913.036 6 101787158.08045  24857497.220                    24857500.700
     -3812.887       -2971.089          40.000          31.750



 110722178.684 8  86277056.85048  21069717.940                    21069716.540
        46.201          36.000          51.300          48.400



 123385389.465 7  96144427.41547  23479462.140                    23479463.200
      2608.271        2032.421          44.200          43.400    92138444.417 8
  23479468.520        1947.580          48.750


 118118050.782 7  92040076.25447  22477115.420                    22477117.700
      3050.157        2376.748          45.650          44.700    88205079.553 8
  22477119.000        2277.652          50.200


 121604717.318 7  94756906.49747  23140617.740                    23140620.760
     -2847.222       -2218.618          45.300          45.400    90808703.048 8
  23140622.660       -2126.313          48.700


 141774396.346 7                  26978763.880
      3174.192                          44.300                   105870546.981 7
  26978770.120        2370.265          44.700   108632360.139 7  26978767.220
      2432.189          45.000   107251458.210 7  26978769.800        2401.279
        47.750
 122561315.350 8                  23322644.500
       454.672                          52.200                    91523066.610 9
  23322648.760         339.495          54.700    93910611.567 9  23322645.720
       348.383          54.700    92716842.742 9  23322647.860         343.939
        57.600
 122997264.086 8                  23405607.880
     -1980.161                          50.700                    91848603.433 8
  23405613.920       -1478.691          51.200    94244649.603 8  23405611.500
     -1517.319          50.800    93046627.173 8  23405612.940       -1497.979
        53.850
 137472119.679 8                  26160076.680
      2444.311                          49.250                   102657771.362 8
  26160079.460        1825.282          48.100   105335791.481 7  26160076.900
      1872.934          47.400   103996774.581 8  26160079.220        1849.053
        50.750
 145894116.014 7                  27762739.900
     -1629.695                          44.550                   108946905.094 7
  27762748.540       -1217.011          43.750   111788985.581 7  27762745.060
     -1248.719          44.800   110367943.487 7  27762746.400       -1232.830
        46.950
 151318912.508 6                  28795048.880
     -2845.507                          41.050                   112997876.708 6
  28795058.160       -2124.876          39.100   115945642.784 6  28795055.940
     -2180.108          39.650   114471758.397 7  28795058.180       -2152.523
        42.250
 131373190.899 8                  24999480.500
     -1450.174                          51.350                    98103385.264 8
  24999483.720       -1082.963          51.600   100662590.219 8  24999481.360
     -1111.158          52.350    99382979.894 9  24999483.120       -1097.088
        54.800
 125965061.037 8                  23970343.100
      1515.961                          51.700                    94064877.665 8
  23970348.720        1132.043          53.200    96518724.157 8  23970345.600
      1161.588          53.200    95291799.563 9  23970347.400        1146.837
        56.000
 148529359.904 6                  28264200.000
       688.453                          40.850                   110914806.385 6
  28264205.180         514.049          41.200   113808222.525 7  28264202.740
       527.482          42.350   112361516.106 7  28264204.300         520.803
        44.750
 23 12 16 11  8  0.0000000  0 21G05G08G13G14G15G17G18G20G22G23G24G30
                                E02E03E05E08E13E15E24E25E26
 117948326.095 7  91907758.84947  22444831.880                    22444832.320
     -3193.365       -2488.342          46.700          46.750



 134501393.394 6 104806306.07045  25594763.200                    25594766.580
     -2025.190       -1578.071          36.400          33.650   100439387.805 7
  25594768.100       -1512.518          42.800


 105143441.475 8  81929940.52348  20008134.600                    20008132.500
      -726.030        -565.739          50.750          50.400



 112252649.772 8  87469621.87048  21360958.180                    21360958.340
     -1108.156        -863.499          49.350          48.050    83825078.528 8
  21360962.280        -827.640          53.150


 107148126.250 8  83492044.98548  20389615.240                    20389613.840
      1527.877        1190.553          51.050          49.800



 128211421.345 6  99905021.68547  24397819.840                    24397823.980
      2608.209        2032.381          41.100          42.550



 131463057.319 6 102438721.84646  25016602.140                    25016604.400
     -2076.519       -1618.068          38.400          36.250    98170460.297 7
  25016608.880       -1550.868          44.000


 130741305.915 6 101876295.17745  24879265.740                    24879268.880
     -3812.802       -2971.018          38.500          35.150



 110721094.186 8  86276211.77748  21069511.640                    21069510.300
        26.604          20.729          51.100          48.600



 123307375.116 7  96083637.08047  23464616.440                    23464617.460
      2593.446        2020.868          44.800          42.500    92080187.029 8
  23464622.920        1936.573          48.400


 118026680.686 7  91968878.80547  22459728.360                    22459730.320
      3041.895        2370.309          45.800          44.000    88136848.695 8
  22459731.920        2271.420          49.900


 121690222.507 7  94823533.78847  23156888.580                    23156892.220
     -2852.443       -2222.687          45.750          45.650    90872554.190 7
  23156893.460       -2130.125          47.650


 141679233.342 7                  26960654.860
      3170.620                          44.400                   105799483.730 7
  26960661.220        2367.605          44.600   108559443.063 7  26960658.400
      2429.335          45.550   107179468.049 7  26960660.800        2398.468
        47.750
 122547822.647 8                  23320077.080
       445.210                          52.650                    91512990.876 9
  23320081.200         332.469          54.450    93900272.993 9  23320078.280
       341.120          54.900    92706635.588 9  23320080.280         336.801
        57.400
 123056788.256 8                  23416935.140
     -1987.539                          51.250                    91893053.228 8
  23416941.040       -1484.220          50.900    94290258.965 8  23416938.560
     -1522.973          50.950    93091656.751 8  23416940.120       -1503.640
        53.650
 137398844.744 8                  26146132.520
      2441.111                          48.350                   102603053.084 8
  26146135.940        1822.924          48.200   105279645.764 7  26146132.580
      1870.478          47.050   103941342.584 8  26146135.420        1846.702
        50.400
 145943195.121 7                  27772079.240
     -1641.660                          44.800                   108983555.030 7
  27772088.300       -1226.038          43.300   111826591.602 7  27772084.960
     -1257.997          45.100   110405071.469 7  27772085.780       -1242.032
        46.750
 151404298.939 6                  28811297.660
     -2846.396                          38.350                   113061639.218 6
  28811307.160       -2125.518          41.000   116011068.712 6  28811304.280
     -2181.085          41.250   114536352.626 7  28811306.760       -2153.434
        43.850
 131416887.471 8                  25007795.780
     -1462.478                          51.200                    98136015.794 8
  25007799.080       -1092.048          51.300   100696071.985 8  25007796.640
     -1120.579          52.550    99416036.044 9  25007798.280       -1106.317
        54.550
 125919783.165 8                  23961726.880
      1503.029                          51.700                    94031066.337 8
  23961732.740        1122.358          52.950    96484030.787 8  23961729.560
      1151.670          53.400    95257547.217 9  23961731.220        1137.019
        55.800
 148508936.303 6                  28260313.600
       673.833                          40.600                   110899554.955 7
  28260318.840         502.919          42.200   113792573.222 7  28260316.560
       516.110          42.000   112346065.737 7  28260317.760         509.542
        44.800
 23 12 16 11  8 30.0000000  0 21G05G08G13G14G15G17G18G20G22G23G24G30
                                E02E03E05E08E13E15E24E25E26
 118044293.108 7  91982538.24647  22463093.900                    22463094.500
     -3204.803       -2497.251          46.900          46.900



 134562381.168 6 104853829.03945  25606368.800                    25606372.660
     -2040.708       -1590.154          36.550          33.500   100484930.680 6
  25606373.080       -1524.052          41.350


 105165439.866 8  81947082.09748  20012320.760                    20012318.800
      -740.957        -577.371          50.050          50.400



 112286170.419 8  87495741.83248  21367336.960                    21367337.200
     -1126.806        -878.031          49.050          48.450    83850110.158 8
  21367341.220        -841.478          53.350


 107102533.073 8  83456517.83248  20380939.160                    20380937.620
      1511.288        1177.627          50.650          50.150



 128133276.256 6  99844129.74246  24382948.980                    24382953.340
      2601.330        2027.022          41.000          41.250



 131525539.814 6 102487409.42146  25028492.260                    25028494.100
     -2089.378       -1628.088          39.550          38.600    98217119.196 7
  25028499.220       -1560.061          44.250


 130855663.803 6 101965404.99445  24901027.560                    24901030.860
     -3811.983       -2970.384          39.400          34.950



 110720584.414 8  86275814.53948  21069414.640                    21069413.420
         6.999           5.453          51.000          48.600



 123229788.475 7  96023180.01847  23449852.120                    23449853.140
      2578.788        2009.446          44.650          43.000    92022249.010 8
  23449858.700        1925.671          48.400


 117935548.954 7  91897867.08947  22442386.640                    22442388.400
      3033.302        2363.612          46.050          44.600    88068795.800 8
  22442390.160        2265.135          50.150


 121775865.701 7  94890268.64247  23173186.040                    23173189.780
     -2857.589       -2226.696          45.200          45.400    90936508.414 7
  23173190.260       -2133.797          47.450


 141584163.534 7                  26942563.700
      3167.053                          44.900                   105728490.069 7
  26942569.980        2364.932          44.000   108486597.379 7  26942567.420
      2426.649          44.750   107107548.369 7  26942569.580        2395.883
        47.350
 122534600.597 8                  23317561.240
       435.805                          52.900                    91503117.248 9
  23317565.100         325.463          54.450    93890141.793 9  23317562.400
       333.950          54.950    92696633.173 9  23317564.220         329.705
        57.650
 123116522.893 8                  23428302.540
     -1995.085                          51.200                    91937660.188 8
  23428308.420       -1489.850          51.100    94336029.593 8  23428305.700
     -1528.724          51.050    93136845.541 8  23428307.320       -1509.272
        53.950
 137325651.451 7                  26132203.860
      2438.076                          47.600                   102548395.787 8
  26132207.960        1820.639          48.650   105223562.612 7  26132203.860
      1868.107          46.900   103885972.355 8  26132207.080        1844.381
        50.850
 145992621.922 7                  27781484.780
     -1653.677                          44.150                   109020464.607 7
  27781494.120       -1234.968          43.150   111864464.025 7  27781490.860
     -1267.104          45.350   110442462.470 7  27781491.300       -1251.020
        46.900
 151489697.522 6                  28827548.560
     -2847.329                          38.700                   113125410.836 6
  28827558.440       -2126.164          41.400   116076503.908 6  28827555.060
     -2181.581          39.950   114600956.030 7  28827557.560       -2153.877
        43.750
 131460935.496 8                  25016177.900
     -1474.519                          50.950                    98168908.783 8
  25016181.360       -1101.109          51.500   100729823.049 8  25016178.780
     -1129.842          52.550    99449358.067 9  25016180.320       -1115.468
        54.800
 125874879.626 8                  23953181.940
      1490.048                          51.600                    93997534.542 8
  23953187.940        1112.743          53.200    96449624.241 8  23953184.680
      1141.791          53.400    95223578.044 9  23953186.300        1127.272
        56.100
 148488943.521 6                  28256509.120
       658.795                          41.350                   110884625.188 7
  28256514.680         492.028          42.000   113777254.000 6  28256512.360
       504.682          41.500   112330941.248 7  28256513.220         498.383
        44.550
 23 12 16 11  9  0.0000000  0 21G05G08G13G14G15G17G18G20G22G23G24G30
                                E02E03E05E08E13E15E24E25E26
 118140587.889 7  92057573.03847  22481418.260                    22481419.100
     -3215.434       -2505.536          46.150          45.900



 134623824.236 6 104901706.86345  25618061.000                    25618064.800
     -2056.196       -1602.226          38.050          35.950   100530813.527 6
  25618065.880       -1535.111          41.250


 105187877.188 8  81964565.70148  20016590.360                    20016588.600
      -755.216        -588.480          50.000          49.850



 112320238.953 8  87522288.71548  21373819.960                    21373820.220
     -1144.744        -892.009          48.600          48.350    83875550.915 8
  21373824.500        -854.912          53.350


 107057425.312 8  83421368.91748  20372355.300                    20372353.800
      1495.424        1165.265          50.100          49.950



 128055331.074 6  99783393.54446  24368116.300                    24368120.820
      2594.761        2021.901          40.550          40.000



 131588385.855 6 102536380.31546  25040451.500                    25040453.060
     -2100.872       -1637.045          39.350          38.550    98264049.597 7
  25040458.840       -1568.790          43.750


 130969988.040 6 102054488.55945  24922783.120                    24922786.420
     -3810.180       -2968.979          38.500          34.650



 110720653.089 8  86275868.04448  21069427.740                    21069426.480
       -11.998          -9.350          51.000          48.300



 123152635.854 7  95963061.15747  23435170.460                    23435171.380
      2564.401        1998.237          45.850          42.600    91964635.109 8
  23435176.960        1914.965          48.300


 117844660.475 7  91827044.91247  22425091.180                    22425092.920
      3025.661        2357.657          46.050          45.250    88000924.562 8
  22425094.720        2259.265          50.000


 121861649.555 7  94957113.05447  23189510.140                    23189514.040
     -2861.788       -2229.968          45.550          44.900    91000567.653 8
  23189514.700       -2137.085          48.100


 141489192.132 7                  26924491.260
      3164.036                          44.600                   105657569.904 7
  26924497.380        2362.741          44.650   108413827.114 7  26924495.120
      2424.336          44.950   107035703.169 7  26924497.080        2393.475
        47.850
 122521653.716 8                  23315097.680
       426.883                          52.500                    91493449.109 9
  23315101.260         318.709          54.300    93880221.440 9  23315098.820
       327.054          54.850    92686838.928 9  23315100.540         322.895
        57.600
 123176471.479 8                  23439710.660
     -2001.908                          50.950                    91982426.920 8
  23439716.620       -1494.940          51.200    94381964.163 8  23439713.660
     -1533.918          51.050    93182196.195 9  23439715.200       -1514.432
        54.100
 137252544.569 7                  26118291.760
      2435.397                          47.000                   102493803.007 8
  26118296.320        1818.656          48.600   105167545.650 7  26118291.620
      1866.135          46.600   103830667.488 8  26118295.120        1842.393
        50.750
 146042398.553 7                  27790956.920
     -1665.256                          43.700                   109057635.407 7
  27790966.380       -1243.259          42.900   111902604.500 7  27790963.080
     -1275.848          44.400   110480118.110 7  27790963.320       -1259.560
        46.450
 151575109.894 6                  28843802.060
     -2847.128                          41.150                   113189192.749 6
  28843812.100       -2126.226          40.500   116141949.693 6  28843808.460
     -2181.645          40.800   114665569.885 7  28843811.020       -2154.059
        43.700
 131505337.398 8                  25024627.300
     -1486.015                          50.750                    98202066.031 8
  25024631.020       -1109.678          51.300   100763845.275 8  25024628.220
     -1138.663          52.300    99482947.806 9  25024629.700       -1124.179
        54.750
 125830354.895 8                  23944709.120
      1477.746                          51.550                    93964285.628 8
  23944715.240        1103.513          53.050    96415507.956 8  23944711.860
      1132.326          53.350    95189895.444 9  23944713.460        1117.918
        56.150
 148469385.834 6                  28252787.320
       644.543                          40.350                   110870020.334 6
  28252793.560         481.381          41.650   113762268.170 7  28252790.980
       493.952          42.400   112316145.905 7  28252791.580         487.605
        44.850
 23 12 16 11  9 30.0000000  0 21G05G08G13G14G15G17G18G20G22G23G24G30
                                E02E03E05E08E13E15E24E25E26
 118237203.303 7  92132857.67847  22499803.640                    22499804.580
     -3225.659       -2513.504          46.650          46.900



 134685716.604 5 104949934.82945  25629838.580                    25629842.800
     -2070.386       -1613.274          35.300          30.700   100577032.027 7
  25629843.420       -1546.034          44.350


 105210748.960 8  81982387.84248  20020942.640                    20020941.060
      -769.687        -599.758          49.750          49.600



 112354849.747 8  87549258.14247  21380406.140                    21380406.380
     -1162.776        -906.061          48.950          47.900    83901396.602 8
  21380410.980        -868.203          53.750


 107012800.610 8  83386596.43248  20363863.340                    20363861.960
      1479.425        1152.799          50.400          50.000



 127977584.290 6  99722811.96046  24353321.180                    24353325.840
      2588.449        2016.985          40.850          40.650



 131651588.487 6 102585629.05446  25052478.760                    25052480.240
     -2112.621       -1646.205          40.700          38.750    98311246.318 7
  25052486.300       -1577.573          43.850


 131084271.653 6 102143540.40645  24944530.440                    24944534.280
     -3808.260       -2967.484          37.300          34.850



 110721295.546 8  86276368.65247  21069549.960                    21069548.660
       -30.928         -24.101          51.100          47.900



 123075915.558 7  95903279.16747  23420571.080                    23420571.980
      2550.164        1987.144          45.650          43.500    91907344.055 8
  23420577.420        1904.357          48.800


 117754012.159 7  91756409.86447  22407841.460                    22407843.400
      3017.631        2351.401          46.100          45.350    87933232.650 8
  22407845.100        2253.428          50.350


 121947568.683 7  95024062.92147  23205860.040                    23205863.400
     -2865.969       -2233.228          44.000          44.200    91064727.916 7
  23205864.540       -2140.367          47.200


 141394316.339 7                  26906436.760
      3160.962                          44.300                   105586721.141 7
  26906442.760        2360.445          44.850   108341130.121 7  26906440.820
      2422.013          45.300   106963930.286 7  26906442.740        2391.251
        47.800
 122508978.476 8                  23312685.660
       418.021                          52.350                    91483983.802 9
  23312689.100         312.167          54.650    93870509.219 9  23312686.840
       320.274          55.050    92677250.161 9  23312688.540         316.258
        57.600
 123236629.514 8                  23451158.580
     -2008.720                          50.850                    92027350.061 8
  23451164.700       -1500.034          51.700    94428059.215 8  23451161.440
     -1539.143          51.350    93227705.291 9  23451162.940       -1519.566
        54.200
 137179520.793 7                  26104395.560
      2432.714                          46.800                   102439272.293 8
  26104400.440        1816.679          48.950   105111592.382 7  26104395.440
      1864.030          46.900   103775425.494 8  26104398.940        1840.393
        50.800
 146092519.129 7                  27800494.640
     -1676.500                          44.000                   109095063.075 7
  27800503.900       -1251.852          43.600   111941008.542 7  27800500.340
     -1284.499          44.150   110518033.965 7  27800500.920       -1268.171
        46.350
 151660530.041 6                  28860056.940
     -2847.229                          39.300                   113252980.478 6
  28860067.020       -2126.108          40.550   116207401.482 6  28860063.460
     -2181.708          40.200   114730189.639 7  28860065.940       -2153.995
        43.150
 131550087.659 8                  25033142.940
     -1497.335                          50.800                    98235483.412 8
  25033146.900       -1118.189          51.800   100798134.410 8  25033143.860
     -1147.363          52.600    99516801.062 9  25033145.380       -1132.757
        54.750
 125786205.434 8                  23936307.820
      1465.494                          52.000                    93931316.939 8
  23936313.900        1094.326          53.500    96381679.213 8  23936310.360
      1122.854          53.600    95156496.732 9  23936312.060        1108.576
        56.150
 148450259.555 6                  28249147.360
       630.423                          39.850                   110855737.667 6
  28249154.300         470.686          41.650   113747612.924 7  28249151.600
       483.076          42.000   112301676.943 7  28249152.140         476.915
        44.500
 23 12 16 11 10  0.0000000  0 22G05G08G13G14G15G17G18G19G20G22G23G24
                                G30E02E03E05E08E13E15E24E25E26
 118334139.763 7  92208392.48847  22518250.040                    22518251.180
     -3236.515       -2521.963          46.550          46.550



 134748059.643 6 104998513.89945  25641702.100                    25641706.560
     -2085.736       -1625.243          36.600          35.100   100623587.039 7
  25641707.180       -1557.394          43.000


 105234058.732 8  82000551.28048  20025378.220                    20025376.780
      -784.493        -611.294          49.750          49.750



 112390004.794 8  87576651.66047  21387095.940                    21387096.060
     -1180.900        -920.184          48.850          47.750    83927648.722 8
  21387100.960        -881.821          53.650


 106968663.814 8  83352204.11848  20355464.320                    20355463.080
      1463.012        1140.009          50.750          49.850



 127900042.277 6  99662389.89246  24338564.940                    24338570.040
      2581.073        2011.234          40.200          40.500



 131715148.262 6 102635156.10246  25064574.000                    25064575.000
     -2124.803       -1655.694          40.900          37.400    98358709.738 7
  25064581.600       -1586.579          44.550


 135874040.102 6 105875891.92945  25855970.780                    25855973.560
      3217.952        2507.501          36.250          35.950



 131198515.538 6 102232561.29045  24966270.500                    24966274.360
     -3807.187       -2966.647          38.950          35.850



 110722514.636 8  86277318.59247  21069781.900                    21069780.500
       -50.361         -39.243          51.100          47.900



 122999633.555 7  95843838.70147  23406055.160                    23406056.020
      2535.285        1975.549          46.150          42.650    91850380.296 8
  23406061.200        1893.300          48.550


 117663608.599 7  91685965.53447  22390638.280                    22390640.460
      3009.316        2344.922          46.000          45.700    87865723.504 8
  22390642.080        2247.177          50.100


 122033625.338 7  95091119.91847  23222236.040                    23222239.320
     -2871.018       -2237.159          45.450          45.550    91128990.858 8
  23222240.360       -2143.768          48.600


 141299541.068 7                  26888401.500
      3157.433                          44.650                   105515947.442 7
  26888407.820        2357.826          45.200   108268510.132 7  26888406.080
      2419.351          46.150   106892233.444 8  26888407.500        2388.553
        48.550
 122496579.023 8                  23310325.960
       408.683                          52.100                    91474724.449 9
  23310329.500         305.221          54.650    93861008.313 9  23310327.260
       313.219          55.150    92667870.035 9  23310329.020         309.232
        57.750
 123297000.092 8                  23462646.820
     -2015.957                          50.550                    92072431.906 8
  23462653.200       -1505.365          51.800    94474317.121 8  23462649.620
     -1544.654          51.650    93273375.167 9  23462651.140       -1525.005
        54.400
 137106584.509 7                  26090516.140
      2429.689                          47.250                   102384806.903 8
  26090521.100        1814.422          48.700   105055706.146 7  26090516.120
      1861.681          47.300   103720249.678 8  26090519.440        1838.073
        50.900
 146142985.418 7                  27810098.240
     -1688.054                          43.300                   109132748.895 7
  27810107.040       -1260.599          43.400   111979677.472 7  27810103.280
     -1293.383          44.100   110556211.335 7  27810104.440       -1276.958
        46.500
 151745959.176 6                  28876313.360
     -2847.753                          37.400                   113316775.008 6
  28876324.080       -2126.569          38.050   116272860.172 6  28876320.320
     -2182.045          37.300   114794816.240 6  28876322.480       -2154.219
        40.500
 131595188.291 8                  25041725.220
     -1509.211                          50.600                    98269162.427 8
  25041729.480       -1127.018          51.700   100832692.011 8  25041726.120
     -1156.410          52.500    99550919.370 9  25041727.740       -1141.687
        54.800
 125742435.356 8                  23927978.800
      1452.623                          52.100                    93898631.546 8
  23927984.640        1084.780          53.350    96348141.155 8  23927981.120
      1113.088          53.800    95123385.003 9  23927982.880        1098.935
        56.350
 148431568.689 6                  28245590.300
       615.923                          40.100                   110841780.138 7
  28245597.620         459.899          42.200   113733291.285 7  28245594.860
       471.875          42.300   112287537.361 7  28245595.460         465.883
        44.950
 23 12 16 11 10 30.0000000  0 22G05G08G13G14G15G17G18G19G20G22G23G24
                                G30E02E03E05E08E13E15E24E25E26
 118431392.398 7  92284173.66347  22536756.600                    22536757.660
     -3246.587       -2529.812          46.700          47.000



 134810849.506 6 105047441.17546  25653650.400                    25653654.640
     -2099.867       -1636.256          39.350          36.700   100670475.712 7
  25653655.780       -1568.189          45.450


 105257805.286 8  82019055.06448  20029896.940                    20029895.520
      -798.483        -622.196          49.850          49.800



 112425701.304 8  87604467.10248  21393888.780                    21393888.740
     -1198.496        -933.895          49.000          48.300    83954305.176 8
  21393893.840        -895.001          53.650


 106925015.681 8  83318192.58648  20347158.420                    20347157.240
      1447.259        1127.733          51.000          50.550



 127822706.905 6  99602128.87546  24323847.920                    24323853.460
      2574.746        2006.308          40.300          39.950



 131779061.007 6 102684958.20446  25076736.300                    25076737.480
     -2135.650       -1664.145          40.850          38.200    98406436.748 7
  25076744.080       -1595.004          43.350


 135777454.242 6 105800627.27446  25837590.600                    25837594.160
      3220.991        2509.869          37.000          36.400



 131312715.594 6 102321547.94145  24988002.280                    24988006.020
     -3805.463       -2965.310          37.650          35.650



 110724308.665 8  86278716.54347  21070123.280                    21070121.740
       -69.047         -53.804          51.400          47.700



 122923790.965 7  95784740.64647  23391622.820                    23391623.740
      2521.196        1964.570          45.900          43.050    91793744.678 8
  23391628.500        1882.582          48.750


 117573449.456 7  91615711.66847  22373481.440                    22373483.980
      3001.549        2338.869          45.200          45.050    87798396.873 8
  22373485.540        2241.425          50.000


 122119816.859 7  95158282.05047  23238637.700                    23238639.940
     -2874.777       -2240.091          42.650          42.350    91193354.498 8
  23238642.500       -2146.774          48.750


 141204866.265 7                  26870385.360
      3154.513                          45.350                   105445248.771 7
  26870391.680        2355.648          44.950   108195967.145 7  26870390.340
      2417.116          45.300   106820612.614 7  26870391.400        2386.317
        47.950
 122484454.650 8                  23308018.520
       399.861                          51.650                    91465670.512 9
  23308022.400         298.587          54.750    93851718.192 9  23308020.060
       306.413          54.950    92658698.006 9  23308021.820         302.501
        57.650
 123357581.491 8                  23474175.060
     -2022.528                          50.300                    92117671.178 8
  23474181.580       -1510.295          51.800    94520736.559 8  23474177.860
     -1549.728          51.100    93319204.523 9  23474179.460       -1530.032
        54.200
 137033735.237 7                  26076653.480
      2427.165                          47.600                   102330406.497 8
  26076658.280        1812.509          48.450   104999886.588 7  26076653.620
      1859.785          47.250   103665139.695 8  26076656.540        1836.155
        50.750
 146193794.357 7                  27819767.020
     -1699.029                          43.050                   109170690.591 7
  27819775.200       -1268.670          43.350   112018608.968 7  27819771.260
     -1301.920          43.100   110594647.925 7  27819773.100       -1285.144
        45.950
 151831484.22215                  28892570.920
     -2847.309                          30.900                   113380573.907 6
  28892582.140       -2126.604          36.900   116338323.429 6  28892578.100
     -2181.955          36.200   114859447.328 6  28892580.240       -2154.402
        39.400
 131640636.526 8                  25050373.640
     -1520.336                          50.600                    98303101.016 8
  25050378.100       -1135.353          51.800   100867515.957 8  25050374.480
     -1164.983          52.100    99585300.644 9  25050376.280       -1150.203
        54.700
 125699043.895 8                  23919721.840
      1440.505                          52.250                    93866228.888 8
  23919727.400        1075.655          53.350    96314893.203 8  23919723.860
      1103.722          53.550    95090559.698 9  23919725.740        1089.711
        56.200
 148413312.301 6                  28242116.120
       601.671                          40.300                   110828147.045 6
  28242123.200         449.250          41.450   113719302.565 7  28242120.640
       460.937          42.450   112273726.455 7  28242121.500         455.132
        44.750
 23 12 16 11 11  0.0000000  0 22G05G08G13G14G15G17G18G19G20G22G23G24
                                G30E02E03E05E08E13E15E24E25E26
 118528959.289 7  92360199.72447  22555323.040                    22555324.020
     -3257.163       -2538.052          46.400          46.200



 134874084.532 6 105096715.32245  25665683.200                    25665687.760
     -2114.589       -1647.734          37.750          35.650   100717696.813 7
  25665689.100       -1579.485          43.500


 105281988.670 8  82037899.22048  20034498.920                    20034497.420
      -813.192        -633.658          50.200          50.150



 112461938.150 8  87632703.59547  21400784.440                    21400784.260
     -1216.604        -948.003          49.050          47.500    83981365.136 8
  21400789.460        -908.536          53.300


 106881858.103 8  83284563.29848  20338945.940                    20338944.700
      1430.668        1114.807          51.400          50.600



 127745581.067 6  99542031.05846  24309170.940                    24309176.940
      2567.575        2000.717          40.950          40.300



 131843324.213 6 102735033.39746  25088965.380                    25088966.440
     -2147.511       -1673.387          41.050          38.100    98454425.467 7
  25088972.820       -1603.765          43.050


 135680773.624 5 105725292.18844  25819192.800                    25819195.100
      3224.591        2512.706          35.100          28.100



 131426869.912 6 102410499.00945  25009725.360                    25009729.040
     -3804.136       -2964.273          39.250          34.700



 110726677.801 8  86280562.63947  21070574.120                    21070572.460
       -88.333         -68.831          51.600          47.650



 122848390.626 7  95725987.19447  23377274.600                    23377275.660
      2506.129        1952.829          45.000          44.450    91737439.297 8
  23377279.980        1871.442          48.550


 117483536.253 7  91545649.45947  22356371.440                    22356374.220
      2993.028        2332.230          44.850          44.750    87731253.901 8
  22356375.800        2235.247          49.650


 122206142.564 7  95225548.72747  23255065.180                    23255067.200
     -2879.527       -2243.789          46.550          46.850    91257818.381 7
  23255069.320       -2150.319          47.950


 141110293.772 7                  26852388.560
      3151.043                          44.950                   105374626.529 7
  26852395.220        2352.966          45.250   108123502.578 7  26852394.260
      2414.404          45.400   106749069.209 8  26852394.740        2383.639
        48.350
 122472606.465 8                  23305763.700
       390.541                          51.650                    91456822.815 9
  23305767.920         291.644          54.700    93842639.687 9  23305765.440
       299.236          54.950    92649734.903 9  23305767.200         295.436
        57.900
 123418373.770 8                  23485743.300
     -2029.721                          49.850                    92163067.921 8
  23485750.060       -1515.706          51.450    94567317.577 8  23485746.200
     -1555.253          51.100    93365193.404 9  23485747.960       -1535.509
        54.350
 136960974.360 8                  26062807.700
      2424.151                          48.050                   102276072.099 8
  26062812.260        1810.177          48.050   104944134.759 7  26062808.060
      1857.445          47.750   103610096.578 8  26062810.540        1833.884
        51.000
 146244944.618 7                  27829500.640
     -1710.503                          42.400                   109208887.201 7
  27829508.340       -1277.315          43.400   112057802.007 7  27829504.160
     -1310.604          42.250   110633342.758 7  27829506.740       -1293.950
        46.000


                                                 116403905.98714  28908836.580
     -2182.215          28.600   114924081.647 5  28908838.740       -2154.360
        33.550
 131686431.369 8                  25059088.080
     -1532.008                          50.600                    98337298.437 8
  25059092.700       -1144.117          51.600   100902605.485 8  25059088.820
     -1173.917          51.950    99619944.116 9  25059090.780       -1159.032
        54.750
 125656032.100 8                  23911537.100
      1427.634                          52.450                    93834109.736 8
  23911542.260        1066.077          53.050    96281936.159 8  23911538.980
      1093.872          53.500    95058021.600 9  23911540.860        1080.005
        56.300
 148395491.254 6                  28238724.620
       587.077                          39.300                   110814839.067 6
  28238731.440         438.281          41.650   113705647.424 7  28238729.200
       449.738          42.500   112260244.899 7  28238730.380         443.939
        45.100
 23 12 16 11 11 30.0000000  0 21G05G08G13G14G15G17G18G19G20G22G23G24
                                G30E02E03E05E08E13E24E25E26
 118626833.368 7  92436465.14047  22573947.980                    22573948.800
     -3267.587       -2546.174          46.850          46.600



 134937758.807 5 105146331.79345  25677800.100                    25677804.380
     -2129.852       -1659.618          34.550          31.700   100765245.941 7
  25677805.740       -1590.400          43.000


 105306604.980 8  82057080.72648  20039183.360                    20039181.820
      -827.734        -644.989          50.650          50.500



 112498709.866 8  87661356.86547  21407781.900                    21407781.580
     -1234.577        -962.009          48.750          47.700    84008824.514 8
  21407786.840        -921.937          53.150


 106839188.463 8  83251314.21448  20330826.340                    20330825.080
      1414.198        1101.973          51.350          50.650



 127668663.583 6  99482095.60246  24294533.620                    24294540.040
      2560.340        1995.077          40.350          40.600



 131907931.017 6 102785376.28345  25101259.540                    25101261.040
     -2159.337       -1682.603          41.800          35.700    98502670.746 7
  25101267.180       -1612.460          42.750


                                  25800779.680
      3227.372                          32.800



 131540971.538 6 102499408.98945  25031438.680                    25031442.740
     -3802.551       -2963.034          38.650          34.600



 110729617.173 8  86282853.08047  21071133.460                    21071131.680
      -107.494         -83.760          51.550          47.650



 122773431.016 7  95667577.16247  23363010.200                    23363011.340
      2491.371        1941.329          45.250          44.200    91681463.015 8
  23363015.340        1860.395          48.200


 117393866.068 7  91475776.61047  22339307.680                    22339310.480
      2984.878        2325.879          45.300          45.100    87664292.428 8
  22339312.300        2229.040          49.750


 122292597.236 7  95292915.87247  23271517.060                    23271518.840
     -2883.972       -2247.256          44.350          44.400    91322378.515 8
  23271521.660       -2153.568          49.500


 141015820.943 7                  26834410.880
      3147.495                          45.250                   105304078.685 7
  26834417.120        2350.308          44.800   108051114.341 7  26834416.660
      2411.691          46.100   106677601.164 8  26834417.020        2381.034
        48.400
 122461031.099 8                  23303560.840
       381.362                          51.850                    91448178.847 9
  23303565.320         284.797          54.650    93833770.229 9  23303562.760
       292.228          55.000    92640978.192 9  23303564.500         288.508
        57.750
 123479372.572 8                  23497350.840
     -2036.728                          50.000                    92208618.888 8
  23497357.540       -1520.943          51.050    94614056.844 8  23497353.720
     -1560.537          50.950    93411338.521 8  23497355.780       -1540.759
        53.900
 136888298.783 8                  26048978.140
      2421.118                          48.350                   102221801.386 7
  26048982.460        1807.938          47.750   104888448.296 7  26048978.760
      1855.143          47.950   103555117.991 8  26048980.820        1831.522
        50.800
 146296430.520 6                  27839297.900
     -1721.555                          41.700                   109247334.403 7
  27839305.440       -1285.733          43.700   112097252.214 7  27839300.920
     -1319.354          42.050   110672291.465 7  27839304.400       -1302.554
        45.950
 131732567.407 8                  25067867.500
     -1543.479                          50.650                    98371750.627 8
  25067872.120       -1152.607          51.350   100937956.436 8  25067868.080
     -1182.629          52.000    99654845.689 9  25067870.240       -1167.673
        54.450
 125613396.544 8                  23903423.920
      1414.903                          52.550                    93802271.547 8
  23903428.740        1056.590          52.850    96249267.401 8  23903425.700
      1084.197          53.650    95025768.129 9  23903427.580        1070.378
        56.100
 148378101.979 6                  28235415.380
       572.577                          39.650                   110801853.544 6
  28235421.840         427.533          40.350   113692323.134 6  28235419.740
       438.679          41.000   112247089.998 7  28235421.240         433.080
        43.600
 23 12 16 11 12  0.0000000  0 21G05G08G13G14G15G17G18G19G20G22G23G24
                                G30E02E03E05E08E13E24E25E26
 118725019.234 7  92512973.52347  22592632.340                    22592632.820
     -3277.520       -2553.914          47.000          47.150



 135001878.119 6 105196294.91646  25690001.680                    25690005.920
     -2144.159       -1670.771          39.250          36.550   100813127.283 7
  25690006.940       -1601.387          42.400


 105331662.484 8  82076606.02948  20043951.800                    20043950.140
      -842.225        -656.279          50.400          50.300



 112536023.261 8  87690432.22147  21414882.420                    21414882.020
     -1252.443        -975.930          49.000          47.600    84036688.393 8
  21414887.280        -935.266          53.150


 106797016.885 8  83218453.23848  20322801.440                    20322800.240
      1397.769        1089.170          51.400          51.450



 127591965.778 6  99422331.27846  24279938.380                    24279944.880
      2553.304        1989.596          41.400          41.050



 131972886.795 7 102835991.18946  25113620.280                    25113621.760
     -2170.328       -1691.162          42.100          37.600    98551176.688 7
  25113627.800       -1620.993          42.550


 135487148.505 5 105574423.95445  25782344.760                    25782350.120
      3230.210        2517.082          34.100          31.150



 131655026.450 6 102588282.46045  25053143.060                    25053147.220
     -3801.248       -2962.028          36.200          33.600



 110733134.521 8  86285593.89348  21071802.820                    21071800.980
      -126.452         -98.533          51.350          48.000



 122698922.929 7  95609518.97247  23348831.740                    23348833.020
      2476.520        1929.758          45.750          43.500    91625823.932 8
  23348836.680        1849.252          48.550


 117304448.344 7  91406100.50447  22322292.080                    22322294.760
      2976.639        2319.462          46.550          45.000    87597519.498 8
  22322296.840        2222.805          50.150


 122379187.947 7  95360389.07647  23287995.160                    23287996.500
     -2888.213       -2250.558          47.650          47.350    91387040.277 8
  23287999.600       -2156.854          48.250


 140921457.522 7                  26816454.100
      3144.060                          45.550                   105233612.525 7
  26816460.500        2347.755          44.900   107978809.928 7  26816460.020
      2408.979          45.700   106606215.884 7  26816460.220        2378.325
        47.950
 122449737.581 8                  23301411.740
       372.070                          51.850                    91439745.356 9
  23301416.420         277.830          54.850    93825116.738 9  23301413.680
       285.072          54.900    92632434.701 9  23301415.460         281.451
        57.500
 123540585.873 8                  23508999.300
     -2043.659                          50.300                    92254330.032 8
  23509005.840       -1526.133          50.800    94660960.474 8  23509002.180
     -1565.995          50.950    93457645.903 8  23509004.440       -1546.030
        53.600
 136815717.752 8                  26035166.420
      2418.162                          48.700                   102167601.279 7
  26035170.600        1805.764          47.700   104832834.277 7  26035167.380
      1852.897          47.900   103500210.929 8  26035169.140        1829.313
        50.500
 146348258.623 6                  27849160.340
     -1732.916                          41.150                   109286037.111 7
  27849167.800       -1294.076          42.800   112136964.580 6  27849163.160
     -1327.937          41.600   110711499.002 7  27849167.240       -1311.034
        44.900
 131779051.538 8                  25076713.200
     -1554.730                          50.900                    98406462.756 8
  25076717.820       -1161.061          51.450   100973574.104 8  25076713.760
     -1191.351          51.750    99690010.585 9  25076715.940       -1176.203
        54.150
 125571146.169 8                  23895383.940
      1402.225                          52.400                    93770720.982 8
  23895388.360        1047.112          52.850    96216893.777 8  23895385.860
      1074.423          53.550    94993806.032 9  23895387.580        1060.770
        55.850
 148361153.195 6                  28232190.120
       558.008                          39.550                   110789196.939 6
  28232195.940         416.728          39.250   113679336.375 6  28232194.240
       427.470          41.300   112234268.308 7  28232195.900         422.096
        43.000
 23 12 16 11 12 30.0000000  0 21G05G08G13G14G15G17G18G19G20G22G23G24
                                G30E02E03E05E08E13E24E25E26
 118823510.553 7  92589719.90747  22611374.800                    22611375.220
     -3288.254       -2562.280          46.550          46.350



 135066436.593 5 105246583.42745  25702286.500                    25702290.300
     -2159.669       -1682.867          35.100          33.800   100861336.752 6
  25702291.780       -1612.693          39.550


 105357156.855 8  82096471.74448  20048803.300                    20048801.580
      -857.243        -667.983          50.400          50.150



 112573872.491 8  87719925.11547  21422084.820                    21422084.500
     -1270.594        -990.074          48.650          47.400    84064952.417 8
  21422089.740        -948.944          53.150


 106755340.949 8  83185978.47448  20314870.760                    20314869.660
      1380.754        1075.912          51.000          51.050



 127515486.254 6  99362737.02646  24265384.900                    24265391.100
      2545.271        1983.334          41.850          41.700



 132038184.410 6 102886872.42146  25126045.940                    25126047.880
     -2182.201       -1700.412          41.250          36.350    98599937.845 6
  25126053.440       -1629.712          41.700


 135390210.839 5 105498888.61045  25763897.600                    25763902.300
      3232.811        2519.081          35.850          34.200



 131769027.978 6 102677114.37445  25074836.920                    25074840.820
     -3799.224       -2960.461          37.250          32.550



 110737225.078 8  86288781.36847  21072581.220                    21072579.420
      -146.017        -113.778          51.100          47.850



 122624864.531 7  95551811.18347  23334738.840                    23334740.080
      2461.229        1917.842          45.350          43.650    91570520.644 8
  23334743.660        1837.709          48.650


 117215279.896 7  91336618.65847  22305324.020                    22305326.440
      2968.067        2312.782          47.300          45.000    87530932.740 8
  22305328.800        2216.342          50.600


 122465909.283 7  95427963.98347  23304497.940                    23304500.000
     -2892.996       -2254.289          44.850          44.800    91451799.598 8
  23304501.840       -2160.339          48.900


 140827200.550 7                  26798517.500
      3140.007                          45.000                   105163225.848 7
  26798523.860        2344.761          45.100   107906587.057 7  26798523.440
      2406.003          45.750   106534911.108 8  26798523.640        2375.374
        48.400
 122438722.294 8                  23299315.680
       362.496                          51.450                    91431519.627 9
  23299320.460         270.599          54.950    93816676.424 9  23299317.500
       277.670          54.950    92624101.678 9  23299319.340         274.145
        57.850
 123602009.072 8                  23520687.780
     -2051.071                          50.150                    92300197.942 8
  23520693.920       -1531.661          50.550    94708024.944 8  23520690.620
     -1571.610          51.100    93504112.098 8  23520693.020       -1551.649
        53.800
 136743227.937 8                  26021372.000
      2414.630                          48.700                   102113469.300 7
  26021376.180        1803.163          47.700   104777290.158 7  26021373.280
      1850.203          47.850   103445372.883 8  26021374.840        1826.638
        50.700
 146400422.930 6                  27859086.780
     -1744.394                          41.500                   109324990.947 7
  27859094.220       -1302.854          43.050   112176934.599 6  27859089.660
     -1336.783          41.650   110750960.936 7  27859093.920       -1319.819
        45.600
 131825878.103 8                  25085624.040
     -1566.737                          50.900                    98441430.598 8
  25085628.600       -1169.988          51.350   101009454.159 8  25085624.620
     -1200.502          52.000    99725434.531 9  25085626.800       -1185.235
        54.600
 125529277.255 8                  23887416.500
      1389.130                          52.550                    93739455.273 8
  23887420.700        1037.294          52.800    96184812.432 8  23887418.560
      1064.372          53.700    94962132.504 9  23887420.140        1050.853
        56.150
 148344640.985 6                  28229047.900
       542.963                          40.000                   110776866.387 6
  28229053.600         405.531          40.400   113666684.132 6  28229051.520
       416.203          40.900   112221776.913 7  28229053.860         410.823
        43.650
 23 12 16 11 13  0.0000000  0 21G05G08G13G14G15G17G18G19G20G22G23G24
                                G30E02E03E05E08E13E24E25E26
 118922301.313 7  92666699.62647  22630174.360                    22630174.500
     -3298.454       -2570.227          47.950          47.400




                                                                 100909869.663 5
  25714659.220       -1623.739          34.800


 105383084.971 8  82116675.44648  20053737.260                    20053735.660
      -872.052        -679.522          50.300          50.250



 112612252.879 8  87749831.88947  21429388.220                    21429388.040
     -1288.681       -1004.168          48.700          47.550    84093613.065 8
  21429393.340        -962.230          53.150


 106714158.815 8  83153888.48748  20307034.060                    20307033.000
      1364.129        1062.957          51.300          51.450



 127439224.783 6  99303312.67746  24250873.020                    24250878.760
      2538.207        1977.830          41.500          41.700



 132103817.782 7 102938015.27046  25138535.480                    25138537.600
     -2193.874       -1709.513          42.550          36.050    98648949.752 6
  25138543.040       -1638.148          41.150


 135293189.090 5 105423287.86145  25745434.480                    25745439.440
      3234.352        2520.306          34.650          33.900



 131882970.116 6 102765900.09146  25096519.720                    25096523.320
     -3797.362       -2959.000          38.950          36.900



 110741885.493 8  86292412.88148  21073468.020                    21073466.340
      -165.124        -128.667          51.000          48.100



 122551255.087 7  95494453.22347  23320731.320                    23320732.620
      2445.759        1905.788          45.650          42.800    91515552.604 8
  23320736.200        1826.312          48.900


 117126358.616 7  91267329.43747  22288403.020                    22288405.200
      2959.511        2306.115          47.850          44.600    87464530.576 8
  22288407.800        2210.052          51.000


 122552756.889 7  95495637.34047  23321024.620                    23321026.100
     -2897.509       -2257.801          46.300          46.300    91516653.159 8
  23321029.040       -2163.649          49.350


 140733048.244 7                  26780600.880
      3136.331                          45.750                   105092917.293 7
  26780607.300        2342.105          45.100   107834444.373 7  26780607.020
      2403.147          45.550   106463685.487 8  26780606.980        2372.591
        48.350
 122427982.725 8                  23297272.080
       353.048                          51.850                    91423499.792 9
  23297276.940         263.606          55.050    93808447.380 9  23297273.840
       270.527          55.000    92615977.240 9  23297275.700         267.038
        58.000
 123663638.546 8                  23532415.560
     -2058.124                          50.300                    92346219.875 8
  23532421.420       -1536.897          50.300    94755247.460 8  23532418.480
     -1577.067          51.350    93550734.326 8  23532420.820       -1557.034
        53.800
 136670827.099 8                  26007594.460
      2411.405                          48.850                   102059403.776 7
  26007598.660        1800.724          47.850   104721814.221 7  26007595.960
      1847.778          47.600   103390602.150 8  26007597.440        1824.271
        50.700
 146452918.503 7                  27869076.300
     -1755.848                          43.150                   109364192.120 7
  27869083.820       -1311.156          43.850   112217158.419 7  27869079.660
     -1345.321          43.050   110790673.427 7  27869083.560       -1328.278
        46.550
 131873042.450 8                  25094599.200
     -1578.285                          51.150                    98476650.677 8
  25094603.700       -1178.492          51.300   101045593.025 8  25094599.960
     -1209.232          52.100    99761114.003 9  25094601.920       -1193.857
        54.650
 125487787.218 8                  23879521.140
      1376.259                          52.600                    93708472.481 8
  23879525.060        1027.739          52.800    96153021.389 8  23879523.440
      1054.571          53.750    94930745.587 9  23879524.820        1041.159
        56.200
 148328562.642 6                  28225988.240
       528.292                          39.300                   110764859.792 6
  28225994.240         394.308          40.650   113654364.339 6  28225991.600
       404.700          40.950   112209613.719 7  28225994.260         399.502
        43.850
 23 12 16 11 13 30.0000000  0 21G05G08G13G14G15G17G18G19G20G22G23G24
                                G30E02E03E05E08E13E24E25E26
 119021391.762 7  92743912.86948  22649030.860                    22649030.760
     -3307.927       -2577.608          47.750          48.100




                                                                 100958727.733 6
  25727109.060       -1634.019          37.150


 105409450.477 8  82137219.95048  20058754.460                    20058752.960
      -886.187        -690.537          50.600          50.400



 112651166.914 8  87780154.50347  21436793.180                    21436793.180
     -1306.145       -1017.775          48.650          47.700    84122672.248 8
  21436798.540        -975.362          53.300


 106673475.875 8  83122187.48148  20299292.400                    20299291.320
      1347.568        1050.053          51.700          51.650



 127363188.287 7  99244063.62146  24236404.040                    24236409.080
      2530.699        1971.979          42.150          41.800



 132169788.045 6 102989420.67945  25151089.260                    25151091.520
     -2204.662       -1717.916          41.850          34.950    98698213.251 6
  25151096.960       -1646.390          40.300


 135196090.013 5 105347626.61345  25726956.640                    25726962.160
      3237.954        2523.100          35.600          33.750



 131996854.310 6 102854640.58345  25118191.420                    25118196.000
     -3795.306       -2957.396          38.000          35.850



 110747118.843 8  86296490.83748  21074463.780                    21074462.300
      -184.107        -143.459          50.900          48.400



 122478101.131 7  95437450.17547  23306810.500                    23306811.740
      2430.658        1894.021          45.550          42.950    91460924.681 8
  23306815.500        1815.184          49.100


 117037689.682 7  91198236.85847  22271529.980                    22271531.980
      2951.342        2299.750          47.650          45.300    87398316.879 8
  22271534.720        2203.913          51.400


 122639733.722 7  95563411.36147  23337575.760                    23337577.500
     -2901.478       -2260.898          43.750          43.700    91581603.239 8
  23337579.940       -2166.635          48.000


 140639006.113 7                  26762705.260
      3132.737                          45.200                   105022690.987 7
  26762711.620        2339.377          45.100   107762386.068 7  26762711.420
      2400.479          45.950   106392543.180 8  26762711.320        2369.863
        48.300
 122417523.649 8                  23295281.800
       343.801                          52.050                    91415689.417 9
  23295286.700         256.738          55.100    93800433.263 9  23295283.640
       263.466          54.850    92608064.993 9  23295285.420         260.089
        57.850
 123725478.130 8                  23544183.320
     -2064.914                          50.650                    92392398.728 8
  23544188.840       -1541.934          50.200    94802630.983 8  23544186.280
     -1582.210          51.150    93597515.507 8  23544188.540       -1562.070
        53.550
 136598520.283 8                  25993834.740
      2408.552                          48.400                   102005408.468 8
  25993839.180        1798.566          48.050   104666410.334 7  25993836.460
      1845.504          47.250   103335902.553 8  25993837.840        1822.089
        50.550
 146505747.719 7                  27879129.300
     -1766.641                          42.950                   109403642.461 7
  27879137.180       -1319.228          44.150   112257637.910 7  27879133.240
     -1353.636          43.250   110830638.342 7  27879136.660       -1336.448
        46.650
 131920547.298 8                  25103639.160
     -1589.262                          51.000                    98512125.035 8
  25103643.540       -1186.788          51.250   101081992.801 8  25103640.020
     -1217.724          52.000    99797051.072 9  25103641.800       -1202.266
        54.400
 125446680.730 8                  23871698.740
      1363.727                          52.450                    93677776.099 8
  23871702.600        1018.371          52.850    96121524.228 8  23871701.220
      1044.915          53.600    94899648.814 9  23871702.460        1031.644
        56.050
 148312922.655 6                  28223012.200
       513.826                          40.650                   110753180.505 6
  28223018.500         383.833          41.950   113642380.429 6  28223015.400
       393.594          40.650   112197782.119 7  28223018.320         388.737
        44.350
 23 12 16 11 14  0.0000000  0 21G05G08G13G14G15G17G18G19G20G22G23G24
                                G30E02E03E05E08E13E24E25E26
 119120778.784 8  92821357.21248  22667943.820                    22667943.500
     -3317.739       -2585.254          48.050          48.450




                                                                 101007882.541 5
  25739641.560       -1644.274          31.900


 105436252.522 8  82158104.63148  20063854.880                    20063853.160
      -900.657        -701.812          50.950          50.250



 112690612.179 8  87810891.06948  21444299.340                    21444299.420
     -1323.546       -1031.334          48.250          48.000    84152128.118 8
  21444304.880        -988.333          53.000


 106633293.520 8  83090876.54448  20291645.920                    20291644.780
      1331.116        1037.232          51.400          51.350



 127287378.575 6  99184991.29847  24221978.080                    24221982.520
      2523.380        1966.277          41.950          42.050



 132236091.468 7 103041085.63545  25163706.320                    25163709.080
     -2215.290       -1726.200          42.400          33.700    98747725.503 6
  25163713.840       -1654.441          39.250


 135098892.070 5 105271884.29845  25708464.600                    25708469.480
      3240.521        2525.100          34.750          34.000



 132110677.632 6 102943333.63045  25139851.720                    25139856.680
     -3792.298       -2955.054          39.300          35.500



 110752923.653 8  86301014.08348  21075568.340                    21075567.020
      -202.961        -158.150          50.900          48.050



 122405404.147 7  95380803.20647  23292976.720                    23292977.860
      2415.604        1882.290          45.650          42.750    91406638.011 8
  23292981.740        1803.949          49.100


 116949273.324 7  91129341.08947  22254704.900                    22254706.840
      2943.060        2293.297          47.250          45.000    87332291.789 8
  22254709.620        2197.782          51.250


 122726837.709 7  95631284.45447  23354151.180                    23354153.120
     -2905.577       -2264.089          45.650          45.950    91646648.282 8
  23354155.400       -2169.621          48.950


 140545074.590 7                  26744830.580
      3129.396                          44.750                   104952547.253 7
  26744837.020        2336.728          44.650   107690412.520 7  26744836.780
      2397.818          46.200   106321484.543 8  26744836.860        2367.269
        48.050
 122407344.860 8                  23293344.920
       334.730                          51.800                    91408088.356 9
  23293349.720         249.983          54.700    93792633.921 9  23293346.760
       256.459          55.050    92600364.792 9  23293348.500         253.243
        57.700
 123787526.514 8                  23555990.860
     -2071.679                          50.600                    92438733.498 8
  23555996.120       -1547.032          49.600    94850174.484 8  23555993.840
     -1587.385          51.450    93644454.644 8  23555995.940       -1567.187
        53.250
 136526307.556 8                  25980092.960
      2405.705                          48.100                   101951483.435 7
  25980097.620        1796.432          47.800   104611078.552 7  25980094.760
      1843.211          47.600   103281274.144 8  25980096.100        1819.875
        50.500
 146558907.894 7                  27889245.420
     -1777.378                          43.250                   109443339.906 7
  27889253.540       -1327.178          42.550   112298370.961 7  27889249.860
     -1361.900          42.550   110870853.596 7  27889252.720       -1344.574
        45.300
 131968390.311 8                  25112743.420
     -1600.253                          50.900                    98547851.911 8
  25112747.800       -1194.982          50.850   101118651.690 8  25112744.540
     -1226.203          52.250    99833243.954 9  25112746.020       -1210.583
        54.250
 125405957.482 8                  23863949.280
      1351.178                          52.300                    93647365.893 8
  23863953.100        1009.019          52.600    96090320.710 8  23863951.920
      1035.316          53.750    94868841.953 9  23863953.040        1022.189
        55.950
 148297720.510 6                  28220119.520
       499.402                          40.050                   110741828.219 6
  28220126.200         372.999          40.650   113630731.990 6  28220122.640
       382.689          40.750   112186281.753 7  28220125.520         377.920
        43.550
 23 12 16 11 14 30.0000000  0 21G05G08G13G14G15G17G18G19G20G22G23G24
                                G30E02E03E05E08E13E24E25E26
 119220454.947 8  92899026.84448  22686911.700                    22686911.140
     -3328.106       -2593.334          48.250          48.400




                                                                 101057382.467 5
  25752255.520       -1655.741          32.000


 105463487.815 8  82179326.90348  20069037.660                    20069035.780
      -915.703        -713.536          50.900          50.250



 112730583.603 8  87842037.63147  21451905.700                    21451905.780
     -1341.669       -1045.457          48.900          47.600    84181976.911 8
  21451911.400       -1001.864          53.150


 106593610.070 8  83059954.36348  20284094.400                    20284093.140
      1313.786        1023.729          51.750          51.800



 127211795.332 6  99126095.42646  24207595.180                    24207598.960
      2515.029        1959.768          41.750          41.750



 132302721.676 7 103093005.24545  25176385.700                    25176388.660
     -2226.978       -1735.307          42.550          33.850    98797481.788 6
  25176393.080       -1662.769          39.550


 135001640.941 6 105196104.49645  25689958.240                    25689963.320
      3242.108        2526.325          38.150          35.500



 132224433.834 6 103031974.42345  25161499.300                    25161504.800
     -3791.361       -2954.319          40.300          31.200



 110759296.106 8  86305979.65147  21076780.920                    21076779.700
      -222.460        -173.345          51.350          47.950



 122333163.195 7  95324511.57647  23279229.660                    23279230.780
      2399.753        1869.938          45.700          42.250    91352691.878 8
  23279234.800        1792.054          49.350


 116861107.109 7  91060640.23647  22237927.320                    22237929.200
      2934.039        2286.268          47.100          45.250    87266453.501 8
  22237932.020        2191.037          51.450


 122814064.277 7  95699253.08347  23370749.920                    23370751.860
     -2910.222       -2267.711          44.400          44.850    91711784.817 8
  23370754.640       -2173.117          49.050


 140451251.715 7                  26726976.760
      3124.930                          45.450                   104882484.602 7
  26726983.400        2333.680          44.950   107618522.156 7  26726982.600
      2394.537          45.750   106250508.030 8  26726983.060        2364.111
        48.050
 122397443.572 8                  23291460.880
       324.918                          52.100                    91400694.517 9
  23291465.480         242.649          54.750    93785047.198 9  23291462.640
       249.000          55.200    92592874.512 9  23291464.380         245.826
        57.650
 123849779.919 8                  23567837.440
     -2079.044                          50.800                    92485221.379 8
  23567842.340       -1552.562          49.650    94897875.094 8  23567840.220
     -1593.069          51.350    93691548.891 8  23567842.360       -1572.786
        53.100
 136454186.449 8                  25966368.640
      2401.922                          48.400                   101897626.799 8
  25966373.560        1793.712          48.200   104555816.942 8  25966370.500
      1840.511          48.100   103226715.022 8  25966371.740        1817.113
        50.800
 146612393.955 7                  27899423.540
     -1788.892                          44.050                   109483280.777 7
  27899431.980       -1335.771          43.350   112339353.753 7  27899428.460
     -1370.593          43.950   110911315.424 7  27899430.800       -1353.197
        46.300
 132016566.626 8                  25121911.200
     -1611.951                          51.400                    98583827.680 8
  25121915.440       -1203.684          50.800   101155565.956 8  25121912.300
     -1235.106          52.300    99869688.970 9  25121913.660       -1219.376
        54.100
 125365614.582 8                  23856272.200
      1337.869                          52.550                    93617239.720 8
  23856276.200         999.051          52.850    96059408.628 8  23856274.840
      1025.124          53.850    94838322.825 9  23856276.000        1012.098
        56.000
 148282953.080 6                  28217309.600
       484.521                          40.700                   110730800.592 6
  28217316.100         361.742          39.700   113619416.636 6  28217312.800
       371.218          40.450   112175110.270 7  28217315.200         366.483
        42.800
 23 12 16 11 15  0.0000000  0 20G05G13G14G15G17G18G19G20G22G23G24G30
                                E02E03E05E08E13E24E25E26
 119320420.806 8  92976922.23547  22705934.760                    22705933.700
     -3336.465       -2599.847          48.000          47.750



 105491158.664 8  82200888.57348  20074303.300                    20074301.380
      -928.961        -723.866          50.350          50.250



 112771082.214 8  87873595.00147  21459612.400                    21459612.440
     -1358.039       -1058.212          48.400          47.950    84212219.392 8
  21459618.200       -1014.091          53.300


 106554428.762 8  83029423.45948  20276638.460                    20276637.000
      1298.234        1011.611          51.100          51.050



 127136444.148 6  99067380.37246  24193256.240                    24193259.560
      2508.587        1954.748          41.650          41.650



 132369678.385 6 103145179.29445  25189127.260                    25189130.380
     -2236.698       -1742.879          41.600          34.150    98847481.873 6
  25189134.340       -1670.056          39.000


 134904318.480 6 105120269.03845  25671438.520                    25671442.880
      3245.743        2529.158          36.600          35.700



 132338123.029 6 103120563.02245  25183133.920                    25183139.460
     -3787.709       -2951.477          38.050          33.900



 110766238.205 8  86311389.08948  21078102.020                    21078100.780
      -240.234        -187.195          51.050          48.400



 122261383.292 7  95268579.20647  23265570.440                    23265571.520
      2385.572        1858.888          45.200          42.550    91299090.037 8
  23265575.620        1781.509          49.850


 116773194.772 7  90992137.21447  22221197.960                    22221199.980
      2926.776        2280.609          45.850          45.600    87200804.797 8
  22221202.660        2185.651          51.550


 122901414.869 7  95767318.32047  23387372.320                    23387374.800
     -2913.004       -2269.879          44.550          44.500    91777014.008 8
  23387376.920       -2175.252          48.950


 140357541.453 7                  26709144.340
      3122.459                          44.000                   104812506.028 7
  26709151.160        2331.690          45.700   107546718.076 7  26709150.020
      2392.569          46.050   106179616.705 8  26709150.680        2362.117
        48.650
 122387823.108 8                  23289630.380
       316.651                          52.100                    91393510.373 9
  23289634.620         236.485          54.850    93777675.641 9  23289631.940
       242.684          55.150    92585596.657 9  23289633.680         239.596
        57.700
 123912240.587 8                  23579723.420
     -2084.877                          50.350                    92531864.013 8
  23579728.180       -1556.809          49.700    94945734.489 8  23579726.040
     -1597.397          51.050    93738799.907 8  23579728.200       -1577.135
        53.050
 136382160.575 7                  25952662.620
      2399.940                          47.950                   101843841.289 8
  25952667.620        1792.152          48.400   104500628.320 8  25952664.520
      1838.919          48.600   103172227.958 8  25952665.540        1815.517
        51.050
 146666206.593 7                  27909663.740
     -1798.699                          43.700                   109523465.470 7
  27909672.540       -1342.987          43.000   112380586.742 7  27909669.140
     -1378.099          43.350   110952024.265 7  27909670.920       -1360.582
        45.850
 132065077.430 8                  25131142.600
     -1621.860                          50.850                    98620053.229 8
  25131146.820       -1211.099          50.950   101192736.521 8  25131143.700
     -1242.728          52.300    99906387.026 9  25131144.940       -1226.911
        54.250
 125325655.206 8                  23848668.100
      1326.245                          51.850                    93587399.932 8
  23848672.320         990.409          53.150    96028790.411 8  23848670.760
      1016.204          53.800    94808093.822 9  23848671.940        1003.318
        56.150
 148268623.395 6                  28214583.040
       471.249                          40.050                   110720099.810 6
  28214589.180         351.700          39.250   113608436.688 6  28214586.140
       360.965          39.600   112164269.905 7  28214588.100         356.310
        42.200
 23 12 16 11 15 30.0000000  0 20G05G13G14G15G17G18G19G20G22G23G24G30
                                E02E03E05E08E13E24E25E26
 119420678.193 7  93055044.77247  22725013.160                    22725012.000
     -3346.315       -2607.521          47.900          47.850



 105519269.954 8  82222793.44948  20079652.760                    20079650.820
      -943.995        -735.581          50.650          50.350



 112812111.327 8  87905565.72948  21467419.960                    21467420.040
     -1376.062       -1072.257          48.200          48.000    84242858.009 8
  21467425.840       -1027.640          52.850


 106515756.617 8  82999289.31448  20269279.460                    20269277.960
      1280.942         998.137          50.950          50.900



 127061332.684 7  99008852.11146  24178962.920                    24178965.940
      2500.030        1948.079          42.050          41.750



 132436963.554 6 103197609.28746  25201931.240                    25201934.240
     -2247.761       -1751.500          41.400          37.250    98897727.280 6
  25201937.980       -1678.618          39.350


 134806932.287 6 105044383.76445  25652906.680                    25652910.460
      3248.043        2530.946          36.800          32.650



 132451747.777 6 103209101.35645  25204756.080                    25204762.220
     -3786.266       -2950.355          36.300          33.550



 110773753.948 8  86317245.52347  21079532.300                    21079530.960
      -259.806        -202.445          51.350          47.900



 122190071.764 7  95213011.80447  23252000.260                    23252001.380
      2369.594        1846.437          45.000          43.150    91245837.958 8
  23252005.420        1769.436          49.600


 116685542.341 7  90923836.70747  22204518.120                    22204520.220
      2917.791        2273.606          46.700          45.450    87135350.174 8
  22204522.640        2178.767          51.050


 122988893.350 7  95835483.20947  23404019.060                    23404021.580
     -2917.606       -2273.465          45.050          44.900    91842338.673 8
  23404023.800       -2178.872          49.500


 140263950.170 7                  26691334.440
      3118.002                          44.250                   104742616.314 7
  26691341.700        2328.350          44.700   107475005.156 7  26691340.000
      2389.138          46.350   106108815.392 8  26691340.940        2358.724
        48.300
 122378489.048 8                  23287854.360
       306.689                          52.100                    91386540.112 9
  23287858.280         228.988          54.400    93770523.551 9  23287855.800
       234.903          55.300    92578535.486 9  23287857.480         231.956
        57.650
 123974913.091 8                  23591649.680
     -2092.296                          50.350                    92578664.848 8
  23591654.380       -1562.428          49.450    94993756.225 8  23591651.900
     -1603.167          50.850    93786211.192 8  23591654.400       -1582.811
        52.900
 136310235.822 7                  25938975.780
      2396.145                          47.950                   101790131.293 7
  25938980.800        1789.229          47.950   104445517.190 8  25938977.760
      1835.948          49.200   103117817.391 8  25938978.620        1812.574
        51.200
 146720349.066 7                  27919966.780
     -1809.896                          43.700                   109563896.494 7
  27919975.900       -1351.643          42.550   112422072.483 7  27919972.500
     -1386.742          43.200   110992982.645 7  27919973.820       -1369.239
        45.650
 132113926.240 8                  25140438.280
     -1633.593                          50.950                    98656531.186 8
  25140442.500       -1219.907          50.350   101230166.078 8  25140439.220
     -1251.741          52.100    99943340.783 8  25140440.540       -1235.847
        53.850
 125286084.841 8                  23841137.980
      1312.823                          51.950                    93557850.635 8
  23841142.580         980.350          52.950    95998470.257 8  23841140.540
      1005.922          53.900    94778159.098 9  23841141.920         993.140
        56.150
 148254736.782 6                  28211940.840
       455.862                          39.800                   110709729.900 6
  28211946.800         340.345          39.700   113597796.275 6  28211943.680
       349.204          40.400   112153764.733 7  28211945.400         344.866
        42.800
 23 12 16 11 16  0.0000000  0 20G05G13G14G15G17G18G19G20G22G23G24G30
                                E02E03E05E08E13E24E25E26
 119521221.316 7  93133389.97647  22744145.980                    22744144.520
     -3356.213       -2615.235          47.750          47.750



 105547819.366 8  82245039.71548  20085085.560                    20085083.640
      -958.971        -747.250          50.750          50.550



 112853667.157 8  87937946.89247  21475327.740                    21475327.820
     -1393.985       -1086.224          48.450          47.600    84273889.948 8
  21475333.620       -1040.978          52.650


 106477593.154 8  82969551.54548  20262017.260                    20262015.880
      1263.645         984.657          51.300          51.200



 126986461.566 7  98950511.12847  24164715.300                    24164718.080
      2491.702        1941.591          42.300          42.550



 132504572.132 6 103250291.26345  25214796.720                    25214799.980
     -2258.647       -1759.981          41.200          33.300    98948214.190 6
  25214803.540       -1686.806          39.650


 134709483.030 5 104968449.32945  25634362.720                    25634365.800
      3248.860        2531.593          34.900          33.250



 132565303.202 6 103297585.76545  25226365.200                    25226371.080
     -3783.666       -2948.322          38.700          33.250



 110781840.894 8  86323547.04548  21081071.280                    21081069.780
      -279.123        -217.498          51.600          48.300



 122119228.812 7  95157809.53347  23238519.240                    23238520.480
      2353.425        1833.838          45.200          43.750    91192935.777 8
  23238524.460        1757.516          49.650


 116598148.697 7  90855737.84547  22187887.660                    22187889.780
      2908.810        2266.607          47.300          46.350    87070088.790 8
  22187891.860        2172.111          51.000


 123076496.326 7  95903745.14747  23420689.800                    23420691.820
     -2922.373       -2277.178          46.200          46.350    91907756.303 8
  23420694.360       -2182.150          49.000


 140170477.133 7                  26673547.300
      3113.824                          45.350                   104672814.889 7
  26673554.620        2325.225          45.250   107403382.870 7  26673552.680
      2385.815          45.800   106038103.531 8  26673553.880        2355.546
        48.650
 122369439.867 8                  23286132.440
       296.904                          52.000                    91379782.589 9
  23286136.220         221.701          54.300    93763589.744 9  23286133.900
       227.480          54.800    92571689.817 9  23286135.480         224.623
        57.650
 124037794.872 8                  23603615.820
     -2099.566                          50.800                    92625621.969 8
  23603620.540       -1567.816          49.500    95041938.319 8  23603617.720
     -1608.771          50.050    93833780.799 8  23603620.420       -1588.319
        52.900
 136238410.979 7                  25925307.900
      2392.532                          47.800                   101736495.902 7
  25925312.920        1786.576          47.650   104390482.619 8  25925310.080
      1833.160          49.150   103063482.414 8  25925310.780        1809.823
        51.350
 146774817.382 7                  27930331.840
     -1821.250                          43.150                   109604570.806 7
  27930341.180       -1359.975          42.850   112463807.860 7  27930337.560
     -1395.362          42.600   111034187.489 7  27930338.780       -1377.632
        45.750
 132163109.399 8                  25149797.560
     -1644.955                          50.950                    98693258.818 8
  25149801.760       -1228.479          50.250   101267851.823 8  25149798.300
     -1260.481          51.400    99980547.473 8  25149799.800       -1244.490
        53.750
 125246901.786 8                  23833681.580
      1299.565                          52.000                    93528590.562 8
  23833686.560         970.477          52.950    95968446.875 8  23833684.080
       995.784          53.350    94748517.372 9  23833685.600         983.140
        56.250
 148241291.361 6                  28209382.480
       440.710                          40.750                   110699689.421 6
  28209388.480         329.197          40.600   113587493.891 6  28209384.920
       337.684          40.100   112143593.307 7  28209386.960         333.438
        43.400
 23 12 16 11 16 30.0000000  0 20G05G13G14G15G17G18G19G20G22G23G24G30
                                E02E03E05E08E13E24E25E26
 119622041.854 7  93211951.32847  22763331.420                    22763329.980
     -3365.312       -2622.325          47.850          47.800



 105576800.918 8  82267622.70848  20090600.660                    20090598.740
      -973.133        -758.286          51.150          49.950



 112895742.187 7  87970732.61347  21483334.280                    21483334.420
     -1411.075       -1099.540          47.950          47.700    84305309.598 8
  21483340.060       -1053.781          52.550


 106439933.649 8  82940206.46448  20254850.960                    20254849.620
      1247.020         971.703          51.100          51.200



 126911828.073 7  98892355.27647  24150512.880                    24150515.660
      2483.818        1935.447          42.800          42.900



 132572495.218 6 103303218.28445  25227722.080                    25227725.460
     -2269.234       -1768.239          40.250          35.450    98998935.915 6
  25227728.840       -1694.414          39.600


                                  25615806.320
      3251.371                          31.900



 132678781.476 6 103386010.06945  25247959.820                    25247965.660
     -3781.142       -2946.353          39.700          31.950



 110790492.177 8  86330288.30347  21082717.620                    21082716.000
      -297.692        -231.968          51.300          47.900



 122048850.926 7  95102969.63347  23225126.760                    23225128.020
      2338.230        1821.997          45.000          43.200    91140380.885 8
  23225131.980        1746.011          49.650


 116511009.050 7  90787836.89747  22171305.560                    22171307.640
      2900.453        2260.095          47.900          45.600    87005017.056 8
  22171309.420        2165.932          51.050


 123164216.875 7  95972098.66847  23437382.660                    23437384.760
     -2925.851       -2279.889          44.800          44.850    91973261.738 8
  23437387.140       -2184.952          49.250


 140077117.878 7                  26655781.840
      3110.107                          44.800                   104603098.458 7
  26655789.360        2322.481          45.400   107331847.752 7  26655786.540
      2383.052          45.450   105967477.760 8  26655788.400        2352.801
        48.450
 122360670.392 8                  23284463.540
       287.637                          51.700                    91373233.932 9
  23284467.480         214.810          54.400    93756870.255 9  23284465.160
       220.389          54.950    92565055.744 9  23284466.700         217.606
        57.650
 124100879.660 8                  23615620.560
     -2106.158                          50.950                    92672730.685 8
  23615625.360       -1572.721          49.600    95090275.967 8  23615622.120
     -1613.807          50.000    93881503.980 8  23615625.120       -1593.245
        52.750
 136166681.183 7                  25911658.100
      2389.469                          47.600                   101682931.478 7
  25911662.960        1784.275          47.750   104335520.861 8  25911660.400
      1830.891          49.850   103009219.320 8  25911661.120        1807.590
        51.650
 146829603.862 7                  27940757.460
     -1831.447                          42.200                   109645482.697 7
  27940767.020       -1367.636          42.700   112505787.048 6  27940762.800
     -1403.353          41.950   111075633.022 7  27940764.300       -1385.432
        45.350
 132212619.616 8                  25159218.940
     -1655.771                          50.900                    98730230.677 8
  25159223.320       -1236.458          50.150   101305788.169 8  25159219.520
     -1268.681          51.250   100018001.573 8  25159221.320       -1252.553
        53.550
 125208100.696 8                  23826297.840
      1287.124                          51.950                    93499615.723 8
  23826303.180         961.138          53.050    95938716.174 8  23826300.260
       986.199          53.550    94719164.601 9  23826302.000         973.668
        56.250
 148228281.530 6                  28206906.960
       426.376                          40.600                   110689974.239 6
  28206913.020         318.383          41.100   113577525.281 6  28206909.220
       326.736          41.700   112133751.411 7  28206911.440         322.566
        44.300
 23 12 16 11 17  0.0000000  0 20G05G13G14G15G17G18G19G20G22G23G24G30
                                E02E03E05E08E13E24E25E26
 119723144.753 7  93290732.72247  22782570.620                    22782569.420
     -3374.638       -2629.591          47.850          47.750



 105606222.929 8  82290548.91648  20096199.480                    20096197.660
      -987.991        -769.864          50.800          50.050



 112938343.038 8  88003928.04947  21491440.880                    21491441.160
     -1428.680       -1113.259          48.250          47.600    84337121.879 8
  21491446.540       -1066.778          52.700


 106402788.489 8  82911262.17348  20247782.480                    20247781.180
      1229.650         958.168          50.700          50.700



 126837443.350 7  98834393.28447  24136357.660                    24136360.680
      2475.319        1928.824          42.600          42.400



 132640738.246 6 103356394.64345  25240708.360                    25240711.780
     -2280.017       -1776.639          40.100          35.750    99049896.610 6
  25240715.160       -1702.646          39.800


 134514399.355 6 104816432.51145  25597239.320                    25597238.980
      3253.265        2535.005          36.750          34.900



 132792187.824 6 103474378.42944  25269540.540                    25269546.200
     -3779.117       -2944.763          36.950          28.600



 110799715.195 8  86337475.05647  21084472.700                    21084471.000
      -316.781        -246.844          51.100          47.750



 121978948.854 7  95048500.49147  23211824.700                    23211826.060
      2322.413        1809.673          44.800          43.000    91088181.296 8
  23211829.980        1734.198          49.850


 116424132.822 7  90720141.19047  22154773.620                    22154775.600
      2891.532        2253.144          47.950          45.750    86940142.016 8
  22154777.160        2159.293          51.400


 123252062.171 7  96040549.41947  23454099.360                    23454101.300
     -2930.358       -2283.400          45.100          45.350    92038860.311 8
  23454103.740       -2188.078          49.500


 139983882.119 7                  26638039.720
      3105.904                          44.450                   104533474.329 7
  26638047.660        2319.369          46.050   107260407.349 7  26638044.040
      2379.899          45.100   105896945.492 8  26638046.300        2349.641
        48.650
 122352189.595 8                  23282849.520
       278.030                          51.650                    91366900.863 9
  23282853.680         207.607          54.750    93750371.976 9  23282851.260
       213.036          54.750    92558640.071 9  23282852.860         210.310
        57.700
 124164175.466 8                  23627665.400
     -2113.193                          50.900                    92719996.989 8
  23627670.440       -1578.059          49.850    95138775.311 8  23627666.920
     -1619.240          49.800    93929386.805 8  23627669.980       -1598.651
        52.850
 136095055.777 7                  25898028.180
      2385.901                          47.650                   101629445.008 8
  25898032.880        1781.681          48.300   104280639.103 8  25898030.640
      1828.200          49.950   102955035.208 8  25898031.360        1804.933
        52.000
 146884715.106 6                  27951244.840
     -1842.279                          41.200                   109686637.139 7
  27951254.440       -1375.682          42.650   112548015.072 6  27951249.800
     -1411.598          41.300   111117324.256 7  27951251.680       -1393.564
        44.950
 132262463.795 8                  25168703.940
     -1666.793                          50.850                    98767451.934 8
  25168708.260       -1244.705          50.350   101343980.418 8  25168704.260
     -1277.139          50.800   100055708.328 8  25168706.400       -1260.942
        53.400
 125169690.456 8                  23818988.540
      1274.083                          51.950                    93470932.755 8
  23818994.140         951.425          53.300    95909284.954 8  23818990.880
       976.226          53.350    94690107.506 9  23818992.780         963.839
        56.250
 148215715.952 6                  28204515.740
       411.485                          40.900                   110680590.808 7
  28204522.020         307.336          42.400   113567897.097 6  28204518.540
       315.403          41.950   112124245.601 7  28204520.560         311.422
        45.100
 23 12 16 11 17 30.0000000  0 20G05G13G14G15G17G18G19G20G22G23G24G30
                                E02E03E05E08E13E24E25E26
 119824520.509 7  93369726.72347  22801861.740                    22801860.700
     -3383.588       -2636.564          47.300          47.100



 105636078.097 8  82313812.65248  20101880.580                    20101878.980
     -1002.181        -780.922          50.050          50.000



 112981461.046 8  88037526.46547  21499645.960                    21499646.380
     -1445.781       -1126.584          48.050          47.850    84369320.359 8
  21499651.460       -1079.723          52.250


 106366152.029 8  82882714.28048  20240810.620                    20240809.520
      1212.722         944.979          50.500          50.350



 126763303.284 7  98776621.93347  24122249.000                    24122252.380
      2467.295        1922.573          42.750          42.650



 132709291.290 6 103409812.54845  25253753.300                    25253757.300
     -2290.016       -1784.432          38.600          34.850    99101088.753 6
  25253760.580       -1710.317          40.500


 134416769.632 5 104740357.50345  25578661.080                    25578663.580
      3255.952        2537.112          34.400          32.300



 132905513.150 6 103562683.56845  25291105.740                    25291111.500
     -3776.162       -2942.474          39.850          33.350



 110809502.625 8  86345101.60048  21086335.140                    21086333.380
      -335.670        -261.562          50.850          48.550



 121909517.996 7  94994398.54447  23198612.320                    23198613.620
      2306.535        1797.302          44.850          42.300    91036333.593 8
  23198617.740        1722.329          49.400


 116337514.130 7  90652646.15747  22138290.620                    22138292.500
      2882.887        2246.406          47.550          46.050    86875459.279 8
  22138294.020        2152.864          51.300


 123340024.152 7  96109091.07147  23470838.160                    23470840.400
     -2934.229       -2286.418          44.100          43.850    92104546.028 8
  23470842.340       -2190.992          48.600


 139890764.341 7                  26620320.360
      3101.819                          45.500                   104463938.333 7
  26620328.220        2316.359          45.900   107189057.371 7  26620324.040
      2376.732          45.650   105826502.503 8  26620326.560        2346.545
        48.750
 122343991.196 8                  23281289.280
       268.514                          51.550                    91360778.664 9
  23281293.640         200.540          54.400    93744090.069 9  23281291.040
       205.792          54.950    92552438.019 9  23281292.760         203.182
        57.650
 124227674.885 8                  23639748.940
     -2120.030                          50.250                    92767415.338 8
  23639754.120       -1583.183          49.550    95187430.667 8  23639750.480
     -1624.466          49.900    93977423.656 8  23639753.580       -1603.838
        52.750
 136023528.780 7                  25884417.040
      2382.618                          47.750                   101576032.035 8
  25884421.520        1779.176          48.100   104225832.759 8  25884419.540
      1825.551          50.300   102900925.547 8  25884420.360        1802.390
        52.050
 146940142.341 6                  27961792.320
     -1852.752                          40.700                   109728027.539 7
  27961801.760       -1383.520          42.400   112590485.240 6  27961796.660
     -1419.818          40.900   111159254.537 7  27961799.160       -1401.692
        44.750
 132312633.482 8                  25178250.800
     -1677.761                          50.600                    98804916.274 8
  25178255.260       -1252.855          49.900   101382422.096 8  25178251.020
     -1285.584          50.700   100093661.336 8  25178253.400       -1269.184
        53.150
 125131664.581 8                  23811752.440
      1261.159                          51.800                    93442536.803 8
  23811758.080         941.688          53.000    95880148.240 8  23811754.680
       966.253          53.600    94661341.172 9  23811756.720         953.976
        56.200
 148203587.937 6                  28202207.840
       397.117                          40.950                   110671534.142 7
  28202214.580         296.348          42.350   113558604.162 6  28202210.700
       304.185          40.250   112115070.807 7  28202212.820         300.235
        44.550
 23 12 16 11 18  0.0000000  0 20G05G13G14G15G17G18G19G20G22G23G24G30
                                E02E03E05E08E13E24E25E26
 119926169.320 7  93448933.49747  22821204.900                    22821204.160
     -3392.388       -2643.423          47.000          46.900



 105666369.366 8  82337416.21048  20107644.700                    20107643.300
     -1016.522        -792.097          49.950          50.000



 113025097.575 8  88071528.90947  21507949.840                    21507950.180
     -1462.694       -1139.763          48.650          47.950    84401906.029 8
  21507955.080       -1092.276          52.150


 106330028.673 8  82854566.21348  20233936.460                    20233935.460
      1196.006         931.953          50.600          50.650



 126689413.710 7  98719045.81147  24108187.880                    24108191.820
      2459.398        1916.420          43.050          43.100



 132778154.394 6 103463472.07545  25266857.320                    25266861.100
     -2300.446       -1792.557          37.850          34.200    99152512.437 6
  25266864.980       -1717.574          39.850


 134319086.256 6 104664240.54145  25560072.360                    25560073.640
      3257.538        2538.331          36.300          31.200



 133018757.888 6 103650926.04046  25312655.900                    25312661.740
     -3773.048       -2940.042          39.900          36.900



 110819856.706 8  86353169.68048  21088305.440                    21088303.640
      -354.044        -275.880          51.000          48.350



 121840563.714 7  94940667.92946  23185490.720                    23185491.760
      2290.979        1785.179          45.200          41.600    90984841.765 8
  23185496.220        1710.815          49.350


 116251157.042 7  90585354.95447  22121857.280                    22121859.160
      2874.604        2239.952          47.000          46.000    86810971.881 8
  22121860.840        2146.724          51.500


 123428104.677 7  96177725.10347  23487599.560                    23487601.880
     -2937.455       -2288.931          44.500          44.700    92170320.275 8
  23487603.680       -2193.553          49.150


 139797768.887 7                  26602624.220
      3098.270                          44.700                   104394493.729 7
  26602631.980        2313.642          46.250   107117801.159 7  26602627.380
      2374.054          45.500   105756152.100 8  26602630.160        2343.855
        48.800
 122336078.826 8                  23279783.480
       259.409                          51.350                    91354870.066 9
  23279788.000         193.743          54.450    93738027.336 9  23279785.300
       198.796          55.050    92546452.354 9  23279787.100         196.258
        57.600
 124291380.568 8                  23651871.680
     -2126.548                          50.000                    92814987.707 8
  23651877.160       -1587.912          49.600    95236244.056 8  23651873.540
     -1629.392          50.050    94025616.537 8  23651876.400       -1608.668
        52.700
 135952104.203 7                  25870825.280
      2379.547                          47.750                   101522695.544 8
  25870829.680        1776.913          48.350   104171104.889 8  25870827.840
      1823.313          50.200   102846893.366 8  25870828.840        1800.111
        52.050
 146995886.819 6                  27972400.240
     -1863.010                          40.800                   109769654.798 7
  27972409.420       -1391.029          42.350   112633198.455 6  27972403.800
     -1427.402          40.550   111201424.782 7  27972407.100       -1409.346
        44.300
 132363130.238 8                  25187860.000
     -1688.241                          50.950                    98842624.856 8
  25187864.320       -1260.671          49.700   101421114.387 8  25187860.040
     -1293.577          50.650   100131861.770 8  25187862.680       -1277.081
        52.950
 125094026.551 8                  23804590.200
      1248.630                          51.900                    93414430.476 8
  23804595.740         932.396          52.850    95851308.702 8  23804592.360
       956.740          53.700    94632868.243 9  23804594.460         944.575
        56.100
 148191900.844 6                  28199983.700
       382.653                          41.050                   110662806.698 6
  28199990.860         285.918          41.050   113549649.030 6  28199986.200
       293.226          40.300   112106229.509 7  28199988.620         289.686
        43.500
 23 12 16 11 18 30.0000000  0 20G05G13G14G15G17G18G19G20G22G23G24G30
                                E02E03E05E08E13E24E25E26
 120028088.752 7  93528351.15847  22840599.580                    22840599.040
     -3401.496       -2650.518          47.300          47.300



 105697097.382 8  82361360.09848  20113491.980                    20113490.740
     -1031.243        -803.566          49.900          50.100



 113069251.991 8  88105934.91747  21516352.340                    21516352.500
     -1480.220       -1153.419          49.150          47.900    84434878.451 8
  21516357.320       -1105.444          52.250


 106294421.149 8  82826820.09048  20227160.580                    20227159.600
      1178.557         918.356          50.950          50.900



 126615778.298 7  98661667.74047  24094175.260                    24094179.520
      2450.373        1909.389          44.050          44.400



 132847325.548 6 103517371.62245  25280019.980                    25280023.880
     -2310.742       -1800.590          37.600          35.550    99204166.205 6
  25280027.900       -1725.521          40.750


 134221352.872 6 104588084.66446  25541474.460                    25541477.180
      3258.977        2539.465          37.900          36.700



 133131920.510 6 103739104.49245  25334190.300                    25334196.020
     -3770.460       -2938.027          38.250          35.950



 110830777.571 8  86361679.40648  21090383.660                    21090381.760
      -373.264        -290.856          51.050          48.350



 121772089.259 7  94887311.21347  23172460.400                    23172461.220
      2274.733        1772.521          44.750          42.100    90933708.253 8
  23172466.060        1698.556          49.250


 116165063.583 7  90518269.16047  22105474.140                    22105475.980
      2865.546        2232.894          47.000          46.700    86746681.336 8
  22105477.940        2139.831          51.750


 123516303.700 7  96246451.45847  23504383.220                    23504386.040
     -2941.761       -2292.287          43.650          43.850    92236182.985 8
  23504387.640       -2196.773          48.550


 139704898.085 7                  26584951.580
      3093.798                          45.200                   104325142.262 7
  26584959.540        2310.281          46.700   107046640.513 7  26584954.200
      2370.531          44.950   105685896.043 8  26584957.380        2340.430
        49.000
 122328454.129 8                  23278332.400
       249.536                          50.850                    91349176.291 9
  23278337.060         186.332          54.600    93732185.032 9  23278334.400
       191.129          55.100    92540684.313 9  23278336.200         188.753
        57.850
 124355293.077 8                  23664033.660
     -2133.678                          49.300                    92862714.537 8
  23664039.360       -1593.363          49.700    95285215.936 8  23664035.920
     -1634.900          50.000    94073965.891 8  23664038.560       -1614.100
        52.850
 135880784.023 7                  25857253.440
      2375.786                          47.600                   101469437.013 8
  25857257.620        1774.106          48.800   104116457.009 8  25857255.840
      1820.405          49.850   102792940.165 8  25857257.200        1797.234
        52.300
 147051947.571 7                  27983068.480
     -1873.719                          42.250                   109811518.301 7
  27983077.080       -1399.415          42.400   112676154.028 6  27983071.320
     -1435.664          40.650   111243834.325 7  27983075.320       -1417.612
        44.750
 132413953.538 8                  25197531.400
     -1699.365                          50.600                    98880577.288 8
  25197535.640       -1269.042          49.800   101460056.879 8  25197531.400
     -1302.141          50.500   100170309.235 8  25197534.060       -1285.570
        53.100
 125056777.801 8                  23797502.140
      1235.293                          51.900                    93386614.844 8
  23797507.380         922.425          52.900    95822767.454 8  23797504.220
       946.492          53.750    94604689.801 9  23797506.280         934.464
        56.300
 148180655.796 6                  28197843.580
       367.557                          40.400                   110654409.392 6
  28197850.760         274.446          40.550   113541032.670 6  28197846.220
       281.638          41.000   112097722.681 7  28197848.660         278.051
        43.650
 23 12 16 11 19  0.0000000  0 20G05G13G14G15G17G18G19G20G22G23G24G30
                                E02E03E05E08E13E24E25E26
 120130271.726 7  93607974.15647  22860044.400                    22860044.220
     -3410.952       -2657.889          46.850          46.750



 105728258.728 8  82385641.64048  20119421.820                    20119420.600
     -1046.395        -815.372          50.200          50.150



 113113918.892 8  88140740.25347  21524852.380                    21524852.260
     -1497.892       -1167.189          49.400          47.250    84468233.551 8
  21524857.120       -1118.519          52.250


 106259327.035 8  82799474.03148  20220482.420                    20220481.400
      1160.781         904.505          51.000          50.950



 126542396.567 7  98604487.40847  24080211.000                    24080215.500
      2441.343        1902.352          44.600          44.800



 132916798.171 6 103571506.11345  25293240.100                    25293243.660
     -2321.016       -1808.588          37.350          35.900    99256045.037 6
  25293248.220       -1733.357          41.600


 134123569.124 6 104511889.53246  25522867.000                    25522869.920
      3259.715        2540.037          38.800          38.300



 133244995.207 5 103827214.43744  25355707.600                    25355713.040
     -3768.614       -2936.586          34.850          29.200



 110842260.722 8  86370627.27948  21092568.920                    21092566.940
      -392.570        -305.900          51.450          48.550



 121704093.425 7  94834327.44847  23159521.180                    23159521.760
      2258.183        1759.622          44.200          42.450    90882932.155 8
  23159526.960        1686.232          49.300


 116079231.333 7  90451386.88647  22089140.920                    22089142.580
      2856.210        2225.619          47.600          46.100    86682585.815 8
  22089144.820        2132.891          51.850


 123604616.460 7  96315266.42847  23521188.460                    23521191.820
     -2946.063       -2295.639          44.900          44.700    92302130.670 8
  23521192.780       -2200.034          48.400


 139612149.757 7                  26567302.320
      3089.163                          46.050                   104255882.284 7
  26567310.180        2306.737          47.050   106975573.739 7  26567304.460
      2366.929          44.900   105615732.664 8  26567307.860        2336.839
        48.950
 122321114.166 8                  23276935.620
       239.560                          51.250                    91343695.142 9
  23276940.240         178.837          54.750    93726560.897 9  23276937.780
       183.531          55.250    92535131.669 9  23276939.460         181.212
        57.700
 124419408.474 8                  23676234.240
     -2141.050                          49.300                    92910592.866 8
  23676240.340       -1598.812          49.900    95334343.265 8  23676237.060
     -1640.511          50.150    94122468.717 8  23676239.280       -1619.641
        52.700
 135809565.670 7                  25843701.000
      2371.801                          47.800                   101416254.518 8
  25843705.040        1771.149          49.200   104061887.152 8  25843703.040
      1817.287          49.650   102739063.989 8  25843704.880        1794.217
        52.200
 147108319.298 6                  27993795.780
     -1884.588                          41.800                   109853613.993 7
  27993803.940       -1407.402          42.650   112719347.882 6  27993798.380
     -1444.092          40.750   111286479.103 7  27993802.580       -1425.783
        44.600
 132465098.334 8                  25207264.020
     -1710.683                          50.850                    98918769.785 8
  25207268.080       -1277.462          49.800   101499245.709 8  25207263.960
     -1310.688          50.550   100208999.901 8  25207266.640       -1294.121
        52.800
 125019915.238 8                  23790487.620
      1221.864                          52.150                    93359087.598 8
  23790492.440         912.460          52.850    95794522.113 8  23790489.620
       936.200          53.950    94576803.506 9  23790491.620         924.334
        56.050
 148169849.514 6                  28195786.720
       352.416                          40.150                   110646339.715 6
  28195794.500         263.152          41.750   113532752.500 6  28195789.700
       270.256          40.550   112089547.761 7  28195792.500         266.611
        43.850
 23 12 16 11 19 30.0000000  0 20G05G13G14G15G17G18G19G20G22G23G24G30
                                E02E03E05E08E13E24E25E26
 120232722.187 7  93687805.60347  22879540.160                    22879540.160
     -3419.040       -2664.188          47.250          47.150



 105759859.522 8  82410265.61248  20125435.320                    20125434.020
     -1060.368        -826.262          50.400          49.700



 113159103.029 8  88175948.62447  21533450.820                    21533450.420
     -1514.473       -1180.109          49.700          47.500    84501974.909 8
  21533455.380       -1130.922          51.850


 106224754.482 8  82772534.38648  20213903.480                    20213902.280
      1143.979         891.413          51.100          51.050



 126469277.752 7  98547511.99247  24066296.880                    24066301.500
      2433.149        1895.971          45.550          45.550



 132986575.785 6 103625878.24745  25306518.500                    25306521.680
     -2330.479       -1815.961          37.550          35.850    99308151.636 6
  25306526.660       -1740.375          41.600


 134025743.906 6 104435662.06745  25504251.500                    25504254.800
      3262.035        2541.848          37.300          33.500



 133357986.087 6 103915259.01445  25377209.120                    25377214.920
     -3764.300       -2933.241          37.100          31.800



 110854311.942 8  86380017.80247  21094862.300                    21094860.260
      -410.754        -320.069          51.800          47.750



 121636585.054 7  94781723.52446  23146674.700                    23146675.160
      2242.444        1747.359          44.950          41.650    90832520.059 8
  23146680.660        1674.557          48.850


 115993667.866 8  90384714.02647  22072858.880                    22072860.360
      2847.906        2219.146          48.050          45.150    86618690.977 8
  22072862.760        2126.786          51.450


 123693048.423 7  96384174.32447  23538016.600                    23538020.000
     -2949.383       -2298.225          44.250          44.650    92368167.367 8
  23538021.040       -2202.386          48.950


 139519531.748 7                  26549677.640
      3085.416                          45.700                   104186719.643 7
  26549685.520        2304.050          46.800   106904606.847 7  26549679.460
      2363.988          45.200   105545667.897 8  26549683.040        2334.131
        49.000
 122314066.139 8                  23275594.460
       230.346                          51.550                    91338431.993 9
  23275599.020         172.034          54.500    93721160.448 9  23275596.740
       176.545          55.350    92529799.876 9  23275598.280         174.278
        57.750
 124483732.836 8                  23688474.640
     -2147.163                          49.600                    92958627.248 8
  23688480.900       -1603.517          49.700    95383630.716 8  23688477.900
     -1645.254          50.250    94171129.633 8  23688479.820       -1624.344
        52.800
 135738456.693 8                  25830169.460
      2368.869                          48.350                   101363153.701 8
  25830173.400        1768.950          49.250   104007401.097 8  25830170.920
      1815.033          48.950   102685270.557 8  25830173.340        1791.938
        52.100
 147165006.656 7                  28004582.940
     -1894.382                          42.050                   109895945.381 7
  28004590.880       -1414.708          42.450   112762783.567 6  28004585.620
     -1451.491          40.600   111329362.634 7  28004589.880       -1433.041
        44.600
 132516569.711 8                  25217058.780
     -1720.726                          50.850                    98957206.162 8
  25217062.740       -1285.021          49.400   101538684.778 8  25217058.860
     -1318.546          50.550   100247937.622 8  25217061.340       -1301.790
        52.750
 124983445.833 8                  23783547.940
      1209.480                          52.600                    93331853.953 8
  23783552.360         903.134          52.500    95766578.018 9  23783549.900
       926.699          54.000    94549214.640 9  23783551.740         914.913
        56.050
 148159488.747 6                  28193815.040
       338.055                          40.100                   110638602.724 6
  28193822.940         252.663          41.850   113524813.704 6  28193818.040
       259.222          39.950   112081709.876 7  28193821.160         255.820
        44.100
 23 12 16 11 20  0.0000000  0 20G05G13G14G15G17G18G19G20G22G23G24G30
                                E02E03E05E08E13E24E25E26
 120335429.743 7  93767837.36447  22899084.720                    22899085.080
     -3428.075       -2671.231          46.950          46.550



 105791892.481 8  82435226.32748  20131530.980                    20131529.600
     -1075.443        -838.009          50.000          49.950



 113204795.345 8  88211552.96947  21542145.920                    21542145.300
     -1531.939       -1193.721          49.400          47.100    84536095.731 8
  21542150.380       -1143.924          51.800


 106190697.674 8  82745996.61148  20207422.700                    20207421.260
      1126.150         877.520          51.200          51.050



 126396417.147 7  98490737.80447  24052431.920                    24052436.400
      2423.878        1888.746          45.400          45.550



 133056648.102 6 103680479.98345  25319853.120                    25319856.140
     -2340.879       -1824.062          36.900          33.700    99360478.292 6
  25319861.080       -1748.094          41.150


 133927872.473 6 104359398.54145  25485627.260                    25485630.340
      3262.607        2542.279          36.250          32.450



 133470883.669 5 104003231.06445  25398692.860                    25398699.320
     -3761.645       -2931.141          35.250          34.200



 110866923.079 8  86389844.62947  21097262.200                    21097260.140
      -430.103        -335.146          51.700          47.650



 121569559.052 7  94729495.48147  23133920.140                    23133920.580
      2225.738        1734.343          45.000          42.350    90782468.177 8
  23133926.140        1662.104          48.850


 115908366.903 7  90318245.70647  22056626.720                    22056628.100
      2838.565        2211.867          47.650          45.000    86554992.165 8
  22056630.560        2119.769          51.250


 123781591.091 7  96453168.44947  23554865.700                    23554869.360
     -2953.670       -2301.565          45.100          45.250    92434286.707 8
  23554870.760       -2205.632          49.550


 139427038.011 7                  26532076.560
      3080.603                          46.100                   104117649.809 7
  26532084.480        2300.544          46.800   106833735.159 7  26532078.260
      2360.473          45.100   105475697.142 8  26532081.900        2330.464
        49.050
 122307303.297 8                  23274307.580
       220.292                          51.450                    91333381.802 9
  23274312.160         164.523          54.650    93715978.520 9  23274309.940
       168.822          55.350    92524683.812 9  23274311.380         166.684
        57.900
 124548258.421 8                  23700753.440
     -2154.553                          49.300                    93006811.877 8
  23700759.940       -1608.970          49.850    95433072.348 8  23700757.040
     -1650.901          50.200    94219942.765 8  23700758.620       -1629.910
        52.950
 135667450.727 8                  25816657.580
      2364.724                          48.600                   101310129.789 8
  25816661.520        1765.914          49.450   103952993.938 8  25816658.320
      1812.011          48.450   102631555.023 8  25816661.320        1788.932
        52.150
 147222000.448 6                  28015428.440
     -1905.206                          41.750                   109938505.574 7
  28015436.220       -1422.705          42.050   112806454.047 6  28015431.120
     -1459.830          40.750   111372477.964 7  28015435.500       -1441.187
        44.550
 132568358.793 8                  25226913.940
     -1731.951                          50.700                    98995879.777 8
  25226917.900       -1293.286          49.300   101578367.274 8  25226914.180
     -1326.984          50.450   100287115.680 8  25226916.500       -1310.161
        52.750
 124947362.634 8                  23776681.740
      1195.950                          52.450                    93304908.701 8
  23776685.820         893.080          52.550    95738929.846 9  23776683.660
       916.395          54.150    94521917.924 9  23776685.340         904.751
        56.200
 148149566.328 6                  28191926.700
       323.276                          39.300                   110631193.100 6
  28191934.900         241.291          41.750   113517210.787 6  28191929.960
       247.632          40.250   112074203.605 7  28191933.180         244.421
        44.100
 23 12 16 11 20 30.0000000  0 20G05G13G14G15G17G18G19G20G22G23G24G30
                                E02E03E05E08E13E24E25E26
 120438394.388 7  93848069.46547  22918678.340                    22918678.840
     -3436.150       -2677.522          46.850          46.850



 105824360.168 8  82460525.79148  20137709.400                    20137707.840
     -1089.429        -848.907          50.000          49.950



 113250997.201 8  88247554.36247  21550937.860                    21550937.120
     -1548.336       -1206.497          49.250          47.700    84570597.060 8
  21550942.340       -1156.287          52.000


 106157161.320 8  82719864.38748  20201041.000                    20201039.400
      1109.333         864.415          51.100          51.250



 126323821.029 7  98434169.74647  24038617.140                    24038621.620
      2415.391        1882.135          44.550          43.800



 133127015.291 6 103735311.53945  25333243.720                    25333246.260
     -2350.440       -1831.507          36.700          35.200    99413025.174 7
  25333251.700       -1755.048          42.200


 133829960.947 6 104283103.89845  25466995.440                    25466997.900
      3264.746        2543.950          37.400          34.150



 133583688.313 5 104091130.27544  25420159.020                    25420165.120
     -3758.771       -2928.935          35.850          27.950



 110880096.328 8  86400109.47047  21099769.040                    21099766.980
      -448.387        -349.394          51.450          47.850



 121503020.925 7  94677647.58047  23121258.480                    23121258.880
      2209.919        1722.014          45.100          43.400    90732780.599 8
  23121264.420        1650.298          49.150


 115823332.665 7  90251985.21247  22040445.220                    22040446.500
      2830.104        2205.274          47.550          45.250    86491492.517 8
  22040449.020        2113.465          51.400


 123870246.561 7  96522250.50947  23571736.620                    23571740.060
     -2957.056       -2304.203          45.350          45.000    92500490.301 8
  23571742.080       -2208.062          50.250


 139334673.135 7                  26514500.020
      3076.779                          45.600                   104048676.177 7
  26514507.860        2297.585          47.250   106762962.191 7  26514501.680
      2357.520          45.050   105405823.841 8  26514505.280        2327.589
        49.200
 122300829.451 8                  23273075.700
       211.187                          51.550                    91328547.432 9
  23273080.340         157.704          54.950    93711018.033 9  23273078.000
       161.838          55.200    92519786.383 9  23273079.480         159.767
        57.850
 124612987.995 8                  23713071.180
     -2160.949                          49.400                    93055148.845 8
  23713077.580       -1613.662          50.250    95482670.291 8  23713074.900
     -1655.750          50.100    94268910.222 8  23713076.320       -1634.752
        53.000
 135596551.969 8                  25803166.120
      2361.679                          48.700                   101257185.943 8
  25803170.220        1763.577          49.950   103898668.928 7  25803166.200
      1809.604          47.800   102577920.593 8  25803169.620        1786.596
        51.950
 147279302.001 7                  28026332.580
     -1914.942                          42.250                   109981295.615 7
  28026340.100       -1430.063          43.050   112850360.367 6  28026335.260
     -1467.429          40.600   111415826.151 7  28026339.720       -1448.807
        44.900
 132620467.296 8                  25236829.860
     -1742.090                          50.450                    99034791.926 8
  25236833.840       -1300.944          49.600   101618294.525 8  25236830.340
     -1334.854          50.350   100326535.377 8  25236832.440       -1317.909
        52.750
 124911669.290 8                  23769889.700
      1183.420                          52.550                    93278254.575 8
  23769893.600         883.725          52.850    95711580.395 9  23769891.660
       906.757          54.050    94494916.137 9  23769893.120         895.239
        56.200
 148140085.760 6                  28190122.300
       308.913                          38.500                   110624113.404 6
  28190130.860         230.671          41.500   113509946.398 6  28190126.180
       236.630          40.300   112067031.550 7  28190129.020         233.707
        43.750
 23 12 16 11 21  0.0000000  0 20G05G13G14G15G17G18G19G20G22G23G24G30
                                E02E03E05E08E13E24E25E26
 120541615.350 7  93928501.29547  22938320.640                    22938321.240
     -3445.141       -2684.528          46.750          46.550



 105857264.384 8  82486165.41748  20143970.860                    20143969.180
     -1104.164        -860.388          50.350          49.900



 113297708.788 8  88283952.94647  21559826.760                    21559825.960
     -1565.635       -1219.977          49.400          47.150    84605479.019 8
  21559831.340       -1169.108          51.850


 106124148.691 8  82694140.26548  20194758.920                    20194757.340
      1091.617         850.611          50.950          50.900



 126251494.310 7  98377811.61847  24024853.560                    24024857.920
      2406.308        1875.058          44.500          44.500



 133197676.303 6 103790372.01045  25346690.080                    25346692.460
     -2360.552       -1839.390          37.350          33.950    99465791.428 7
  25346698.120       -1762.667          42.850


 133732014.119 6 104206781.57645  25448356.800                    25448358.940
      3265.409        2544.468          37.800          31.150



 133696399.730 5 104178956.85945  25441607.520                    25441613.800
     -3755.893       -2926.690          34.750          31.150



 110893832.733 8  86410813.13847  21102382.940                    21102381.020
      -467.325        -364.150          51.400          47.750



 121436974.830 7  94626183.09847  23108690.320                    23108690.940
      2193.108        1708.916          45.400          43.250    90683460.465 8
  23108696.340        1637.839          49.100


 115738568.173 7  90185934.90947  22024315.080                    22024316.220
      2820.813        2198.035          47.550          45.050    86428194.306 8
  22024318.780        2106.498          51.300


 123959015.726 7  96591421.15047  23588629.060                    23588632.520
     -2961.007       -2307.282          45.800          46.100    92566778.792 8
  23588635.080       -2211.040          50.200


 139242440.349 7                  26496948.340
      3072.084                          45.800                   103979801.181 7
  26496956.420        2294.136          46.800   106692290.445 7  26496950.280
      2353.921          45.350   105336050.470 8  26496953.780        2324.028
        49.150
 122294647.201 8                  23271899.300
       201.068                          51.400                    91323930.807 9
  23271903.980         150.165          54.800    93706280.978 9  23271901.420
       154.106          55.000    92515109.548 9  23271903.040         152.136
        57.900
 124677923.076 8                  23725428.060
     -2168.033                          49.950                    93103639.264 8
  23725434.420       -1618.966          50.050    95532425.696 8  23725431.800
     -1661.211          49.900    94318033.134 8  23725433.140       -1640.118
        53.000
 135525763.402 8                  25789695.560
      2357.672                          49.150                   101204324.370 8
  25789699.960        1760.606          49.800   103844428.334 7  25789695.180
      1806.593          47.400   102524369.509 8  25789698.800        1783.650
        51.900
 147336911.436 7                  28037295.360
     -1925.523                          42.850                   110024315.542 7
  28037302.860       -1437.888          42.750   112894502.569 6  28037298.240
     -1475.452          41.150   111459407.212 7  28037302.640       -1456.647
        45.200
 132672895.645 8                  25246806.580
     -1753.022                          50.350                    99073942.907 8
  25246810.700       -1309.043          49.200   101658466.846 8  25246807.360
     -1343.227          50.200   100366197.030 8  25246809.240       -1326.149
        52.700
 124876368.132 8                  23763172.240
      1170.084                          52.750                    93251893.311 8
  23763176.060         873.766          52.750    95684531.450 8  23763174.220
       896.548          53.950    94468211.030 9  23763175.520         885.174
        56.350
 148131049.065 6                  28188402.500
       293.871                          38.400                   110617365.187 6
  28188411.120         219.361          40.850   113503022.134 6  28188406.880
       225.146          40.300   112060195.320 7  28188409.260         222.157
        43.700
 23 12 16 11 21 30.0000000  0 20G05G13G14G15G17G18G19G20G22G23G24G30
                                E02E03E05E08E13E24E25E26
 120645085.130 7  94009127.01047  22958010.420                    22958011.120
     -3453.339       -2690.917          46.800          46.350



 105890600.471 8  82512141.56448  20150314.540                    20150312.740
     -1118.604        -871.641          50.150          49.300



 113344923.732 8  88320743.74847  21568811.420                    21568810.620
     -1582.366       -1233.015          49.200          47.350    84640736.869 8
  21568816.140       -1181.670          52.050


 106091656.728 8  82668821.86048  20188575.760                    20188574.440
      1074.176         837.021          50.400          50.250



 126179434.936 7  98321661.79447  24011140.900                    24011145.320
      2397.157        1867.927          43.700          43.800



 133268623.418 6 103845655.39846  25360191.020                    25360192.820
     -2369.994       -1846.752          37.500          36.500    99518771.353 7
  25360199.160       -1769.747          43.650


 133634030.173 6 104130430.47046  25429711.100                    25429713.200
      3266.402        2545.253          37.850          37.200



 133809011.002 5 104266705.32945  25463036.980                    25463043.520
     -3752.402       -2923.972          34.950          34.800



 110908126.929 8  86421951.44947  21105102.920                    21105101.160
      -485.946        -378.660          51.100          47.750



 121371418.436 7  94575100.20247  23096215.420                    23096216.180
      2176.868        1696.261          45.100          43.900    90634506.023 8
  23096221.460        1625.504          49.250


 115654069.956 7  90120092.10447  22008235.520                    22008236.660
      2811.941        2191.122          47.350          44.900    86365094.949 8
  22008239.300        2099.827          51.650


 124047892.838 7  96660675.92547  23605542.120                    23605545.620
     -2964.489       -2309.995          46.100          45.900    92633147.925 8
  23605548.500       -2213.729          50.250


 139150336.473 7                  26479421.320
      3067.723                          46.400                   103911022.431 7
  26479429.480        2290.813          47.100   106621717.447 7  26479423.320
      2350.610          45.050   105266374.597 8  26479426.940        2320.743
        49.150
 122288752.549 8                  23270777.620
       191.552                          51.600                    91319528.955 9
  23270782.360         143.006          55.000    93701764.291 9  23270779.600
       146.739          55.000    92510650.276 9  23270781.320         144.856
        57.950
 124743058.657 8                  23737823.200
     -2174.773                          49.900                    93152279.410 8
  23737829.280       -1623.967          50.150    95582334.724 8  23737826.780
     -1666.323          50.000    94367307.718 8  23737828.140       -1645.138
        53.000
 135455081.406 8                  25776245.280
      2354.107                          49.050                   101151542.386 8
  25776250.000        1757.929          49.800   103790269.416 7  25776244.660
      1803.753          47.300   102470899.058 8  25776248.220        1780.813
        51.700
 147394822.253 6                  28048315.560
     -1935.640                          41.750                   110067560.510 7
  28048323.060       -1445.418          42.750   112938875.691 6  28048318.800
     -1483.020          41.850   111503216.253 7  28048322.820       -1464.167
        45.400
 132725637.756 8                  25256842.940
     -1763.408                          50.000                    99113328.197 8
  25256847.220       -1316.848          49.250   101698879.582 8  25256844.020
     -1351.242          50.150   100406096.043 8  25256845.740       -1334.070
        52.550
 124841454.956 8                  23756528.540
      1157.111                          52.600                    93225821.785 8
  23756532.500         864.074          52.950    95657779.795 9  23756530.580
       886.601          54.000    94441799.441 9  23756531.740         875.342
        56.300
 148122451.863 6                  28186766.480
       278.909                          39.050                   110610945.113 7
  28186775.420         208.463          42.500   113496434.608 6  28186771.300
       213.871          40.900   112053691.514 7  28186773.380         211.101
        44.700
 23 12 16 11 22  0.0000000  0 20G05G13G14G15G17G18G19G20G22G23G24G30
                                E02E03E05E08E13E24E25E26
 120748809.414 7  94089951.05047  22977748.480                    22977749.200
     -3461.862       -2697.557          46.700          46.750



 105924377.346 8  82538461.18448  20156742.080                    20156740.240
     -1133.550        -883.287          50.200          49.650



 113392649.446 8  88357932.55747  21577893.340                    21577892.560
     -1599.595       -1246.439          49.550          46.450    84676376.134 8
  21577898.120       -1194.528          52.250


 106059695.886 8  82643917.31248  20182493.740                    20182492.600
      1056.165         822.985          50.850          50.850



 126107654.827 7  98265729.57447  23997481.220                    23997485.520
      2387.704        1860.559          43.750          43.950



 133339862.852 6 103901166.57445  25373747.560                    25373749.480
     -2379.849       -1854.435          37.900          35.150    99571969.561 7
  25373755.700       -1777.062          44.050


 133536020.913 6 104054059.50945  25411060.540                    25411062.720
      3267.148        2545.830          39.050          35.500



 133921528.847 6 104354380.87445  25484448.800                    25484455.960
     -3749.380       -2921.615          37.700          34.500



 110922987.000 8  86433530.70747  21107930.560                    21107929.000
      -505.096        -393.582          51.000          47.600



 121306363.155 7  94524407.77547  23083835.860                    23083836.780
      2159.806        1682.965          44.850          44.400    90585925.769 8
  23083841.960        1612.843          49.650


 115569848.178 7  90054464.72647  21992208.500                    21992209.860
      2802.512        2183.774          46.850          46.100    86302202.053 8
  21992212.360        2092.739          51.850


 124136886.086 7  96730021.19747  23622477.080                    23622480.980
     -2968.660       -2313.246          45.050          45.100    92699603.792 8
  23622483.960       -2216.860          50.250


 139058372.025 7                  26461920.900
      3062.737                          45.750                   103842347.766 7
  26461928.900        2287.213          47.300   106551251.267 7  26461923.160
      2346.899          45.250   105196804.175 8  26461926.600        2316.996
        49.350
 122283155.319 8                  23269712.580
       181.361                          51.850                    91315349.201 9
  23269717.400         135.415          55.150    93697475.502 9  23269714.480
       138.977          55.200    92506416.003 9  23269716.200         137.200
        58.050
 124808403.476 8                  23750258.120
     -2181.994                          50.000                    93201075.797 8
  23750263.960       -1629.401          50.000    95632404.070 8  23750261.540
     -1671.882          50.100    94416740.588 8  23750262.980       -1650.655
        52.950
 135384516.222 8                  25762817.100
      2349.860                          48.450                   101098847.618 8
  25762822.080        1754.877          49.550   103736199.996 7  25762816.560
      1800.513          47.700   102417516.959 8  25762819.900        1777.722
        51.650
 147453041.769 6                  28059394.320
     -1946.113                          41.950                   110111036.015 7
  28059401.880       -1453.229          42.600   112983485.348 7  28059398.100
     -1491.080          42.300   111547258.831 7  28059401.740       -1472.063
        45.300
 132778701.306 8                  25266940.460
     -1774.345                          50.000                    99152953.517 8
  25266944.960       -1325.013          49.300   101739538.614 8  25266941.820
     -1359.647          50.100   100446238.215 8  25266943.420       -1342.309
        52.550
 124806939.347 8                  23749960.380
      1143.569                          52.450                    93200047.136 8
  23749964.600         853.968          53.200    95631332.766 9  23749962.520
       876.254          54.100    94415688.603 9  23749963.640         865.100
        56.400
 148114303.437 6                  28185216.360
       263.818                          39.400                   110604860.182 7
  28185225.060         197.172          42.850   113490190.966 6  28185221.060
       202.153          41.100   112047527.225 7  28185222.960         199.649
        44.800
 23 12 16 11 22 30.0000000  0 20G05G13G14G15G17G18G19G20G22G23G24G30
                                E02E03E05E08E13E24E25E26
 120852774.340 7  94170962.60847  22997532.460                    22997533.260
     -3469.536       -2703.538          46.350          46.150



 105958583.215 8  82565115.08248  20163251.240                    20163249.420
     -1147.542        -894.189          50.200          49.950



 113440872.479 8  88395508.89347  21587069.920                    21587069.240
     -1615.876       -1259.126          49.550          46.900    84712386.782 8
  21587074.740       -1206.717          52.250


 106028256.054 8  82619418.74048  20176511.000                    20176509.840
      1039.107         809.694          51.050          51.100



 126036145.379 7  98210008.25547  23983873.100                    23983877.480
      2378.703        1853.547          43.400          43.400



 133411380.098 6 103956894.20445  25387357.020                    25387358.640
     -2388.334       -1861.041          36.650          33.300    99625375.171 7
  25387364.940       -1783.873          43.400


 133437977.838 6 103977662.22445  25392403.640                    25392405.760
      3268.305        2546.733          36.900          33.950



 134033939.810 6 104441973.12245  25505840.800                    25505847.720
     -3745.658       -2918.707          36.200          31.450



 110938400.510 8  86445541.21448  21110863.580                    21110862.140
      -523.258        -407.733          50.650          48.150



 121241799.671 7  94474098.57147  23071549.900                    23071550.960
      2143.515        1670.271          45.550          45.100    90537712.773 8
  23071556.080        1600.734          49.700


 115485892.444 7  89989044.67347  21976232.140                    21976233.800
      2793.863        2177.038          46.950          45.950    86239507.842 8
  21976236.000        2086.264          51.600


 124225982.758 7  96799447.05247  23639431.540                    23639435.700
     -2971.739       -2315.645          44.050          44.200    92766136.900 8
  23639438.800       -2219.265          49.700


 138966536.778 7                  26444444.920
      3058.682                          45.700                   103773769.636 7
  26444453.040        2284.141          46.900   106480884.130 7  26444447.600
      2343.688          45.800   105127331.542 8  26444450.800        2313.875
        49.600
 122277844.567 8                  23268701.980
       171.910                          51.500                    91311383.372 9
  23268706.940         128.406          55.000    93693406.218 9  23268703.960
       131.778          55.250    92502398.448 9  23268705.580         130.075
        58.250
 124873945.545 8                  23762730.520
     -2188.304                          49.900                    93250019.491 8
  23762736.200       -1634.129          49.800    95682624.567 8  23762733.820
     -1676.687          50.350    94466322.687 8  23762735.360       -1655.412
        53.150
 135314057.319 7                  25749409.020
      2346.573                          47.850                   101046232.231 8
  25749414.140        1752.241          48.800   103682212.015 8  25749408.900
      1798.021          48.050   102364215.274 8  25749411.880        1775.132
        51.700
 147511556.560 7                  28070529.400
     -1955.654                          42.000                   110154732.027 7
  28070536.820       -1460.489          42.400   113028321.262 7  28070533.600
     -1498.539          42.600   111591524.799 7  28070536.760       -1479.561
        45.700
 132832073.236 8                  25277096.700
     -1784.437                          49.700                    99192809.110 8
  25277101.320       -1332.550          49.050   101780433.918 8  25277098.200
     -1367.295          50.000   100486613.668 8  25277099.780       -1349.923
        52.650
 124772810.125 8                  23743465.680
      1130.942                          52.200                    93174561.023 8
  23743470.280         844.528          53.100    95605181.796 9  23743467.940
       866.552          54.050    94389870.060 9  23743469.060         855.547
        56.700
 148106592.392 6                  28183749.420
       249.532                          41.150                   110599101.882 7
  28183757.600         186.212          42.100   113484282.447 6  28183753.760
       191.199          41.300   112041693.820 7  28183755.800         188.682
        44.950
 23 12 16 11 23  0.0000000  0 19G05G13G14G15G17G18G19G22G23G24G30E02
                                E03E05E08E13E24E25E26
 120956987.684 7  94252167.72247  23017363.520                    23017364.720
     -3477.193       -2709.503          46.600          46.850



 105993229.385 8  82592112.05948  20169844.220                    20169842.420
     -1161.422        -905.006          50.350          50.050



 113489602.644 8  88433480.39947  21596343.040                    21596342.520
     -1632.056       -1271.732          49.650          46.800    84748776.124 8
  21596347.920       -1218.713          52.450


 105997350.255 8  82595336.30548  20170629.920                    20170628.700
      1021.966         796.337          51.350          51.400



 125964921.106 7  98154509.10047  23970319.220                    23970323.420
      2369.975        1846.743          43.200          43.500



 133483183.686 6 104012844.91146  25401020.860                    25401022.200
     -2397.263       -1868.002          37.200          36.700    99678994.577 7
  25401028.780       -1790.428          43.750


 133339914.913 5 103901249.47645  25373742.560                    25373745.420
      3270.057        2548.094          34.450          32.500



 110954378.356 8  86457991.45948  21113904.000                    21113902.700
      -541.349        -421.830          50.600          48.300



 121177741.855 7  94424183.39047  23059360.140                    23059361.320
      2127.501        1657.793          45.900          44.700    90489877.386 8
  23059366.460        1588.697          50.200


 115402215.395 7  89923841.78447  21960308.880                    21960310.780
      2785.302        2170.365          47.600          46.600    86177021.734 8
  21960312.620        2079.948          51.450


 124315193.465 7  96868961.78247  23656407.580                    23656411.660
     -2974.904       -2318.111          43.850          43.200    92832755.125 8
  23656415.340       -2221.509          49.850


 138874843.740 7                  26426996.200
      3054.792                          45.800                   103705297.654 7
  26427004.260        2281.150          46.750   106410625.905 7  26426999.120
      2340.696          45.750   105057966.437 8  26427002.100        2310.910
        49.200
 122272832.543 8                  23267748.160
       162.786                          51.350                    91307640.622 9
  23267753.300         121.545          55.050    93689565.832 9  23267750.260
       124.707          55.050    92498606.880 9  23267751.820         123.141
        57.850
 124939696.083 8                  23775242.620
     -2194.400                          49.800                    93299118.866 8
  23775247.900       -1638.712          49.550    95733004.800 8  23775245.700
     -1681.492          50.200    94516062.485 8  23775247.360       -1660.112
        52.700
 135243717.363 7                  25736023.600
      2343.356                          47.900                   100993705.648 8
  25736028.640        1749.964          48.600   103628315.186 8  25736023.940
      1795.517          48.250   102311003.570 8  25736026.620        1772.697
        51.250
 147570376.372 6                  28081722.480
     -1964.997                          41.800                   110198655.802 7
  28081730.120       -1467.432          42.400   113073390.883 7  28081727.120
     -1505.555          42.650   111636021.496 7  28081729.880       -1486.547
        45.350
 132885763.650 8                  25287313.680
     -1794.304                          49.950                    99232902.522 8
  25287318.320       -1339.873          49.100   101821573.251 8  25287315.180
     -1374.795          49.700   100527230.040 8  25287316.780       -1357.334
        52.100
 124739079.284 8                  23737046.740
      1118.462                          52.200                    93149372.405 8
  23737051.660         835.146          53.350    95579336.083 8  23737049.120
       856.965          53.850    94364352.897 9  23737050.300         846.059
        56.350
 148099330.504 6                  28182368.040
       235.206                          41.500                   110593679.009 6
  28182375.160         175.570          41.300   113478718.111 6  28182371.800
       180.264          41.300   112036200.218 7  28182374.000         177.849
        44.200
 23 12 16 11 23 30.0000000  0 20G05G13G14G15G17G18G19G20G22G23G24G30
                                E02E03E05E08E13E24E25E26
 121061431.740 7  94333552.63147  23037238.640                    23037239.920
     -3485.233       -2715.770          46.050          45.850



 106028300.307 8  82619440.01948  20176518.080                    20176516.320
     -1176.072        -916.422          50.850          49.800



 113538822.825 8  88471833.73547  21605709.360                    21605709.120
     -1648.789       -1284.773          49.550          46.650    84785531.403 8
  21605714.280       -1231.347          52.400


 105966964.421 8  82571659.03648  20164847.720                    20164846.600
      1004.229         782.518          51.350          50.950



 125893969.380 7  98099222.32847  23956817.180                    23956821.580
      2360.327        1839.227          42.650          42.350



 133555255.308 6 104069004.54445  25414735.620                    25414737.060
     -2406.608       -1875.278          38.000          34.900    99732814.196 7
  25414743.620       -1797.380          44.150


 133241820.012 6 103824807.69745  25355075.340                    25355078.880
      3270.575        2548.496          36.100          33.650



 134258625.685 6 104617144.74545  25548565.800                    25548572.540
     -3737.753       -2912.573          38.650          34.750



 110970903.887 8  86470868.48048  21117048.720                    21117047.460
      -559.992        -436.358          50.850          48.200



 121114176.623 7  94374652.03447  23047264.120                    23047265.380
      2110.700        1644.701          45.900          44.750    90442409.836 8
  23047270.580        1576.042          50.400


 115318802.821 8  89858845.00247  21944436.000                    21944438.040
      2775.947        2163.078          48.000          46.150    86114733.151 8
  21944439.500        2072.877          51.200


 124404501.846 7  96938552.59847  23673402.160                    23673406.440
     -2978.657       -2321.036          43.950          43.650    92899446.299 8
  23673410.020       -2224.263          48.900


 138783278.940 7                  26409571.840
      3049.873                          45.600                   103636921.423 7
  26409579.860        2277.533          47.000   106340465.954 7  26409575.180
      2336.912          46.100   104988698.343 8  26409577.900        2307.229
        49.500
 122268104.574 8                  23266848.440
       152.962                          51.700                    91304109.995 9
  23266853.640         114.116          54.950    93685943.097 9  23266850.540
       117.075          55.050    92495030.199 9  23266852.120         115.595
        57.800
 125005639.361 8                  23787791.380
     -2201.455                          50.150                    93348362.152 8
  23787796.480       -1643.917          49.350    95783532.708 8  23787794.340
     -1686.789          50.300    94565948.085 8  23787796.000       -1665.343
        52.650
 135173482.138 8                  25722658.180
      2339.329                          48.300                   100941257.275 8
  25722663.000        1746.906          48.400   103574498.601 8  25722658.940
      1792.461          48.450   102257871.090 8  25722661.360        1769.721
        51.300
 147629484.041 6                  28092970.340
     -1975.107                          41.700                   110242794.525 7
  28092978.220       -1474.992          42.350   113118681.062 7  28092975.360
     -1513.447          42.350   111680735.947 7  28092977.720       -1494.228
        45.250
 132939755.760 8                  25297588.100
     -1804.861                          50.300                    99273221.233 8
  25297592.660       -1347.824          49.050   101862943.769 8  25297589.480
     -1382.978          49.550   100568074.649 8  25297591.200       -1365.376
        52.050
 124705731.909 8                  23730700.740
      1105.159                          52.150                    93124470.136 8
  23730705.980         825.235          53.250    95553784.194 8  23730703.200
       846.762          53.850    94339125.818 9  23730704.500         836.004
        56.300
 148092502.610 6                  28181068.980
       220.370                          41.600                   110588580.224 6
  28181075.420         164.595          41.600   113473486.334 6  28181072.540
       168.771          41.050   112031034.935 7  28181074.780         166.632
        44.200
 23 12 16 11 24  0.0000000  0 19G05G13G14G15G17G18G19G22G23G24G30E02
                                E03E05E08E13E24E25E26
 121166116.752 7  94415125.27547  23057159.520                    23057161.220
     -3493.094       -2721.894          45.850          45.950



 106063809.617 8  82647109.58248  20183275.300                    20183273.660
     -1190.639        -927.771          50.250          49.550



 113588545.200 8  88510578.39647  21615171.260                    21615171.240
     -1665.513       -1297.805          49.450          46.350    84822661.679 8
  21615176.160       -1243.701          52.150


 105937114.175 8  82548399.11448  20159167.380                    20159166.400
       986.433         768.649          50.800          50.750



 125823306.939 6  98044160.94147  23943370.180                    23943374.460
      2350.606        1831.649          41.950          42.000



 133627606.076 6 104125381.62346  25428503.680                    25428505.360
     -2415.992       -1882.598          38.800          38.100    99786842.228 7
  25428511.420       -1804.173          43.250


 133143709.940 5 103748358.04745  25336405.680                    25336408.440
      3271.175        2548.959          35.850          34.400



 110987990.315 8  86484182.56748  21120300.240                    21120299.000
      -578.543        -450.812          50.950          48.100



 121051120.244 7  94325517.18047  23035264.920                    23035266.140
      2093.618        1631.390          46.000          43.750    90395322.263 8
  23035271.520        1563.465          50.550


 115235669.870 7  89794066.12447  21928616.360                    21928618.340
      2766.539        2155.747          47.700          46.400    86052653.391 8
  21928619.600        2066.032          51.050


 124493920.855 7  97008229.63947  23690418.100                    23690422.240
     -2982.127       -2323.738          44.350          44.400    92966220.117 8
  23690425.600       -2226.951          48.550


 138691857.805 7                  26392174.880
      3045.184                          45.750                   103568652.467 7
  26392182.740        2274.088          46.750   106270416.064 7  26392178.620
      2333.352          46.350   104919538.918 8  26392181.040        2303.772
        49.750
 122263675.375 8                  23266005.660
       142.908                          51.800                    91300802.454 9
  23266010.760         106.719          54.750    93682549.279 9  23266007.620
       109.495          55.050    92491679.519 9  23266009.280         108.105
        58.000
 125071789.017 8                  23800379.380
     -2208.067                          50.150                    93397759.573 8
  23800384.120       -1648.905          49.050    95834218.757 8  23800382.160
     -1691.948          50.450    94615989.819 8  23800383.900       -1670.422
        52.850
 135103366.730 8                  25709315.720
      2335.570                          48.800                   100888898.377 8
  25709320.260        1743.989          48.350   103520773.816 8  25709316.660
      1789.529          48.700   102204829.251 8  25709318.940        1766.751
        51.700
 147688891.726 6                  28104275.360
     -1984.965                          41.100                   110287157.277 7
  28104283.480       -1482.240          42.250   113164201.137 7  28104280.700
     -1521.007          42.850   111725677.361 7  28104282.760       -1501.553
        45.750
 132994062.130 8                  25307922.480
     -1815.141                          49.950                    99313774.604 8
  25307926.780       -1355.475          48.950   101904555.066 8  25307923.620
     -1390.874          49.350   100609156.987 8  25307925.440       -1373.177
        52.300
 124672782.427 8                  23724430.460
      1091.938                          52.000                    93099864.990 8
  23724435.880         815.419          53.150    95528537.174 8  23724432.980
       836.710          53.850    94314199.737 9  23724434.440         826.055
        56.650
 148086122.886 6                  28179855.120
       205.490                          41.100                   110583816.119 6
  28179861.200         153.356          41.100   113468597.940 6  28179858.760
       157.436          41.900   112026208.674 7  28179860.760         155.492
        44.800
 23 12 16 11 24 30.0000000  0 19G05G13G14G15G17G18G19G22G23G24G30E02
                                E03E05E08E13E24E25E26
 121271031.334 7  94496876.81547  23077124.240                    23077125.960
     -3501.202       -2728.213          45.700          45.600



 106099748.907 8  82675114.19548  20190114.200                    20190112.820
     -1205.304        -939.198          50.050          49.400



 113638759.224 8  88549706.15247  21624726.640                    21624726.840
     -1682.258       -1310.852          49.050          46.650    84860159.094 8
  21624731.500       -1256.231          52.000


 105907792.202 8  82525550.82548  20153587.580                    20153586.580
       968.314         754.531          51.050          51.000



 125752928.033 6  97989320.48946  23929977.120                    23929981.500
      2341.025        1824.183          41.950          41.700



 133700224.187 6 104181967.10046  25442322.620                    25442324.380
     -2425.202       -1889.776          39.300          38.350    99841069.946 7
  25442330.220       -1811.156          43.950


 133045578.955 6 103671892.14645  25317732.320                    25317734.900
      3271.213        2548.986          37.000          33.300



 111005627.987 8  86497926.20447  21123656.660                    21123655.460
      -597.234        -465.378          51.300          47.800



 120988566.188 7  94276773.75047  23023361.280                    23023362.440
      2076.465        1618.024          45.700          43.850    90348609.807 8
  23023367.980        1550.590          50.750


 115152808.899 7  89729499.19547  21912848.420                    21912850.340
      2757.182        2148.455          47.950          46.650    85990776.759 8
  21912851.580        2058.890          51.400


 124583440.849 7  97077985.36247  23707453.320                    23707457.360
     -2985.718       -2326.536          45.000          44.950    93033069.342 8
  23707460.740       -2229.806          49.150


 138600573.028 7                  26374803.860
      3040.188                          45.100                   103500485.326 7
  26374811.780        2270.276          46.900   106200470.640 7  26374807.740
      2329.450          46.250   104850482.644 8  26374810.080        2299.854
        50.000
 122259536.875 8                  23265218.260
       132.755                          51.800                    91297712.004 9
  23265223.140          99.174          54.700    93679378.208 9  23265220.000
       101.744          54.850    92488548.758 9  23265221.740         100.462
        58.050
 125138135.931 8                  23813004.800
     -2215.112                          49.800                    93447304.288 8
  23813009.600       -1654.164          48.950    95885055.947 8  23813007.560
     -1697.347          50.150    94666180.775 8  23813009.280       -1675.776
        52.800
 135033363.557 8                  25695994.660
      2331.243                          49.000                   100836623.287 8
  25695999.000        1740.848          48.450   103467135.034 8  25695995.680
      1786.308          48.600   102151872.317 8  25695997.840        1763.587
        51.850
 147748588.868 6                  28115635.480
     -1995.191                          41.400                   110331736.190 6
  28115643.760       -1489.788          41.900   113209942.981 7  28115641.120
     -1528.653          43.050   111770837.744 7  28115642.880       -1509.265
        45.800
 133048672.595 8                  25318314.700
     -1825.783                          49.850                    99354555.068 8
  25318318.740       -1363.374          48.900   101946399.376 8  25318315.600
     -1398.943          49.000   100650469.372 8  25318317.540       -1381.146
        52.250
 124640222.495 8                  23718234.380
      1078.576                          52.000                    93075550.751 8
  23718239.860         805.387          53.100    95503588.647 8  23718236.880
       826.430          53.650    94289568.354 9  23718238.500         815.899
        56.650
 148080182.741 6                  28178724.720
       190.496                          39.850                   110579380.218 6
  28178730.720         142.145          41.050   113464046.318 7  28178728.800
       145.936          42.350   112021714.919 7  28178730.320         144.025
        44.850
 23 12 16 11 25  0.0000000  0 20G05G10G13G14G15G17G18G19G22G23G24G30
                                E02E03E05E08E13E24E25E26
 121376179.238 7  94578810.13747  23097133.240                    23097135.100
     -3508.955       -2734.255          46.200          46.150



 136305447.226 5 106212055.34945  25938065.040                    25938067.760
      3388.233        2640.170          35.700          35.300   101786546.805 7
  25938067.820        2530.084          42.450


 106136123.963 8  82703458.36048  20197036.040                    20197034.920
     -1220.062        -950.699          50.100          49.650



 113689469.313 8  88589220.45347  21634376.440                    21634376.720
     -1698.840       -1323.772          49.100          46.450    84898026.951 8
  21634381.100       -1268.627          51.850


 105879005.948 8  82503119.97448  20148109.700                    20148108.720
       950.428         740.592          50.850          50.750



 125682841.659 7  97934707.96247  23916640.040                    23916644.260
      2331.008        1816.377          42.800          42.700



 133773112.974 6 104238763.46146  25456193.060                    25456194.880
     -2434.574       -1897.075          39.500          38.250    99895499.733 7
  25456200.680       -1817.852          44.550


 132947436.325 6 103595417.19546  25299056.980                    25299059.720
      3271.329        2549.083          38.300          37.950



 111023822.200 8  86512103.51248  21127119.000                    21127117.780
      -616.015        -480.012          51.450          48.100



 120926522.935 7  94228428.34247  23011554.820                    23011556.040
      2059.268        1604.624          45.550          43.850    90302278.794 8
  23011561.560        1537.786          50.850


 115070227.262 7  89665149.93347  21897133.660                    21897135.340
      2747.914        2141.234          47.650          47.150    85929108.728 8
  21897137.000        2051.924          51.900


 124673067.016 7  97147823.78647  23724508.880                    23724512.720
     -2989.511       -2329.495          45.650          45.700    93099997.801 8
  23724516.060       -2232.430          48.850


 138509432.263 7                  26357460.280
      3035.371                          46.150                   103432425.730 7
  26357468.260        2266.606          47.100   106130635.566 7  26357464.560
      2325.820          46.800   104781535.302 8  26357466.540        2296.196
        49.850
 122255695.953 8                  23264487.480
       122.804                          51.850                    91294843.772 9
  23264492.140          91.707          54.800    93676435.150 9  23264489.040
        94.130          55.050    92485643.112 9  23264490.860          92.931
        57.800
 125204685.953 8                  23825668.900
     -2222.067                          49.800                    93497000.676 8
  23825673.720       -1659.258          49.000    95936048.766 8  23825671.660
     -1702.588          50.400    94716525.372 8  23825673.340       -1680.925
        52.600
 134963479.964 8                  25682696.480
      2327.178                          49.250                   100784437.500 8
  25682700.620        1737.799          48.650   103413587.884 8  25682697.440
      1783.107          48.950   102099005.845 8  25682699.440        1760.456
        51.700
 147808579.835 6                  28127051.660
     -2004.801                          41.400                   110376534.540 7
  28127060.000       -1497.112          42.000   113255909.999 7  28127057.300
     -1536.100          43.500   111816220.420 7  28127058.880       -1516.618
        45.600
 133103591.904 8                  25328765.700
     -1836.016                          50.050                    99395566.182 8
  25328769.440       -1371.064          49.000   101988480.351 8  25328766.360
     -1406.864          49.150   100692015.417 8  25328768.420       -1388.957
        51.950
 124608058.735 8                  23712113.720
      1065.227                          51.900                    93051532.341 8
  23712119.160         795.474          53.200    95478943.676 8  23712116.200
       816.226          53.900    94265236.662 9  23712117.940         805.879
        56.400
 148074688.486 6                  28177679.100
       175.373                          41.100                   110575277.301 6
  28177685.220         130.896          41.250   113459836.363 7  28177683.740
       134.396          42.300   112017558.481 7  28177684.780         132.619
        44.550
 23 12 16 11 25 30.0000000  0 20G05G10G13G14G15G17G18G19G22G23G24G30
                                E02E03E05E08E13E24E25E26
 121481556.796 7  94660922.42347  23117186.080                    23117187.860
     -3516.511       -2740.142          46.650          46.750



 136203889.380 7 106132919.05046  25918739.280                    25918742.260
      3381.690        2635.065          42.400          38.650   101710707.779 7
  25918742.180        2525.330          44.550


 106172933.571 8  82732141.13648  20204040.680                    20204039.500
     -1234.684        -962.092          50.150          49.150



 113740673.059 8  88629119.41747  21644120.200                    21644120.360
     -1715.261       -1336.568          49.100          45.700    84936263.450 8
  21644124.640       -1280.940          51.650


 105850756.435 8  82481107.36948  20142734.000                    20142733.080
       932.426         726.565          51.300          51.450



 125613050.250 7  97880325.24647  23903359.020                    23903363.360
      2321.246        1808.769          42.700          42.450



 133846268.888 6 104295767.93646  25470114.200                    25470116.120
     -2443.439       -1903.983          39.200          38.650    99950129.006 7
  25470122.180       -1824.420          44.550


 132849284.208 6 103518934.79846  25280379.660                    25280382.420
      3271.523        2549.229          38.600          37.700



 111042571.260 8  86526713.17147  21130686.860                    21130685.620
      -634.600        -494.493          51.400          47.650



 120864992.108 7  94180482.22547  22999845.880                    22999846.920
      2042.236        1591.353          46.050          43.000    90256330.438 8
  22999852.520        1524.954          50.600


 114987925.498 8  89601018.76447  21881472.140                    21881473.560
      2738.398        2133.819          48.000          46.400    85867649.705 8
  21881475.800        2044.876          52.150


 124762797.816 7  97217743.76547  23741584.360                    23741587.720
     -2993.308       -2332.452          44.550          44.850    93167004.418 8
  23741591.080       -2235.109          48.700


 138418436.355 7                  26340144.460
      3030.493                          46.300                   103364474.327 7
  26340152.280        2262.995          46.900   106060911.526 7  26340148.860
      2321.946          46.950   104712697.577 8  26340150.560        2292.516
        49.750
 122252152.735 8                  23263813.320
       112.785                          51.950                    91292197.844 9
  23263817.880          84.238          54.700    93673720.207 9  23263814.700
        86.404          54.900    92482962.679 9  23263816.620          85.349
        57.700
 125271438.122 8                  23838371.320
     -2228.775                          49.800                    93546848.016 8
  23838376.540       -1664.288          49.100    95987196.474 8  23838374.200
     -1707.800          50.300    94767022.899 8  23838375.860       -1686.062
        52.450
 134893716.475 8                  25669421.140
      2323.040                          49.150                   100732341.411 8
  25669425.120        1734.805          48.650   103360132.762 8  25669422.080
      1780.049          49.000   102046230.241 8  25669423.880        1757.420
        51.700
 147868862.263 6                  28138523.340
     -2014.254                          41.700                   110421550.524 7
  28138531.760       -1504.428          42.000   113302100.320 7  28138528.860
     -1543.634          43.350   111861823.580 7  28138530.300       -1524.075
        45.400
 133158818.072 8                  25339275.040
     -1846.432                          50.050                    99436806.438 8
  25339278.600       -1378.784          48.900   102030796.452 8  25339275.480
     -1414.828          48.850   100733793.595 8  25339277.680       -1396.789
        51.750
 124576290.948 8                  23706068.500
      1052.045                          52.200                    93027809.637 8
  23706073.800         785.620          53.050    95454602.118 8  23706070.900
       806.114          53.750    94241204.531 9  23706072.740         795.853
        56.250
 148069639.755 6                  28176718.600
       160.525                          41.550                   110571507.039 6
  28176724.620         119.836          41.500   113455967.757 6  28176723.260
       123.001          41.950   112013739.048 7  28176724.020         121.430
        44.400
 23 12 16 11 26  0.0000000  0 20G05G10G13G14G15G17G18G19G22G23G24G30
                                E02E03E05E08E13E24E25E26
 121587158.205 7  94743209.14047  23137281.420                    23137283.140
     -3523.948       -2745.937          47.100          47.000



 136102519.701 6 106053929.36046  25899449.600                    25899452.800
      3375.702        2630.410          40.600          39.200   101635009.266 7
  25899452.680        2520.835          44.800


 106210175.487 8  82761160.78748  20211127.680                    20211126.240
     -1248.747        -973.051          50.700          49.050



 113792366.289 8  88669399.81147  21653957.100                    21653957.120
     -1731.370       -1349.122          49.250          45.450    84974865.480 8
  21653961.420       -1292.941          51.700


 105823042.416 8  82459512.02748  20137460.240                    20137459.280
       914.636         712.703          51.450          51.400



 125543554.040 7  97826172.54247  23890134.320                    23890138.580
      2311.272        1800.997          42.900          42.950



 133919686.536 6 104352976.40246  25484085.400                    25484087.600
     -2451.425       -1910.203          40.100          37.800   100004953.789 7
  25484093.320       -1830.849          43.950


 132751123.319 6 103442445.60846  25261700.340                    25261703.500
      3271.852        2549.485          37.250          37.150



 111061871.783 8  86541752.53647  21134359.600                    21134358.300
      -652.741        -508.630          51.200          47.550



 120803973.579 7  94132935.30247  22988234.460                    22988235.440
      2025.317        1578.169          45.950          43.200    90210764.637 8
  22988240.920        1512.343          50.400


 114905902.340 7  89537104.69547  21865863.560                    21865864.880
      2729.261        2126.699          47.850          46.250    85806398.737 8
  21865867.600        2038.100          52.300


 124852629.896 7  97287742.64747  23758678.920                    23758682.120
     -2996.260       -2334.753          44.200          44.500    93234086.647 8
  23758685.320       -2237.424          48.700


 138327584.354 7                  26322855.840
      3025.818                          46.350                   103296630.382 7
  26322863.500        2259.637          47.000   105991297.739 7  26322860.380
      2318.483          46.900   104643968.711 8  26322861.980        2289.049
        50.000
 122248905.504 8                  23263195.440
       103.136                          51.850                    91289772.944 9
  23263199.980          77.009          54.750    93671232.051 9  23263196.720
        79.014          54.850    92480506.152 9  23263198.720          77.996
        57.750
 125338389.673 8                  23851111.640
     -2235.096                          49.700                    93596844.237 8
  23851117.340       -1669.043          49.050    96038496.951 8  23851114.780
     -1712.612          50.250    94817671.245 8  23851116.340       -1690.813
        52.600
 134824071.897 8                  25656168.340
      2319.274                          49.200                   100680334.113 8
  25656172.300        1731.998          48.800   103306768.755 8  25656169.340
      1777.162          49.100   101993544.586 8  25656170.960        1754.574
        51.950
 147929431.925 6                  28150049.480
     -2023.636                          41.800                   110466780.979 6
  28150058.260       -1511.422          41.900   113348510.707 7  28150054.780
     -1550.784          42.700   111907643.993 7  28150056.300       -1531.067
        45.100
 133214347.220 8                  25349841.920
     -1856.107                          49.650                    99478272.952 8
  25349845.400       -1386.026          49.000   102073344.706 8  25349842.200
     -1422.221          48.700   100775800.982 8  25349844.600       -1404.133
        51.850
 124544917.146 8                  23700098.320
      1039.082                          52.200                    93004381.152 8
  23700103.480         775.880          53.200    95430562.454 8  23700100.620
       796.144          53.750    94217470.456 9  23700102.500         786.014
        56.400
 148065034.292 6                  28175842.260
       145.974                          41.900                   110568067.808 6
  28175848.420         109.152          41.150   113452438.825 6  28175846.920
       111.869          41.500   112010254.966 7  28175847.640         110.572
        44.250
 23 12 16 11 26 30.0000000  0 20G05G10G13G14G15G17G18G19G22G23G24G30
                                E02E03E05E08E13E24E25E26
 121692977.756 7  94825665.84047  23157418.480                    23157419.980
     -3531.035       -2751.459          46.800          46.850



 136001337.109 6 105975085.42246  25880195.460                    25880198.720
      3369.531        2625.592          39.700          36.900   101559450.460 7
  25880198.520        2516.237          43.200


 106247846.185 8  82790514.54948  20218296.320                    20218294.600
     -1262.904        -984.082          50.800          49.300



 113844543.877 8  88710057.61347  21663886.180                    21663886.020
     -1747.459       -1361.657          49.150          46.100    85013829.199 8
  21663890.500       -1304.958          51.900


 105795862.106 8  82438332.55948  20132288.060                    20132286.980
       896.935         698.910          51.600          51.550



 125474352.743 7  97772249.65047  23876965.600                    23876970.240
      2301.873        1793.674          42.900          43.600



 133993359.790 6 104410384.02146  25498105.000                    25498107.200
     -2459.823       -1916.751          40.300          38.200   100059969.421 7
  25498113.200       -1837.046          43.550


 132652953.158 6 103365949.10646  25243019.200                    25243022.720
      3272.708        2550.160          37.300          36.400



 111081719.763 8  86557218.48448  21138136.440                    21138135.060
      -670.950        -522.819          50.750          48.050



 120743466.268 7  94085786.74247  22976720.340                    22976721.340
      2008.282        1564.896          46.150          43.150    90165580.600 8
  22976726.540        1499.653          50.300


 114824155.689 7  89473406.10847  21850307.520                    21850308.740
      2719.912        2119.415          47.600          45.850    85745354.262 8
  21850311.900        2031.228          52.350


 124942559.119 7  97357817.21047  23775791.680                    23775795.080
     -2999.553       -2337.319          43.300          43.200    93301241.378 8
  23775798.040       -2239.778          48.650


 138236874.365 7                  26305594.360
      3021.169                          46.600                   103228892.509 7
  26305601.920        2256.036          47.200   105921792.765 7  26305598.940
      2314.904          47.200   104575347.291 8  26305600.360        2285.448
        50.100
 122245951.712 8                  23262633.300
        93.485                          51.750                    91287567.167 9
  23262637.860          69.803          54.750    93668968.733 9  23262634.580
        71.637          54.850    92478271.603 9  23262636.680          70.734
        57.700
 125405537.013 8                  23863889.240
     -2241.574                          49.300                    93646986.677 8
  23863895.520       -1674.004          49.400    96089947.462 8  23863892.580
     -1717.667          50.450    94868467.720 8  23863894.080       -1695.840
        52.700
 134754544.131 8                  25642937.760
      2315.545                          49.000                   100628414.047 8
  25642941.720        1729.122          48.950   103253494.251 8  25642938.800
      1774.193          49.300   101940947.300 8  25642940.260        1751.684
        51.950
 147990283.699 7                  28161629.260
     -2033.303                          42.200                   110512222.126 6
  28161638.420       -1518.471          41.500   113395137.276 7  28161634.280
     -1557.819          42.600   111953677.851 7  28161636.120       -1538.176
        44.700
 133270174.668 8                  25360465.560
     -1866.011                          49.650                    99519962.227 8
  25360469.060       -1393.410          49.150   102116121.535 8  25360465.700
     -1429.782          48.600   100818034.033 8  25360468.300       -1411.599
        51.800
 124513934.479 8                  23694202.620
      1026.055                          52.000                    92981244.737 8
  23694207.620         766.229          53.300    95406822.480 8  23694204.820
       786.210          53.750    94194032.264 9  23694206.700         776.188
        56.350
 148060868.915 6                  28175049.760
       131.551                          40.850                   110564957.216 6
  28175056.020          98.159          41.200   113449247.102 6  28175054.180
       100.768          41.400   112007103.813 7  28175055.060          99.475
        44.150
 23 12 16 11 27  0.0000000  0 20G05G10G13G14G15G17G18G19G22G23G24G30
                                E02E03E05E08E13E24E25E26
 121799017.643 7  94908294.22147  23177597.480                    23177598.740
     -3538.143       -2756.997          46.950          47.050



 135900350.304 6 105896394.08146  25860978.580                    25860981.860
      3363.139        2620.620          40.000          40.000   101484037.782 7
  25860981.700        2511.376          44.850


 106285950.813 8  82820206.43848  20225547.520                    20225545.580
     -1277.166        -995.194          50.850          49.150



 113897209.399 8  88751095.63647  21673908.200                    21673907.680
     -1763.476       -1374.139          49.350          45.600    85053157.279 8
  21673912.660       -1316.848          52.050


 105769222.660 8  82417574.53448  20127218.800                    20127217.440
       879.235         685.118          51.600          51.650



 125405454.846 7  97718563.14247  23863854.700                    23863859.480
      2291.737        1785.775          42.850          42.700



 134067291.016 6 104467992.72346  25512173.640                    25512176.240
     -2468.437       -1923.459          40.900          39.050   100115177.694 7
  25512182.040       -1843.254          45.550


 132554782.240 6 103289451.98845  25224337.980                    25224341.280
      3272.674        2550.128          37.950          34.350



 111102119.517 8  86573114.37447  21142018.240                    21142016.840
      -688.859        -536.774          50.400          47.700



 120683477.820 7  94039042.48947  22965304.900                    22965305.960
      1991.152        1551.548          45.650          42.550    90120784.009 8
  22965310.940        1486.926          49.800


 114742692.037 7  89409928.01847  21834805.380                    21834806.360
      2710.954        2112.435          47.550          45.450    85684521.118 8
  21834809.860        2024.421          52.150


 125032589.873 7  97427970.90047  23792923.840                    23792927.360
     -3002.553       -2339.655          44.250          44.700    93368471.977 7
  23792929.880       -2242.110          47.850


 138146313.290 7                  26288361.180
      3016.351                          46.550                   103161265.815 7
  26288368.640        2252.532          47.100   105852401.882 7  26288365.760
      2311.259          47.050   104506838.503 8  26288367.060        2281.922
        50.150
 122243297.470 8                  23262128.100
        83.658                          51.400                    91285585.077 9
  23262132.660          62.478          54.550    93666934.941 9  23262129.460
        64.107          54.850    92476263.664 9  23262131.620          63.289
        57.750
 125472885.169 8                  23876705.060
     -2248.002                          49.200                    93697279.064 8
  23876711.740       -1678.729          49.050    96141551.829 8  23876708.640
     -1722.538          50.550    94919416.098 8  23876710.060       -1700.652
        52.750
 134685139.743 8                  25629730.560
      2311.736                          49.200                   100576586.126 8
  25629734.620        1726.197          48.850   103200314.291 8  25629731.660
      1771.222          49.250   101888443.360 8  25629733.040        1748.731
        52.100
 148051421.212 7                  28173263.340
     -2042.458                          42.650                   110557876.634 6
  28173273.060       -1525.191          40.750   113441982.805 6  28173268.160
     -1565.036          41.950   111999927.874 7  28173270.340       -1545.141
        44.200
 133326304.414 8                  25371146.700
     -1875.722                          49.400                    99561877.238 8
  25371150.280       -1400.739          49.000   102159129.999 8  25371146.720
     -1437.321          48.550   100860495.774 8  25371149.540       -1419.063
        51.950
 124483348.722 8                  23688382.420
      1013.130                          51.750                    92958404.722 8
  23688387.400         756.593          53.150    95383386.643 8  23688384.560
       776.257          53.750    94170894.333 9  23688386.420         766.438
        56.550
 148057149.204 6                  28174341.800
       116.753                          39.750                   110562179.423 6
  28174348.600          87.288          40.850   113446396.863 6  28174345.780
        89.503          40.650   112004289.800 7  28174347.420          88.354
        43.800
 23 12 16 11 27 30.0000000  0 20G05G10G13G14G15G17G18G19G22G23G24G30
                                E02E03E05E08E13E24E25E26
 121905273.430 7  94991090.84847  23197817.600                    23197818.620
     -3545.138       -2762.448          47.500          47.350



 135799559.778 7 105817855.55246  25841799.080                    25841802.120
      3356.323        2615.297          42.350          39.300   101408771.623 7
  25841802.020        2506.488          43.400


 106324487.396 8  82850234.92248  20232880.820                    20232878.920
     -1291.604       -1006.445          50.700          49.000



 113950359.051 8  88792510.90047  21684022.380                    21684021.600
     -1779.554       -1386.666          49.400          45.650    85092846.888 8
  21684027.080       -1328.827          52.400


 105743123.153 8  82397237.24648  20122252.200                    20122250.640
       861.061         670.955          51.100          51.000



 125336860.986 7  97665113.54747  23850801.640                    23850806.660
      2281.571        1777.853          43.400          43.350



 134141475.335 6 104525798.55346  25526290.540                    25526293.180
     -2477.052       -1930.173          40.150          38.750   100170574.941 7
  25526299.000       -1849.587          43.850


 132456611.864 6 103212955.26945  25205657.120                    25205660.500
      3272.382        2549.897          40.300          34.500



 111123067.741 8  86589437.64147  21146004.500                    21146003.000
      -707.231        -551.091          50.700          47.600



 120624008.502 7  93992702.73647  22953988.220                    22953989.260
      1973.767        1537.999          45.450          43.400    90076375.079 8
  22953994.100        1473.981          49.650


 114661510.709 8  89346669.90647  21819357.080                    21819357.820
      2701.676        2105.203          48.100          45.400    85623898.798 8
  21819361.400        2017.376          52.250


 125122719.373 7  97498201.52947  23810075.040                    23810078.440
     -3005.729       -2342.130          44.750          44.750    93435776.275 8
  23810080.560       -2244.460          48.200


 138055900.610 7                  26271156.200
      3011.468                          47.000                   103093749.959 7
  26271163.520        2248.791          47.000   105783124.735 7  26271160.940
      2307.469          47.350   104438441.999 8  26271162.000        2278.098
        50.250
 122240941.532 8                  23261679.680
        73.757                          51.650                    91283825.752 9
  23261684.220          55.067          54.600    93665129.718 9  23261681.240
        56.526          55.150    92474481.387 9  23261683.320          55.817
        57.900
 125540431.861 8                  23889558.640
     -2254.658                          49.650                    93747719.713 8
  23889565.840       -1683.710          49.350    96193308.326 8  23889562.520
     -1727.616          50.700    94970514.671 8  23889563.780       -1705.663
        52.900
 134615857.994 8                  25616546.600
      2307.493                          49.300                   100524849.782 8
  25616550.800        1723.130          49.000   103147228.299 8  25616547.800
      1768.112          49.350   101836032.195 8  25616549.160        1745.631
        52.250
 148112840.635 7                  28184951.020
     -2051.773                          42.950                   110603741.722 6
  28184961.100       -1532.331          40.300   113489044.378 6  28184955.700
     -1572.133          41.050   112046391.206 7  28184958.180       -1552.216
        43.750
 133382733.069 8                  25381884.740
     -1885.561                          49.350                    99604015.464 8
  25381888.420       -1408.072          49.250   102202367.495 8  25381884.680
     -1444.831          48.750   100903183.633 8  25381887.680       -1426.460
        52.100
 124453158.317 8                  23682637.400
      1000.004                          51.750                    92935859.941 8
  23682642.480         746.695          53.300    95360253.733 8  23682639.540
       766.228          53.900    94148055.490 9  23682641.380         756.453
        56.650
 148053873.425 6                  28173718.460
       101.857                          40.950                   110559733.140 6
  28173725.740          76.068          41.300   113443886.760 6  28173722.160
        78.174          41.050   112001811.599 7  28173724.180          77.286
        44.300
 23 12 16 11 28  0.0000000  0 20G05G10G13G14G15G17G18G19G22G23G24G30
                                E02E03E05E08E13E24E25E26
 122011741.628 7  95074052.97447  23218078.020                    23218079.060
     -3552.162       -2767.923          47.000          46.700



 135698968.656 6 105739472.50246  25822657.380                    25822660.660
      3349.962        2610.349          41.750          40.350   101333654.437 7
  25822660.420        2501.608          46.250


 106363455.707 8  82880599.81148  20240296.280                    20240294.480
     -1305.791       -1017.501          50.300          50.050



 114003991.297 8  88834302.21247  21694228.380                    21694227.500
     -1795.544       -1399.127          49.000          46.350    85132896.879 8
  21694233.340       -1340.771          52.650


 105717565.152 8  82377321.91248  20117388.580                    20117387.100
       843.104         656.963          50.250          50.150



 125268574.398 7  97611903.36547  23837806.980                    23837812.200
      2271.504        1770.008          43.100          43.000



 134215910.040 6 104583799.52446  25540454.900                    25540457.880
     -2484.981       -1936.354          39.900          38.700   100226159.195 7
  25540463.440       -1855.631          44.300


 132358445.053 6 103136461.37646  25186976.700                    25186980.300
      3272.517        2550.006          39.050          36.100



 111144563.905 8  86606187.87448  21150095.160                    21150093.500
      -725.327        -565.190          50.500          48.100



 120565060.720 7  93946769.39947  22942770.820                    22942771.760
      1956.448        1524.506          45.400          43.150    90032355.625 8
  22942776.580        1461.050          49.400


 114580613.056 7  89283632.82747  21803962.820                    21803963.520
      2691.851        2097.548          47.850          46.600    85563488.281 8
  21803966.860        2010.311          52.350


 125212946.937 7  97568508.55447  23827244.880                    23827248.140
     -3008.776       -2344.507          44.700          44.900    93503153.813 8
  23827250.160       -2246.892          48.050


 137965638.045 7                  26253979.820
      3006.419                          46.250                   103026346.203 7
  26253986.880        2245.104          47.000   105713962.606 7  26253984.480
      2303.700          47.600   104370159.052 8  26253985.480        2274.432
        49.850
 122238884.822 8                  23261288.320
        63.936                          51.400                    91282289.871 9
  23261292.740          47.703          54.600    93663553.775 9  23261290.080
        48.977          55.250    92472925.477 9  23261291.960          48.332
        57.450
 125608176.980 8                  23902450.080
     -2261.176                          49.100                    93798308.538 8
  23902457.340       -1688.558          49.150    96245216.857 8  23902454.160
     -1732.539          50.750    95021763.346 8  23902455.300       -1710.555
        52.350
 134546700.308 8                  25603386.160
      2303.460                          48.900                   100473206.091 8
  25603390.500        1720.131          49.050   103094237.376 8  25603387.420
      1765.057          49.300   101783714.889 8  25603388.880        1742.568
        51.750
 148174540.474 7                  28196692.020
     -2060.974                          42.300                   110649816.150 6
  28196702.360       -1538.957          39.800   113536320.767 6  28196696.480
     -1579.103          40.550   112093066.609 7  28196699.380       -1558.993
        42.700
 133439459.466 8                  25392679.480
     -1895.561                          49.400                    99646376.027 8
  25392683.240       -1415.466          49.200   102245833.126 8  25392679.380
     -1452.434          48.850   100946096.733 8  25392682.480       -1433.995
        51.700
 124423363.900 8                  23676967.680
       986.809                          51.600                    92913610.856 8
  23676972.980         736.938          53.350    95337424.241 8  23676969.840
       756.162          53.900    94125516.201 9  23676971.700         746.544
        56.100
 148051041.807 6                  28173179.780
        87.493                          41.050                   110557618.563 6
  28173187.200          65.313          41.350   113441717.038 6  28173182.820
        66.925          40.950   111999669.447 7  28173185.440          66.237
        43.800
 23 12 16 11 28 30.0000000  0 20G05G10G13G14G15G17G18G19G22G23G24G30
                                E02E03E05E08E13E24E25E26
 122118419.182 7  95157178.23847  23238378.220                    23238379.300
     -3559.094       -2773.323          47.900          47.800



 135598578.482 6 105661246.02946  25803554.080                    25803557.400
      3343.054        2604.964          41.750          40.750   101258687.364 7
  25803557.480        2496.448          45.500


 106402854.410 8  82911300.06048  20247793.620                    20247791.920
     -1320.271       -1028.783          51.000          49.200



 114058103.164 8  88876467.25847  21704525.620                    21704524.780
     -1811.526       -1411.581          49.150          45.650    85173305.027 8
  21704530.860       -1352.755          52.900


 105692549.315 8  82357829.04048  20112628.140                    20112626.880
       825.039         642.888          51.050          51.150



 125200596.865 7  97558934.00447  23824871.000                    23824876.400
      2261.139        1761.931          42.300          42.950



 134290591.204 6 104641992.54546  25554666.220                    25554669.200
     -2493.425       -1942.929          40.250          36.600   100281927.469 7
  25554674.820       -1861.940          43.800


 132260283.733 6 103059971.75846  25168297.500                    25168300.880
      3272.037        2549.629          40.000          38.700



 111166605.594 8  86623363.18947  21154289.680                    21154287.900
      -743.554        -579.394          51.350          47.550



 120506635.614 7  93901243.31647  22931652.960                    22931653.680
      1938.895        1510.826          46.300          42.300    89988726.462 8
  22931658.520        1447.898          49.500


 114499999.131 8  89220816.84447  21788622.480                    21788623.440
      2682.625        2090.359          48.100          45.950    85503289.665 8
  21788626.440        2003.159          52.700


 125303270.594 7  97638890.45547  23844433.100                    23844436.320
     -3012.351       -2347.293          44.950          44.850    93570603.072 7
  23844438.180       -2249.334          47.900


 137875525.889 7                  26236831.940
      3001.432                          47.300                   102959054.802 7
  26236838.920        2241.357          47.350   105644915.759 7  26236836.540
      2299.770          47.150   104301989.931 8  26236837.600        2270.563
        50.200
 122237126.991 8                  23260953.960
        53.698                          52.250                    91280977.178 9
  23260958.220          40.140          54.700    93662206.840 9  23260955.860
        41.192          55.000    92471595.662 9  23260957.460          40.678
        57.800
 125676119.079 8                  23915379.040
     -2267.880                          49.650                    93849044.448 8
  23915386.520       -1693.588          49.250    96297276.331 8  23915383.220
     -1737.774          50.250    95073161.041 8  23915384.280       -1715.675
        52.600
 134477666.812 8                  25590249.360
      2299.205                          49.300                   100421655.133 8
  25590253.660        1716.973          49.150   103041341.614 8  25590250.620
      1761.759          49.100   101731491.527 8  25590252.200        1739.374
        52.050
 148236517.782 7                  28208485.760
     -2070.466                          42.900                   110696097.815 6
  28208496.140       -1546.102          40.050   113583809.762 6  28208490.240
     -1586.255          39.400   112139951.950 7  28208493.320       -1566.300
        42.500
 133496481.065 8                  25403530.440
     -1905.406                          49.850                    99688957.034 8
  25403534.140       -1422.836          49.250   102289524.952 8  25403530.360
     -1459.941          48.800   100989233.145 8  25403533.440       -1441.372
        52.000
 124393964.749 8                  23671373.200
       973.572                          52.050                    92891656.948 8
  23671378.680         727.008          53.450    95314897.626 8  23671375.380
       745.965          53.600    94103275.940 9  23671377.240         736.480
        56.400
 148048653.361 6                  28172725.580
        72.440                          41.800                   110555834.943 6
  28172732.700          54.065          41.500   113439886.887 6  28172727.860
        55.476          40.750   111997862.572 7  28172731.040          54.840
        44.100
 23 12 16 11 29  0.0000000  0 20G05G10G13G14G15G17G18G19G22G23G24G30
                                E02E03E05E08E13E24E25E26
 122225301.871 7  95240463.35747  23258717.340                    23258718.400
     -3566.401       -2779.018          46.750          46.800



 135498391.236 6 105583177.72246  25784489.520                    25784492.820
      3335.889        2599.383          40.900          39.600   101183871.816 7
  25784492.940        2491.130          45.250


 106442682.747 8  82942335.09948  20255372.740                    20255371.160
     -1334.991       -1040.253          50.650          50.000



 114112692.131 8  88919004.06447  21714913.560                    21714913.020
     -1827.885       -1424.327          48.700          46.350    85214069.450 8
  21714918.980       -1364.900          52.850


 105668076.007 8  82338758.92448  20107971.020                    20107969.960
       806.459         628.408          51.000          50.850



 125132930.485 6  97506207.10246  23811994.200                    23811999.700
      2250.274        1753.465          41.200          41.100



 134365515.140 6 104700374.71046  25568923.660                    25568926.940
     -2501.531       -1949.248          40.650          36.600   100337877.074 7
  25568932.160       -1868.187          43.300


 132162129.960 6 102983488.04645  25149619.860                    25149622.860
      3271.477        2549.194          40.750          34.950



 111189191.376 8  86640962.48248  21158587.760                    21158585.960
      -762.177        -593.905          51.650          48.250



 120448734.645 7  93856125.66247  22920634.820                    22920635.460
      1921.051        1496.923          46.000          43.300    89945488.714 8
  22920640.220        1434.547          49.400


 114419669.424 7  89158222.34547  21773336.080                    21773337.560
      2672.727        2082.646          47.250          46.800    85443303.280 8
  21773340.280        1995.854          52.900


 125393688.784 7  97709346.01347  23861639.540                    23861642.700
     -3015.780       -2349.965          44.750          44.300    93638122.959 7
  23861644.280       -2252.072          47.600


 137785564.864 7                  26219712.960
      2995.960                          47.400                   102891876.222 7
  26219719.820        2237.266          47.650   105575984.670 7  26219717.360
      2295.651          47.150   104233935.097 8  26219718.420        2266.503
        50.550
 122235668.036 8                  23260676.460
        43.423                          52.000                    91279887.671 9
  23260680.700          32.436          54.800    93661088.913 9  23260678.400
        33.263          55.000    92470491.944 9  23260679.840          32.855
        58.000
 125744257.101 8                  23928345.260
     -2274.639                          49.400                    93899926.674 8
  23928352.520       -1698.648          49.150    96349485.920 8  23928349.480
     -1742.980          50.100    95124706.947 8  23928350.580       -1720.800
        52.650
 134408758.005 8                  25577136.340
      2294.684                          49.150                   100370197.305 8
  25577140.500        1713.560          49.050   102988541.402 8  25577137.480
      1758.270          48.950   101679362.505 8  25577139.280        1735.940
        52.200
 148298770.043 7                  28220331.780
     -2079.793                          42.200                   110742584.782 6
  28220342.280       -1553.053          39.600   113631509.453 6  28220336.240
     -1593.627          39.000   112187045.265 7  28220339.600       -1573.303
        42.600
 133553795.787 8                  25414437.180
     -1915.522                          49.700                    99731756.934 8
  25414440.880       -1430.421          49.250   102333441.388 8  25414437.240
     -1467.795          49.050   101032591.312 8  25414440.180       -1449.095
        52.400
 124364960.547 8                  23665853.840
       960.007                          51.750                    92869997.964 8
  23665859.480         716.904          53.400    95292673.620 8  23665856.040
       735.641          53.600    94081334.444 9  23665857.960         726.277
        56.650
 148046707.548 6                  28172355.100
        57.209                          40.400                   110554381.781 6
  28172362.280          42.832          40.700   113438395.864 6  28172357.720
        43.837          40.600   111996390.479 7  28172361.000          43.299
        43.950
 23 12 16 11 29 30.0000000  0 20G05G10G13G14G15G17G18G19G22G23G24G30
                                E02E03E05E08E13E24E25E26
 122332391.446 7  95323909.67647  23279095.820                    23279097.040
     -3572.365       -2783.666          46.500          46.300



 135398414.435 6 105505273.46846  25765464.980                    25765468.080
      3329.657        2594.530          40.050          38.850   101109213.496 7
  25765468.420        2486.263          44.650


 106482944.987 8  82973708.23248  20263034.460                    20263032.960
     -1348.765       -1050.986          50.800          49.900



 114167760.967 8  88961914.80447  21725392.740                    21725392.580
     -1843.012       -1436.113          48.150          46.700    85255192.237 8
  21725398.300       -1376.444          52.850


 105644151.158 8  82320116.16448  20103418.380                    20103417.360
       788.962         614.774          50.800          50.950



 125065582.781 6  97453728.52946  23799177.880                    23799183.360
      2240.326        1745.713          41.100          40.800



 134440683.633 6 104758947.47546  25583227.760                    25583231.020
     -2509.042       -1955.103          41.150          37.500   100394009.303 7
  25583236.060       -1873.893          43.650


 132063991.745 6 102907016.40646  25130945.220                    25130948.020
      3271.558        2549.253          41.500          37.100



 111212324.689 8  86658988.41348  21162990.020                    21162988.280
      -779.593        -607.476          51.450          48.050



 120391364.600 7  93811421.72747  22909717.760                    22909718.260
      1904.063        1483.687          46.150          43.900    89902647.449 8
  22909722.900        1421.719          49.550


 114339629.745 7  89095853.81547  21758104.800                    21758106.800
      2663.717        2075.625          46.850          46.700    85383533.462 8
  21758109.380        1989.013          52.850


 125484205.296 7  97779878.18047  23878864.540                    23878867.820
     -3018.301       -2351.929          44.700          44.600    93705716.258 7
  23878869.120       -2253.986          47.550


 137695761.087 7                  26202623.800
      2991.176                          47.100                   102824815.042 7
  26202630.500        2233.717          47.600   105507174.062 7  26202628.060
      2291.979          47.400   104165999.204 8  26202629.180        2262.857
        50.400
 122234513.321 8                  23260456.800
        33.949                          51.750                    91279025.354 9
  23260461.160          25.300          54.950    93660204.103 9  23260458.740
        25.948          55.200    92469618.379 9  23260460.100          25.638
        57.900
 125812595.395 8                  23941349.680
     -2280.934                          49.300                    93950958.435 8
  23941356.820       -1703.312          49.000    96401848.962 8  23941353.740
     -1747.736          49.900    95176404.347 8  23941355.000       -1725.486
        52.250
 134339979.812 8                  25564048.360
      2290.999                          49.450                   100318837.003 8
  25564052.160        1710.610          49.250   102935841.256 8  25564049.240
      1755.287          49.200   101627332.283 8  25564051.200        1732.958
        52.150
 148361300.099 7                  28232230.720
     -2088.349                          42.950                   110789279.192 6
  28232241.320       -1559.530          39.650   113679422.008 6  28232235.360
     -1600.354          39.150   112234348.764 7  28232238.820       -1579.992
        42.250
 133611406.849 8                  25425400.240
     -1924.789                          49.650                    99774778.115 8
  25425403.900       -1437.426          49.200   102377584.864 8  25425400.560
     -1474.908          49.600   101076173.644 8  25425403.280       -1456.139
        52.300
 124336356.309 8                  23660410.600
       947.252                          52.150                    92848637.653 8
  23660416.300         707.348          53.300    95270756.093 8  23660412.840
       725.785          53.850    94059695.524 9  23660414.760         716.580
        56.400
 148045209.048 6                  28172069.680
        42.841                          40.550                   110553262.691 6
  28172076.860          32.034          40.100   113437247.550 6  28172072.720
        32.943          40.650   111995256.772 7  28172075.980          32.488
        43.250
 23 12 16 11 30  0.0000000  0 20G05G10G13G14G15G17G18G19G22G23G24G30
                                E02E03E05E08E13E24E25E26
 122439677.423 7  95407509.05047  23299511.680                    23299512.960
     -3579.512       -2789.234          46.950          46.850



 135298642.944 6 105427529.19746  25746479.060                    25746482.460
      3322.213        2588.734          38.350          37.700   101034708.503 7
  25746482.920        2480.797          45.700


 106523633.140 8  83005413.24948  20270777.240                    20270775.760
     -1363.470       -1062.445          51.000          49.800



 114223300.099 8  89005191.99747  21735961.420                    21735961.520
     -1859.339       -1448.838          48.450          45.750    85296666.205 8
  21735967.040       -1388.473          52.850


 105620768.523 8  82301895.90448  20098968.900                    20098967.820
       770.189         600.146          51.700          51.650



 124998548.949 6  97401494.51346  23786421.620                    23786426.660
      2229.193        1737.038          41.800          41.250



 134516085.930 6 104817702.47146  25597576.380                    25597579.700
     -2517.437       -1961.645          40.800          37.150   100450316.123 7
  25597584.560       -1879.917          42.300


 131965864.549 6 102830553.30046  25112272.780                    25112275.040
      3270.812        2548.672          41.700          37.250



 111235996.714 8  86677434.11647  21167494.740                    21167493.100
      -798.239        -622.006          51.550          47.550



 120334519.933 7  93767127.16247  22898900.600                    22898901.140
      1885.677        1469.357          46.350          42.900    89860198.483 8
  22898905.500        1408.310          49.550


 114259873.535 7  89033706.16947  21742927.580                    21742929.840
      2653.604        2067.743          47.700          47.600    85323975.307 8
  21742932.320        1981.566          52.650


 125574811.504 7  97850480.24247  23896106.500                    23896109.780
     -3021.864       -2354.704          44.150          43.900    93773376.549 7
  23896111.180       -2256.587          47.250


 137606108.232 8                  26185563.460
      2985.696                          48.200                   102757866.566 7
  26185570.000        2229.585          47.400   105438479.082 7  26185567.260
      2287.736          47.650   104098177.483 8  26185568.700        2258.617
        50.250
 122233655.801 8                  23260293.600
        23.388                          51.750                    91278384.967 9
  23260298.180          17.492          55.050    93659547.016 9  23260295.540
        17.922          55.300    92468969.644 9  23260296.920          17.690
        57.900
 125881125.800 8                  23954390.700
     -2287.646                          49.650                    94002133.681 8
  23954397.300       -1708.371          49.000    96454359.212 8  23954394.580
     -1752.897          49.900    95228247.096 8  23954396.000       -1730.637
        52.150
 134271325.666 8                  25550984.160
      2286.184                          50.100                   100267569.321 8
  25550987.500        1707.159          49.400   102883236.153 8  25550984.700
      1751.749          49.500   101575395.891 8  25550986.740        1729.432
        52.200
 148424098.388 7                  28244180.740
     -2097.893                          43.450                   110836173.914 6
  28244191.160       -1566.556          38.950   113727540.097 6  28244185.700
     -1607.574          38.300   112281855.168 6  28244189.000       -1587.152
        41.400
 133669305.077 8                  25436417.920
     -1934.889                          49.850                    99818013.726 8
  25436421.660       -1444.888          49.300   102421948.373 8  25436418.580
     -1482.604          50.050   101119973.205 8  25436420.980       -1463.747
        52.450
 124308144.620 8                  23655042.120
       933.688                          52.250                    92827570.486 8
  23655047.740         697.211          53.250    95249139.348 9  23655044.360
       715.394          54.000    94038353.570 9  23655046.280         706.319
        56.400
 148044150.274 6                  28171867.940
        27.696                          40.000                   110552471.954 6
  28171875.240          20.729          39.900   113436436.207 6  28171871.260
        21.271          40.850   111994455.733 7  28171874.500          20.977
        43.150
 23 12 16 11 30 30.0000000  0 20G05G10G13G14G15G17G18G19G22G23G24G30
                                E02E03E05E08E13E24E25E26
 122547164.084 7  95491264.80447  23319965.680                    23319967.120
     -3585.823       -2794.152          45.850          46.000



 135199086.534 6 105349952.60545  25727534.280                    25727537.680
      3315.218        2583.282          36.700          35.700   100960364.238 7
  25727538.540        2475.602          45.400


 106564754.384 8  83037455.74248  20278602.400                    20278600.860
     -1377.710       -1073.541          51.000          49.500



 114279314.789 7  89048839.77447  21746620.600                    21746620.880
     -1874.949       -1461.000          47.950          47.000    85338495.316 8
  21746626.220       -1400.034          52.900


 105597936.437 8  82284104.66248  20094624.180                    20094622.960
       752.145         586.087          51.550          51.550



 124931838.872 7  97349512.76246  23773727.140                    23773731.520
      2218.744        1728.896          42.400          41.800



 134591726.374 6 104876643.03845  25611970.380                    25611973.540
     -2525.256       -1967.731          40.300          35.550   100506800.813 6
  25611978.300       -1885.604          41.700


 131867758.273 6 102754106.53846  25093604.220                    25093606.000
      3269.887        2547.954          40.250          38.200



 111260213.617 8  86696304.40347  21172103.020                    21172101.500
      -816.187        -635.991          51.300          47.500



 120278209.900 7  93723249.21247  22888185.220                    22888185.680
      1868.233        1455.766          46.600          43.750    89818148.787 8
  22888189.900        1395.145          49.800


 114180409.122 8  88971785.87047  21727806.020                    21727808.340
      2644.251        2060.456          48.400          47.150    85264635.024 8
  21727810.780        1974.513          52.600


 125665513.721 7  97921157.11047  23913366.660                    23913370.020
     -3024.699       -2356.914          43.500          43.800    93841108.526 7
  23913371.880       -2258.749          47.500


 137516614.983 7                  26168533.580
      2980.659                          47.400                   102691037.269 7
  26168540.000        2225.760          47.750   105369906.398 7  26168536.920
      2283.863          47.650   104030476.485 8  26168538.620        2254.808
        50.350
 122233103.371 8                  23260188.380
        13.503                          51.400                    91277972.411 9
  23260193.260          10.090          55.250    93659123.697 9  23260190.360
        10.333          55.450    92468551.704 9  23260191.800          10.248
        57.950
 125949855.208 8                  23967469.580
     -2294.128                          49.400                    94053457.509 8
  23967475.940       -1713.138          48.850    96507021.947 8  23967473.140
     -1757.854          49.800    95280240.380 8  23967474.900       -1735.471
        51.950
 134202804.021 8                  25537945.240
      2281.999                          50.250                   100216400.576 8
  25537948.140        1704.125          49.750   102830732.571 8  25537945.460
      1748.580          49.650   101523559.724 8  25537947.460        1726.381
        52.350
 148487170.217 7                  28256182.880
     -2106.674                          42.750                   110883272.925 6
  28256193.020       -1573.301          39.050   113775867.776 6  28256188.220
     -1614.042          38.650   112329568.502 6  28256191.380       -1593.783
        41.350
 133727496.242 8                  25447491.460
     -1944.340                          49.600                    99861468.081 8
  25447495.160       -1451.891          49.450   102466536.328 8  25447492.340
     -1489.812          50.450   101163994.358 8  25447494.420       -1470.843
        52.600
 124280333.031 8                  23649749.800
       920.554                          51.950                    92806802.088 8
  23649755.200         687.432          53.250    95227829.161 9  23649752.080
       705.369          54.250    94017314.277 9  23649753.920         696.396
        56.350
 148043538.370 6                  28171751.380
        12.965                          40.250                   110552014.928 6
  28171758.320           9.833          39.850   113435967.261 6  28171755.060
        10.159          41.850   111993992.740 7  28171757.960          10.028
        43.550
