     3.00           OBSERVATION DATA    M: Mixed            RINEX VERSION / TYPE
RTKCONV demo5 b34f.1                    20231229 152051 UTC PGM / RUN BY / DATE 
format: u-blox UBX                                          COMMENT             
log: C:\Users\oo\Desktop\divers\verniquet\Reseau\micro\reseaCOMMENT             
                                                            MARKER NAME         
                                                            MARKER NUMBER       
                                                            MARKER TYPE         
                                                            OBSERVER / AGENCY   
                                                            REC # / TYPE / VERS 
                                                            ANT # / TYPE        
  4200726.8844   179778.4571  4780184.1785                  APPROX POSITION XYZ 
        0.0000        0.0000        0.0000                  ANTENNA: DELTA H/E/N
G    4 C1C L1C D1C S1C                                      SYS / # / OBS TYPES 
E    4 C1X L1X D1X S1X                                      SYS / # / OBS TYPES 
  2023    12    29    13    31   29.0020000     GPS         TIME OF FIRST OBS   
  2023    12    29    13    54   31.0020000     GPS         TIME OF LAST OBS    
                                                            END OF HEADER       
> 2023 12 29 13 31 29.0020000  0 15                     
G19  23111670.913   121452661.3421      -1629.199          26.000  
G24  21448196.118   112711047.5761      -1779.492          47.000  
G15  25044353.951   131608915.0261      -3749.697          39.000  
E27  26882062.930   141266160.5331       2629.363          41.000  
E10  29395437.597   154474101.6611      -1137.846          27.000  
E02  25509121.731   134051311.6401      -1827.058          39.000  
E08  26683135.875   140220790.9461      -2778.819          40.000  
E14  23584402.798   123936927.8471       3906.055          46.000  
E07  24525791.596   128883947.0541       -550.135          43.000  
G23  25949583.107   136365888.6521      -2971.185          37.000  
E30  24102004.421   126656964.5161        601.749          44.000  
G10  24849206.718   130583421.9921      -1980.414          43.000  
G12  20825132.569   109436923.8401       1065.935          47.000  
G25  22286786.452   117117970.0531       3071.062          45.000  
G32  23531222.415   123657521.2941       2606.996          44.000  
> 2023 12 29 13 31 30.0020000  0 15                     
G19  23111975.681   121454290.740       -1629.823          26.000  
G24  21448534.862   112712827.358       -1779.877          47.000  
G15  25045067.927   131612664.814       -3749.642          39.000  
E27  26881562.755   141263531.360        2629.040          41.000  
E10  29395654.922   154475239.236       -1137.463          28.000  
E02  25509469.270   134053138.872       -1827.353          39.000  
E08  26683664.425   140223570.305       -2779.294          40.000  
E14  23583659.418   123933022.174        3905.621          46.000  
E07  24525896.455   128884497.766        -550.757          43.000  
G23  25950148.895   136368860.186       -2971.475          37.000  
E30  24101889.982   126656363.160         601.302          44.000  
G10  24849583.556   130585402.812       -1980.951          43.000  
G12  20824930.041   109435858.381        1065.299          47.000  
G25  22286202.393   117114899.192        3070.498          44.000  
G32  23530726.200   123654914.709        2606.234          43.000  
> 2023 12 29 13 31 31.0020000  0 15                     
G19  23112283.346   121455920.649       -1630.001          26.000  
G24  21448873.954   112714607.538       -1780.328          47.000  
G15  25045781.589   131616414.614       -3749.927          40.000  
E27  26881062.788   141260902.340        2628.733          41.000  
E10  29395874.481   154476377.346       -1138.793          28.000  
E02  25509817.035   134054966.187       -1827.061          38.000  
E08  26684192.992   140226349.839       -2779.652          40.000  
E14  23582915.760   123929116.934        3904.978          46.000  
E07  24526001.679   128885048.932        -551.430          43.000  
G23  25950713.916   136371831.699       -2971.076          36.000  
E30  24101775.596   126655762.076         600.961          44.000  
G10  24849960.533   130587384.014       -1981.561          43.000  
G12  20824727.619   109434793.437        1064.673          47.000  
G25  22285618.543   117111828.643        3070.250          45.000  
G32  23530230.108   123652308.571        2605.940          43.000  
> 2023 12 29 13 31 32.0020000  0 15                     
G19  23112593.401   121457551.219       -1630.920          26.000  
G24  21449212.733   112716387.980       -1780.585          47.000  
G15  25046495.320   131620164.244       -3749.618          40.000  
E27  26880562.752   141258273.279        2628.844          41.000  
E10  29396091.125   154477515.612       -1138.501          28.000  
E02  25510164.539   134056793.548       -1827.554          38.000  
E08  26684722.344   140229129.378       -2779.705          40.000  
E14  23582172.311   123925211.957        3904.727          46.000  
E07  24526106.625   128885600.378        -551.685          43.000  
G23  25951279.320   136374803.068       -2971.000          36.000  
E30  24101661.367   126655161.121         600.909          44.000  
G10  24850337.353   130589365.439       -1981.419          43.000  
G12  20824525.353   109433728.862        1064.265          48.000  
G25  22285034.659   117108758.286        3069.847          44.000  
G32  23529734.644   123649702.734        2605.503          44.000  
> 2023 12 29 13 31 45.0020000  0 15                     
G19  23116655.760   121478783.1663      -1637.477          29.000  
G24  21453621.408   112739561.062       -1784.998          47.000  
G15  25055770.268   131668900.512       -3748.550          39.000  
E27  26874059.405   141224098.540        2628.311          41.000  
E10  29398918.235   154492341.712       -1142.207          26.000  
E02  25514685.018   134080550.980       -1828.155          39.000  
E08  26691600.260   140265268.315       -2780.593          40.000  
E14  23572517.926   123874475.208        3900.472          46.000  
E07  24527475.874   128892799.836        -556.284          43.000  
G23  25958628.305   136413419.709       -2969.583          37.000  
E30  24100177.802   126647364.738         598.288          44.000  
G10  24855244.546   130615148.422       -1985.481          43.000  
G12  20821900.422   109419926.920        1058.654          48.000  
G25  22277442.715   117068862.983        3067.182          44.000  
G32  23523296.770   123615857.546        2600.932          46.000  
> 2023 12 29 13 31 46.0020000  0 15                     
G19  23116965.641   121480420.3652      -1637.467          30.000  
G24  21453961.269   112741345.881       -1785.010          47.000  
G15  25056483.284   131672648.911       -3747.908          39.000  
E27  26873559.230   141221470.098        2628.758          41.000  
E10  29399136.799   154493484.559       -1142.543          25.000  
E02  25515032.661   134082378.809       -1827.970          38.000  
E08  26692129.298   140268048.772       -2780.383          40.000  
E14  23571775.611   123870574.722        3900.430          46.000  
E07  24527581.954   128893356.154        -556.237          43.000  
G23  25959193.081   136416389.536       -2969.327          36.000  
E30  24100063.555   126646766.432         598.260          44.000  
G10  24855622.517   130617133.802       -1985.536          43.000  
G12  20821698.471   109418868.306        1058.292          48.000  
G25  22276859.564   117065795.785        3067.189          45.000  
G32  23522802.144   123613256.632        2600.850          46.000  
> 2023 12 29 13 31 47.0020000  0 15                     
G19  23117274.684   121482057.8962      -1637.222          30.000  
G24  21454300.797   112743130.911       -1785.181          47.000  
G15  25057196.492   131676397.164       -3748.167          40.000  
E27  26873058.810   141218841.629        2628.470          41.000  
E10  29399356.201   154494627.648       -1143.513          25.000  
E02  25515380.426   134084206.584       -1827.952          38.000  
E08  26692658.302   140270829.215       -2780.623          40.000  
E14  23571033.558   123866674.458        3900.079          46.000  
E07  24527687.859   128893912.745        -556.940          43.000  
G23  25959757.805   136419359.211       -2969.677          36.000  
E30  24099949.849   126646168.203         598.052          44.000  
G10  24856000.367   130619119.368       -1985.824          43.000  
G12  20821496.868   109417810.020        1058.053          48.000  
G25  22276276.185   117062728.739        3066.908          44.000  
G32  23522307.500   123610655.965        2600.390          46.000  
> 2023 12 29 13 31 48.0020000  0 15                     
G19  23117583.849   121483697.0122      -1641.464          30.000  
G24  21454640.989   112744917.243       -1788.513          47.000  
G15  25057909.979   131680146.288       -3751.322          40.000  
E27  26872558.669   141216214.172        2625.403          41.000  
E10  29399572.182   154495771.954       -1146.454          25.000  
E02  25515728.471   134086035.368       -1830.863          38.000  
E08  26693187.741   140273610.687       -2783.621          40.000  
E14  23570291.487   123862775.496        3896.649          46.000  
E07  24527794.148   128894470.657        -560.306          43.000  
G23  25960322.913   136422329.744       -2972.797          36.000  
E30  24099836.126   126645571.134         594.914          44.000  
G10  24856378.339   130621106.214       -1989.351          43.000  
G12  20821295.789   109416753.128        1054.620          48.000  
G25  22275692.929   117059662.880        3063.580          45.000  
G32  23521812.908   123608056.644        2596.799          46.000  
> 2023 12 29 13 31 49.0020000  0 15                     
G19  23117892.998   121485337.8621      -1641.859          29.000  
G24  21454981.216   112746705.730       -1788.763          46.000  
G15  25058623.762   131683897.128       -3750.883          40.000  
E27  26872059.174   141213588.601        2625.197          41.000  
E10  29399790.973   154496918.439       -1146.229          25.000  
E02  25516076.725   134087866.061       -1831.015          38.000  
E08  26693718.019   140276394.082       -2783.631          41.000  
E14  23569550.184   123858878.700        3896.417          46.000  
E07  24527900.769   128895030.738        -560.468          43.000  
G23  25960888.056   136425301.928       -2972.383          35.000  
E30  24099722.752   126644976.120         594.642          44.000  
G10  24856756.747   130623095.153       -1989.327          43.000  
G12  20821094.710   109415698.502        1054.194          48.000  
G25  22275110.389   117056599.095        3063.494          45.000  
G32  23521318.805   123605459.503        2596.780          46.000  
> 2023 12 29 13 31 50.0020000  0 15                     
G19  23118206.560   121486979.444       -1641.609          30.000  
G24  21455321.722   112748494.310       -1789.093          46.000  
G15  25059337.563   131687647.687       -3750.967          40.000  
E27  26871559.557   141210962.855        2625.308          41.000  
E10  29400008.874   154498064.971       -1146.308          25.000  
E02  25516425.293   134089696.542       -1830.871          39.000  
E08  26694247.755   140279177.307       -2783.427          41.000  
E14  23568808.795   123854981.995        3896.421          46.000  
E07  24528007.303   128895590.970        -560.839          43.000  
G23  25961453.443   136428273.882       -2972.182          35.000  
E30  24099609.343   126644381.042         594.725          44.000  
G10  24857135.190   130625084.194       -1989.401          43.000  
G12  20820893.771   109414644.087        1053.843          48.000  
G25  22274527.325   117053535.326        3063.265          45.000  
G32  23520825.086   123602862.504        2596.289          46.000  
> 2023 12 29 13 31 51.0020000  0 15                     
G19  23118517.454   121488621.541       -1642.268          29.000  
G24  21455662.455   112750283.225       -1789.130          46.000  
G15  25060051.469   131691398.210       -3750.586          40.000  
E27  26871059.591   141208337.182        2625.530          42.000  
E10  29400227.333   154499212.012       -1146.834          25.000  
E02  25516773.826   134091527.127       -1830.746          38.000  
E08  26694776.950   140281960.656       -2783.641          40.000  
E14  23568067.248   123851085.667        3896.126          46.000  
E07  24528114.046   128896151.577        -560.830          43.000  
G23  25962018.463   136431245.697       -2971.732          35.000  
E30  24099496.458   126643786.216         594.763          44.000  
G10  24857513.702   130627073.548       -1989.675          43.000  
G12  20820692.849   109413590.147        1053.726          48.000  
G25  22273944.575   117050471.821        3063.453          45.000  
G32  23520330.949   123600265.887        2596.332          46.000  
> 2023 12 29 13 31 52.0020000  0 15                     
G19  23118828.067   121490264.144       -1643.036          29.000  
G24  21456002.892   112752072.412       -1789.160          46.000  
G15  25060765.131   131695148.560       -3749.900          40.000  
E27  26870560.008   141205711.527        2625.730          42.000  
E10  29400444.955   154500359.336       -1147.701          24.000  
E02  25517122.586   134093357.688       -1830.753          38.000  
E08  26695306.634   140284744.002       -2783.067          40.000  
E14  23567325.386   123847189.625        3895.903          46.000  
E07  24528221.155   128896712.489        -561.099          43.000  
G23  25962583.501   136434217.385       -2971.510          36.000  
E30  24099383.555   126643191.510         594.813          45.000  
G10  24857892.093   130629063.124       -1989.683          42.000  
G12  20820492.154   109412536.587        1053.594          48.000  
G25  22273361.598   117047408.501        3063.403          45.000  
G32  23519836.706   123597669.576        2596.343          46.000  
> 2023 12 29 13 31 53.0020000  0 15                     
G19  23119142.084   121491907.146       -1642.968          30.000  
G24  21456343.223   112753861.925       -1789.465          46.000  
G15  25061479.019   131698898.852       -3750.011          40.000  
E27  26870060.112   141203085.907        2625.803          41.000  
E10  29400663.135   154501506.933       -1148.683          24.000  
E02  25517470.736   134095188.243       -1829.850          38.000  
E08  26695836.649   140287527.438       -2783.156          40.000  
E14  23566584.049   123843293.884        3895.989          46.000  
E07  24528327.497   128897273.747        -561.206          43.000  
G23  25963148.435   136437188.954       -2970.936          35.000  
E30  24099270.251   126642597.011         594.716          44.000  
G10  24858270.466   130631052.964       -1989.893          42.000  
G12  20820291.564   109411483.447        1053.276          47.000  
G25  22272778.848   117044345.389        3063.335          45.000  
G32  23519342.725   123595073.618        2596.136          46.000  
> 2023 12 29 13 31 54.0020000  0 16                     
G17  25458727.625                       -2865.984          28.000  
G19  23119459.940   121493550.772       -1643.781          31.000  
G24  21456683.869   112755651.740       -1789.874          46.000  
G15  25062192.628   131702649.038       -3749.986          40.000  
E27  26869560.163   141200460.338        2625.551          41.000  
E10  29400878.191   154502654.831       -1148.987          24.000  
E02  25517819.583   134097018.866       -1830.239          38.000  
E08  26696366.665   140290310.932       -2783.428          41.000  
E14  23565842.502   123839398.480        3895.457          46.000  
E07  24528434.868   128897835.341        -561.228          43.000  
G23  25963713.717   136440160.443       -2971.677          35.000  
E30  24099157.260   126642002.686         594.564          44.000  
G10  24858648.996   130633043.091       -1989.837          42.000  
G12  20820090.695   109410430.736        1052.704          47.000  
G25  22272196.237   117041282.534        3062.952          45.000  
G32  23518848.989   123592478.022        2595.507          46.000  
> 2023 12 29 13 31 55.0020000  0 16                     
G17  25459276.835   133789402.5323      -2866.448          28.000  
G19  23119766.104   121495195.039       -1645.572          31.000  
G24  21457024.637   112757442.155       -1790.558          46.000  
G15  25062906.115   131706399.406       -3749.973          40.000  
E27  26869060.546   141197835.105        2624.823          41.000  
E10  29401096.999   154503803.293       -1148.336          24.000  
E02  25518167.942   134098849.857       -1831.175          39.000  
E08  26696896.384   140293094.791       -2784.052          41.000  
E14  23565101.478   123835503.692        3894.566          46.000  
E07  24528541.838   128898397.605        -562.492          43.000  
G23  25964278.563   136443132.063       -2971.731          35.000  
E30  24099043.991   126641408.857         593.634          44.000  
G10  24859027.997   130635033.840       -1991.421          43.000  
G12  20819890.035   109409378.752        1051.760          47.000  
G25  22271613.505   117038220.198        3062.053          45.000  
G32  23518355.601   123589883.068        2594.769          46.000  
> 2023 12 29 13 31 56.0020000  0 16                     
G17  25459826.971   133792269.6712      -2867.301          28.000  
G19  23120079.789   121496840.029       -1645.527          30.000  
G24  21457365.283   112759233.124       -1791.382          45.000  
G15  25063619.812   131710149.950       -3751.012          40.000  
E27  26868560.929   141195210.129        2624.739          41.000  
E10  29401317.099   154504952.333       -1148.736          23.000  
E02  25518516.126   134100681.069       -1831.415          38.000  
E08  26697426.155   140295878.934       -2784.353          41.000  
E14  23564360.298   123831609.455        3893.859          46.000  
E07  24528649.017   128898960.446        -563.369          43.000  
G23  25964843.619   136446103.840       -2971.610          35.000  
E30  24098931.298   126640815.430         593.169          44.000  
G10  24859406.964   130637025.044       -1991.431          43.000  
G12  20819689.933   109408327.414        1050.878          47.000  
G25  22271030.423   117035158.291        3061.570          44.000  
G32  23517861.795   123587288.696        2593.997          46.000  
> 2023 12 29 13 31 57.0020000  0 16                     
G17  25460374.559   133795136.9692      -2866.959          28.000  
G19  23120393.317   121498485.467       -1645.436          31.000  
G24  21457706.365   112761024.421       -1791.571          46.000  
G15  25064333.351   131713900.395       -3750.706          40.000  
E27  26868061.347   141192585.208        2625.229          41.000  
E10  29401532.976   154506101.784       -1148.792          23.000  
E02  25518864.711   134102512.355       -1831.151          38.000  
E08  26697956.170   140298663.180       -2784.106          41.000  
E14  23563619.274   123827715.553        3893.893          46.000  
E07  24528756.231   128899523.638        -563.365          43.000  
G23  25965409.198   136449075.547       -2971.487          36.000  
E30  24098818.220   126640222.219         593.110          44.000  
G10  24859786.174   130639016.557       -1991.365          43.000  
G12  20819489.954   109407276.509        1050.779          47.000  
G25  22270447.499   117032096.647        3061.465          45.000  
G32  23517368.233   123584694.699        2593.923          46.000  
> 2023 12 29 13 31 58.0020000  0 16                     
G17  25460913.282   133798004.5332      -2867.404          28.000  
G19  23120703.373   121500131.609       -1646.777          32.000  
G24  21458047.097   112762816.092       -1791.852          46.000  
G15  25065047.310   131717650.844       -3750.732          40.000  
E27  26867561.817   141189960.474        2624.498          41.000  
E10  29401749.603   154507251.621       -1149.626          23.000  
E02  25519212.930   134104343.744       -1831.445          38.000  
E08  26698485.976   140301447.560       -2784.601          41.000  
E14  23562878.181   123823822.083        3893.161          46.000  
E07  24528863.847   128900087.257        -563.970          43.000  
G23  25965975.230   136452047.191       -2971.756          37.000  
E30  24098705.335   126639629.286         592.590          44.000  
G10  24860164.984   130641008.442       -1992.099          42.000  
G12  20819289.712   109406226.126        1050.069          47.000  
G25  22269864.365   117029035.326        3061.151          44.000  
G32  23516875.142   123582101.124        2593.441          47.000  
> 2023 12 29 13 31 59.0020000  0 16                     
G17  25461464.621   133800872.3172      -2868.133          27.000  
G19  23121013.096   121501778.213       -1646.411          31.000  
G24  21458387.551   112764608.177       -1792.291          46.000  
G15  25065760.936   131721401.278       -3750.870          40.000  
E27  26867062.409   141187335.819        2624.471          41.000  
E10  29401969.388   154508401.802       -1149.799          23.000  
E02  25519561.603   134106175.272       -1831.573          38.000  
E08  26699016.323   140304232.074       -2784.901          41.000  
E14  23562137.541   123819928.988        3892.775          46.000  
E07  24528971.043   128900651.312        -564.441          43.000  
G23  25966540.984   136455018.782       -2971.304          37.000  
E30  24098592.379   126639036.610         592.368          44.000  
G10  24860544.421   130643000.673       -1992.422          42.000  
G12  20819089.733   109405176.242        1049.692          47.000  
G25  22269282.138   117025974.305        3060.889          45.000  
G32  23516381.703   123579508.011        2592.911          46.000  
> 2023 12 29 13 32 00.0020000  0 16                     
G17  25462006.992   133803740.3702      -2868.375          26.000  
G19  23121335.978   121503425.548       -1647.471          31.000  
G24  21458728.354   112766400.780       -1793.085          45.000  
G15  25066474.720   131725151.840       -3750.895          40.000  
E27  26866562.949   141184711.416        2624.179          41.000  
E10  29402184.567   154509552.571       -1150.985          23.000  
E02  25519910.293   134108007.021       -1831.991          38.000  
E08  26699546.513   140307016.887       -2785.223          41.000  
E14  23561396.884   123816036.434        3892.056          46.000  
E07  24529078.659   128901215.917        -565.007          43.000  
G23  25967106.912   136457990.509       -2971.964          37.000  
E30  24098479.180   126638444.323         591.887          44.000  
G10  24860923.806   130644993.385       -1993.158          43.000  
G12  20818890.085   109404126.987        1048.765          47.000  
G25  22268699.772   117022913.700        3060.185          45.000  
G32  23515888.210   123576915.444        2592.077          46.000  
> 2023 12 29 13 32 01.0020000  0 16                     
G17  25462551.002   133806609.0442      -2868.874          26.000  
G19  23121651.111   121505073.686       -1649.200          32.000  
G24  21459069.488   112768193.993       -1793.384          46.000  
G15  25067188.381   131728902.606       -3750.996          40.000  
E27  26866063.576   141182087.377        2623.938          41.000  
E10  29402403.724                       -1151.286          23.000  
E02  25520258.705   134109839.110       -1832.209          38.000  
E08  26700076.913   140309802.059       -2785.196          41.000  
E14  23560656.349   123812144.496        3891.759          46.000  
E07  24529186.082   128901781.173        -565.500          43.000  
G23  25967672.439   136460962.410       -2972.771          37.000  
E30  24098366.940   126637852.534         591.550          44.000  
G10  24861303.192   130646986.707       -1993.434          43.000  
G12  20818690.803   109403078.462        1048.246          47.000  
G25  22268117.476   117019853.637        3059.771          45.000  
G32  23515394.771   123574323.516        2591.724          46.000  
> 2023 12 29 13 32 02.0020000  0 16                     
G17  25463100.352   133809477.8152      -2869.883          27.000  
G19  23121965.652   121506722.314       -1649.431          31.000  
G24  21459411.059   112769987.656       -1794.385          46.000  
G15  25067901.956   131732653.431       -3751.512          40.000  
E27  26865564.133   141179463.501        2623.115          41.000  
E10  29402623.178                       -1158.515          23.000  
E02  25520607.185   134111671.401       -1833.332          38.000  
E08  26700607.068   140312587.437       -2785.869          41.000  
E14  23559916.041   123808253.037        3890.463          46.000  
E07  24529293.349   128902346.920        -566.573          43.000  
G23  25968238.105   136463934.321       -2972.606          36.000  
E30  24098254.386   126637261.051         590.852          44.000  
G10  24861682.734   130648980.421       -1994.612          43.000  
G12  20818491.417   109402030.487        1047.109          47.000  
G25  22267535.214   117016793.933        3059.160          45.000  
G32  23514901.244   123571732.088        2590.639          46.000  
> 2023 12 29 13 32 03.0020000  0 16                     
G17  25463647.905   133812346.9372      -2868.869          27.000  
G19  23122279.284   121508371.657       -1648.782          32.000  
G24  21459752.263   112771781.776       -1794.263          46.000  
G15  25068615.966   131736404.296       -3750.671          40.000  
E27  26865065.179   141176839.819        2623.617          41.000  
E10  29402839.247                       -1151.083          22.000  
E02  25520955.579   134113503.836       -1832.541          37.000  
E08  26701136.909   140315373.030       -2785.808          41.000  
E14  23559175.472   123804362.036        3890.883          46.000  
E07  24529401.645   128902913.161        -566.407          44.000  
G23  25968803.841   136466906.318       -2972.037          36.000  
E30  24098141.972   126636669.936         590.970          44.000  
G10  24862061.630   130650974.526       -1994.278          41.000  
G12  20818292.205   109400983.101        1047.156          47.000  
G25  22266952.726   117013734.623        3059.192          44.000  
G32  23514408.048   123569141.167        2590.573          46.000  
> 2023 12 29 13 32 04.0020000  0 16                     
G17  25464195.476   133815216.0682      -2868.890          27.000  
G19  23122592.795   121510021.353       -1650.117          33.000  
G24  21460093.834   112773576.066       -1794.507          46.000  
G15  25069329.785   131740154.918       -3750.670          40.000  
E27  26864566.016   141174216.069        2623.377          41.000  
E10  29403057.584                       -1152.731          22.000  
E02  25521303.885   134115336.186       -1832.788          38.000  
E08  26701666.715   140318158.535       -2786.046          41.000  
E14  23558435.129   123800471.218        3890.417          46.000  
E07  24529509.609   128903479.614        -566.966          44.000  
G23  25969369.594   136469877.971       -2971.844          36.000  
E30  24098029.418   126636078.849         590.870          44.000  
G10  24862440.928   130652968.826       -1994.710          43.000  
G12  20818093.064   109399935.998        1046.630          47.000  
G25  22266370.168   117010675.383        3058.900          44.000  
G32  23513914.887   123566550.467        2590.308          46.000  
> 2023 12 29 13 32 05.0020000  0 16                     
G17  25464740.184   133818085.6802      -2869.652          27.000  
G19  23122906.846   121511671.844       -1650.344          33.000  
G24  21460435.299   112775370.981       -1794.781          46.000  
G15  25070044.040   131743905.800       -3750.599          40.000  
E27  26864066.555   141171592.667        2623.335          41.000  
E10  29403274.333                       -1150.740          21.000  
E02  25521652.244   134117168.876       -1832.504          38.000  
E08  26702196.626   140320944.410       -2785.606          41.000  
E14  23557694.786   123796581.055        3890.438          46.000  
E07  24529617.626   128904046.712        -566.875          44.000  
G23  25969935.034   136472849.915       -2971.323          35.000  
E30  24097916.864   126635488.267         590.754          44.000  
G10  24862820.645   130654963.697       -1994.596          42.000  
G12  20817893.887   109398889.632        1046.490          47.000  
G25  22265788.046   117007616.687        3059.011          45.000  
G32  23513421.640   123563960.429        2590.055          46.000  
> 2023 12 29 13 32 06.0020000  0 16                     
G17  25465283.322   133820955.5062      -2869.958          26.000  
G19  23123220.898   121513322.948       -1651.859          32.000  
G24  21460776.992   112777166.363       -1795.770          46.000  
G15  25070757.527   131747656.718       -3751.283          40.000  
E27  26863566.764   141168969.427        2623.095          41.000  
E10  29403495.986                       -1155.864          21.000  
E02  25522000.899   134119001.766       -1832.971          37.000  
E08  26702726.659   140323730.509       -2786.295          41.000  
E14  23556954.757   123792691.351        3889.320          46.000  
E07  24529725.486   128904614.311        -567.834          44.000  
G23  25970500.630   136475821.846       -2971.743          35.000  
E30  24097804.502   126634898.012         590.088          44.000  
G10  24863200.013   130656959.037       -1995.809          42.000  
G12  20817694.832   109397843.833        1045.551          47.000  
G25  22265205.837   117004558.357        3058.005          45.000  
G32  23512928.845   123561370.884        2589.451          46.000  
> 2023 12 29 13 32 07.0020000  0 16                     
G17  25465830.230   133823825.6222      -2869.830          27.000  
G19  23123535.368   121514974.607       -1652.565          33.000  
G24  21461118.632   112778962.153       -1796.375          45.000  
G15  25071471.276   131751407.649       -3751.471          40.000  
E27  26863067.775   141166346.355        2622.584          41.000  
E10  29403713.904                       -1154.813          20.000  
E02  25522349.694   134120834.795       -1833.586          37.000  
E08  26703257.389   140326516.778       -2786.558          41.000  
E14  23556214.641   123788802.059        3888.924          46.000  
E07  24529833.782   128905182.371        -568.612          44.000  
G23  25971066.122   136478793.843       -2972.345          34.000  
E30  24097692.699   126634308.062         589.449          44.000  
G10  24863579.747   130658954.688       -1996.159          42.000  
G12  20817496.057   109396798.571        1044.778          47.000  
G25  22264623.611   117001500.369        3057.657          45.000  
G32  23512436.051   123558781.821        2588.537          46.000  
> 2023 12 29 13 32 08.0020000  0 16                     
G17  25466375.950   133826696.0162      -2870.533          26.000  
G19  23123849.560   121516626.906       -1652.981          32.000  
G24  21461460.343   112780758.403       -1796.509          46.000  
G15  25072185.670   131755158.670       -3751.620          40.000  
E27  26862568.733   141163723.470        2622.721          41.000  
E10  29403931.997                       -1151.866          20.000  
E02  25522698.419   134122667.978       -1833.600          37.000  
E08  26703787.649   140329303.282       -2786.868          41.000  
E14  23555474.682   123784913.277        3888.293          46.000  
E07  24529942.305   128905750.939        -568.977          44.000  
G23  25971631.404   136481765.799       -2972.580          34.000  
E30  24097580.581   126633718.431         589.432          44.000  
G10  24863959.970   130660950.804       -1996.563          42.000  
G12  20817296.862   109395753.871        1044.107          47.000  
G25  22264041.506   116998442.779        3057.349          44.000  
G32  23511943.327   123556193.252        2587.966          45.000  
> 2023 12 29 13 32 09.0020000  0 16                     
G17  25466918.530   133829566.7612      -2870.976          25.000  
G19  23124164.222   121518279.813       -1652.112          32.000  
G24  21461802.402   112782555.136       -1796.777          46.000  
G15  25072899.471   131758909.689       -3750.728          40.000  
E27  26862069.500   141161100.817        2622.563          40.000  
E10  29404153.248                       -1157.257          20.000  
E02  25523047.092   134124501.354       -1832.912          37.000  
E08  26704318.206   140332089.980       -2786.885          41.000  
E14  23554734.461   123781024.964        3888.232          46.000  
E07  24530050.357   128906319.995        -569.223          43.000  
G23  25972196.704   136484737.799       -2971.894          34.000  
E30  24097468.376   126633129.174         589.166          44.000  
G10  24864340.053   130662947.339       -1996.681          43.000  
G12  20817098.733   109394709.773        1043.965          47.000  
G25  22263459.332   116995385.544        3057.250          44.000  
G32  23511451.388   123553605.196        2587.885          46.000  
> 2023 12 29 13 32 10.0020000  0 16                     
G17  25467465.245   133832437.6422      -2869.350          25.000  
G19  23124478.675   121519933.432       -1653.677          33.000  
G24  21462144.199   112784352.273       -1797.082          46.000  
G15  25073613.447   131762660.787       -3750.685          40.000  
E27  26861570.354   141158478.267        2622.693          41.000  
E10  29404373.679                       -1151.372          20.000  
E02  25523395.573   134126334.904       -1833.226          38.000  
E08  26704848.588   140334876.854       -2786.738          41.000  
E14  23553994.554   123777137.075        3887.964          46.000  
E07  24530158.635   128906889.510        -569.426          43.000  
G23  25972762.004   136487709.898       -2971.837          34.000  
E30  24097355.857   126632540.186         589.044          44.000  
G10  24864719.717   130664944.282       -1996.781          43.000  
G12  20816900.149   109393666.187        1043.520          47.000  
G25  22262877.577   116992328.668        3056.786          44.000  
G32  23510958.873   123551017.591        2587.750          46.000  
> 2023 12 29 13 32 11.0020000  0 16                     
G17  25468007.371   133835308.5442      -2870.944          25.000  
G19  23124793.320   121521587.245       -1654.681          34.000  
G24  21462486.119   112786149.573       -1798.090          46.000  
G15  25074327.702   131766411.572       -3751.156          40.000  
E27  26861071.226   141155855.624        2622.088          40.000  
E10  29404593.255                       -1158.645          21.000  
E02  25523744.106   134128168.316       -1834.168          38.000  
E08  26705378.655   140337663.607       -2787.295          41.000  
E14  23553254.683   123773249.324        3887.002          46.000  
E07  24530267.193   128907459.212        -570.373          43.000  
G23  25973327.548   136490681.604       -2972.250          35.000  
E30  24097243.670   126631951.218         588.154          44.000  
G10  24865099.835   130666941.316       -1997.906          43.000  
G12  20816701.880   109392622.843        1042.616          47.000  
G25  22262295.525   116989271.810        3056.443          43.000  
G32  23510466.236   123548430.171        2586.593          46.000  
> 2023 12 29 13 32 12.0020000  0 16                     
G17  25468555.901   133838180.0892      -2871.487          25.000  
G19  23125108.191   121523241.938       -1655.277          33.000  
G24  21462828.370   112787947.556       -1798.364          46.000  
G15  25075041.608   131770162.702       -3750.957          41.000  
E27  26860571.574   141153233.382        2622.020          40.000  
E10  29404812.849                       -1155.977          21.000  
E02  25524092.989   134130002.113       -1834.008          37.000  
E08  26705909.247   140340450.849       -2787.569          41.000  
E14  23552514.950   123769362.320        3886.618          45.000  
E07  24530375.402   128908029.636        -571.014          44.000  
G23  25973893.476   136493653.650       -2972.533          36.000  
E30  24097131.343   126631362.819         588.167          44.000  
G10  24865479.378   130668939.038       -1998.075          43.000  
G12  20816503.855   109391580.336        1042.103          48.000  
G25  22261713.839   116986215.585        3056.010          44.000  
G32  23509974.297   123545843.516        2586.169          46.000  
> 2023 12 29 13 32 13.0020000  0 16                     
G17  25469101.465   133841051.4361      -2872.316          24.000  
G19  23125423.499   121524897.454       -1655.997          32.000  
G24  21463170.656   112789746.140       -1799.225          46.000  
G15  25075755.583   131773914.016       -3751.916          39.000  
E27  26860072.899   141150611.508        2621.509          41.000  
E10  29405031.814                       -1158.555          22.000  
E02  25524441.941   134131836.271       -1834.537          38.000  
E08  26706439.995   140343238.406       -2788.125          42.000  
E14  23551775.375   123765475.925        3885.794          45.000  
E07  24530484.379   128908600.700        -571.634          44.000  
G23  25974459.544   136496625.844       -2972.602          35.000  
E30  24097019.225   126630774.913         587.467          44.000  
G10  24865859.339   130670937.305       -1998.854          42.000  
G12  20816305.777   109390538.539        1041.225          48.000  
G25  22261132.520   116983159.885        3055.322          44.000  
G32  23509482.393   123543257.479        2585.583          46.000  
> 2023 12 29 13 32 14.0020000  0 16                     
G17  25469647.569                       -2868.734          23.000  
G19  23125738.807   121526553.909       -1657.572          32.000  
G24  21463512.959   112791545.528       -1799.622          46.000  
G15  25076469.681   131777665.697       -3751.422          39.000  
E27  26859573.770   141147990.141        2621.157          41.000  
E10  29405251.984                       -1151.175          22.000  
E02  25524791.137   134133670.961       -1834.855          38.000  
E08  26706970.272   140346026.532       -2788.362          41.000  
E14  23551036.097   123761590.342        3885.016          45.000  
E07  24530593.355   128909172.590        -572.277          44.000  
G23  25975025.454   136499598.398       -2972.544          35.000  
E30  24096907.718   126630187.674         586.885          44.000  
G10  24866239.387   130672936.337       -1999.239          42.000  
G12  20816108.136   109389497.646        1040.444          48.000  
G25  22260551.323   116980104.923        3054.504          44.000  
G32  23508990.960   123540672.265        2584.828          47.000  
> 2023 12 29 13 32 15.0020000  0 16                     
G17  25470194.477                       -2871.296          23.000  
G19  23126057.518   121528210.724       -1656.747          31.000  
G24  21463855.682   112793345.113       -1799.542          47.000  
G15  25077183.430   131781417.209       -3751.019          38.000  
E27  26859075.182   141145368.744        2621.899          41.000  
E10  29405475.975                       -1151.691          21.000  
E02  25525140.159   134135505.546       -1834.515          38.000  
E08  26707500.724   140348814.626       -2787.750          41.000  
E14  23550296.557   123757704.979        3885.443          44.000  
E07  24530702.471   128909744.746        -571.951          44.000  
G23  25975591.208   136502570.802       -2971.919          34.000  
E30  24096795.548   126629600.525         587.241          44.000  
G10  24866618.580   130674935.576       -1998.943          40.000  
G12  20815909.745   109388457.086        1040.640          48.000  
G25  22259969.882   116977050.060        3054.985          44.000  
G32  23508499.980   123538087.346        2584.933          47.000  
> 2023 12 29 13 32 16.0020000  0 16                     
G17  25470736.777                       -2876.870          23.000  
G19  23126374.484   121529868.238       -1658.570          30.000  
G24  21464198.456   112795145.186       -1800.244          46.000  
G15  25077897.039   131785168.818       -3751.780          38.000  
E27  26858576.124   141142747.550        2621.188          40.000  
E10  29405700.803                       -1157.827          22.000  
E02  25525489.547   134137340.366       -1834.742          37.000  
E08  26708031.141   140351602.977       -2788.633          41.000  
E14  23549557.418   123753820.114        3884.582          45.000  
E07  24530811.099   128910317.412        -572.939          44.000  
G23  25976157.206   136505543.272       -2973.261          35.000  
E30  24096684.059   126629013.739         586.526          44.000  
G10  24866998.541   130676935.312       -1999.919          41.000  
G12  20815712.173   109387417.114        1039.770          48.000  
G25  22259388.423   116973995.620        3054.249          44.000  
G32  23508008.425   123535502.953        2584.134          47.000  
> 2023 12 29 13 32 17.0020000  0 16                     
G17  25471280.456                       -2876.210          22.000  
G19  23126689.251   121531526.244       -1658.328          31.000  
G24  21464540.987   112796945.673       -1800.482          46.000  
G15  25078611.102   131788920.421       -3751.102          38.000  
E27  26858076.855   141140126.493        2621.370          40.000  
E10  29405920.920                       -1162.401          22.000  
E02  25525838.604   134139175.340       -1834.833          38.000  
E08  26708561.226   140354391.445       -2788.144          40.000  
E14  23548818.680   123749935.661        3884.455          44.000  
E07  24530920.093   128910890.541        -573.137          44.000  
G23  25976723.012   136508515.661       -2972.434          35.000  
E30  24096572.307   126628427.234         586.596          44.000  
G10  24867378.816   130678935.384       -2000.265          41.000  
G12  20815514.305   109386377.679        1039.358          48.000  
G25  22258807.348   116970941.509        3054.070          44.000  
G32  23507517.760   123532919.000        2584.009          48.000  
> 2023 12 29 13 32 18.0020000  0 16                     
G17  25471827.852                       -2868.181          23.000  
G19  23127005.030   121533184.885       -1658.608          33.000  
G24  21464883.988   112798746.574       -1800.812          46.000  
G15  25079324.519   131792672.031       -3751.697          35.000  
E27  26857577.849   141137505.629        2620.915          40.000  
E10  29406143.044                       -1154.279          21.000  
E02  25526188.079   134141010.432       -1834.889          38.000  
E08  26709091.573   140357180.093       -2788.459          40.000  
E14  23548079.820   123746051.662        3883.966          45.000  
E07  24531028.738   128911464.107        -573.621          44.000  
G23  25977289.009   136511488.069       -2972.265          36.000  
E30  24096460.958   126627841.030         586.260          44.000  
G10  24867759.790   130680935.816       -2000.327          42.000  
G12  20815316.228   109385338.768        1038.893          48.000  
G25  22258226.570   116967887.721        3053.967          44.000  
G32  23507026.641   123530335.493        2583.501          48.000  
> 2023 12 29 13 32 19.0020000  0 16                     
G17  25472374.236                       -2872.982          23.000  
G19  23127318.733   121534843.898       -1658.945          32.000  
G24  21465227.094   112800547.679       -1800.928          46.000  
G15  25080038.495   131796423.436       -3751.313          38.000  
E27  26857079.349   141134884.638        2621.198          40.000  
E10  29406362.725                       -1157.007          21.000  
E02  25526536.996   134142845.425       -1834.629          38.000  
E08  26709622.862   140359968.722       -2788.612          41.000  
E14  23547340.664   123742167.872        3883.864          44.000  
E07  24531137.819   128912037.893        -573.720          44.000  
G23  25977855.129   136514460.184       -2971.579          36.000  
E30  24096349.241   126627254.896         586.192          44.000  
G10  24868140.658   130682936.430       -2000.783          42.000  
G12  20815119.058   109384300.150        1038.708          48.000  
G25  22257645.460   116964834.043        3053.802          44.000  
G32  23506534.510   123527752.248        2583.223          47.000  
> 2023 12 29 13 32 20.0020000  0 16                     
G17  25472922.225                       -2876.670          23.000  
G19  23127633.604   121536503.454       -1660.811          33.000  
G24  21465569.956   112802349.077       -1801.678          46.000  
G15  25080752.663   131800174.736       -3751.349          38.000  
E27  26856580.709   141132263.712        2620.689          40.000  
E10  29406583.313                       -1155.149          20.000  
E02  25526886.018   134144680.478       -1835.321          38.000  
E08  26710153.663   140362757.379       -2788.762          41.000  
E14  23546601.874   123738284.382        3883.233          44.000  
E07  24531246.813   128912612.025        -574.328          44.000  
G23  25978420.342   136517432.257       -2971.755          33.000  
E30  24096238.136   126626668.925         585.712          44.000  
G10  24868521.753   130684937.297       -2001.208          42.000  
G12  20814921.556   109383261.968        1037.722          48.000  
G25  22257064.194   116961780.587        3052.882          44.000  
G32  23506043.443   123525169.347        2582.549          47.000  
> 2023 12 29 13 32 21.0020000  0 16                     
G17  25473471.540                       -2871.096          22.000  
G19  23127948.284   121538163.430       -1660.478          31.000  
G24  21465913.237   112804150.843       -1801.849          46.000  
G15  25081466.691   131803925.941       -3751.061          38.000  
E27  26856082.051   141129642.860        2620.772          40.000  
E10  29406804.826                       -1161.675          20.000  
E02  25527235.162   134146515.554       -1834.877          38.000  
E08  26710684.778   140365546.155       -2788.813          42.000  
E14  23545863.154   123734401.282        3883.048          45.000  
E07  24531356.226   128913186.541        -574.652          44.000  
G23  25978985.991   136520404.259       -2971.429          34.000  
E30  24096126.384   126626083.194         585.535          44.000  
G10  24868903.110   130686938.473       -2001.434          42.000  
G12  20814724.299   109382224.245        1037.542          48.000  
G25  22256482.997   116958727.390        3053.298          44.000  
G32  23505552.045   123522586.813        2582.466          48.000  
> 2023 12 29 13 32 22.0020000  0 16                     
G17  25474020.577                       -2878.240          21.000  
G19  23128263.662   121539823.821       -1660.428          30.000  
G24  21466256.169   112805952.864       -1801.801          46.000  
G15  25082180.439   131807677.077       -3750.593          39.000  
E27  26855583.499   141127021.997        2621.334          40.000  
E10  29407025.606                       -1160.605          21.000  
E02  25527584.376   134148350.702       -1835.210          38.000  
E08  26711215.299   140368334.974       -2788.678          42.000  
E14  23545124.033   123730518.438        3883.008          44.000  
E07  24531465.238   128913761.380        -574.613          44.000  
G23  25979551.709   136523376.159       -2971.398          35.000  
E30  24096015.314   126625497.603         585.730          44.000  
G10  24869284.101   130688939.901       -2000.880          42.000  
G12  20814527.094   109381186.911        1037.280          48.000  
G25  22255901.416   116955674.378        3053.365          43.000  
G32  23505060.612   123520004.612        2582.227          48.000  
> 2023 12 29 13 32 23.0020000  0 16                     
G17  25474565.146                       -2879.212          20.000  
G19  23128579.528   121541484.846       -1661.781          30.000  
G24  21466599.100   112807755.273       -1802.899          46.000  
G15  25082894.799   131811428.158       -3751.454          39.000  
E27  26855085.138   141124401.260        2620.331          40.000  
E10  29407247.416                       -1159.804          21.000  
E02  25527933.694   134150185.903       -1835.324          38.000  
E08  26711746.379   140371123.877       -2789.411          42.000  
E14  23544385.295   123726636.037        3881.728          44.000  
E07  24531574.860   128914336.618        -575.645          43.000  
G23  25980117.288   136526347.920       -2972.355          35.000  
E30  24095903.755   126624912.276         584.750          44.000  
G10  24869664.603   130690941.704       -2002.188          42.000  
G12  20814329.872   109380150.056        1036.303          48.000  
G25  22255320.289   116952621.667        3052.343          43.000  
G32  23504568.935   123517422.870        2581.378          47.000  
> 2023 12 29 13 32 24.0020000  0 16                     
G17  25475115.630                       -2871.532          19.000  
G19  23128898.675   121543146.767       -1662.318          29.000  
G24  21466941.700   112809558.366       -1802.783          46.000  
G15  25083608.984   131815179.583       -3751.419          39.000  
E27  26854586.672   141121780.966        2620.949          40.000  
E10  29407468.458                       -1158.177          20.000  
E02  25528283.466   134152021.528       -1835.426          38.000  
E08  26712277.041   140373913.245       -2788.978          41.000  
E14  23543646.750   123722754.320        3881.945          44.000  
E07  24531683.907   128914912.618        -575.760          43.000  
G23  25980683.251   136529319.956       -2970.583          35.000  
E30  24095792.806   126624327.511         585.142          44.000  
G10  24870046.012   130692944.161       -2002.231          42.000  
G12  20814132.946   109379114.025        1036.255          48.000  
G25  22254739.162   116949569.595        3052.389          43.000  
G32  23504077.432   123514841.833        2581.383          47.000  
> 2023 12 29 13 32 25.0020000  0 16                     
G17  25475661.159                       -2873.987          19.000  
G19  23129218.311   121544808.927       -1663.396          30.000  
G24  21467284.911   112811361.680       -1803.821          46.000  
G15  25084322.872   131818930.759       -3751.425          37.000  
E27  26854088.800   141119160.602        2620.283          40.000  
E10  29407690.023                       -1154.643          20.000  
E02  25528632.977   134153857.092       -1835.976          38.000  
E08  26712807.946   140376702.590       -2789.471          42.000  
E14  23542908.065   123718872.826        3881.127          45.000  
E07  24531793.599   128915488.856        -576.603          43.000  
G23  25981248.795   136532291.861       -2972.551          35.000  
E30  24095681.282   126623742.842         584.384          44.000  
G10  24870426.951   130694946.774       -2003.120          41.000  
G12  20813935.985   109378078.307        1035.249          48.000  
G25  22254158.523   116946517.636        3051.417          43.000  
G32  23503585.685   123512261.067        2580.297          46.000  
> 2023 12 29 13 32 26.0020000  0 16                     
G17  25476207.839                       -2861.571          19.000  
G19  23129530.146   121546471.574       -1663.033          31.000  
G24  21467628.000   112813165.260       -1803.253          46.000  
G15  25085036.674   131822681.808       -3750.803          38.000  
E27  26853590.213   141116540.247        2620.801          41.000  
E10  29407914.049                       -1153.460          21.000  
E02  25528982.435   134155692.662       -1835.318          38.000  
E08  26713338.851   140379491.958       -2789.149          41.000  
E14  23542169.205   123714991.628        3881.416          45.000  
E07  24531903.046   128916065.392        -576.356          43.000  
G23  25981814.165   136535263.541       -2971.188          37.000  
E30  24095570.368   126623158.315         584.847          44.000  
G10  24870808.517   130696949.621       -2002.604          42.000  
G12  20813739.199   109377042.974        1035.498          48.000  
G25  22253577.937   116943465.849        3052.273          43.000  
G32  23503094.618   123509680.613        2580.696          47.000  
> 2023 12 29 13 32 27.0020000  0 16                     
G17  25476754.031                       -2880.972          21.000  
G19  23129842.732   121548134.659       -1663.655          30.000  
G24  21467971.246   112814969.112       -1803.992          46.000  
G15  25085750.527   131826432.746       -3751.097          38.000  
E27  26853091.782   141113919.914        2620.260          41.000  
E10  29408136.923                       -1164.621          21.000  
E02  25529331.945   134157528.230       -1835.747          38.000  
E08  26713869.670   140382281.353       -2789.416          41.000  
E14  23541430.520   123711110.720        3880.798          45.000  
E07  24532012.704   128916642.243        -577.136          43.000  
G23  25982379.779   136538235.079       -2971.047          35.000  
E30  24095459.420   126622573.959         584.109          44.000  
G10  24871189.700   130698952.717       -2003.098          42.000  
G12  20813542.326   109376008.038        1034.606          48.000  
G25  22252997.124   116940414.302        3051.335          43.000  
G32  23502603.778   123507100.485        2579.866          47.000  
> 2023 12 29 13 32 28.0020000  0 16                     
G17  25477301.933                       -2872.334          21.000  
G19  23130156.662   121549798.387       -1664.791          31.000  
G24  21468314.893   112816773.446       -1804.834          46.000  
G15  25086464.311   131830183.735       -3751.087          38.000  
E27  26852593.142   141111299.765        2619.854          41.000  
E10  29408358.716                       -1158.647          21.000  
E02  25529680.967   134159363.979       -1835.791          38.000  
E08  26714401.011   140385070.960       -2789.839          41.000  
E14  23540692.498   123707230.288        3880.208          45.000  
E07  24532122.745   128917219.597        -577.746          43.000  
G23  25982945.166   136541206.713       -2971.837          35.000  
E30  24095348.227   126621989.914         583.804          44.000  
G10  24871571.004   130700956.248       -2003.989          42.000  
G12  20813345.645   109374973.692        1033.931          49.000  
G25  22252416.852   116937363.091        3050.787          44.000  
G32  23502112.607   123504520.875        2579.173          47.000  
> 2023 12 29 13 32 29.0020000  0 16                     
G17  25477848.840                       -2870.119          21.000  
G19  23130479.665   121551462.889       -1664.839          31.000  
G24  21468658.435   112818578.427       -1804.864          46.000  
G15  25087178.269   131833934.988       -3750.978          39.000  
E27  26852094.607   141108679.992        2619.931          40.000  
E10  29408577.629                       -1165.740          22.000  
E02  25530030.617   134161200.071       -1835.418          37.000  
E08  26714932.161   140387860.995       -2789.858          42.000  
E14  23539953.882   123703350.526        3879.913          45.000  
E07  24532233.170   128917797.623        -577.874          43.000  
G23  25983510.972   136544178.445       -2970.921          38.000  
E30  24095236.790   126621406.411         583.663          44.000  
G10  24871952.902   130702960.387       -2004.030          42.000  
G12  20813149.138   109373940.092        1033.549          48.000  
G25  22251836.527   116934312.447        3050.843          43.000  
G32  23501621.471   123501941.948        2578.939          47.000  
> 2023 12 29 13 32 30.0020000  0 15                     
G19  23130794.118   121553128.173       -1666.387          31.000  
G24  21469002.239   112820383.937       -1805.847          46.000  
G15  25087892.192   131837686.357       -3751.915          39.000  
E27  26851595.984   141106060.512        2619.479          40.000  
E10  29408798.636                       -1167.659          23.000  
E02  25530379.848   134163036.495       -1836.494          36.000  
E08  26715463.346   140390651.310       -2790.366          42.000  
E14  23539215.825   123699471.332        3879.018          45.000  
E07  24532343.211   128918376.244        -578.608          43.000  
G23  25984076.847   136547150.395       -2970.768          36.000  
E30  24095126.121   126620823.315         582.876          44.000  
G10  24872334.277   130704965.024       -2005.038          42.000  
G12  20812952.299   109372907.167        1032.459          48.000  
G25  22251256.116   116931262.287        3050.025          43.000  
G32  23501130.422   123499363.612        2577.986          47.000  
> 2023 12 29 13 32 31.0020000  0 15                     
G19  23131111.433   121554793.929       -1665.874          31.000  
G24  21469345.939   112822189.789       -1806.335          46.000  
G15  25088605.767   131841437.718       -3751.953          38.000  
E27  26851097.484   141103441.112        2619.322          40.000  
E10  29409018.596                       -1170.136          23.000  
E02  25530729.202   134164872.990       -1836.515          36.000  
E08  26715994.164   140393441.716       -2790.450          42.000  
E14  23538477.856   123695592.502        3878.555          45.000  
E07  24532453.444   128918955.260        -579.251          43.000  
G23  25984642.479   136550122.305       -2972.256          38.000  
E30  24095015.434   126620240.457         582.609          44.000  
G10  24872715.477   130706969.998       -2005.496          42.000  
G12  20812755.932   109371874.699        1032.104          48.000  
G25  22250675.512   116928212.389        3049.419          43.000  
G32  23500639.407   123496785.660        2577.514          47.000  
> 2023 12 29 13 32 32.0020000  0 15                     
G19  23131426.863   121556460.582       -1668.513          31.000  
G24  21469689.918   112823996.340       -1806.689          47.000  
G15  25089319.847   131845189.272       -3751.684          38.000  
E27  26850599.298   141100822.133        2618.908          40.000  
E10  29409240.493                       -1169.476          22.000  
E02  25531078.729   134166709.864       -1836.790          37.000  
E08  26716525.017   140396232.557       -2790.961          42.000  
E14  23537740.130   123691714.364        3877.942          45.000  
E07  24532563.921   128919534.980        -579.886          43.000  
G23  25985207.674   136553094.379       -2970.644          37.000  
E30  24094904.642   126619658.153         582.331          44.000  
G10  24873096.642   130708975.570       -2005.848          41.000  
G12  20812559.530   109370843.003        1031.455          48.000  
G25  22250095.833   116925163.095        3049.170          44.000  
G32  23500148.725   123494208.449        2577.009          47.000  
> 2023 12 29 13 32 33.0020000  0 15                     
G19  23131748.278   121558127.861       -1668.444          31.000  
G24  21470033.565   112825803.361       -1807.373          47.000  
G15  25090033.351   131848940.990       -3751.792          37.000  
E27  26850100.884   141098203.364        2618.678          41.000  
E10  29409461.953                       -1165.244          21.000  
E02  25531428.048   134168546.898       -1837.289          37.000  
E08  26717056.079   140399023.638       -2791.275          42.000  
E14  23537002.440   123687836.729        3877.469          45.000  
E07  24532673.997   128920115.241        -580.598          43.000  
G23  25985773.305   136556066.614       -2971.878          37.000  
E30  24094794.217   126619076.212         581.805          44.000  
G10  24873478.505   130710981.645       -2006.239          42.000  
G12  20812363.075   109369811.944        1030.708          48.000  
G25  22249515.509   116922114.212        3048.717          44.000  
G32  23499658.810   123491631.759        2576.323          47.000  
> 2023 12 29 13 32 34.0020000  0 15                     
G19  23132058.316   121559795.371       -1667.700          32.000  
G24  21470377.229   112827610.462       -1807.367          46.000  
G15  25090747.013   131852692.303       -3751.375          37.000  
E27  26849602.506   141095584.395        2619.154          40.000  
E10  29409682.995                       -1165.628          20.000  
E02  25531778.239   134170383.787       -1836.880          37.000  
E08  26717586.758   140401814.512       -2790.858          41.000  
E14  23536264.522   123683959.189        3877.506          45.000  
E07  24532784.143   128920695.585        -580.364          43.000  
G23  25986338.745   136559038.452       -2971.751          37.000  
E30  24094683.461   126618494.217         581.910          44.000  
G10  24873860.508   130712987.746       -2006.292          42.000  
G12  20812166.429   109368781.042        1030.571          47.000  
G25  22248935.621   116919065.324        3048.614          44.000  
G32  23499168.843   123489055.194        2576.403          47.000  
> 2023 12 29 13 32 35.0020000  0 15                     
G19  23132375.876   121561463.480       -1667.674          31.000  
G24  21470721.103   112829418.082       -1807.385          46.000  
G15  25091460.343   131856443.787       -3751.296          36.000  
E27  26849104.093   141092965.707        2618.816          41.000  
E10  29409905.800                       -1173.969          20.000  
E02  25532127.767   134172220.909       -1836.536          37.000  
E08  26718117.925   140404605.718       -2791.126          42.000  
E14  23535526.186   123680082.194        3877.011          45.000  
E07  24532894.672   128921276.507        -580.932          43.000  
G23  25986904.638   136562010.325       -2971.538          37.000  
E30  24094573.280   126617912.635         581.517          45.000  
G10  24874242.039   130714994.345       -2006.151          42.000  
G12  20811970.428   109367750.780        1030.288          48.000  
G25  22248356.046   116916016.849        3048.502          44.000  
G32  23498678.404   123486479.186        2575.837          46.000  
> 2023 12 29 13 32 36.0020000  0 15                     
G19  23132689.543   121563132.186       -1669.676          31.000  
G24  21471065.204   112831225.915       -1808.185          46.000  
G15  25092174.179   131860195.050       -3750.956          37.000  
E27  26848605.680   141090346.926        2618.578          41.000  
E10  29410129.093                       -1170.584          19.000  
E02  25532477.190   134174057.936       -1837.279          38.000  
E08  26718648.918   140407396.853       -2791.595          42.000  
E14  23534788.670   123676205.426        3876.299          45.000  
E07  24533004.940   128921857.666        -581.583          43.000  
G23  25987469.658   136564982.032       -2972.265          36.000  
E30  24094462.698   126617331.098         581.321          44.000  
G10  24874623.780   130717001.116       -2007.190          42.000  
G12  20811774.427   109366720.832        1029.617          47.000  
G25  22247776.106   116912968.496        3048.062          44.000  
G32  23498188.350   123483903.430        2575.363          47.000  
> 2023 12 29 13 32 37.0020000  0 15                     
G19  23133008.673   121564801.594       -1670.101          31.000  
G24  21471409.148   112833034.387       -1808.868          47.000  
G15  25092888.015   131863946.543       -3751.329          37.000  
E27  26848107.215   141087728.525        2618.291          41.000  
E10  29410353.851                       -1167.036          21.000  
E02  25532827.171   134175895.355       -1837.672          38.000  
E08  26719180.120   140410188.378       -2791.999          42.000  
E14  23534050.980   123672329.305        3875.613          44.000  
E07  24533116.081   128922439.487        -582.382          43.000  
G23  25988035.115   136567953.889       -2972.036          36.000  
E30  24094351.680   126616750.092         580.834          44.000  
G10  24875005.504   130719008.488       -2007.851          43.000  
G12  20811578.374   109365691.632        1028.833          48.000  
G25  22247196.340   116909920.711        3047.535          44.000  
G32  23497698.365   123481328.336        2574.546          47.000  
> 2023 12 29 13 32 38.0020000  0 15                     
G19  23133320.508   121566471.628       -1670.222          30.000  
G24  21471752.725   112834843.444       -1809.259          46.000  
G15  25093602.549   131867698.254       -3751.989          38.000  
E27  26847609.220   141085110.441        2618.074          41.000  
E10  29410575.190                       -1163.372          22.000  
E02  25533177.293   134177733.090       -1837.897          40.000  
E08  26719711.479   140412980.255       -2791.860          41.000  
E14  23533312.818   123668453.807        3875.337          44.000  
E07  24533226.628   128923021.939        -582.685          43.000  
G23  25988600.712   136570926.000       -2972.012          36.000  
E30  24094241.098   126616169.564         580.300          44.000  
G10  24875387.960   130721016.439       -2008.358          43.000  
G12  20811383.019   109364663.165        1028.103          48.000  
G25  22246616.539   116906873.451        3047.083          44.000  
G32  23497208.328   123478753.920        2574.003          47.000  
> 2023 12 29 13 32 39.0020000  0 15                     
G19  23133643.547   121568142.628       -1671.420          30.000  
G24  21472097.036   112836653.040       -1809.918          46.000  
G15  25094316.822   131871450.062       -3752.007          38.000  
E27  26847111.348   141082492.655        2617.726          41.000  
E10  29410795.132                       -1173.905          22.000  
E02  25533527.344   134179571.058       -1838.400          40.000  
E08  26720242.611   140415772.388       -2792.497          41.000  
E14  23532575.686   123664578.828        3874.698          44.000  
E07  24533337.733   128923604.972        -583.577          43.000  
G23  25989166.884   136573898.234       -2972.695          36.000  
E30  24094130.760   126615589.436         579.749          44.000  
G10  24875770.172   130723024.849       -2008.915          43.000  
G12  20811187.471   109363635.316        1027.432          48.000  
G25  22246037.087   116903826.627        3046.452          45.000  
G32  23496719.164   123476180.045        2573.626          47.000  
> 2023 12 29 13 32 40.0020000  0 15                     
G19  23133963.793   121569814.008       -1672.532          29.000  
G24  21472441.293   112838462.995       -1809.918          45.000  
G15  25095031.478   131875201.802       -3751.627          39.000  
E27  26846612.726   141079874.954        2617.945          41.000  
E10  29411016.750                       -1171.099          22.000  
E02  25533877.291   134181409.151       -1837.658          39.000  
E08  26720773.935   140418564.654       -2792.101          41.000  
E14  23531838.327   123660704.276        3874.518          43.000  
E07  24533448.595   128924188.379        -583.211          43.000  
G23  25989732.533   136576870.341       -2971.817          37.000  
E30  24094020.579   126615009.559         580.012          44.000  
G10  24876152.978   130725033.625       -2008.749          43.000  
G12  20810991.610   109362607.963        1027.295          47.000  
G25  22245457.007   116900780.079        3046.801          44.000  
G32  23496229.092   123473606.615        2573.595          47.000  
> 2023 12 29 13 32 41.0020000  0 15                     
G19  23134287.128   121571485.646       -1672.133          31.000  
G24  21472785.639   112840273.101       -1810.339          45.000  
G15  25095745.785   131878953.313       -3751.140          39.000  
E27  26846114.278   141077257.140        2617.724          41.000  
E10  29411237.530                       -1169.061          21.000  
E02  25534226.993   134183247.089       -1837.959          39.000  
E08  26721305.172   140421356.841       -2791.997          41.000  
E14  23531101.212   123656829.868        3874.258          44.000  
E07  24533560.154   128924772.008        -583.654          43.000  
G23  25990297.553   136579842.201       -2971.961          34.000  
E30  24093910.154   126614429.701         579.906          44.000  
G10  24876535.399   130727042.486       -2008.866          43.000  
G12  20810795.574   109361580.857        1027.109          47.000  
G25  22244876.979   116897733.592        3046.444          44.000  
G32  23495739.177   123471033.361        2573.228          47.000  
> 2023 12 29 13 32 42.0020000  0 15                     
G19  23134606.903   121573157.530       -1672.056          31.000  
G24  21473130.141   112842083.194       -1810.626          46.000  
G15  25096459.883   131882704.383       -3751.284          39.000  
E27  26845616.091   141074639.032        2617.698          42.000  
E10  29411460.335                       -1174.895          19.000  
E02  25534576.940   134185084.781       -1838.165          38.000  
E08  26721836.776   140424148.762       -2792.229          43.000  
E14  23530363.941   123652955.449        3873.988          44.000  
E07  24533671.068   128925355.644        -583.999          42.000  
G23  25990862.504   136582813.620       -2971.644          35.000  
E30  24093799.572   126613849.714         579.474          44.000  
G10  24876917.454   130729051.295       -2009.363          42.000  
G12  20810599.731   109360553.891        1026.368          47.000  
G25  22244297.108   116894687.039        3045.965          44.000  
G32  23495249.594   123468460.135        2572.637          47.000  
> 2023 12 29 13 32 43.0020000  0 15                     
G19  23134918.843   121574830.237       -1673.015          32.000  
G24  21473474.852   112843894.030       -1811.432          46.000  
G15  25097173.649   131886455.869       -3751.750          39.000  
E27  26845118.289   141072021.405        2617.304          41.000  
E10  29411684.954                       -1175.576          19.000  
E02  25534926.764   134186922.907       -1838.707          39.000  
E08  26722368.187   140426941.196       -2792.822          42.000  
E14  23529627.140   123649081.813        3873.128          45.000  
E07  24533782.208   128925940.070        -584.942          43.000  
G23  25991427.839   136585785.387       -2972.137          36.000  
E30  24093689.322   126613270.343         578.974          44.000  
G10  24877300.190   130731060.827       -2010.058          42.000  
G12  20810404.236   109359527.734        1025.721          47.000  
G25  22243717.220   116891641.131        3045.386          45.000  
G32  23494760.324   123465887.727        2571.869          47.000  
> 2023 12 29 13 32 44.0020000  0 15                     
G19  23135239.805   121576503.131       -1673.663          30.000  
G24  21473819.407   112845704.808       -1811.591          46.000  
G15  25097887.572   131890206.788       -3751.224          38.000  
E27  26844620.364   141069403.474        2617.494          41.000  
E10  29411908.840                       -1175.724          18.000  
E02  25535276.292   134188760.668       -1838.076          39.000  
E08  26722899.163   140429733.317       -2792.488          42.000  
E14  23528889.973   123645208.135        3873.379          45.000  
E07  24533893.837   128926524.480        -585.005          43.000  
G23  25991993.191   136588756.633       -2971.789          37.000  
E30  24093579.333   126612690.786         579.056          44.000  
G10  24877682.891   130733070.272       -2010.161          43.000  
G12  20810208.724   109358501.675        1025.562          47.000  
G25  22243137.925   116888595.083        3045.696          45.000  
G32  23494271.003   123463315.295        2571.865          47.000  
> 2023 12 29 13 32 45.0020000  0 15                     
G19  23135560.104   121578176.966       -1674.007          33.000  
G24  21474164.066   112847516.349       -1811.047          46.000  
G15  25098601.216   131893958.143       -3750.789          39.000  
E27  26844121.864   141066786.087        2617.786          41.000  
E10  29412128.975                       -1182.568          19.000  
E02  25535625.994   134190599.008       -1838.070          39.000  
E08  26723430.574   140432525.956       -2792.046          42.000  
E14  23528152.771   123641335.284        3873.289          45.000  
E07  24534005.798   128927109.698        -584.903          43.000  
G23  25992558.316   136591728.255       -2970.677          37.000  
E30  24093469.205   126612111.898         579.376          44.000  
G10  24878065.679   130735080.471       -2010.066          44.000  
G12  20810013.822   109357476.504        1025.382          47.000  
G25  22242558.299   116885549.788        3045.592          44.000  
G32  23493781.402   123460743.719        2572.067          47.000  
> 2023 12 29 13 32 46.0020000  0 15                     
G19  23135877.733   121579851.278       -1675.673          33.000  
G24  21474509.040   112849328.267       -1812.445          46.000  
G15  25099315.332   131897709.430       -3751.827          38.000  
E27  26843624.428   141064168.726        2616.874          41.000  
E10  29412353.402                       -1167.890          18.000  
E02  25535976.203   134192437.367       -1838.966          39.000  
E08  26723961.619   140435318.704       -2793.549          41.000  
E14  23527416.110   123637462.777        3871.632          46.000  
E07  24534117.566   128927695.317        -586.630          43.000  
G23  25993123.372   136594699.782       -2971.858          37.000  
E30  24093359.199   126611533.233         578.052          44.000  
G10  24878447.873   130737090.981       -2011.368          42.000  
G12  20809818.956   109356451.780        1023.914          47.000  
G25  22241979.178   116882504.714        3044.294          44.000  
G32  23493292.220   123458172.520        2570.250          47.000  
> 2023 12 29 13 32 47.0020000  0 15                     
G19  23136197.159   121581526.217       -1675.263          33.000  
G24  21474854.327   112851140.612       -1812.128          46.000  
G15  25100029.447   131901460.765       -3751.123          39.000  
E27  26843126.853   141061551.578        2617.331          42.000  
E10  29412576.573                       -1168.893          21.000  
E02  25536325.992   134194275.909       -1838.436          39.000  
E08  26724492.647   140438111.622       -2792.618          41.000  
E14  23526679.222   123633590.736        3871.938          45.000  
E07  24534228.986   128928281.395        -586.014          43.000  
G23  25993689.003   136597671.288       -2971.363          38.000  
E30  24093248.983   126610954.895         578.575          44.000  
G10  24878830.452   130739101.887       -2010.936          43.000  
G12  20809624.176   109355427.622        1024.188          47.000  
G25  22241399.343   116879459.994        3045.056          44.000  
G32  23492802.550   123455601.808        2570.816          47.000  
> 2023 12 29 13 32 48.0020000  0 15                     
G19  23136516.568   121583202.326       -1676.726          33.000  
G24  21475199.440   112852954.057       -1813.977          46.000  
G15  25100743.405   131905212.759       -3752.296          39.000  
E27  26842628.858   141058935.222        2615.741          41.000  
E10  29412799.342                       -1167.815          19.000  
E02  25536675.834   134196115.198       -1839.506          39.000  
E08  26725024.058   140440905.433       -2794.434          40.000  
E14  23525942.649   123629719.779        3870.257          45.000  
E07  24534340.981   128928868.583        -587.903          43.000  
G23  25994254.059   136600643.552       -2972.902          36.000  
E30  24093139.152   126610377.509         576.809          44.000  
G10  24879213.380   130741113.859       -2012.749          43.000  
G12  20809429.798   109354404.661        1022.299          48.000  
G25  22240819.803   116876416.295        3043.133          44.000  
G32  23492312.966   123453032.256        2568.923          47.000  
> 2023 12 29 13 32 49.0020000  0 15                     
G19  23136835.314   121584879.477       -1677.368          32.000  
G24  21475545.251   112854768.236       -1814.301          47.000  
G15  25101457.259   131908965.137       -3752.406          39.000  
E27  26842131.073   141056319.361        2615.864          41.000  
E10  29413022.723                       -1171.566          18.000  
E02  25537025.781   134197955.038       -1840.074          39.000  
E08  26725555.609   140443699.677       -2794.323          41.000  
E14  23525206.232   123625849.626        3869.917          45.000  
E07  24534453.012   128929456.579        -588.297          43.000  
G23  25994819.481   136603616.023       -2972.421          36.000  
E30  24093029.459   126609800.732         576.727          44.000  
G10  24879595.888   130743126.528       -2012.878          42.000  
G12  20809235.316   109353382.558        1021.680          48.000  
G25  22240240.596   116873373.265        3042.846          44.000  
G32  23491823.854   123450463.461        2568.442          46.000  
> 2023 12 29 13 32 50.0020000  0 15                     
G19  23137154.269   121586557.050       -1677.832          31.000  
G24  21475890.835   112856582.762       -1815.179          46.000  
G15  25102171.147   131912717.364       -3752.579          38.000  
E27  26841633.219   141053703.546        2615.426          41.000  
E10  29413244.532                       -1172.386          19.000  
E02  25537376.007   134199794.896       -1840.687          38.000  
E08  26726087.562   140446494.039       -2794.961          41.000  
E14  23524469.589   123621979.791        3869.311          45.000  
E07  24534564.937   128930044.921        -589.000          43.000  
G23  25995385.217   136606588.457       -2972.481          36.000  
E30  24092919.890   126609224.192         575.991          44.000  
G10  24879978.624   130745139.468       -2013.468          42.000  
G12  20809041.042   109352360.885        1021.109          48.000  
G25  22239661.510   116870330.461        3042.235          44.000  
G32  23491334.899   123447895.030        2567.808          46.000  
> 2023 12 29 13 32 51.0020000  0 15                     
G19  23137473.398   121588235.685       -1679.017          32.000  
G24  21476236.175   112858398.096       -1815.308          46.000  
G15  25102885.193   131916470.095       -3752.633          40.000  
E27  26841135.957   141051088.330        2615.400          41.000  
E10  29413468.628                       -1174.482          20.000  
E02  25537726.303   134201635.305       -1840.022          39.000  
E08  26726620.125   140449288.980       -2794.780          41.000  
E14  23523733.451   123618110.834        3868.990          45.000  
E07  24534677.369   128930634.155        -589.294          43.000  
G23  25995950.708   136609561.299       -2972.462          35.000  
E30  24092810.599   126608648.337         575.896          44.000  
G10  24880361.639   130747153.279       -2013.656          43.000  
G12  20808846.717   109351340.198        1020.559          48.000  
G25  22239082.704   116867288.427        3042.140          44.000  
G32  23490845.874   123445327.527        2567.379          46.000  
> 2023 12 29 13 32 52.0020000  0 15                     
G19  23137792.755   121589914.767       -1679.115          31.000  
G24  21476581.776   112860213.834       -1816.132          46.000  
G15  25103598.889   131920222.777       -3752.773          38.000  
E27  26840638.556   141048473.231        2614.771          41.000  
E10  29413692.532                       -1184.844          20.000  
E02  25538076.703   134203475.866       -1840.801          39.000  
E08  26727152.199   140452084.060       -2795.248          41.000  
E14  23522997.436   123614242.277        3868.346          46.000  
E07  24534789.208   128931223.818        -590.034          44.000  
G23  25996516.584   136612534.105       -2972.736          36.000  
E30  24092700.994   126608072.753         575.339          44.000  
G10  24880745.945   130749167.409       -2014.481          44.000  
G12  20808652.461   109350319.996        1019.837          48.000  
G25  22238503.776   116864246.704        3041.554          45.000  
G32  23490357.198   123442760.429        2566.564          46.000  
> 2023 12 29 13 32 53.0020000  0 15                     
G19  23138108.481   121591594.408       -1679.641          31.000  
G24  21476927.378   112862029.908       -1816.180          46.000  
G15  25104312.743   131923975.382       -3752.686          38.000  
E27  26840140.876   141045858.176        2615.097          41.000  
E10  29413916.976                       -1181.488          20.000  
E02  25538426.842   134205316.443       -1840.432          38.000  
E08  26727684.606   140454879.223       -2795.204          42.000  
E14  23522261.456   123610374.064        3868.227          45.000  
E07  24534901.552   128931813.820        -590.233          44.000  
G23  25997082.844   136615506.787       -2972.523          38.000  
E30  24092591.843   126607497.367         575.429          44.000  
G10  24881129.553   130751181.795       -2014.431          43.000  
G12  20808458.484   109349300.230        1019.641          48.000  
G25  22237925.580   116861205.226        3041.699          45.000  
G32  23489868.749   123440193.705        2566.674          46.000  
> 2023 12 29 13 32 54.0020000  0 15                     
G19  23138423.912   121593274.849       -1679.946          31.000  
G24  21477273.346   112863846.580       -1816.827          46.000  
G15  25105026.369   131927728.217       -3752.714          38.000  
E27  26839643.562   141043243.504        2614.692          41.000  
E10  29414142.486                       -1170.372          21.000  
E02  25538777.120   134207157.372       -1840.622          39.000  
E08  26728216.436   140457674.766       -2795.379          41.000  
E14  23521525.842   123606506.506        3867.631          46.000  
E07  24535014.001   128932404.481        -590.543          43.000  
G23  25997648.580   136618479.729       -2973.083          37.000  
E30  24092482.011   126606922.508         574.854          44.000  
G10  24881512.638   130753196.809       -2014.945          43.000  
G12  20808264.682   109348281.217        1018.810          48.000  
G25  22237347.699   116858164.304        3040.728          45.000  
G32  23489380.091   123437627.694        2565.874          46.000  
> 2023 12 29 13 32 55.0020000  0 15                     
G19  23138739.918   121594955.656       -1681.295          32.000  
G24  21477619.227   112865663.461       -1817.016          46.000  
G15  25105740.502   131931480.812       -3752.511          38.000  
E27  26839146.074   141040628.731        2614.952          42.000  
E10  29414365.063                       -1177.360          20.000  
E02  25539127.363   134208998.244       -1840.977          39.000  
E08  26728748.179   140460470.266       -2795.598          42.000  
E14  23520789.879   123602639.183        3866.974          46.000  
E07  24535126.328   128932995.408        -590.891          44.000  
G23  25998214.246   136621452.340       -2972.414          37.000  
E30  24092372.738   126606347.683         574.877          44.000  
G10  24881896.351   130755211.963       -2015.319          44.000  
G12  20808070.618   109347262.510        1018.672          48.000  
G25  22236769.521   116855123.460        3040.973          46.000  
G32  23488891.572   123435061.881        2565.672          46.000  
> 2023 12 29 13 32 56.0020000  0 15                     
G19  23139065.992   121596637.029       -1681.636          32.000  
G24  21477965.020   112867480.780       -1817.676          47.000  
G15  25106454.251   131935233.437       -3752.358          38.000  
E27  26838648.289   141038014.164        2614.246          41.000  
E10  29414589.316                       -1174.547          21.000  
E02  25539477.554   134210839.247       -1841.293          39.000  
E08  26729280.445   140463265.947       -2795.833          42.000  
E14  23520053.759   123598772.295        3866.571          46.000  
E07  24535238.865   128933586.794        -591.704          44.000  
G23  25998780.383   136624425.059       -2973.361          37.000  
E30  24092263.412   126605773.207         574.349          44.000  
G10  24882280.098   130757227.542       -2016.106          44.000  
G12  20807876.677   109346244.355        1017.745          47.000  
G25  22236191.081   116852083.026        3039.844          45.000  
G32  23488402.948   123432496.560        2564.953          46.000  
> 2023 12 29 13 32 57.0020000  0 15                     
G19  23139385.750   121598318.934       -1682.866          31.000  
G24  21478311.023   112869298.434       -1817.822          47.000  
G15  25107167.912   131938986.051       -3752.614          38.000  
E27  26838151.132   141035399.681        2614.200          42.000  
E10  29414810.811                       -1181.616          21.000  
E02  25539827.815   134212680.325       -1841.061          39.000  
E08  26729813.166   140466061.705       -2795.921          42.000  
E14  23519318.127   123594905.768        3866.211          46.000  
E07  24535351.558   128934178.554        -591.918          44.000  
G23  25999346.032   136627397.561       -2971.661          36.000  
E30  24092153.877   126605198.921         574.141          44.000  
G10  24882664.038   130759243.377       -2016.083          44.000  
G12  20807683.258   109345226.658        1017.401          47.000  
G25  22235612.292   116849042.806        3040.037          45.000  
G32  23487914.761   123429931.632        2564.727          46.000  
> 2023 12 29 13 32 58.0020000  0 15                     
G19  23139706.695   121600001.286       -1684.040          31.000  
G24  21478657.078   112871116.341       -1818.201          47.000  
G15  25107881.713   131942738.445       -3752.216          38.000  
E27  26837653.662   141032785.163        2614.230          42.000  
E10  29415034.261                       -1175.663          21.000  
E02  25540178.390   134214521.406       -1841.516          39.000  
E08  26730345.502   140468857.484       -2796.217          42.000  
E14  23518582.618   123591039.505        3865.803          46.000  
E07  24535463.938   128934770.617        -592.524          43.000  
G23  25999911.419   136630370.042       -2972.993          36.000  
E30  24092044.115   126604624.792         573.580          44.000  
G10  24883047.646   130761259.506       -2016.565          44.000  
G12  20807489.456   109344209.328        1016.862          47.000  
G25  22235033.992   116846002.793        3039.561          45.000  
G32  23487427.045   123427367.007        2564.372          46.000  
> 2023 12 29 13 32 59.0020000  0 15                     
G19  23140024.952   121601684.445       -1682.014          31.000  
G24  21479003.378   112872934.967       -1818.561          46.000  
G15  25108595.776   131946491.191       -3752.340          38.000  
E27  26837156.365   141030171.111        2614.082          42.000  
E10  29415256.001                       -1169.521          22.000  
E02  25540528.808   134216362.892       -1841.505          39.000  
E08  26730878.118   140471653.721       -2796.159          43.000  
E14  23517847.179   123587174.017        3865.587          46.000  
E07  24535576.178   128935363.441        -592.874          43.000  
G23  26000477.173   136633342.759       -2972.849          38.000  
E30  24091934.720   126604051.239         573.640          44.000  
G10  24883431.743   130763276.280       -2016.819          44.000  
G12  20807295.916   109343192.844        1016.489          47.000  
G25  22234455.604   116842963.398        3039.507          45.000  
G32  23486939.957   123424803.163        2563.824          47.000  
> 2023 12 29 13 33 00.0020000  0 15                     
G19  23140345.879   121603368.134       -1683.775          31.000  
G24  21479349.189   112874753.923       -1819.073          46.000  
G15  25109309.961   131950243.864       -3752.665          37.000  
E27  26836658.755   141027557.098        2613.905          41.000  
E10  29415475.194                       -1180.895          22.000  
E02  25540879.505   134218204.441       -1841.579          39.000  
E08  26731410.594   140474450.037       -2796.418          43.000  
E14  23517111.216   123583308.834        3865.224          46.000  
E07  24535688.766   128935956.602        -593.334          43.000  
G23  26001042.996   136636315.329       -2972.717          36.000  
E30  24091825.394   126603477.875         573.221          44.000  
G10  24883815.543   130765293.316       -2017.272          44.000  
G12  20807102.323   109342176.769        1015.693          48.000  
G25  22233877.444   116839924.246        3038.906          45.000  
G32  23486452.188   123422239.688        2563.170          46.000  
> 2023 12 29 13 33 01.0020000  0 15                     
G19  23140666.736   121605052.240       -1684.715          32.000  
G24  21479695.174   112876573.122       -1819.391          46.000  
G15  25110024.129   131953996.328       -3752.070          37.000  
E27  26836161.528   141024943.064        2614.139          41.000  
E10  29415697.527                       -1182.183          23.000  
E02  25541229.957   134220045.934       -1841.434          39.000  
E08  26731942.878   140477246.342       -2796.258          42.000  
E14  23516375.706   123579443.944        3864.784          46.000  
E07  24535801.128   128936550.040        -593.525          43.000  
G23  26001608.366   136639287.737       -2972.025          37.000  
E30  24091716.435   126602904.644         573.223          44.000  
G10  24884199.413   130767310.590       -2017.435          44.000  
G12  20806909.027   109341161.067        1015.587          47.000  
G25  22233299.109   116836885.276        3038.885          45.000  
G32  23485964.298   123419676.489        2562.992          46.000  
> 2023 12 29 13 33 02.0020000  0 15                     
G19  23140987.541   121606737.161       -1684.908          32.000  
G24  21480041.439   112878392.960       -1819.916          46.000  
G15  25110738.087   131957749.088       -3752.820          37.000  
E27  26835663.743   141022329.416        2613.867          41.000  
E10  29415922.931                       -1180.034          23.000  
E02  25541580.375   134221887.839       -1841.612          39.000  
E08  26732475.511   140480043.063       -2796.696          43.000  
E14  23515640.267   123575579.728        3864.142          46.000  
E07  24535914.241   128937144.172        -594.286          43.000  
G23  26002174.032   136642260.381       -2972.202          37.000  
E30  24091607.511   126602331.925         572.927          44.000  
G10  24884583.405   130769328.462       -2017.989          43.000  
G12  20806715.818   109340146.125        1014.872          47.000  
G25  22232721.000   116833846.846        3038.263          45.000  
G32  23485476.704   123417113.983        2562.431          46.000  
> 2023 12 29 13 33 03.0020000  0 15                     
G19  23141308.537   121608422.284       -1685.155          32.000  
G24  21480387.564   112880212.846       -1820.178          46.000  
G15  25111452.133   131961501.480       -3753.016          38.000  
E27  26835165.924   141019715.537        2613.417          41.000  
E10  29416147.236                       -1180.367          24.000  
E02  25541930.968   134223729.488       -1842.095          39.000  
E08  26733007.027   140482839.567       -2797.057          42.000  
E14  23514904.932   123571715.568        3863.674          46.000  
E07  24536027.772   128937738.375        -594.767          43.000  
G23  26002739.733   136645232.625       -2972.184          37.000  
E30  24091498.325   126601759.139         572.383          44.000  
G10  24884967.414   130771346.330       -2018.257          43.000  
G12  20806523.063   109339131.336        1014.189          47.000  
G25  22232142.683   116830808.396        3037.811          45.000  
G32  23484988.970   123414551.583        2561.854          45.000  
> 2023 12 29 13 33 04.0020000  0 15                     
G19  23141629.709   121610107.849       -1686.263          32.000  
G24  21480733.707   112882033.068       -1820.630          46.000  
G15  25112166.178   131965253.737       -3752.578          38.000  
E27  26834668.592   141017101.727        2613.740          41.000  
E10  29416374.194                       -1180.177          24.000  
E02  25542281.385   134225571.168       -1841.888          39.000  
E08  26733538.543   140485636.120       -2796.749          42.000  
E14  23514169.790   123567851.741        3863.419          46.000  
E07  24536140.779   128938332.941        -594.973          43.000  
G23  26003305.836   136648204.714       -2972.254          38.000  
E30  24091389.383   126601186.549         572.255          43.000  
G10  24885351.755   130773364.462       -2018.386          43.000  
G12  20806329.697   109338116.979        1013.832          47.000  
G25  22231564.470   116827770.181        3038.100          45.000  
G32  23484500.992   123411989.537        2561.602          45.000  
> 2023 12 29 13 33 05.0020000  0 15                     
G19  23141947.774   121611794.366       -1686.603          29.000  
G24  21481080.320   112883853.943       -1821.014          46.000  
G15  25112880.416   131969006.308       -3752.396          38.000  
E27  26834170.895   141014488.332        2613.299          41.000  
E10  29416598.464   154585278.3311      -1179.723          26.000  
E02  25542632.205   134227413.258       -1841.896          39.000  
E08  26734070.949   140488433.133       -2797.130          42.000  
E14  23513434.734   123563988.629        3862.972          46.000  
E07  24536254.590   128938928.241        -595.482          43.000  
G23  26003870.769   136651177.155       -2972.820          32.000  
E30  24091280.040   126600614.521         571.947          43.000  
G10  24885735.800   130775383.263       -2018.769          43.000  
G12  20806136.960   109337103.428        1013.338          47.000  
G25  22230986.379   116824732.590        3037.315          45.000  
G32  23484013.870   123409428.247        2560.922          46.000  
> 2023 12 29 13 33 06.0020000  0 15                     
G19  23142275.611   121613481.423       -1687.793          32.000  
G24  21481426.463   112885675.288       -1821.722          46.000  
G15  25113594.426   131972758.917       -3752.667          38.000  
E27  26833673.721   141011875.094        2613.159          41.000  
E10  29416821.443   154586458.460       -1180.882          26.000  
E02  25542982.605   134229255.539       -1842.590          39.000  
E08  26734602.256   140491230.313       -2797.345          40.000  
E14  23512699.836   123560125.989        3862.174          46.000  
E07  24536367.842   128939524.029        -596.423          43.000  
G23  26004435.650   136654149.626       -2972.745          33.000  
E30  24091171.500   126600042.798         571.442          43.000  
G10  24886120.420   130777402.485       -2019.558          44.000  
G12  20805943.960   109336090.435        1012.484          47.000  
G25  22230408.323   116821695.329        3036.923          45.000  
G32  23483527.253   123406867.410        2560.358          46.000  
> 2023 12 29 13 33 07.0020000  0 15                     
G19  23142594.706   121615169.386       -1687.760          33.000  
G24  21481773.548   112887497.340       -1821.838          46.000  
G15  25114308.349   131976511.870       -3753.117          37.000  
E27  26833176.878   141009262.359        2613.150          41.000  
E10  29417049.988   154587639.299       -1181.229          26.000  
E02  25543333.668   134231098.253       -1842.368          39.000  
E08  26735134.173   140494027.996       -2797.209          40.000  
E14  23511965.077   123556264.097        3862.003          46.000  
E07  24536481.495   128940120.571        -596.577          43.000  
G23  26004999.554   136657122.183       -2970.568          32.000  
E30  24091063.291   126599471.701         571.339          44.000  
G10  24886504.464   130779422.390       -2019.745          43.000  
G12  20805751.484   109335078.301        1012.095          47.000  
G25  22229830.354   116818658.738        3036.951          45.000  
G32  23483040.200   123404307.394        2560.010          46.000  
> 2023 12 29 13 33 08.0020000  0 15                     
G19  23142904.796                       -1683.281          27.000  
G24  21482120.476   112889319.327       -1822.436          47.000  
G15  25115022.395   131980264.299       -3752.598          37.000  
E27  26832679.564   141006649.281        2612.677          41.000  
E10  29417274.800   154588820.044       -1181.334          25.000  
E02  25543684.313   134232940.640       -1842.595          39.000  
E08  26735665.672   140496825.395       -2798.068          40.000  
E14  23511229.533   123552402.162        3861.515          46.000  
E07  24536595.061   128940717.060        -596.976          44.000  
G23  26005555.204   136660094.522       -2972.470          32.000  
E30  24090954.611   126598900.396         570.763          44.000  
G10  24886888.963   130781442.207       -2020.409          43.000  
G12  20805558.834   109334066.179        1011.625          47.000  
G25  22229252.473   116815622.003        3036.269          45.000  
G32  23482552.728   123401747.328        2559.705          46.000  
> 2023 12 29 13 33 09.0020000  0 14                     
G19  23143230.592   121618496.6983      -1689.670          32.000  
G24  21482467.421   112891142.273       -1822.955          47.000  
G15  25115736.248   131984017.325       -3753.132          37.000  
E27  26832182.146   141004036.884        2612.720          41.000  
E10  29417498.564   154590001.788       -1181.159          25.000  
E02  25544034.417   134234783.696       -1843.262          38.000  
E08  26736198.113   140499623.472       -2798.027          40.000  
E14  23510494.826   123548541.195        3861.079          46.000  
E07  24536708.365   128941314.572        -597.571          44.000  
E30  24090846.210   126598329.941         570.432          44.000  
G10  24887273.513   130783462.922       -2020.916          44.000  
G12  20805366.375   109333055.140        1011.046          47.000  
G25  22228674.818   116812586.132        3035.981          45.000  
G32  23482065.710   123399188.296        2559.045          46.000  
> 2023 12 29 13 33 10.0020000  0 14                     
G19  23143557.033   121620186.2262      -1689.618          33.000  
G24  21482814.610   112892965.422       -1823.517          47.000  
G15  25116450.050   131987770.089       -3752.690          37.000  
E27  26831684.954   141001424.432        2612.377          40.000  
E10  29417721.717   154591183.710       -1181.549          26.000  
E02  25544384.887   134236626.654       -1843.223          39.000  
E08  26736730.519   140502421.501       -2798.186          40.000  
E14  23509759.980   123544680.481        3860.481          45.000  
E07  24536822.245   128941912.310        -598.025          44.000  
E30  24090737.478   126597759.553         570.082          44.000  
G10  24887657.994   130785483.809       -2021.260          44.000  
G12  20805174.109   109332044.435        1010.325          47.000  
G25  22228097.356   116809550.396        3035.516          45.000  
G32  23481579.355   123396629.502        2558.496          47.000  
> 2023 12 29 13 33 11.0020000  0 15                     
G19  23143879.879   121621876.2562      -1690.072          34.000  
G24  21483161.608   112894788.887       -1823.535          47.000  
G15  25117163.746   131991522.828       -3752.873          36.000  
E27  26831188.216   140998812.051        2612.476          41.000  
E10  29417948.465   154592366.083       -1182.226          27.000  
E02  25544735.375   134238469.698       -1843.133          38.000  
E08  26737263.187   140505219.622       -2797.947          41.000  
E14  23509025.064   123540820.102        3860.265          46.000  
E07  24536936.178   128942510.431        -598.335          43.000  
G23  26007255.466   136669049.2121      -2972.833          31.000  
E30  24090628.903   126597189.380         570.129          44.000  
G10  24888042.073   130787504.996       -2021.340          43.000  
G12  20804981.755   109331034.166        1010.144          47.000  
G25  22227519.946   116806514.907        3035.446          46.000  
G32  23481093.296   123394071.120        2558.139          47.000  
> 2023 12 29 13 33 12.0020000  0 15                     
G19  23144204.541   121623566.9572      -1691.124          34.000  
G24  21483508.745   112896612.840       -1823.853          47.000  
G15  25117877.373   131995275.614       -3752.404          36.000  
E27  26830691.095   140996199.882        2612.294          41.000  
E10  29418176.557   154593548.827       -1182.801          27.000  
E02  25545086.019   134240312.927       -1842.888          39.000  
E08  26737795.366   140508017.936       -2797.982          40.000  
E14  23508290.951   123536960.217        3860.067          45.000  
E07  24537049.657   128943109.040        -598.587          43.000  
G23  26007818.549   136672021.698       -2972.582          33.000  
E30  24090520.275   126596619.554         569.930          44.000  
G10  24888426.170   130789526.624       -2021.420          44.000  
G12  20804790.047   109330024.489        1009.748          47.000  
G25  22226942.518   116803479.815        3035.323          45.000  
G32  23480607.238   123391513.232        2558.077          48.000  
> 2023 12 29 13 33 13.0020000  0 15                     
G19  23144527.003   121625257.9562      -1691.675          33.000  
G24  21483855.882   112898436.948       -1824.219          47.000  
G15  25118591.087   131999028.148       -3752.411          36.000  
E27  26830193.763   140993587.584        2612.436          41.000  
E10  29418402.468   154594731.834       -1183.451          27.000  
E02  25545436.873   134242156.034       -1842.983          38.000  
E08  26738327.511   140510816.231       -2798.118          40.000  
E14  23507556.523   123533100.539        3859.648          46.000  
E07  24537163.484   128943707.869        -598.860          43.000  
G23  26008388.630   136674993.821       -2970.993          33.000  
E30  24090411.892   126596049.755         569.872          44.000  
G10  24888810.755   130791548.361       -2021.764          44.000  
G12  20804598.304   109329015.089        1009.207          47.000  
G25  22226364.375   116800444.808        3034.870          45.000  
G32  23480119.592   123388955.553        2557.637          46.000  
> 2023 12 29 13 33 14.0020000  0 15                     
G19  23144849.012   121626949.4962      -1691.837          33.000  
G24  21484202.758   112900261.405       -1824.774          47.000  
G15  25119305.010   132002780.693       -3753.336          36.000  
E27  26829696.607   140990975.404        2611.858          41.000  
E10  29418625.935   154595915.149       -1183.938          26.000  
E02  25545787.553   134243999.231       -1843.367          39.000  
E08  26738860.144   140513614.566       -2798.483          40.000  
E14  23506822.271   123529241.215        3859.032          46.000  
E07  24537277.330   128944307.077        -599.621          43.000  
G23  26008952.621   136677965.970       -2970.985          33.000  
E30  24090303.352   126595480.179         569.384          44.000  
G10  24889194.834   130793570.421       -2022.366          42.000  
G12  20804406.788   109328006.143        1008.778          48.000  
G25  22225786.546   116797410.065        3034.525          45.000  
G32  23479633.080   123386398.286        2557.057          47.000  
> 2023 12 29 13 33 15.0020000  0 15                     
G19  23145169.625   121628641.8692      -1692.845          33.000  
G24  21484550.209   112902086.574       -1825.592          47.000  
G15  25120018.933   132006533.423       -3753.130          38.000  
E27  26829199.310   140988363.623        2611.400          41.000  
E10  29418854.324   154597099.167       -1184.760          27.000  
E02  25546138.006   134245842.839       -1844.034          39.000  
E08  26739393.178   140516413.323       -2799.055          41.000  
E14  23506087.983   123525382.616        3858.028          45.000  
E07  24537391.349   128944907.019        -600.482          43.000  
G23  26009525.826   136680938.361       -2972.836          36.000  
E30  24090194.968   126594911.198         568.459          44.000  
G10  24889579.472   130795593.130       -2023.456          42.000  
G12  20804215.272   109326998.002        1007.626          48.000  
G25  22225209.170   116794375.941        3033.503          45.000  
G32  23479146.655   123383841.748        2555.926          47.000  
> 2023 12 29 13 33 16.0020000  0 16                     
G17  25503660.452                       -2888.810          25.000  
G19  23145492.227   121630335.3232      -1693.212          32.000  
G24  21484897.887   112903912.574       -1826.312          46.000  
G15  25120733.205   132010286.661       -3753.588          37.000  
E27  26828701.927   140985752.459        2610.959          41.000  
E10  29419080.461   154598284.026       -1185.452          27.000  
E02  25546489.087   134247687.024       -1844.559          38.000  
E08  26739925.706   140519212.720       -2799.608          41.000  
E14  23505354.149   123521524.892        3857.366          46.000  
E07  24537505.561   128945507.817        -601.161          43.000  
G23  26010086.257   136683911.228       -2973.086          33.000  
E30  24090086.847   126594342.918         567.936          44.000  
G10  24889963.813   130797616.609       -2023.737          42.000  
G12  20804024.052   109325990.838        1006.703          48.000  
G25  22224632.126   116791342.573        3032.956          45.000  
G32  23478659.881   123381286.126        2555.205          47.000  
> 2023 12 29 13 33 17.0020000  0 16                     
G17  25504203.276                       -2888.810          24.000  
G19  23145814.882   121632029.4012      -1694.648          32.000  
G24  21485245.269   112905739.097       -1827.179          46.000  
G15  25121447.635   132014040.009       -3753.657          37.000  
E27  26828205.084   140983141.515        2610.523          41.000  
E10  29419306.633   154599469.403       -1185.473          27.000  
E02  25546839.801   134249531.437       -1844.762          37.000  
E08  26740458.758   140522012.429       -2800.276          40.000  
E14  23504619.809   123517667.695        3856.687          45.000  
E07  24537619.982   128946109.192        -602.064          43.000  
G23  26010655.239   136686884.095       -2973.022          36.000  
E30  24089978.586   126593775.044         567.244          44.000  
G10  24890349.009   130799640.618       -2024.432          42.000  
G12  20803832.571   109324984.308        1005.715          48.000  
G25  22224054.960   116788309.672        3032.440          45.000  
G32  23478173.369   123378731.055        2554.470          47.000  
> 2023 12 29 13 33 18.0020000  0 15                     
G19  23146132.179   121633724.4262      -1694.740          33.000  
G24  21485592.999   112907566.463       -1827.643          47.000  
G15  25122162.378   132017793.774       -3753.857          38.000  
E27  26827708.625   140980531.154        2610.236          41.000  
E10  29419535.458   154600655.678       -1186.548          27.000  
E02  25547190.777   134251376.417       -1844.615          38.000  
E08  26740991.444   140524812.677       -2800.395          40.000  
E14  23503886.114   123513811.362        3855.978          45.000  
E07  24537734.438   128946711.465        -602.559          42.000  
G23  26011219.003   136689857.414       -2973.435          31.000  
E30  24089870.638   126593207.880         567.018          44.000  
G10  24890733.926   130801665.383       -2025.009          42.000  
G12  20803641.317   109323978.708        1005.419          48.000  
G25  22223478.283   116785277.501        3031.740          45.000  
G32  23477687.101   123376176.881        2553.887          47.000  
> 2023 12 29 13 33 19.0020000  0 15                     
G19  23146459.370   121635420.021       -1696.174          33.000  
G24  21485940.782   112909394.178       -1827.386          47.000  
G15  25122877.506   132021547.549       -3753.294          40.000  
E27  26827211.382   140977920.946        2610.139          40.000  
E10  29419759.798   154601842.258       -1186.380          28.000  
E02  25547542.050   134253221.483       -1844.888          38.000  
E08  26741524.373   140527613.068       -2799.961          42.000  
E14  23503152.438   123509955.449        3856.139          44.000  
E07  24537848.772   128947314.138        -602.600          42.000  
G23  26011784.286   136692830.681       -2973.620          33.000  
E30  24089762.622   126592640.984         567.099          44.000  
G10  24891119.105   130803690.518       -2024.855          41.000  
G12  20803449.958   109322973.611        1005.266          48.000  
G25  22222901.414   116782245.623        3031.911          46.000  
G32  23477201.688   123373623.124        2553.875          47.000  
> 2023 12 29 13 33 20.0020000  0 15                     
G19  23146781.083   121637115.874       -1697.963          30.000  
G24  21486287.989   112911221.789       -1827.979          46.000  
G15  25123592.179   132025300.718       -3753.390          39.000  
E27  26826714.539   140975310.293        2610.439          40.000  
E10  29419981.765   154603028.759       -1186.751          27.000  
E02  25547892.800   134255066.211       -1845.050          38.000  
E08  26742057.792   140530413.064       -2800.303          41.000  
E14  23502418.708   123506099.457        3855.685          45.000  
E07  24537963.559   128947916.711        -603.000          42.000  
G23  26012350.423   136695803.330       -2972.031          35.000  
E30  24089654.587   126592073.827         566.926          44.000  
G10  24891504.772   130805715.493       -2025.156          43.000  
G12  20803258.651   109321968.528        1004.676          48.000  
G25  22222324.928   116779213.555        3031.920          46.000  
G32  23476716.241   123371069.331        2553.431          46.000  
> 2023 12 29 13 33 21.0020000  0 15                     
G19  23147102.027   121638812.332       -1696.610          34.000  
G24  21486635.562   112913050.195       -1828.381          46.000  
G15  25124306.818   132029054.314       -3753.354          40.000  
E27  26826217.801   140972700.179        2610.275          40.000  
E10  29420212.771   154604216.165       -1187.115          27.000  
E02  25548243.933   134256911.406       -1845.099          38.000  
E08  26742591.245   140533213.649       -2800.482          41.000  
E14  23501685.345   123502244.237        3855.110          45.000  
E07  24538078.277   128948520.115        -603.403          43.000  
G23  26012916.211   136698776.445       -2972.706          33.000  
E30  24089546.344   126591507.353         566.597          44.000  
G10  24891890.282   130807741.204       -2025.771          42.000  
G12  20803067.484   109320964.342        1004.081          49.000  
G25  22221748.251   116776182.221        3031.165          46.000  
G32  23476230.444   123368516.350        2552.760          46.000  
> 2023 12 29 13 33 22.0020000  0 15                     
G19  23147417.597   121640509.359       -1696.928          30.000  
G24  21486983.310   112914878.768       -1828.583          47.000  
G15  25125021.474   132032807.675       -3753.161          39.000  
E27  26825721.011   140970090.021        2610.244          41.000  
E10  29420437.076   154605403.625       -1188.035          26.000  
E02  25548595.136   134258756.478       -1845.099          38.000  
E08  26743124.349   140536014.103       -2800.554          41.000  
E14  23500951.616   123498389.249        3854.934          45.000  
E07  24538193.257   128949123.748        -603.709          42.000  
G23  26013482.331   136701749.258       -2973.199          36.000  
E30  24089438.501   126590940.947         566.346          44.000  
G10  24892276.229   130809767.112       -2025.946          43.000  
G12  20802876.439   109319960.464        1003.754          49.000  
G25  22221171.591   116773150.967        3031.190          46.000  
G32  23475744.072   123365963.601        2552.443          45.000  
> 2023 12 29 13 33 23.0020000  0 15                     
G19  23147744.213   121642215.9653      -1697.266          30.000  
G24  21487331.390   112916707.887       -1829.010          46.000  
G15  25125736.131   132036561.149       -3752.896          38.000  
E27  26825224.011   140967480.073        2610.246          40.000  
E10  29420662.533   154606591.721       -1189.018          26.000  
E02  25548946.095   134260601.838       -1845.125          38.000  
E08  26743657.470   140538814.901       -2800.611          41.000  
E14  23500217.852   123494534.819        3854.609          45.000  
E07  24538307.992   128949727.948        -604.188          42.000  
G23  26014048.556   136704722.173       -2973.054          36.000  
E30  24089330.415   126590374.894         566.204          44.000  
G10  24892662.053   130811793.442       -2026.289          43.000  
G12  20802685.760   109318957.207        1003.359          48.000  
G25  22220594.809   116770120.180        3030.827          45.000  
G32  23475258.380   123363411.451        2552.153          46.000  
> 2023 12 29 13 33 24.0020000  0 15                     
G19  23148070.060   121643913.9012      -1698.257          32.000  
G24  21487679.539   112918537.121       -1829.889          46.000  
G15  25126450.595   132040314.359       -3753.774          39.000  
E27  26824727.413   140964870.030        2609.458          40.000  
E10  29420893.818   154607779.817       -1188.041          26.000  
E02  25549297.333   134262447.046       -1845.458          38.000  
E08  26744190.243   140541615.533       -2800.915          41.000  
E14  23499484.105   123490680.534        3853.782          45.000  
E07  24538422.535   128950332.296        -604.946          42.000  
G23  26014614.257   136707694.773       -2972.951          36.000  
E30  24089223.253   126589808.886         565.716          44.000  
G10  24893047.947   130813819.916       -2027.196          43.000  
G12  20802494.890   109317954.218        1002.235          49.000  
G25  22220017.992   116767089.431        3030.336          46.000  
G32  23474771.850   123360859.483        2551.159          46.000  
> 2023 12 29 13 33 25.0020000  0 15                     
G19  23148390.813   121645612.3502      -1699.222          33.000  
G24  21488027.531   112920366.651       -1829.858          46.000  
G15  25127164.291   132044067.376       -3753.044          37.000  
E27  26824230.692   140962259.952        2610.133          39.000  
E10  29421120.793   154608968.271       -1188.436          25.000  
E02  25549648.501   134264292.279       -1845.507          38.000  
E08  26744723.591   140544416.193       -2800.791          41.000  
E14  23498750.847   123486826.561        3853.602          45.000  
E07  24538537.811   128950936.971        -605.113          42.000  
G23  26015180.063   136710667.184       -2972.206          36.000  
E30  24089115.550   126589243.017         565.538          44.000  
G10  24893433.928   130815846.611       -2026.988          43.000  
G12  20802303.810   109316951.592        1002.226          48.000  
G25  22219441.280   116764058.904        3030.177          45.000  
G32  23474285.670   123358307.806        2551.327          46.000  
> 2023 12 29 13 33 26.0020000  0 15                     
G19  23148716.067   121647311.0072      -1698.934          32.000  
G24  21488375.558   112922196.181       -1829.266          45.000  
G15  25127878.564   132047820.053       -3752.401          38.000  
E27  26823733.571   140959649.706        2610.298          39.000  
E10  29421345.220                       -1188.042          25.000  
E02  25549999.617   134266137.233       -1844.948          40.000  
E08  26745256.207   140547216.657       -2800.527          41.000  
E14  23498017.327   123482972.653        3853.518          45.000  
E07  24538653.349   128951541.725        -604.678          42.000  
G23  26015745.223   136713639.317       -2972.531          35.000  
E30  24089008.528   126588677.077         565.863          44.000  
G10  24893818.845   130817873.291       -2026.667          43.000  
G12  20802113.149   109315949.138        1002.198          48.000  
G25  22218864.446   116761028.320        3030.299          45.000  
G32  23473800.257   123355756.235        2551.606          46.000  
> 2023 12 29 13 33 27.0020000  0 15                     
G19  23149044.166   121649010.0062      -1697.999          32.000  
G24  21488723.620   112924026.116       -1829.926          46.000  
G15  25128592.626   132051572.759       -3752.462          38.000  
E27  26823236.850   140957039.553        2610.451          41.000  
E10  29421571.253                       -1187.740          25.000  
E02  25550350.767   134267982.270       -1844.770          39.000  
E08  26745789.102   140550017.230       -2800.104          41.000  
E14  23497283.982   123479119.104        3853.700          45.000  
E07  24538768.765   128952146.892        -605.047          43.000  
G23  26016310.977   136716611.310       -2971.916          35.000  
E30  24088901.192   126588111.380         565.781          44.000  
G10  24894204.949   130819900.347       -2026.949          44.000  
G12  20801922.470   109314947.177        1001.984          48.000  
G25  22218287.123   116757998.054        3030.432          45.000  
G32  23473314.670   123353205.088        2551.395          46.000  
> 2023 12 29 13 33 28.0020000  0 15                     
G19  23149368.077   121650709.4582      -1699.935          34.000  
G24  21489071.909   112925856.131       -1830.798          46.000  
G15  25129306.777   132055325.061       -3752.487          39.000  
E27  26822739.746   140954429.211        2609.866          39.000  
E10  29421795.785                       -1190.315          25.000  
E02  25550701.377   134269827.159       -1845.731          37.000  
E08  26746321.543   140552817.683       -2801.099          41.000  
E14  23496550.444   123475265.725        3852.766          45.000  
E07  24538883.517   128952752.179        -606.115          43.000  
G23  26016876.504   136719583.034       -2972.198          34.000  
E30  24088793.594   126587545.655         564.982          44.000  
G10  24894590.668   130821927.451       -2027.903          44.000  
G12  20801731.774   109313945.402        1000.941          48.000  
G25  22217710.532   116754967.766        3029.332          45.000  
G32  23472829.693   123350654.119        2550.089          46.000  
> 2023 12 29 13 33 29.0020000  0 15                     
G19  23149691.308   121652410.2062      -1701.187          34.000  
G24  21489420.390   112927687.378       -1831.775          46.000  
G15  25130020.840   132059078.236       -3753.180          38.000  
E27  26822242.362   140951819.857        2609.436          39.000  
E10  29422020.631                       -1189.661          24.000  
E02  25551052.318   134271673.002       -1846.286          37.000  
E08  26746854.211   140555619.104       -2801.427          41.000  
E14  23495816.855   123471413.589        3851.861          45.000  
E07  24538998.584   128953358.759        -606.944          42.000  
G23  26017442.414   136722555.482       -2972.334          35.000  
E30  24088686.118   126586981.034         564.191          44.000  
G10  24894976.563   130823955.714       -2028.383          43.000  
G12  20801541.410   109312944.990        1000.115          48.000  
G25  22217134.536   116751938.647        3028.902          45.000  
G32  23472344.385   123348104.396        2549.516          46.000  
> 2023 12 29 13 33 30.0020000  0 15                     
G19  23150015.952   121654111.1472      -1701.124          37.000  
G24  21489769.046   112929518.701       -1831.219          47.000  
G15  25130735.147   132062831.006       -3752.732          38.000  
E27  26821745.677   140949210.160        2609.692          39.000  
E10  29422244.657                       -1191.768          24.000  
E02  25551403.120   134273518.578       -1845.382          38.000  
E08  26747386.861   140558420.291       -2801.006          41.000  
E14  23495084.172   123467561.550        3852.011          45.000  
E07  24539114.192   128953965.353        -606.852          42.000  
G23  26018008.115   136725527.398       -2972.131          35.000  
E30  24088578.712   126586416.303         564.739          44.000  
G10  24895362.300   130825983.811       -2027.999          43.000  
G12  20801350.871   109311944.687        1000.193          48.000  
G25  22216557.440   116748909.379        3029.428          44.000  
G32  23471858.955   123345554.637        2549.641          46.000  
> 2023 12 29 13 33 31.0020000  0 15                     
G19  23150340.107   121655812.590       -1701.699          37.000  
G24  21490118.364   112931350.389       -1832.111          47.000  
G15  25131449.786   132066583.765       -3752.684          39.000  
E27  26821249.427   140946600.594        2609.418          40.000  
E10  29422472.033   154616144.4751      -1191.610          25.000  
E02  25551754.411   134275364.293       -1845.965          37.000  
E08  26747919.355   140561221.618       -2801.383          40.000  
E14  23494351.193   123463709.923        3851.285          45.000  
E07  24539230.131   128954572.389        -607.347          44.000  
G23  26018573.851   136728499.292       -2971.802          34.000  
E30  24088471.410   126585851.824         564.312          45.000  
G10  24895748.281   130828012.201       -2028.470          43.000  
G12  20801159.896   109310944.918         999.357          47.000  
G25  22215980.553   116745880.456        3028.782          44.000  
G32  23471374.328   123343005.267        2549.258          46.000  
> 2023 12 29 13 33 32.0020000  0 16                     
G17  25512421.456                       -2887.408          22.000  
G19  23150663.826   121657514.992       -1702.908          37.000  
G24  21490467.316   112933182.795       -1833.179          46.000  
G15  25132164.197   132070336.596       -3753.098          40.000  
E27  26820753.545   140943991.276        2608.620          40.000  
E10  29422696.896   154617335.750       -1191.595          25.000  
E02  25552105.387   134277210.461       -1846.389          39.000  
E08  26748451.900   140564023.229       -2802.155          40.000  
E14  23493619.052   123459859.018        3850.265          45.000  
E07  24539346.402   128955180.060        -608.604          45.000  
G23  26019139.710   136731471.236       -2972.536          37.000  
E30  24088364.702   126585287.964         563.401          45.000  
G10  24896135.571   130830041.219       -2029.996          44.000  
G12  20800968.938   109309945.985         998.041          48.000  
G25  22215403.858   116742852.039        3027.562          45.000  
G32  23470890.032   123340456.770        2547.390          46.000  
> 2023 12 29 13 33 33.0020000  0 15                     
G19  23150987.266   121659218.443       -1704.092          35.000  
G24  21490815.116   112935016.067       -1833.655          46.000  
G15  25132878.382   132074090.039       -3753.737          41.000  
E27  26820257.191   140941382.638        2608.708          41.000  
E10  29422917.642                       -1192.020          23.000  
E02  25552457.131   134279057.180       -1846.979          39.000  
E08  26748985.563   140566825.568       -2802.232          40.000  
E14  23492885.864   123456009.006        3849.879          44.000  
E07  24539462.411   128955788.691        -608.840          43.000  
G23  26019706.161   136734443.706       -2972.510          38.000  
E30  24088257.924   126584724.827         562.960          45.000  
G10  24896522.320   130832071.058       -2029.961          42.000  
G12  20800779.656   109308947.971         997.717          48.000  
G25  22214827.373   116739824.418        3027.448          45.000  
G32  23470406.207   123337909.093        2547.412          48.000  
> 2023 12 29 13 33 34.0020000  0 15                     
G19  23151311.020   121660922.518       -1703.916          36.000  
G24  21491164.330   112936849.745       -1833.575          47.000  
G15  25133592.341   132077843.521       -3753.363          39.000  
E27  26819761.220   140938774.215        2608.631          41.000  
E10  29423142.121                       -1195.638          22.000  
E02  25552809.259   134280904.111       -1846.789          39.000  
E08  26749519.103   140569628.136       -2802.212          40.000  
E14  23492153.862   123452159.492        3849.521          44.000  
E07  24539578.437   128956397.775        -609.091          44.000  
G23  26020272.630   136737416.295       -2971.928          38.000  
E30  24088150.553   126584161.970         563.036          45.000  
G10  24896908.337   130834101.423       -2030.211          42.000  
G12  20800589.570   109307950.509         997.415          47.000  
G25  22214251.498   116736797.202        3027.295          45.000  
G32  23469921.859   123335361.951        2546.939          48.000  
> 2023 12 29 13 33 35.0020000  0 16                     
G17  25514069.158                       -2890.598          11.000  
G19  23151635.245   121662627.057       -1704.534          37.000  
G24  21491513.404   112938683.726       -1834.003          46.000  
G15  25134306.124   132081596.899       -3753.042          40.000  
E27  26819265.320   140936166.070        2608.168          41.000  
E10  29423367.875                       -1199.931          22.000  
E02  25553160.793   134282751.059       -1846.638          39.000  
E08  26750053.237   140572430.746       -2802.425          40.000  
E14  23491421.058   123448310.259        3849.302          44.000  
E07  24539694.691   128957007.357        -609.647          44.000  
G23  26020838.837   136740388.979       -2972.131          38.000  
E30  24088043.670   126583599.414         562.468          45.000  
G10  24897294.301   130836132.320       -2031.102          42.000  
G12  20800399.956   109306953.586         996.788          47.000  
G25  22213675.763   116733770.421        3026.646          46.000  
G32  23469437.877   123332815.401        2546.349          48.000  
> 2023 12 29 13 33 36.0020000  0 16                     
G17  25514618.299                       -2890.598          11.000  
G19  23151959.470   121664332.028       -1705.386          36.000  
G24  21491862.042   112940517.991       -1834.662          46.000  
G15  25135020.100   132085350.234       -3753.337          41.000  
E27  26818768.827   140933557.882        2607.748          40.000  
E10  29423596.525                       -1195.370          21.000  
E02  25553512.677   134284598.003       -1847.146          39.000  
E08  26750586.795   140575233.455       -2803.005          40.000  
E14  23490687.764   123444461.344        3848.596          43.000  
E07  24539811.223   128957617.217        -610.385          44.000  
G23  26021404.399   136743361.487       -2972.890          37.000  
E30  24087936.788   126583036.951         562.214          45.000  
G10  24897680.701   130838163.347       -2031.282          42.000  
G12  20800210.325   109305957.010         996.006          47.000  
G25  22213100.133   116730743.791        3026.515          45.000  
G32  23468952.988   123330269.098        2545.940          47.000  
> 2023 12 29 13 33 37.0020000  0 16                     
G17  25515169.202                       -2890.598          11.000  
G19  23152284.218   121666037.698       -1705.609          37.000  
G24  21492210.924   112942352.856       -1834.912          46.000  
G15  25135734.564   132089103.763       -3753.425          40.000  
E27  26818272.612   140930950.010        2607.734          40.000  
E10  29423825.943                       -1199.064          21.000  
E02  25553864.543   134286445.231       -1847.219          39.000  
E08  26751119.899   140578036.493       -2803.004          40.000  
E14  23489955.641   123440613.035        3848.089          43.000  
E07  24539927.477   128958227.673        -610.792          44.000  
G23  26021970.170   136746334.117       -2972.792          38.000  
E30  24087829.766   126582474.955         561.776          45.000  
G10  24898067.380   130840194.888       -2031.775          43.000  
G12  20800020.850   109304961.129         995.786          47.000  
G25  22212524.136   116727717.613        3026.097          44.000  
G32  23468468.238   123327723.382        2545.437          48.000  
> 2023 12 29 13 33 38.0020000  0 17                     
G17  25515718.832                       -2890.598          12.000  
G19  23152609.106   121667744.070       -1706.626          37.000  
G24  21492560.260   112944188.263       -1835.632          46.000  
G15  25136448.906   132092857.412       -3753.634          40.000  
E27  26817776.625   140928342.381        2607.478          40.000  
E10  29424053.092                       -1191.184          21.000  
E02  25554216.375   134288292.687       -1847.473          39.000  
E08  26751653.579   140580839.808       -2803.336          40.000  
G06  25178843.757                        2643.550          20.000  
E14  23489223.429   123436765.310        3847.376          43.000  
E07  24540044.096   128958838.704        -611.289          44.000  
G23  26022535.836   136749306.858       -2972.470          38.000  
E30  24087722.796   126581913.367         561.222          45.000  
G10  24898453.972   130842226.933       -2032.325          42.000  
G12  20799831.585   109303965.891         994.905          48.000  
G25  22211948.226   116724691.938        3025.562          44.000  
G32  23467983.768   123325178.266        2544.748          48.000  
> 2023 12 29 13 33 39.0020000  0 17                     
G17  25516266.070                       -2890.598          13.000  
G19  23152933.855   121669451.060       -1706.788          37.000  
G24  21492909.736   112946024.069       -1835.925          46.000  
G15  25137163.318   132096611.048       -3753.871          40.000  
E27  26817280.044   140925734.960        2607.442          40.000  
E10  29424278.602                       -1195.535          21.000  
E02  25554567.962   134290140.352       -1847.911          39.000  
E08  26752187.259   140583643.298       -2803.667          40.000  
G06  25178335.537                        2643.550          18.000  
E14  23488491.550   123432918.016        3847.102          43.000  
E07  24540160.489   128959450.229        -611.929          44.000  
G23  26023101.799   136752279.607       -2972.674          38.000  
E30  24087616.367   126581352.079         561.081          45.000  
G10  24898840.774   130844259.425       -2032.732          42.000  
G12  20799642.303   109302971.197         994.540          48.000  
G25  22211372.229   116721666.635        3024.842          44.000  
G32  23467499.647   123322633.657        2544.500          48.000  
> 2023 12 29 13 33 40.0020000  0 17                     
G17  25516815.752                       -2890.598          12.000  
G19  23153258.900   121671158.571       -1707.912          38.000  
G24  21493259.264   112947860.237       -1836.292          45.000  
G15  25137877.783   132100364.633       -3753.401          41.000  
E27  26816783.864   140923127.660        2607.238          41.000  
E10  29424504.739                       -1197.501          22.000  
E02  25554919.583   134291988.089       -1847.759          39.000  
E08  26752720.922   140586446.891       -2803.806          40.000  
G06  25177831.906                        2643.550          18.000  
E14  23487759.304   123429071.128        3846.695          43.000  
E07  24540277.039   128960062.112        -612.008          44.000  
G23  26023667.238   136755252.265       -2972.474          39.000  
E30  24087509.502   126580791.045         560.907          45.000  
G10  24899228.134   130846292.228       -2033.070          43.000  
G12  20799453.474   109301976.994         994.001          48.000  
G25  22210796.250   116718641.576        3024.957          44.000  
G32  23467015.316   123320089.457        2544.222          48.000  
> 2023 12 29 13 33 41.0020000  0 17                     
G17  25517366.638                       -2890.598          14.000  
G19  23153584.678   121672866.705       -1707.943          39.000  
G24  21493608.966   112949696.906       -1836.859          45.000  
G15  25138591.671   132104118.304       -3753.505          39.000  
E27  26816287.510   140920520.492        2607.225          41.000  
E10  29424731.138                       -1191.893          21.000  
E02  25555271.380   134293836.006       -1847.942          39.000  
E08  26753254.183   140589250.750       -2803.969          40.000  
G06  25177330.526                        2643.550          16.000  
E14  23487027.459   123425224.739        3846.376          44.000  
E07  24540393.258   128960674.529        -612.534          44.000  
G23  26024232.590   136758224.973       -2972.253          38.000  
E30  24087402.724   126580230.344         560.608          45.000  
G10  24899615.110   130848325.441       -2033.177          42.000  
G12  20799264.802   109300983.371         993.329          48.000  
G25  22210220.009   116715616.940        3024.430          44.000  
G32  23466531.334   123317545.794        2543.387          48.000  
> 2023 12 29 13 33 42.0020000  0 17                     
G17  25517916.268                       -2890.598          13.000  
G19  23153910.038   121674575.229       -1709.082          39.000  
G24  21493958.756   112951533.698       -1837.396          45.000  
G15  25139306.065   132107871.727       -3753.776          40.000  
E27  26815790.964   140917913.290        2607.060          40.000  
E10  29424959.125                       -1191.412          22.000  
E02  25555622.827   134295683.806       -1848.302          39.000  
E08  26753787.653   140592054.466       -2804.173          39.000  
G06  25176833.666                        2643.550          15.000  
E14  23486295.422   123421378.534        3845.693          44.000  
E07  24540509.913   128961287.168        -613.242          44.000  
G23  26024797.681   136761197.483       -2972.969          38.000  
E30  24087295.894   126579669.704         560.049          45.000  
G10  24900001.737   130850358.797       -2033.912          42.000  
G12  20799075.869   109299990.044         992.664          48.000  
G25  22209644.065   116712592.417        3023.956          44.000  
G32  23466047.195   123315002.334        2542.785          47.000  
> 2023 12 29 13 33 43.0020000  0 17                     
G17  25518466.002                       -2890.598          14.000  
G19  23154234.996   121676284.420       -1709.898          38.000  
G24  21494308.650   112953371.056       -1837.561          47.000  
G15  25140020.582   132111625.250       -3753.810          40.000  
E27  26815294.418   140915306.349        2606.262          40.000  
E10  29425186.606                       -1196.464          22.000  
E02  25555974.711   134297531.844       -1848.423          39.000  
E08  26754321.403   140594858.504       -2804.094          40.000  
G06  25176336.649                        2643.550          15.000  
E14  23485563.840   123417532.864        3845.413          43.000  
E07  24540626.480   128961900.344        -613.801          44.000  
G23  26025363.609   136764170.013       -2972.699          40.000  
E30  24087189.064   126579109.466         559.820          45.000  
G10  24900389.009   130852392.622       -2034.106          43.000  
G12  20798887.005   109298997.327         992.346          48.000  
G25  22209068.958   116709568.261        3024.015          44.000  
G32  23465563.318   123312459.455        2542.391          48.000  
> 2023 12 29 13 33 44.0020000  0 17                     
G17  25519015.858                       -2890.598          14.000  
G19  23154560.285   121677994.044       -1709.888          35.000  
G24  21494658.370   112955208.684       -1837.433          47.000  
G15  25140734.680   132115378.709       -3753.353          39.000  
E27  26814798.344   140912699.445        2607.174          41.000  
E10  29425416.722                       -1189.052          22.000  
E02  25556326.106   134299379.960       -1847.934          37.000  
E08  26754854.979   140597662.574       -2803.566          39.000  
G06  25175830.994                        2643.550          13.000  
E14  23484832.466   123413687.615        3845.260          44.000  
E07  24540742.978   128962513.890        -613.395          44.000  
G23  26025929.136   136767142.479       -2972.092          38.000  
E30  24087082.041   126578549.412         560.184          45.000  
G10  24900775.933   130854426.699       -2033.934          43.000  
G12  20798698.089   109298005.074         992.410          48.000  
G25  22208493.607   116706544.425        3023.828          44.000  
G32  23465079.389   123309916.923        2542.736          47.000  
> 2023 12 29 13 33 45.0020000  0 17                     
G17  25519566.151                       -2890.598          13.000  
G19  23154885.575   121679704.196       -1710.654          36.000  
G24  21495008.404   112957046.630       -1838.275          47.000  
G15  25141448.848   132119131.999       -3753.644          39.000  
E27  26814302.461   140910092.556        2606.840          41.000  
E10  29425643.156                       -1189.917          22.000  
E02  25556677.780   134301228.030       -1848.269          38.000  
E08  26755388.659   140600466.727       -2804.142          40.000  
G06  25175331.098                        2643.550          11.000  
E14  23484100.813   123409842.601        3844.701          43.000  
E07  24540860.313   128963127.772        -614.240          44.000  
G23  26026494.819   136770114.792       -2972.269          39.000  
E30  24086975.874   126577989.527         559.733          45.000  
G10  24901162.979   130856461.060       -2034.672          42.000  
G12  20798509.278   109297013.215         991.680          48.000  
G25  22207918.186   116703520.751        3023.481          44.000  
G32  23464595.302   123307374.786        2542.055          47.000  
> 2023 12 29 13 33 46.0020000  0 16                     
G17  25520118.154                       -2890.598          11.000  
G19  23155211.457   121681414.871       -1711.235          36.000  
G24  21495358.263   112958884.984       -1838.452          47.000  
G15  25142162.945   132122885.333       -3753.423          39.000  
E27  26813806.892   140907485.845        2606.597          40.000  
E10  29425871.615                       -1200.652          23.000  
E02  25557029.315   134303076.296       -1848.490          38.000  
E08  26755922.373   140603271.023       -2804.566          40.000  
E14  23483368.759   123405998.083        3844.234          43.000  
E07  24540977.334   128963742.092        -614.504          44.000  
G23  26027059.753   136773087.087       -2972.048          39.000  
E30  24086869.899   126577429.941         559.530          45.000  
G10  24901550.531   130858495.758       -2034.696          43.000  
G12  20798320.833   109296021.906         991.141          48.000  
G25  22207342.625   116700497.458        3022.951          44.000  
G32  23464111.739   123304833.104        2541.625          47.000  
> 2023 12 29 13 33 47.0020000  0 16                     
G17  25520669.720                       -2890.598          12.000  
G19  23155536.974   121683126.061       -1711.889          38.000  
G24  21495708.297   112960723.727       -1839.020          47.000  
G15  25142877.200   132126638.620       -3753.528          39.000  
E27  26813310.974   140904879.244        2606.163          41.000  
E10  29426101.085                       -1199.921          24.000  
E02  25557381.233   134304924.654       -1848.755          39.000  
E08  26756456.141   140606075.427       -2804.555          40.000  
E14  23482636.810   123402153.966        3843.497          43.000  
E07  24541094.477   128964356.849        -615.263          44.000  
G23  26027625.332   136776059.323       -2971.978          37.000  
E30  24086763.243   126576870.602         558.849          44.000  
G10  24901937.995   130860530.854       -2035.626          43.000  
G12  20798132.161   109295031.071         990.275          48.000  
G25  22206767.710   116697474.442        3022.574          45.000  
G32  23463627.827   123302291.871        2540.757          47.000  
> 2023 12 29 13 33 48.0020000  0 16                     
G17  25521222.997                       -2892.994          14.000  
G19  23155862.595   121684838.301       -1712.286          37.000  
G24  21496058.279   112962563.270       -1840.125          47.000  
G15  25143591.298   132130392.319       -3753.777          39.000  
E27  26812815.161   140902273.164        2605.750          41.000  
E10  29426329.822                       -1196.627          24.000  
E02  25557733.344   134306773.536       -1849.546          39.000  
E08  26756989.838   140608880.460       -2805.562          39.000  
E14  23481905.593   123398310.677        3842.782          42.000  
E07  24541211.411   128964972.428        -616.265          44.000  
G23  26028190.806   136779031.959       -2972.884          39.000  
E30  24086656.867   126576311.955         558.242          44.000  
G10  24902325.408   130862566.671       -2036.421          43.000  
G12  20797944.065   109294041.165         989.323          48.000  
G25  22206192.673   116694452.156        3021.859          45.000  
G32  23463144.317   123299751.478        2539.769          48.000  
> 2023 12 29 13 33 49.0020000  0 16                     
G17  25521775.977                       -2896.948          16.000  
G19  23156188.111   121686551.200       -1712.998          36.000  
G24  21496408.033   112964403.362       -1840.405          47.000  
G15  25144305.570   132134146.151       -3753.997          39.000  
E27  26812319.244   140899667.393        2605.341          39.000  
E10  29426559.450                       -1200.179          24.000  
E02  25558084.460   134308622.690       -1849.349          37.000  
E08  26757523.920   140611685.699       -2805.461          41.000  
E14  23481174.534   123394467.966        3842.460          43.000  
E07  24541328.904   128965588.586        -616.451          44.000  
G23  26028756.786   136782004.708       -2973.110          38.000  
E30  24086550.420   126575753.744         557.872          44.000  
G10  24902713.256   130864603.008       -2036.615          43.000  
G12  20797756.039   109293051.909         988.857          48.000  
G25  22205617.549   116691430.355        3021.472          45.000  
G32  23462660.893   123297211.691        2539.382          48.000  
> 2023 12 29 13 33 50.0020000  0 16                     
G17  25522325.676                       -2889.915          17.000  
G19  23156513.994   121688264.777       -1713.333          36.000  
G24  21496758.329   112966243.935       -1840.436          47.000  
G15  25145020.227   132137900.086       -3753.829          39.000  
E27  26811823.570   140897061.830        2605.604          40.000  
E10  29426789.531                       -1198.620          25.000  
E02  25558436.326   134310472.086       -1849.229          37.000  
E08  26758058.332   140614491.226       -2805.332          40.000  
E14  23480443.265   123390625.802        3842.220          43.000  
E07  24541446.239   128966205.299        -616.625          44.000  
G23  26029322.610   136784977.473       -2972.597          38.000  
E30  24086443.712   126575195.893         557.885          44.000  
G10  24903100.843   130866639.793       -2036.919          43.000  
G12  20797567.873   109292063.275         988.588          48.000  
G25  22205042.495   116688408.962        3021.508          44.000  
G32  23462178.168   123294672.445        2539.070          48.000  
> 2023 12 29 13 33 51.0020000  0 16                     
G17  25522882.286                       -2892.774          19.000  
G19  23156839.685   121689978.873       -1714.751          36.000  
G24  21497108.694   112968084.890       -1841.241          47.000  
G15  25145734.359   132141653.886       -3753.311          39.000  
E27  26811327.775   140894456.358        2605.836          40.000  
E10  29427020.223                       -1199.563          26.000  
E02  25558788.384   134312321.503       -1849.420          37.000  
E08  26758591.943   140617296.843       -2805.369          40.000  
E14  23479712.276   123386783.986        3841.989          43.000  
E07  24541563.400   128966822.384        -617.059          44.000  
G23  26029888.415   136787950.192       -2972.785          38.000  
E30  24086337.929   126574638.267         557.764          44.000  
G10  24903488.168   130868676.899       -2037.152          43.000  
G12  20797379.411   109291075.105         987.922          48.000  
G25  22204467.649   116685387.862        3021.000          45.000  
G32  23461695.024   123292133.618        2538.640          48.000  
> 2023 12 29 13 33 52.0020000  0 16                     
G17  25523436.278                       -2897.740          19.000  
G19  23157165.952   121691693.479       -1716.156          36.000  
G24  21497459.077   112969926.159       -1841.779          47.000  
G15  25146448.876   132145407.719       -3753.983          39.000  
E27  26810831.630   140891851.011        2605.040          40.000  
E10  29427251.124                       -1201.426          26.000  
E02  25559140.651   134314171.035       -1849.728          38.000  
E08  26759125.675   140620102.590       -2806.052          40.000  
E14  23478981.740   123382942.587        3840.998          44.000  
E07  24541680.770   128967439.878        -617.920          44.000  
G23  26030454.256   136790922.849       -2972.871          38.000  
E30  24086231.814   126574080.881         556.967          44.000  
G10  24903875.964   130870714.340       -2038.041          43.000  
G12  20797191.367   109290087.414         987.133          48.000  
G25  22203892.316   116682367.047        3020.227          44.000  
G32  23461212.194   123289595.196        2537.874          48.000  
> 2023 12 29 13 33 53.0020000  0 16                     
G17  25523996.657                       -2901.929          21.000  
G19  23157492.096   121693408.551       -1715.533          36.000  
G24  21497809.443   112971767.798       -1842.151          47.000  
G15  25147162.956   132149161.486       -3754.200          39.000  
E27  26810335.765   140889245.738        2605.195          40.000  
E10  29427483.334   154642478.9191      -1201.516          26.000  
E02  25559492.692   134316020.635       -1850.045          38.000  
E08  26759659.093   140622908.401       -2805.756          40.000  
E14  23478250.453   123379101.576        3840.522          43.000  
E07  24541798.035   128968057.760        -618.332          44.000  
G23  26031020.219   136793895.396       -2972.642          39.000  
E30  24086125.892   126573523.721         556.928          44.000  
G10  24904264.057   130872752.077       -2038.486          43.000  
G12  20797003.603   109289100.182         986.880          48.000  
G25  22203317.785   116679346.486        3020.128          44.000  
G32  23460729.555   123287057.173        2537.578          47.000  
> 2023 12 29 13 33 54.0020000  0 16                     
G17  25524551.190                       -2896.759          21.000  
G19  23157818.782   121695124.210       -1715.929          38.000  
G24  21498159.756   112973609.798       -1842.187          46.000  
G15  25147877.229   132152915.174       -3753.643          38.000  
E27  26809839.934   140886640.577        2605.077          40.000  
E10  29427711.967   154643680.087       -1201.847          27.000  
E02  25559844.593   134317870.329       -1850.083          38.000  
E08  26760193.244   140625714.389       -2806.044          40.000  
E14  23477520.040   123375260.939        3840.363          43.000  
E07  24541915.318   128968676.056        -618.545          44.000  
G23  26031585.938   136796867.912       -2972.698          37.000  
E30  24086020.161   126572966.811         556.698          44.000  
G10  24904651.661   130874790.134       -2038.461          42.000  
G12  20796816.013   109288113.449         986.480          48.000  
G25  22202743.411   116676326.218        3020.216          44.000  
G32  23460246.551   123284519.585        2537.389          47.000  
> 2023 12 29 13 33 55.0020000  0 16                     
G17  25525106.630                       -2892.909          20.000  
G19  23158145.450   121696840.331       -1716.610          38.000  
G24  21498510.331   112975452.170       -1842.572          46.000  
G15  25148591.606   132156668.814       -3753.561          39.000  
E27  26809344.365   140884035.490        2604.846          41.000  
E10  29427941.856   154644881.613       -1201.363          27.000  
E02  25560196.774   134319720.074       -1849.950          39.000  
E08  26760727.291   140628520.420       -2806.101          40.000  
E14  23476789.347   123371420.683        3840.079          43.000  
E07  24542033.439   128969294.696        -618.910          44.000  
G23  26032152.005   136799840.325       -2972.427          38.000  
E30  24085914.726   126572410.091         556.475          44.000  
G10  24905039.772   130876828.461       -2038.518          43.000  
G12  20796628.598   109287127.134         985.972          48.000  
G25  22202169.264   116673306.218        3019.664          45.000  
G32  23459763.616   123281982.382        2536.923          47.000  
> 2023 12 29 13 33 56.0020000  0 16                     
G17  25525661.128                       -2901.970          20.000  
G19  23158472.083   121698557.167       -1717.377          37.000  
G24  21498861.202   112977294.997       -1843.073          47.000  
G15  25149306.157   132160422.521       -3753.542          40.000  
E27  26808849.407   140881430.634        2604.654          41.000  
E10  29428166.911   154646083.645       -1201.863          26.000  
E02  25560549.041   134321570.041       -1849.994          38.000  
E08  26761260.674   140631326.718       -2806.597          39.000  
E14  23476059.212   123367580.943        3839.499          44.000  
E07  24542151.106   128969913.905        -619.402          44.000  
G23  26032717.619   136802812.791       -2972.397          38.000  
E30  24085808.664   126571853.766         556.226          44.000  
G10  24905427.987   130878867.306       -2038.956          43.000  
G12  20796441.148   109286141.470         985.337          48.000  
G25  22201594.872   116670286.639        3019.405          45.000  
G32  23459280.175   123279445.746        2536.404          47.000  
> 2023 12 29 13 33 57.0020000  0 16                     
G17  25526214.684                       -2901.778          20.000  
G19  23158799.065   121700274.720       -1717.762          38.000  
G24  21499211.969   112979138.446       -1843.536          47.000  
G15  25150020.307   132164176.420       -3753.646          38.000  
E27  26808354.380   140878826.092        2604.638          41.000  
E10  29428397.900   154647286.419       -1202.803          27.000  
E02  25560901.082   134323420.332       -1850.364          38.000  
E08  26761794.895   140634133.332       -2806.535          39.000  
E14  23475329.043   123363741.852        3838.959          43.000  
E07  24542269.017   128970533.731        -619.999          44.000  
G23  26033283.338   136805785.381       -2972.220          39.000  
E30  24085703.125   126571297.926         555.832          44.000  
G10  24905816.324   130880906.669       -2039.348          43.000  
G12  20796253.174   109285156.505         984.832          47.000  
G25  22201020.342   116667267.577        3019.215          45.000  
G32  23458797.764   123276909.739        2536.001          47.000  
> 2023 12 29 13 33 58.0020000  0 16                     
G17  25526767.786                       -2894.920          20.000  
G19  23159126.257   121701992.885       -1718.156          38.000  
G24  21499562.980   112980982.306       -1844.006          47.000  
G15  25150734.213   132167930.360       -3753.813          39.000  
E27  26807859.090   140876221.752        2604.431          41.000  
E10  29428626.323   154648489.533       -1203.769          27.000  
E02  25561253.384   134325270.786       -1850.552          39.000  
E08  26762328.977   140636940.169       -2807.006          40.000  
E14  23474598.576   123359903.228        3838.295          43.000  
E07  24542387.085   128971154.023        -620.523          43.000  
G23  26033849.248   136808758.040       -2972.442          39.000  
E30  24085597.342   126570742.393         555.330          44.000  
G10  24906204.329   130882946.434       -2039.735          42.000  
G12  20796065.881   109284172.102         984.030          47.000  
G25  22200445.636   116664248.890        3018.574          44.000  
G32  23458314.951   123274374.238        2535.279          47.000  
> 2023 12 29 13 33 59.0020000  0 16                     
G17  25527318.934                       -2897.274          20.000  
G19  23159453.291   121703711.622       -1718.392          38.000  
G24  21499913.782   112982826.614       -1844.391          46.000  
G15  25151448.555   132171684.310       -3753.865          39.000  
E27  26807363.853   140873617.560        2604.158          41.000  
E10  29428852.112   154649693.067       -1204.284          27.000  
E02  25561605.268   134327121.378       -1850.425          38.000  
E08  26762863.215   140639747.184       -2807.119          40.000  
E14  23473868.232   123356065.035        3837.883          43.000  
E07  24542504.891   128971774.783        -620.948          43.000  
G23  26034415.752   136811730.623       -2972.466          40.000  
E30  24085491.733   126570187.145         555.067          44.000  
G10  24906592.335   130884986.566       -2040.392          42.000  
G12  20795878.378   109283188.210         983.653          47.000  
G25  22199870.774   116661230.527        3018.094          44.000  
G32  23457832.749   123271839.194        2534.843          47.000  
> 2023 12 29 13 34 00.0020000  0 16                     
G17  25527868.842                       -2906.310          18.000  
G19  23159780.343   121705430.784       -1719.727          38.000  
G24  21500264.863   112984671.120       -1844.922          46.000  
G15  25152163.177   132175438.069       -3754.180          40.000  
E27  26806867.953   140871013.320        2603.825          42.000  
E10  29429081.949   154650896.829       -1204.036          27.000  
E02  25561957.658   134328971.910       -1850.901          38.000  
E08  26763397.122   140642554.095       -2807.179          40.000  
E14  23473137.958   123352227.103        3837.413          43.000  
E07  24542622.523   128972395.790        -621.552          43.000  
G23  26034981.471   136814703.030       -2972.453          40.000  
E30  24085385.584   126569631.977         554.670          44.000  
G10  24906980.183   130887026.889       -2040.627          42.000  
G12  20795691.015   109282204.647         983.075          47.000  
G25  22199296.504   116658212.310        3017.835          45.000  
G32  23457350.251   123269304.443        2534.163          47.000  
> 2023 12 29 13 34 01.0020000  0 16                     
G17  25528420.147                       -2906.310          16.000  
G19  23160107.605   121707150.532       -1719.991          39.000  
G24  21500615.752   112986516.084       -1845.129          45.000  
G15  25152877.920   132179191.861       -3753.829          41.000  
E27  26806372.576   140868409.270        2603.738          41.000  
E10  29429307.423   154652101.066       -1204.872          26.000  
E02  25562310.169   134330822.634       -1850.501          39.000  
E08  26763931.517   140645361.276       -2807.641          40.000  
E14  23472407.614   123348389.679        3837.069          43.000  
E07  24542740.818   128973017.286        -621.654          43.000  
G23  26035547.067   136817675.436       -2972.474          40.000  
E30  24085279.992   126569077.172         554.558          44.000  
G10  24907368.189   130889067.642       -2040.887          42.000  
G12  20795504.018   109281221.690         982.718          47.000  
G25  22198721.258   116655194.488        3017.479          44.000  
G32  23456867.543   123266770.192        2533.947          47.000  
> 2023 12 29 13 34 02.0020000  0 16                     
G17  25528971.766                       -2906.310          14.000  
G19  23160434.848   121708870.980       -1720.895          39.000  
G24  21500966.920   112988361.663       -1845.630          46.000  
G15  25153592.733   132182945.929       -3754.104          41.000  
E27  26805877.251   140865805.476        2603.847          41.000  
E10  29429537.137   154653305.756       -1204.644          26.000  
E02  25562662.943   134332673.627       -1851.104          39.000  
E08  26764465.668   140648168.851       -2807.392          38.000  
E14  23471677.585   123344552.869        3836.664          44.000  
E07  24542859.218   128973639.387        -622.036          43.000  
G23  26036113.100   136820647.986       -2972.354          40.000  
E30  24085174.680   126568522.783         554.441          44.000  
G10  24907756.422   130891108.791       -2041.075          42.000  
G12  20795317.109   109280239.367         982.211          48.000  
G25  22198146.640   116652177.086        3017.243          44.000  
G32  23456385.585   123264236.429        2533.849          47.000  
> 2023 12 29 13 34 03.0020000  0 16                     
G17  25529522.809                       -2907.010          14.000  
G19  23160762.319   121710591.762       -1721.030          40.000  
G24  21501318.472   112990207.402       -1845.825          46.000  
G15  25154307.163   132186699.839       -3753.755          39.000  
E27  26805381.386   140863201.808        2604.289          39.000  
E10  29429769.400   154654510.660       -1204.723          27.000  
E02  25563014.495   134334524.478       -1850.919          38.000  
E08  26764999.872   140650976.393       -2807.432          39.000  
E14  23470946.944   123340716.293        3836.681          43.000  
E07  24542977.792   128974261.834        -622.264          43.000  
G23  26036678.697   136823620.449       -2972.322          40.000  
E30  24085068.530   126567968.535         554.358          44.000  
G10  24908145.195   130893150.340       -2041.561          43.000  
G12  20795130.182   109279257.440         981.865          48.000  
G25  22197572.231   116649159.997        3017.366          43.000  
G32  23455903.401   123261703.083        2533.355          47.000  
> 2023 12 29 13 34 04.0020000  0 16                     
G17  25530071.077                       -2907.010          15.000  
G19  23161089.842   121712313.361       -1722.004          40.000  
G24  21501670.059   112992053.787       -1847.003          46.000  
G15  25155021.505   132190453.758       -3754.476          41.000  
E27  26804885.381   140860598.329        2603.506          39.000  
E10  29429999.708   154655716.303       -1205.504          28.000  
E02  25563366.606   134336375.759       -1851.452          38.000  
E08  26765533.884   140653784.200       -2807.590          37.000  
E14  23470216.687   123336880.348        3835.919          43.000  
E07  24543096.523   128974884.859        -623.394          43.000  
G23  26037244.293   136826592.950       -2972.460          39.000  
E30  24084962.869   126567414.756         553.585          44.000  
G10  24908533.968   130895192.279       -2042.318          43.000  
G12  20794943.186   109278276.218         980.769          47.000  
G25  22196997.578   116646143.302        3016.490          43.000  
G32  23455421.583   123259170.349        2532.243          48.000  
> 2023 12 29 13 34 05.0020000  0 16                     
G17  25530624.057                       -2901.812          18.000  
G19  23161417.156   121714035.162       -1722.041          40.000  
G24  21502021.419   112993900.262       -1846.722          46.000  
G15  25155735.847   132194207.475       -3753.711          40.000  
E27  26804389.027   140857994.871        2603.477          39.000  
E10  29430230.452   154656921.963       -1205.913          29.000  
E02  25563718.594   134338226.812       -1851.488          38.000  
E08  26766068.331   140656591.974       -2807.824          38.000  
E14  23469486.343   123333044.535        3835.318          43.000  
E07  24543215.586   128975508.094        -623.427          43.000  
G23  26037810.029   136829565.220       -2972.236          38.000  
E30  24084857.714   126566860.999         553.516          44.000  
G10  24908922.654   130897234.422       -2042.255          43.000  
G12  20794756.224   109277295.256         980.762          47.000  
G25  22196423.692   116643126.789        3016.284          44.000  
G32  23454939.800   123256637.820        2532.502          48.000  
> 2023 12 29 13 34 06.0020000  0 16                     
G17  25531175.798                       -2903.729          19.000  
G19  23161744.575   121715757.585       -1722.321          39.000  
G24  21502372.343   112995747.087       -1846.802          45.000  
G15  25156450.084   132197961.062       -3753.891          40.000  
E27  26803893.144   140855391.280        2603.386          40.000  
E10  29430463.552   154658128.011       -1205.987          29.000  
E02  25564070.495   134340077.983       -1850.885          38.000  
E08  26766602.640   140659399.715       -2807.912          38.000  
E14  23468756.052   123329209.115        3835.304          44.000  
E07  24543334.614   128976131.596        -623.730          44.000  
G23  26038376.114   136832537.259       -2972.162          38.000  
E30  24084752.385   126566307.396         553.435          44.000  
G10  24909311.916   130899276.695       -2042.471          44.000  
G12  20794569.402   109276314.700         980.364          47.000  
G25  22195849.964   116640110.329        3016.186          44.000  
G32  23454457.738   123254105.619        2532.033          48.000  
> 2023 12 29 13 34 07.0020000  0 16                     
G17  25531727.818                       -2900.592          20.000  
G19  23162072.586   121717480.533       -1723.564          39.000  
G24  21502723.302   112997594.323       -1847.790          45.000  
G15  25157164.426   132201714.696       -3754.376          40.000  
E27  26803398.221   140852787.925        2602.822          39.000  
E10  29430689.183   154659334.580       -1207.569          29.000  
E02  25564422.414   134341929.301       -1851.857          38.000  
E08  26767136.599   140662207.671       -2808.565          38.000  
E14  23468026.580   123325374.136        3834.267          44.000  
E07  24543453.398   128976755.608        -624.579          44.000  
G23  26038941.815   136835509.377       -2972.569          35.000  
E30  24084647.596   126565754.112         552.792          44.000  
G10  24909701.039   130901319.451       -2043.282          43.000  
G12  20794382.545   109275334.705         979.407          47.000  
G25  22195276.306   116637094.312        3015.468          44.000  
G32  23453975.798   123251573.952        2531.052          48.000  
> 2023 12 29 13 34 08.0020000  0 16                     
G17  25532281.531                       -2910.639          21.000  
G19  23162400.511   121719204.231       -1724.226          39.000  
G24  21503074.819   112999442.075       -1848.175          44.000  
G15  25157878.768   132205468.370       -3753.905          39.000  
E27  26802903.071   140850184.804        2602.645          40.000  
E10  29430917.083   154660541.632       -1208.029          30.000  
E02  25564774.053   134343780.848       -1851.757          37.000  
E08  26767670.645   140665015.851       -2808.426          38.000  
E14  23467297.196   123321539.725        3833.964          43.000  
E07  24543572.339   128977380.170        -624.887          44.000  
G23  26039507.569   136838481.545       -2972.398          36.000  
E30  24084542.912   126565201.219         552.601          45.000  
G10  24910090.475   130903362.654       -2043.407          44.000  
G12  20794196.160   109274355.329         978.975          47.000  
G25  22194702.682   116634078.739        3015.235          44.000  
G32  23453494.067   123249042.856        2530.845          48.000  
> 2023 12 29 13 34 09.0020000  0 16                     
G17  25532835.122                       -2894.060          20.000  
G19  23162729.168   121720928.636       -1725.155          40.000  
G24  21503426.110   113001290.388       -1848.950          44.000  
G15  25158593.198   132209222.099       -3754.037          40.000  
E27  26802408.061   140847581.888        2601.970          39.000  
E10  29431139.591   154661749.245       -1207.719          29.000  
E02  25565125.867   134345632.759       -1852.257          37.000  
E08  26768204.325   140667824.250       -2809.084          38.000  
E14  23466567.707   123317705.915        3832.941          43.000  
E07  24543691.454   128978005.267        -626.021          44.000  
G23  26040073.410   136841453.713       -2972.780          36.000  
E30  24084437.548   126564648.783         551.570          45.000  
G10  24910479.144   130905406.303       -2044.371          43.000  
G12  20794009.966   109273376.638         977.605          47.000  
G25  22194128.884   116631063.563        3014.043          43.000  
G32  23453012.179   123246512.342        2529.766          47.000  
> 2023 12 29 13 34 10.0020000  0 16                     
G17  25533387.387                       -2904.766          20.000  
G19  23163057.878   121722653.370       -1724.761          40.000  
G24  21503778.028   113003138.798       -1848.395          45.000  
G15  25159307.365   132212975.510       -3753.350          40.000  
E27  26801912.283   140844978.844        2603.228          39.000  
E10  29431359.254   154662957.147       -1207.898          27.000  
E02  25565478.239   134347484.515       -1851.688          38.000  
E08  26768739.000   140670632.483       -2807.894          38.000  
E14  23465837.887   123313872.224        3833.876          42.000  
E07  24543810.185   128978630.548        -625.364          44.000  
G23  26040638.605   136844425.561       -2972.182          35.000  
E30  24084332.864   126564096.351         552.327          45.000  
G10  24910867.028   130907450.024       -2043.867          42.000  
G12  20793823.562   109272398.172         978.287          47.000  
G25  22193554.912   116628048.428        3015.235          44.000  
G32  23452530.169   123243982.094        2529.924          47.000  
> 2023 12 29 13 34 11.0020000  0 16                     
G17  25533936.667                       -2901.862          20.000  
G19  23163386.797   121724378.735       -1725.723          41.000  
G24  21504130.139   113004987.719       -1849.084          45.000  
G15  25160021.481   132216729.184       -3754.011          40.000  
E27  26801416.068   140842376.107        2602.592          39.000  
E10  29431595.513   154664165.445       -1208.872          27.000  
E02  25565831.013   134349336.449       -1852.018          39.000  
E08  26769273.256   140673441.135       -2808.756          39.000  
E14  23465108.258   123310039.139        3832.539          42.000  
E07  24543928.846   128979256.405        -626.282          44.000  
G23  26041203.678   136847397.548       -2972.145          36.000  
E30  24084227.727   126563544.273         551.749          45.000  
G10  24911255.068   130909494.296       -2044.753          42.000  
G12  20793637.316   109271420.335         977.503          47.000  
G25  22192980.869   116625033.788        3014.281          43.000  
G32  23452048.543   123241452.362        2529.345          47.000  
> 2023 12 29 13 34 12.0020000  0 16                     
G17  25534487.850                       -2901.026          20.000  
G19  23163715.612   121726104.362       -1726.272          40.000  
G24  21504481.917   113006836.780       -1849.316          45.000  
G15  25160735.666   132220482.529       -3753.199          40.000  
E27  26800920.447   140839773.272        2602.397          39.000  
E10  29431825.960   154665373.868       -1208.553          27.000  
E02  25566183.629   134351188.212       -1852.036          39.000  
E08  26769807.215   140676249.608       -2808.766          39.000  
E14  23464378.560   123306206.137        3832.619          42.000  
E07  24544047.752   128979882.428        -626.391          44.000  
G23  26041769.169   136850369.327       -2972.423          38.000  
E30  24084122.432   126562992.212         551.729          45.000  
G10  24911643.318   130911538.649       -2044.881          41.000  
G12  20793451.506   109270442.731         977.258          47.000  
G25  22192406.635   116622019.220        3014.223          43.000  
G32  23451566.638   123238922.836        2529.189          46.000  
> 2023 12 29 13 34 13.0020000  0 15                     
G19  23164044.234   121727830.640       -1726.838          40.000  
G24  21504833.941   113008686.345       -1849.823          44.000  
G15  25161449.816   132224236.020       -3753.922          40.000  
E27  26800424.896   140837170.689        2602.538          39.000  
E10  29432056.216   154666582.766       -1208.834          27.000  
E02  25566535.809   134353040.199       -1852.085          39.000  
E08  26770341.768   140679058.405       -2809.274          39.000  
E14  23463649.437   123302373.717        3831.915          42.000  
E07  24544166.675   128980509.005        -626.919          44.000  
G23  26042334.085   136853341.179       -2972.210          37.000  
E30  24084017.399   126562440.540         551.389          45.000  
G10  24912031.707   130913583.496       -2044.997          41.000  
G12  20793265.854   109269465.760         976.447          47.000  
G25  22191833.378   116619005.090        3013.969          44.000  
G32  23451085.640   123236393.881        2528.458          47.000  
> 2023 12 29 13 34 14.0020000  0 15                     
G19  23164372.525   121729557.556       -1727.546          40.000  
G24  21505186.348   113010536.355       -1850.476          45.000  
G15  25162164.769   132227989.499       -3753.841          41.000  
E27  26799929.310   140834568.232        2602.276          39.000  
E10  29432285.983   154667792.144       -1209.750          27.000  
E02  25566888.705   134354892.370       -1852.396          39.000  
E08  26770876.215   140681867.329       -2808.956          39.000  
E14  23462920.245   123298541.763        3831.535          42.000  
E07  24544286.052   128981136.022        -627.372          44.000  
G23  26042899.385   136856312.940       -2972.128          38.000  
E30  24083912.750   126561889.144         551.062          45.000  
G10  24912420.969   130915628.706       -2045.754          42.000  
G12  20793080.358   109268489.321         975.978          48.000  
G25  22191259.649   116615991.303        3013.229          43.000  
G32  23450604.695   123233865.366        2528.122          46.000  
> 2023 12 29 13 34 15.0020000  0 15                     
G19  23164701.270   121731285.130       -1727.380          40.000  
G24  21505539.069   113012386.905       -1850.690          46.000  
G15  25162879.268   132231743.131       -3753.556          41.000  
E27  26799433.793   140831966.105        2602.298          39.000  
E10  29432521.631   154669002.110       -1210.366          28.000  
E02  25567240.868   134356744.792       -1852.213          38.000  
E08  26771411.344   140684676.588       -2809.135          39.000  
E14  23462190.948   123294710.364        3831.263          42.000  
E07  24544405.307   128981763.649        -627.585          44.000  
G23  26043464.563   136859284.926       -2971.794          37.000  
E30  24083807.805   126561338.211         550.800          45.000  
G10  24912810.249   130917674.465       -2045.809          42.000  
G12  20792894.705   109267513.559         975.728          48.000  
G25  22190686.532   116612978.004        3013.166          44.000  
G32  23450123.610   123231337.505        2528.047          46.000  
> 2023 12 29 13 34 16.0020000  0 15                     
G19  23165030.067   121733013.146       -1727.709          40.000  
G24  21505891.197   113014237.684       -1850.702          45.000  
G15  25163594.099   132235496.605       -3753.314          41.000  
E27  26798938.504   140829363.964        2602.274          39.000  
E10  29432751.747   154670212.271       -1210.153          27.000  
E02  25567592.525   134358597.199       -1852.236          38.000  
E08  26771946.786   140687485.809       -2809.020          40.000  
E14  23461462.122   123290879.248        3831.154          43.000  
E07  24544525.155   128982391.581        -627.944          44.000  
G23  26044030.508   136862256.671       -2971.543          37.000  
E30  24083702.946   126560787.385         550.886          45.000  
G10  24913199.459   130919720.373       -2045.710          42.000  
G12  20792709.628   109266538.162         975.480          48.000  
G25  22190113.327   116609964.859        3013.047          43.000  
G32  23449643.031   123228809.936        2527.728          47.000  
> 2023 12 29 13 34 17.0020000  0 15                     
G19  23165359.282   121734741.690       -1728.834          40.000  
G24  21506243.534   113016088.831       -1851.617          46.000  
G15  25164308.511   132239250.035       -3754.038          41.000  
E27  26798442.167   140826761.887        2601.607          38.000  
E10  29432984.951   154671422.805       -1210.519          27.000  
E02  25567945.176   134360449.647       -1853.019          38.000  
E08  26772481.356   140690295.172       -2809.812          40.000  
E14  23460733.349   123287048.532        3830.397          43.000  
E07  24544644.148   128983019.885        -628.928          43.000  
G23  26044595.267   136865228.345       -2971.621          33.000  
E30  24083598.315   126560236.793         550.275          45.000  
G10  24913589.733   130921766.659       -2046.616          43.000  
G12  20792524.167   109265563.230         974.453          48.000  
G25  22189540.611   116606952.016        3012.203          44.000  
G32  23449162.452   123226282.787        2526.604          47.000  
> 2023 12 29 13 34 18.0020000  0 15                     
G19  23165688.324   121736470.953       -1729.686          40.000  
G24  21506595.785   113017940.553       -1851.892          45.000  
G15  25165022.783   132243003.574       -3753.955          40.000  
E27  26797947.750   140824160.141        2601.598          39.000  
E10  29433213.898   154672633.969       -1211.137          27.000  
E02  25568297.706   134362302.414       -1852.914          39.000  
E08  26773016.310   140693104.820       -2809.762          39.000  
E14  23460004.767   123283218.418        3829.873          42.000  
E07  24544763.525   128983648.792        -629.188          43.000  
G23  26045160.846   136868200.182       -2972.178          33.000  
E30  24083493.544   126559686.654         549.897          45.000  
G10  24913979.553   130923813.470       -2047.190          43.000  
G12  20792338.584   109264588.987         973.759          48.000  
G25  22188967.197   116603939.667        3011.975          43.000  
G32  23448681.751   123223756.265        2526.157          47.000  
> 2023 12 29 13 34 19.0020000  0 15                     
G19  23166017.557   121738201.072       -1730.679          41.000  
G24  21506948.000   113019792.938       -1852.838          45.000  
G15  25165737.247   132246757.402       -3753.747          40.000  
E27  26797452.949   140821558.833        2601.191          39.000  
E10  29433445.690   154673845.828       -1212.705          27.000  
E02  25568650.287   134364155.584       -1853.541          38.000  
E08  26773550.967   140695914.927       -2810.115          39.000  
E14  23459276.221   123279389.045        3828.831          43.000  
E07  24544883.932   128984278.444        -629.920          44.000  
G23  26045726.233   136871172.322       -2972.817          34.000  
E30  24083389.017   126559137.080         549.406          45.000  
G10  24914369.304   130925860.870       -2047.711          42.000  
G12  20792153.472   109263615.549         973.227          48.000  
G25  22188393.975   116600927.936        3011.385          43.000  
G32  23448201.608   123221230.481        2525.425          47.000  
> 2023 12 29 13 34 20.0020000  0 15                     
G19  23166347.279   121739932.067       -1731.154          40.000  
G24  21507300.424   113021646.088       -1853.113          46.000  
G15  25166450.961   132250511.567       -3753.978          39.000  
E27  26796958.497   140818957.977        2601.256          39.000  
E10  29433675.875   154675058.334       -1212.564          27.000  
E02  25569003.026   134366009.244       -1853.423          38.000  
E08  26774086.323   140698725.538       -2810.211          40.000  
E14  23458548.058   123275560.418        3828.626          42.000  
E07  24545004.164   128984908.880        -630.500          44.000  
G23  26046291.690   136874144.629       -2972.034          33.000  
E30  24083284.839   126558588.146         548.902          45.000  
G10  24914760.154   130927908.995       -2047.992          44.000  
G12  20791968.587   109262642.988         972.573          48.000  
G25  22187821.293   116597916.865        3011.046          44.000  
G32  23447720.977   123218705.522        2524.882          47.000  
> 2023 12 29 13 34 21.0020000  0 15                     
G19  23166676.983   121741663.699       -1731.887          39.000  
G24  21507653.233   113023499.625       -1853.668          46.000  
G15  25167165.146   132254265.784       -3754.440          38.000  
E27  26796463.923   140816357.308        2600.575          39.000  
E10  29433910.843   154676271.366       -1213.445          28.000  
E02  25569356.026   134367863.009       -1853.586          37.000  
E08  26774621.468   140701536.291       -2810.719          39.000  
E14  23457819.634   123271732.258        3828.237          42.000  
E07  24545124.431   128985539.766        -630.883          44.000  
G23  26046857.112   136877117.016       -2972.166          33.000  
E30  24083180.626   126558039.491         548.462          45.000  
G10  24915150.428   130929957.509       -2048.688          43.000  
G12  20791784.086   109261670.946         971.956          48.000  
G25  22187248.769   116594906.146        3010.758          44.000  
G32  23447240.415   123216181.049        2524.302          46.000  
> 2023 12 29 13 34 22.0020000  0 15                     
G19  23167006.566   121743395.747       -1732.378          39.000  
G24  21508006.321   113025353.516       -1854.224          46.000  
G15  25167879.157   132258019.864       -3754.071          39.000  
E27  26795968.704   140813756.705        2600.571          38.000  
E10  29434142.773   154677484.665       -1213.551          29.000  
E02  25569708.451   134369716.840       -1853.675          37.000  
E08  26775156.213   140704347.146       -2811.060          39.000  
E14  23457091.192   123267904.479        3827.631          43.000  
E07  24545244.907   128986171.011        -631.365          44.000  
G23  26047422.481   136880089.291       -2971.895          34.000  
E30  24083076.012   126557491.036         548.384          45.000  
G10  24915540.527   130932006.260       -2048.820          42.000  
G12  20791599.515   109260699.339         971.465          48.000  
G25  22186675.983   116591895.669        3010.469          44.000  
G32  23446759.557   123213656.933        2523.892          46.000  
> 2023 12 29 13 34 23.0020000  0 15                     
G19  23167336.287   121745128.318       -1732.863          39.000  
G24  21508358.955   113027207.687       -1854.291          45.000  
G15  25168593.481   132261773.841       -3754.059          39.000  
E27  26795473.728   140811156.116        2600.518          38.000  
E10  29434372.052   154678698.269       -1213.439          29.000  
E02  25570061.451   134371570.709       -1853.944          38.000  
E08  26775691.184   140707158.020       -2810.674          40.000  
E14  23456362.750   123264077.036        3827.190          43.000  
E07  24545365.052   128986802.609        -631.766          44.000  
G23  26047988.130   136883061.445       -2972.396          34.000  
E30  24082971.765   126556942.750         548.248          45.000  
G10  24915930.697   130934055.313       -2049.227          42.000  
G12  20791415.101   109259728.166         970.976          48.000  
G25  22186103.407   116588885.436        3009.985          44.000  
G32  23446279.309   123211133.166        2523.615          46.000  
> 2023 12 29 13 34 24.0020000  0 15                     
G19  23167665.748   121746861.307       -1733.338          39.000  
G24  21508711.693   113029062.145       -1854.980          46.000  
G15  25169307.666   132265527.690       -3753.985          40.000  
E27  26794978.823   140808555.578        2600.227          38.000  
E10  29434603.267   154679912.232       -1214.440          29.000  
E02  25570414.609   134373424.578       -1854.137          38.000  
E08  26776226.278   140709968.940       -2810.954          40.000  
E14  23455634.413   123260249.889        3826.746          43.000  
E07  24545485.388   128987434.511        -632.353          44.000  
G23  26048553.901   136886033.450       -2972.352          34.000  
E30  24082867.657   126556394.626         547.717          45.000  
G10  24916319.994   130936104.582       -2049.686          42.000  
G12  20791230.390   109258757.376         970.285          48.000  
G25  22185531.005   116585875.397        3009.538          44.000  
G32  23445799.271   123208609.753        2522.814          46.000  
> 2023 12 29 13 34 25.0020000  0 15                     
G19  23167995.696   121748595.125       -1734.028          39.000  
G24  21509064.938   113030917.278       -1855.249          46.000  
G15  25170022.078   132269281.811       -3754.193          40.000  
E27  26794484.161   140805955.421        2600.270          39.000  
E10  29434834.622   154681126.865       -1214.855          28.000  
E02  25570766.911   134375278.843       -1854.313          36.000  
E08  26776760.848   140712780.310       -2811.186          40.000  
E14  23454906.076   123256423.471        3826.248          42.000  
E07  24545605.812   128988067.132        -632.661          44.000  
G23  26049118.835   136889005.722       -2971.902          34.000  
E30  24082763.165   126555847.064         547.484          45.000  
G10  24916709.901   130938154.521       -2050.140          42.000  
G12  20791045.558   109257787.382         969.881          48.000  
G25  22184958.812   116582865.967        3009.008          44.000  
G32  23445319.320   123206087.068        2522.568          46.000  
> 2023 12 29 13 34 26.0020000  0 15                     
G19  23168325.174   121750329.285       -1734.302          39.000  
G24  21509418.113   113032772.557       -1855.566          46.000  
G15  25170736.438   132273035.658       -3753.960          40.000  
E27  26793989.762   140803355.195        2599.823          39.000  
E10  29435067.443   154682341.580       -1214.662          29.000  
E02  25571119.563   134377132.929       -1854.207          37.000  
E08  26777295.889   140715591.551       -2811.212          40.000  
E14  23454177.965   123252597.244        3825.897          43.000  
E07  24545726.219   128988699.943        -633.127          44.000  
G23  26049684.291   136891977.634       -2972.360          36.000  
E30  24082659.266   126555299.529         547.318          45.000  
G10  24917099.739   130940204.532       -2050.227          42.000  
G12  20790860.812   109256817.658         969.238          48.000  
G25  22184385.956   116579856.625        3009.175          44.000  
G32  23444839.614   123203564.599        2522.038          47.000  
> 2023 12 29 13 34 27.0020000  0 15                     
G19  23168655.088   121752064.095       -1735.242          39.000  
G24  21509771.393   113034628.369       -1856.152          45.000  
G15  25171450.414   132276789.604       -3754.167          39.000  
E27  26793495.205   140800755.152        2599.847          39.000  
E10  29435296.861   154683556.900       -1215.663          28.000  
E02  25571472.319   134378987.313       -1854.399          37.000  
E08  26777830.494   140718403.038       -2811.501          39.000  
E14  23453450.064   123248771.542        3825.433          43.000  
E07  24545847.219   128989333.294        -633.580          44.000  
G23  26050250.097   136894949.653       -2972.215          37.000  
E30  24082555.211   126554752.376         546.968          45.000  
G10  24917489.978   130942255.023       -2050.764          42.000  
G12  20790676.486   109255848.545         968.697          48.000  
G25  22183813.485   116576847.671        3008.816          44.000  
G32  23444359.768   123201042.668        2521.576          47.000  
> 2023 12 29 13 34 28.0020000  0 15                     
G19  23168985.246   121753799.478       -1735.740          38.000  
G24  21510124.253   113036484.574       -1856.226          45.000  
G15  25172164.878   132280543.563       -3754.029          40.000  
E27  26793000.753   140798155.308        2599.850          39.000  
E10  29435528.670   154684772.608       -1215.740          28.000  
E02  25571825.162   134380841.811       -1854.450          38.000  
E08  26778365.046   140721214.710       -2811.569          40.000  
E14  23452721.936   123244946.320        3825.117          44.000  
E07  24545967.695   128989967.112        -634.024          44.000  
G23  26050815.886   136897921.591       -2971.457          37.000  
E30  24082451.242   126554205.518         546.858          45.000  
G10  24917880.096   130944305.890       -2050.908          43.000  
G12  20790492.386   109254879.976         968.413          48.000  
G25  22183240.995   116573839.102        3008.553          44.000  
G32  23443879.974   123198521.250        2521.268          46.000  
> 2023 12 29 13 34 29.0020000  0 15                     
G19  23169315.788   121755535.534       -1736.742          39.000  
G24  21510477.027   113038341.300       -1857.318          45.000  
G15  25172879.203   132284297.650       -3754.450          40.000  
E27  26792506.109   140795555.710        2599.254          39.000  
E10  29435758.192   154685988.899       -1217.103          28.000  
E02  25572178.093   134382696.563       -1855.254          38.000  
E08  26778900.000   140724026.643       -2812.365          40.000  
E14  23451994.664   123241121.629        3823.993          43.000  
E07  24546088.869   128990601.476        -634.921          44.000  
G23  26051381.377   136900893.716       -2972.846          36.000  
E30  24082347.483   126553659.068         546.054          45.000  
G10  24918270.788   130946357.242       -2051.842          43.000  
G12  20790308.094   109253912.045         967.354          48.000  
G25  22182668.279   116570830.995        3007.607          44.000  
G32  23443400.599   123196000.388        2520.363          47.000  
> 2023 12 29 13 34 30.0020000  0 15                     
G19  23169646.400   121757272.259       -1736.702          39.000  
G24  21510829.923   113040198.541       -1857.257          45.000  
G15  25173593.353   132288051.799       -3753.713          39.000  
E27  26792011.727   140792956.373        2599.476          39.000  
E10  29435988.186   154687205.626       -1216.949          27.000  
E02  25572531.268   134384551.541       -1854.744          37.000  
E08  26779435.059   140726838.860       -2812.428          40.000  
E14  23451267.042   123237297.500        3824.145          43.000  
E07  24546209.695   128991236.409        -635.073          44.000  
G23  26051946.799   136903865.856       -2972.034          36.000  
E30  24082243.550   126553112.995         546.141          45.000  
G10  24918661.604   130948409.057       -2051.824          43.000  
G12  20790123.959   109252944.732         967.280          48.000  
G25  22182095.615   116567823.291        3007.655          44.000  
G32  23442921.102   123193480.114        2520.219          47.000  
> 2023 12 29 13 34 31.0020000  0 15                     
G19  23169976.959   121759009.491       -1737.841          39.000  
G24  21511183.255   113042056.106       -1857.898          45.000  
G15  25174307.573   132291805.876       -3754.034          39.000  
E27  26791516.699   140790357.086        2599.296          39.000  
E10  29436221.356   154688422.712       -1217.175          28.000  
E02  25572884.216   134386406.567       -1855.115          37.000  
E08  26779970.222   140729651.120       -2812.467          40.000  
E14  23450539.490   123233473.743        3823.458          43.000  
E07  24546330.502   128991871.693        -635.692          44.000  
G23  26052512.204   136906837.910       -2971.765          35.000  
E30  24082139.250   126552567.135         545.588          45.000  
G10  24919052.506   130950461.136       -2052.307          43.000  
G12  20789940.139   109251977.891         966.320          48.000  
G25  22181523.562   116564815.843        3007.367          44.000  
G32  23442441.832   123190960.228        2519.462          47.000  
> 2023 12 29 13 34 32.0020000  0 15                     
G19  23170307.030   121760747.547       -1738.308          38.000  
G24  21511537.198   113043914.342       -1858.429          45.000  
G15  25175022.002   132295560.237       -3754.368          39.000  
E27  26791022.614   140787758.242        2598.853          39.000  
E10  29436451.210   154689640.476       -1218.020          28.000  
E02  25573237.304   134388262.006       -1855.547          37.000  
E08  26780505.821   140732463.825       -2812.754          40.000  
E14  23449812.270   123229650.688        3822.865          43.000  
E07  24546451.432   128992507.701        -636.126          44.000  
G23  26053077.835   136909810.207       -2972.809          36.000  
E30  24082035.630   126552021.826         545.071          45.000  
G10  24919443.495   130952513.843       -2052.692          44.000  
G12  20789756.231   109251011.828         965.624          48.000  
G25  22180951.335   116561809.020        3006.539          44.000  
G32  23441962.649   123188441.064        2518.867          47.000  
> 2023 12 29 13 34 33.0020000  0 15                     
G19  23170637.380   121762485.968       -1738.664          38.000  
G24  21511890.722   113045772.733       -1858.209          45.000  
G15  25175736.449   132299314.319       -3753.595          40.000  
E27  26790528.563   140785159.287        2599.351          40.000  
E10  29436684.485   154690858.443       -1218.129          28.000  
E02  25573590.339   134390117.309       -1855.026          37.000  
E08  26781041.369   140735276.454       -2812.426          41.000  
E14  23449084.613   123225827.843        3823.026          43.000  
E07  24546572.624   128993143.911        -636.185          44.000  
G23  26053643.624   136912782.204       -2971.983          36.000  
E30  24081931.592   126551476.564         545.378          45.000  
G10  24919834.712   130954566.705       -2052.670          44.000  
G12  20789572.742   109250046.046         965.836          48.000  
G25  22180379.264   116558802.268        3006.864          44.000  
G32  23441483.623   123185922.135        2519.080          47.000  
> 2023 12 29 13 34 34.0020000  0 15                     
G19  23170968.306   121764225.032       -1739.335          38.000  
G24  21512244.664   113047631.715       -1859.216          46.000  
G15  25176450.878   132303068.574       -3754.381          40.000  
E27  26790033.972   140782560.642        2598.633          39.000  
E10  29436918.841   154692076.950       -1218.608          28.000  
E02  25573943.270   134391972.919       -1855.733          38.000  
E08  26781577.038   140738089.359       -2813.067          40.000  
E14  23448357.096   123222005.601        3821.970          43.000  
E07  24546693.781   128993780.707        -637.044          44.000  
G23  26054209.447   136915754.333       -2972.206          36.000  
E30  24081828.025   126550931.721         544.739          45.000  
G10  24920225.859   130956620.054       -2053.523          44.000  
G12  20789388.921   109249080.959         964.772          48.000  
G25  22179806.792   116555796.017        3005.966          44.000  
G32  23441004.353   123183403.814        2517.966          47.000  
> 2023 12 29 13 34 35.0020000  0 15                     
G19  23171299.162   121765964.702       -1739.744          37.000  
G24  21512598.345   113049491.047       -1859.332          46.000  
G15  25177165.517   132306822.785       -3754.515          40.000  
E27  26789539.764   140779962.090        2598.550          40.000  
E10  29437149.551   154693295.847       -1218.979          28.000  
E02  25574296.166   134393828.644       -1855.997          37.000  
E08  26782112.358   140740902.408       -2812.886          40.000  
E14  23447629.422   123218183.769        3821.694          43.000  
E07  24546814.397   128994417.934        -637.403          44.000  
G23  26054775.113   136918726.461       -2972.192          36.000  
E30  24081723.987   126550387.159         544.509          45.000  
G10  24920616.551   130958673.763       -2053.759          44.000  
G12  20789205.188   109248116.360         964.436          48.000  
G25  22179235.036   116552790.063        3005.928          44.000  
G32  23440525.100   123180885.948        2517.645          47.000  
> 2023 12 29 13 34 36.0020000  0 15                     
G19  23171630.071   121767704.987       -1740.416          38.000  
G24  21512952.410   113051350.874       -1859.680          46.000  
G15  25177879.929   132310577.055       -3753.755          40.000  
E27  26789045.347   140777363.769        2598.644          40.000  
E10  29437381.028   154694515.255       -1219.612          28.000  
E02  25574649.637   134395684.532       -1855.825          37.000  
E08  26782647.382   140743715.694       -2813.200          40.000  
E14  23446902.533   123214362.465        3821.229          43.000  
E07  24546935.676   128995055.675        -637.686          44.000  
G23  26055340.570   136921698.581       -2971.898          35.000  
E30  24081620.280   126549842.940         544.360          45.000  
G10  24921007.785   130960727.902       -2054.153          44.000  
G12  20789021.769   109247152.359         964.166          47.000  
G25  22178663.262   116549784.527        3005.516          44.000  
G32  23440045.952   123178368.611        2517.361          47.000  
> 2023 12 29 13 34 37.0020000  0 16                     
G19  23171961.311   121769445.732       -1741.208          38.000  
G24  21513306.562   113053210.972       -1860.205          46.000  
G15  25178594.637   132314331.234       -3754.208          40.000  
E27  26788551.157   140774765.483        2598.212          40.000  
E10  29437611.440   154695734.940       -1219.605          29.000  
E02  25575003.109   134397540.437       -1855.682          37.000  
E08  26783182.999   140746529.015       -2813.356          40.000  
G06  25149386.637                        2619.000          15.000  
E14  23446175.697   123210541.476        3820.819          43.000  
E07  24547057.339   128995693.738        -638.259          44.000  
G23  26055905.521   136924670.611       -2972.554          34.000  
E30  24081516.800   126549298.887         544.063          45.000  
G10  24921399.473   130962782.251       -2054.432          44.000  
G12  20788838.402   109246188.763         963.461          48.000  
G25  22178091.035   116546779.196        3005.098          44.000  
G32  23439567.188   123175851.623        2516.731          47.000  
> 2023 12 29 13 34 38.0020000  0 16                     
G19  23172292.620   121771186.812       -1741.316          40.000  
G24  21513660.715   113055071.279       -1860.272          46.000  
G15  25179309.276   132318085.159       -3753.683          41.000  
E27  26788056.705   140772167.144        2598.354          40.000  
E10  29437842.516   154696954.832       -1219.823          29.000  
E02  25575356.511   134399396.321       -1855.723          38.000  
E08  26783717.848   140749342.276       -2813.254          39.000  
G06  25148888.643                        2619.000          11.000  
E14  23445448.267   123206720.732        3820.654          44.000  
E07  24547179.141   128996332.038        -638.451          44.000  
G23  26056471.484   136927642.329       -2971.473          35.000  
E30  24081413.408   126548754.918         543.915          45.000  
G10  24921790.637   130964836.775       -2054.451          44.000  
G12  20788655.087   109245225.459         963.185          48.000  
G25  22177518.737   116543773.992        3005.226          43.000  
G32  23439087.813   123173334.888        2516.742          47.000  
> 2023 12 29 13 34 39.0020000  0 15                     
G19  23172623.948   121772928.441       -1742.063          40.000  
G24  21514015.059   113056931.919       -1860.748          46.000  
G15  25180023.566   132321839.022       -3753.729          41.000  
E27  26787562.340   140769568.840        2598.305          40.000  
E10  29438081.235   154698175.040       -1220.449          29.000  
E02  25575709.546   134401252.215       -1855.932          38.000  
E08  26784253.151   140752155.649       -2813.547          40.000  
E14  23444721.640   123202900.364        3820.309          44.000  
E07  24547300.961   128996970.718        -638.891          44.000  
G23  26057037.237   136930613.995       -2971.370          35.000  
E30  24081309.946   126548211.160         543.634          45.000  
G10  24922181.190   130966891.617       -2055.028          44.000  
G12  20788471.842   109244262.635         962.728          48.000  
G25  22176947.033   116540769.054        3004.750          43.000  
G32  23438609.345   123170818.576        2515.968          47.000  
> 2023 12 29 13 34 40.0020000  0 15                     
G19  23172955.467   121774670.637       -1742.972          40.000  
G24  21514369.682   113058793.034       -1861.694          46.000  
G15  25180737.960   132325592.965       -3754.220          41.000  
E27  26787068.482   140766970.751        2597.788          40.000  
E10  29438310.723   154699395.776       -1221.371          29.000  
E02  25576062.773   134403108.297       -1856.449          38.000  
E08  26784788.332   140754969.202       -2813.820          39.000  
E14  23443994.821   123199080.492        3819.371          44.000  
E07  24547422.729   128997609.901        -639.736          44.000  
G23  26057602.694   136933585.623       -2972.095          35.000  
E30  24081206.710   126547667.740         542.959          45.000  
G10  24922572.180   130968946.874       -2056.001          44.000  
G12  20788288.772   109243300.391         961.647          48.000  
G25  22176374.788   116537764.518        3003.995          43.000  
G32  23438130.494   123168302.767        2515.165          47.000  
> 2023 12 29 13 34 41.0020000  0 16                     
G19  23173286.951   121776413.662       -1743.215          40.000  
G24  21514724.166   113060654.753       -1861.774          46.000  
G15  25181452.407   132329347.068       -3753.966          40.000  
E27  26786574.414   140764373.037        2597.684          41.000  
E10  29438541.293   154700617.103       -1221.713          28.000  
E02  25576416.297   134404964.706       -1856.194          38.000  
E08  26785323.495   140757783.140       -2814.056          39.000  
G06  25147392.653                        2619.000          10.000  
E14  23443268.543   123195261.287        3819.049          44.000  
E07  24547544.340   128998249.741        -640.084          44.000  
G23  26058168.273   136936557.574       -2971.942          34.000  
E30  24081103.038   126547124.825         542.631          45.000  
G10  24922963.012   130971002.705       -2056.273          44.000  
G12  20788105.632   109242338.877         961.274          48.000  
G25  22175802.980   116534760.498        3003.796          43.000  
G32  23437652.707   123165787.643        2514.796          48.000  
> 2023 12 29 13 34 42.0020000  0 15                     
G19  23173618.331   121778157.375       -1744.301          39.000  
G24  21515078.876   113062517.037       -1862.622          46.000  
G15  25182166.749   132333101.353       -3754.211          41.000  
E27  26786080.468   140761775.602        2597.464          41.000  
E10  29438774.026   154701838.987       -1221.845          29.000  
E02  25576769.577   134406821.433       -1856.852          38.000  
E08  26785859.164   140760597.375       -2813.925          39.000  
E14  23442541.724   123191442.668        3818.456          44.000  
E07  24547666.212   128998890.178        -640.703          44.000  
G23  26058734.079   136939529.615       -2973.137          33.000  
E30  24080999.925   126546582.339         542.288          45.000  
G10  24923354.107   130973059.033       -2056.509          44.000  
G12  20787922.667   109241378.043         960.562          48.000  
G25  22175231.328   116531756.998        3003.293          43.000  
G32  23437174.641   123163273.129        2514.345          48.000  
> 2023 12 29 13 34 43.0020000  0 15                     
G19  23173949.920   121779901.671       -1744.739          39.000  
G24  21515433.814   113064379.711       -1863.007          46.000  
G15  25182881.126   132336855.593       -3754.485          41.000  
E27  26785586.156   140759178.346        2596.746          41.000  
E10  29439003.392   154703061.334       -1222.485          29.000  
E02  25577122.996   134408678.270       -1857.057          38.000  
E08  26786394.834   140763411.752       -2814.494          39.000  
E14  23441815.446   123187624.491        3817.819          44.000  
E07  24547788.032   128999531.055        -641.197          44.000  
G23  26059299.204   136942501.579       -2972.598          32.000  
E30  24080896.794   126546040.131         541.936          45.000  
G10  24923745.218   130975115.710       -2057.130          44.000  
G12  20787740.068   109240417.727         959.823          48.000  
G25  22174659.746   116528753.824        3002.474          43.000  
G32  23436695.877   123160759.101        2513.512          47.000  
> 2023 12 29 13 34 44.0020000  0 15                     
G19  23174281.596   121781646.463       -1745.273          39.000  
G24  21515788.123   113066242.713       -1863.245          46.000  
G15  25183595.678   132340609.706       -3754.143          41.000  
E27  26785091.948   140756581.051        2596.935          41.000  
E10  29439233.508   154704283.990       -1223.515          29.000  
E02  25577476.363   134410535.164       -1857.079          38.000  
E08  26786930.067   140766226.160       -2814.588          39.000  
E14  23441089.220   123183806.694        3817.427          44.000  
E07  24547910.114   129000172.252        -641.446          44.000  
G23  26059864.487   136945473.314       -2971.874          33.000  
E30  24080793.314   126545498.112         541.762          45.000  
G10  24924136.452   130977172.632       -2057.123          44.000  
G12  20787557.277   109239457.828         959.560          48.000  
G25  22174087.885   116525750.822        3002.726          43.000  
G32  23436217.741   123158245.398        2513.563          48.000  
> 2023 12 29 13 34 45.0020000  0 15                     
G19  23174613.307   121783391.649       -1745.509          38.000  
G24  21516142.345   113068105.954       -1863.416          45.000  
G15  25184310.264   132344363.683       -3753.935          41.000  
E27  26784597.601   140753983.818        2597.188          41.000  
E10  29439462.071   154705506.892       -1223.453          29.000  
E02  25577829.590   134412392.024       -1856.900          38.000  
E08  26787465.474   140769040.625       -2814.470          40.000  
E14  23440362.296   123179989.158        3817.402          43.000  
E07  24548032.056   129000813.794        -641.716          44.000  
G23  26060430.293   136948444.967       -2971.277          34.000  
E30  24080690.410   126544956.250         541.782          45.000  
G10  24924527.896   130979229.824       -2057.183          44.000  
G12  20787374.573   109238498.331         959.331          48.000  
G25  22173516.565   116522748.076        3002.578          43.000  
G32  23435739.186   123155732.052        2513.183          47.000  
> 2023 12 29 13 34 46.0020000  0 15                     
G19  23174945.472   121785137.411       -1745.994          38.000  
G24  21516497.038   113069969.662       -1863.849          46.000  
G15  25185024.868   132348117.741       -3754.028          41.000  
E27  26784103.515   140751386.763        2597.085          41.000  
E10  29439694.665   154706730.177       -1223.132          28.000  
E02  25578182.486   134414249.016       -1856.787          38.000  
E08  26788001.719   140771855.259       -2814.799          40.000  
E14  23439636.001   123176172.133        3816.778          44.000  
E07  24548153.893   129001455.805        -642.109          44.000  
G23  26060995.941   136951416.631       -2972.060          34.000  
E30  24080587.454   126544414.700         541.443          45.000  
G10  24924919.129   130981287.398       -2057.446          44.000  
G12  20787191.782   109237539.383         958.927          48.000  
G25  22172945.053   116519745.680        3002.588          43.000  
G32  23435260.788   123153219.202        2512.750          47.000  
> 2023 12 29 13 34 47.0020000  0 15                     
G19  23175277.777   121786883.532       -1746.340          39.000  
G24  21516851.906   113071833.580       -1863.989          46.000  
G15  25185739.210   132351871.662       -3754.361          41.000  
E27  26783609.133   140748789.774        2596.644          41.000  
E10  29439931.499   154707953.716       -1223.330          28.000  
E02  25578535.975   134416105.979       -1856.814          38.000  
E08  26788538.000   140774669.966       -2814.965          40.000  
E14  23438909.827   123172355.342        3816.836          44.000  
E07  24548276.027   129002098.158        -642.708          43.000  
G23  26061561.294   136954388.174       -2971.539          33.000  
E30  24080484.219   126543873.282         541.274          45.000  
G10  24925310.869   130983345.266       -2058.225          44.000  
G12  20787009.375   109236580.824         958.263          48.000  
G25  22172374.169   116516743.535        3001.968          44.000  
G32  23434782.827   123150706.668        2512.164          48.000  
> 2023 12 29 13 34 48.0020000  0 15                     
G19  23175610.710   121788630.177       -1747.052          39.000  
G24  21517206.913   113073697.868       -1864.691          46.000  
G15  25186453.692   132355625.413       -3753.796          41.000  
E27  26783114.786   140746192.916        2596.409          41.000  
E10  29440167.409   154709177.718       -1224.444          28.000  
E02  25578889.482   134417962.995       -1857.117          38.000  
E08  26789073.774   140777484.710       -2815.005          40.000  
E14  23438183.061   123168538.966        3816.062          43.000  
E07  24548398.249   129002740.955        -643.757          44.000  
G23  26062126.558   136957359.642       -2971.662          33.000  
E30  24080381.332   126543332.181         540.409          45.000  
G10  24925701.842   130985403.474       -2059.204          43.000  
G12  20786826.636   109235622.825         957.365          47.000  
G25  22171803.774   116513741.725        3001.214          45.000  
G32  23434304.848   123148194.649        2510.993          47.000  
> 2023 12 29 13 34 49.0020000  0 15                     
G19  23175943.904   121790378.086       -1747.681          40.000  
G24  21517561.815   113075563.246       -1865.186          46.000  
G15  25187168.086   132359379.606       -3753.847          38.000  
E27  26782620.369   140743596.693        2595.944          40.000  
E10  29440407.960   154710402.633       -1225.003          29.000  
E02  25579243.163   134419820.853       -1857.264          38.000  
E08  26789609.443   140780300.122       -2815.521          40.000  
E14  23437456.538   123164723.734        3815.436          44.000  
E07  24548520.452   129003384.839        -643.973          43.000  
G23  26062692.696   136960331.471       -2971.535          35.000  
E30  24080277.765   126542792.087         540.269          44.000  
G10  24926092.796   130987462.443       -2059.087          42.000  
G12  20786644.194   109234666.041         956.833          48.000  
G25  22171233.849   116510740.764        3001.045          46.000  
G32  23433826.607   123145683.764        2511.025          47.000  
> 2023 12 29 13 34 50.0020000  0 16                     
G19  23176276.627   121792126.011       -1748.112          39.000  
G24  21517916.561   113077428.419       -1865.466          45.000  
G15  25187882.341   132363133.357       -3753.035          38.000  
E27  26782125.708   140741000.185        2595.904          39.000  
E10  29440636.977   154711627.610       -1225.527          28.000  
E02  25579596.791   134421678.260       -1857.399          39.000  
E08  26790145.287   140783115.177       -2815.117          40.000  
G06  25142917.807                        2614.450          20.000  
E14  23436730.348   123160908.324        3815.138          44.000  
E07  24548643.058   129004028.554        -644.141          44.000  
G23  26063258.345   136963302.869       -2971.392          37.000  
E30  24080174.355   126542251.600         540.135          44.000  
G10  24926483.751   130989521.450       -2059.769          41.000  
G12  20786462.206   109233709.113         956.575          48.000  
G25  22170663.402   116507739.640        3000.887          44.000  
G32  23433348.279   123143172.771        2510.543          47.000  
> 2023 12 29 13 34 51.0020000  0 16                     
G19  23176609.734   121793874.552       -1749.014          39.000  
G24  21518271.219   113079294.104       -1865.900          45.000  
G15  25188596.265   132366887.332       -3753.771          37.000  
E27  26781631.308   140738403.859        2596.188          39.000  
E10  29440865.138   154712852.978       -1225.917          27.000  
E02  25579950.944   134423535.875       -1858.022          39.000  
E08  26790680.607   140785930.535       -2815.193          40.000  
G06  25142417.404                        2614.450          21.000  
E14  23436004.401   123157093.462        3814.531          44.000  
E07  24548765.994   129004672.773        -644.486          44.000  
G23  26063824.587   136966274.384       -2971.719          38.000  
E30  24080071.556   126541711.457         539.820          44.000  
G10  24926874.758   130991580.847       -2059.548          41.000  
G12  20786280.217   109232752.785         955.959          47.000  
G25  22170091.960   116504738.932        3000.427          44.000  
G32  23432871.016   123140662.262        2510.092          48.000  
> 2023 12 29 13 34 52.0020000  0 16                     
G19  23176942.737   121795623.748       -1749.686          39.000  
G24  21518626.383   113081160.245       -1866.711          46.000  
G15  25189309.891   132370641.335       -3754.198          35.000  
E27  26781137.013   140735807.644        2596.056          40.000  
E10  29441094.504   154714078.764       -1225.926          26.000  
E02  25580304.450   134425393.679       -1858.096          38.000  
E08  26791215.770   140788746.117       -2815.512          40.000  
G06  25141919.637                        2614.450          22.000  
E14  23435278.210   123153279.119        3814.124          44.000  
E07  24548889.018   129005317.442        -644.980          44.000  
G23  26064390.497   136969245.822       -2971.694          38.000  
E30  24079968.512   126541171.608         539.546          44.000  
G10  24927265.905   130993640.550       -2060.244          41.000  
G12  20786098.421   109231796.990         955.390          47.000  
G25  22169521.006   116501738.525        3000.106          44.000  
G32  23432393.351   123138152.181        2509.558          48.000  
> 2023 12 29 13 34 53.0020000  0 16                     
G19  23177275.844   121797373.491       -1749.980          39.000  
G24  21518981.443   113083026.742       -1866.455          45.000  
G15  25190023.937   132374395.206       -3753.095          35.000  
E27  26780642.212   140733211.550        2596.228          39.000  
E10  29441329.611   154715304.970       -1226.694          26.000  
E02  25580658.079   134427251.556       -1857.750          39.000  
E08  26791751.160   140791561.792       -2815.418          40.000  
G06  25141420.142                        2614.450          22.000  
E14  23434552.334   123149465.185        3814.004          44.000  
E07  24549012.060   129005962.518        -645.173          44.000  
G23  26064955.867   136972217.217       -2971.614          37.000  
E30  24079865.835   126540632.023         539.443          44.000  
G10  24927657.610   130995700.603       -2060.297          41.000  
G12  20785916.921   109230841.668         955.325          47.000  
G25  22168949.860   116498738.418        3000.142          45.000  
G32  23431915.721   123135642.573        2509.413          48.000  
> 2023 12 29 13 34 54.0020000  0 16                     
G19  23177608.864   121799123.818       -1750.945          39.000  
G24  21519336.380   113084893.664       -1866.998          45.000  
G15  25190738.331   132378149.218       -3753.686          37.000  
E27  26780147.673   140730615.658        2595.687          39.000  
E10  29441563.793   154716531.647       -1226.833          26.000  
E02  25581011.795   134429109.625       -1858.560          38.000  
E08  26792287.196   140794377.673       -2816.035          40.000  
G06  25140923.526                        2614.450          21.000  
E14  23433826.858   123145651.729        3813.362          44.000  
E07  24549134.822   129006608.079        -645.720          44.000  
G23  26065521.289   136975188.653       -2971.438          37.000  
E30  24079762.705   126540092.731         539.208          44.000  
G10  24928050.082   130997761.035       -2060.460          42.000  
G12  20785735.299   109229886.919         954.531          47.000  
G25  22168379.098   116495738.686        2999.907          44.000  
G32  23431438.283   123133133.443        2508.818          48.000  
> 2023 12 29 13 34 55.0020000  0 16                     
G19  23177942.041   121800874.640       -1750.858          39.000  
G24  21519691.632   113086760.974       -1867.328          46.000  
G15  25191452.551   132381903.151       -3753.708          37.000  
E27  26779653.989   140728019.879        2595.855          39.000  
E10  29441794.799   154717758.688       -1227.681          26.000  
E02  25581365.406   134430967.749       -1858.047          38.000  
E08  26792823.337   140797193.674       -2816.016          40.000  
G06  25140426.212                        2614.450          22.000  
E14  23433101.261   123141838.676        3813.068          43.000  
E07  24549257.689   129007254.064        -645.855          44.000  
G23  26066086.816   136978159.996       -2971.077          38.000  
E30  24079660.167   126539553.707         538.973          44.000  
G10  24928442.677   130999821.820       -2060.554          42.000  
G12  20785553.468   109228932.649         954.481          47.000  
G25  22167808.389   116492739.297        2999.303          45.000  
G32  23430960.967   123130624.775        2508.696          48.000  
> 2023 12 29 13 34 56.0020000  0 15                     
G19  23178275.759   121802625.979       -1752.051          39.000  
G24  21520046.953   113088628.609       -1868.225          46.000  
G15  25192167.434   132385657.024       -3754.320          37.000  
E27  26779160.078   140725424.166        2595.222          39.000  
E10  29442025.246   154718986.011       -1227.230          26.000  
E02  25581719.122   134432825.920       -1858.203          38.000  
E08  26793359.390   140800009.766       -2816.567          40.000  
E14  23432375.820   123138026.001        3812.178          43.000  
E07  24549380.661   129007900.405        -646.743          44.000  
G23  26066651.679   136981131.311       -2971.955          38.000  
E30  24079557.961   126539014.872         538.522          44.000  
G10  24928834.801   131001882.897       -2061.580          42.000  
G12  20785371.986   109227978.827         953.240          47.000  
G25  22167237.959   116489740.135        2998.666          45.000  
G32  23430483.704   123128116.497        2507.593          48.000  
> 2023 12 29 13 34 57.0020000  0 15                     
G19  23178608.866   121804378.104       -1752.524          38.000  
G24  21520402.152   113090496.855       -1868.408          45.000  
G15  25192881.654   132389410.994       -3754.347          36.000  
E27  26778666.673   140722828.912        2595.544          40.000  
E10  29442255.397   154720214.186       -1228.235          26.000  
E02  25582072.576   134434684.441       -1858.360          38.000  
E08  26793896.071   140802826.149       -2816.510          41.000  
E14  23431650.415   123134213.957        3811.905          44.000  
E07  24549503.441   129008547.459        -647.048          44.000  
G23  26067216.752   136984102.721       -2971.385          38.000  
E30  24079455.511   126538476.596         538.393          44.000  
G10  24929227.047   131003944.615       -2061.655          42.000  
G12  20785190.661   109227025.798         952.730          47.000  
G25  22166667.442   116486741.574        2998.528          45.000  
G32  23430006.667   123125609.004        2507.403          47.000  
> 2023 12 29 13 34 58.0020000  0 15                     
G19  23178942.375   121806130.772       -1752.886          39.000  
G24  21520757.823   113092365.541       -1868.976          45.000  
G15  25193596.118   132393165.111       -3754.141          36.000  
E27  26778173.041   140720233.648        2595.316          39.000  
E10  29442489.422   154721442.426       -1227.911          26.000  
E02  25582426.257   134436543.123       -1858.321          38.000  
E08  26794432.264   140805642.819       -2816.710          41.000  
E14  23430925.079   123130402.425        3811.224          44.000  
E07  24549626.552   129009194.875        -647.521          44.000  
G23  26067781.738   136987074.167       -2971.725          37.000  
E30  24079353.427   126537938.517         537.973          44.000  
G10  24929619.852   131006006.530       -2062.349          42.000  
G12  20785009.388   109226073.202         952.334          47.000  
G25  22166096.697   116483743.256        2998.181          45.000  
G32  23429529.857   123123101.773        2506.948          48.000  
> 2023 12 29 13 34 59.0020000  0 15                     
G19  23179276.023   121807884.125       -1753.790          39.000  
G24  21521113.912   113094234.709       -1869.446          45.000  
G15  25194310.897   132396919.290       -3754.341          36.000  
E27  26777678.904   140717638.731        2594.452          39.000  
E10  29442723.098   154722671.407       -1229.219          25.000  
E02  25582780.130   134438402.027       -1858.832          38.000  
E08  26794968.248   140808459.687       -2817.259          40.000  
E14  23430199.865   123126591.406        3810.682          44.000  
E07  24549750.099   129009842.892        -648.269          44.000  
G23  26068346.601   136990045.624       -2971.673          37.000  
E30  24079251.396   126537400.872         537.432          44.000  
G10  24930012.516   131008069.016       -2062.849          42.000  
G12  20784827.975   109225121.305         951.566          47.000  
G25  22165525.883   116480745.427        2997.574          45.000  
G32  23429053.117   123120595.218        2506.324          48.000  
> 2023 12 29 13 35 00.0020000  0 15                     
G19  23179610.230   121809637.938       -1753.835          39.000  
G24  21521469.565   113096104.181       -1869.617          45.000  
G15  25195025.169   132400673.374       -3754.124          36.000  
E27  26777185.202   140715043.818        2594.872          39.000  
E10  29442960.543   154723900.743       -1230.205          25.000  
E02  25583133.881   134440260.984       -1858.779          37.000  
E08  26795504.214   140811276.616       -2816.923          41.000  
E14  23429474.652   123122780.768        3810.503          44.000  
E07  24549872.984   129010491.269        -648.537          44.000  
G23  26068911.936   136993016.971       -2970.710          38.000  
E30  24079149.452   126536863.431         537.332          45.000  
G10  24930404.954   131010131.788       -2062.820          42.000  
G12  20784646.580   109224169.824         951.404          47.000  
G25  22164955.401   116477747.853        2997.416          45.000  
G32  23428576.238   123118089.042        2505.986          48.000  
> 2023 12 29 13 35 01.0020000  0 15                     
G19  23179944.419   121811392.542       -1754.271          39.000  
G24  21521825.253   113097974.266       -1870.172          45.000  
G15  25195739.738   132404427.599       -3754.218          35.000  
E27  26776691.413   140712449.286        2594.584          40.000  
E10  29443199.576   154725130.539       -1230.239          26.000  
E02  25583487.527   134442120.252       -1859.224          37.000  
E08  26796040.127   140814093.902       -2817.273          41.000  
E14  23428749.630   123118970.755        3809.881          42.000  
E07  24549996.863   129011140.271        -649.179          44.000  
G23  26069477.393   136995988.517       -2971.590          38.000  
E30  24079047.490   126536326.467         536.776          45.000  
G10  24930796.590   131012195.066       -2063.073          41.000  
G12  20784465.831   109223219.078         950.625          47.000  
G25  22164384.656   116474750.787        2996.967          44.000  
G32  23428099.306   123115583.540        2505.424          48.000  
> 2023 12 29 13 35 02.0020000  0 15                     
G19  23180278.782   121813147.635       -1755.444          39.000  
G24  21522181.150   113099844.733       -1870.630          45.000  
G15  25196454.150   132408181.786       -3754.133          35.000  
E27  26776197.520   140709854.855        2594.466          40.000  
E10  29443435.538   154726360.699       -1229.973          25.000  
E02  25583841.644   134443979.624       -1859.425          38.000  
E08  26796575.849   140816911.328       -2817.643          40.000  
E14  23428024.835   123115161.167        3809.412          43.000  
E07  24550119.904   129011789.681        -649.834          44.000  
G23  26070043.146   136998959.962       -2971.491          38.000  
E30  24078945.825   126535789.736         536.377          45.000  
G10  24931189.063   131014258.743       -2064.055          42.000  
G12  20784285.273   109222268.786         949.913          47.000  
G25  22163814.069   116471754.037        2996.635          44.000  
G32  23427622.566   123113078.461        2504.748          48.000  
> 2023 12 29 13 35 03.0020000  0 15                     
G19  23180613.059   121814903.310       -1755.736          39.000  
G24  21522537.222   113101715.579       -1870.849          45.000  
G15  25197168.510   132411935.985       -3754.168          35.000  
E27  26775704.324   140707260.560        2594.326          39.000  
E10  29443667.329   154727591.382       -1230.344          25.000  
E02  25584195.936   134445839.103       -1859.672          38.000  
E08  26797112.443   140819728.873       -2817.579          41.000  
E14  23427300.215   123111352.009        3808.892          43.000  
E07  24550243.679   129012439.518        -650.003          44.000  
G23  26070608.795   137001931.415       -2971.499          37.000  
E30  24078843.654   126535253.280         536.411          45.000  
G10  24931581.867   131016322.738       -2064.100          42.000  
G12  20784104.245   109221319.026         949.659          47.000  
G25  22163243.273   116468757.590        2996.406          44.000  
G32  23427145.896   123110573.833        2504.529          47.000  
> 2023 12 29 13 35 04.0020000  0 15                     
G19  23180947.422   121816659.633       -1756.367          40.000  
G24  21522893.223   113103586.937       -1871.649          45.000  
G15  25197882.974   132415690.241       -3754.580          35.000  
E27  26775210.588   140704666.504        2593.749          40.000  
E10  29443902.401   154728822.516       -1231.402          26.000  
E02  25584549.879   134447698.808       -1860.346          38.000  
E08  26797648.200   140822546.661       -2818.192          40.000  
E14  23426575.158   123107543.400        3808.145          44.000  
E07  24550367.593   129013089.901        -650.802          44.000  
G23  26071174.095   137004902.879       -2971.484          37.000  
E30  24078741.832   126534717.194         535.657          45.000  
G10  24931974.654   131018387.174       -2064.778          42.000  
G12  20783923.792   109220369.872         948.779          47.000  
G25  22162672.755   116465761.607        2995.597          44.000  
G32  23426669.016   123108069.775        2503.574          47.000  
> 2023 12 29 13 35 05.0020000  0 15                     
G19  23181282.414   121818416.452       -1757.324          40.000  
G24  21523249.295   113105458.601       -1871.863          46.000  
G15  25198597.019   132419444.421       -3754.502          35.000  
E27  26774717.445   140702072.496        2593.861          40.000  
E10  29444135.798   154730054.031       -1232.305          26.000  
E02  25584903.717   134449558.552       -1859.711          37.000  
E08  26798184.096   140825364.513       -2817.612          41.000  
E14  23425850.590   123103735.138        3808.040          44.000  
E07  24550491.315   129013740.652        -651.045          44.000  
G23  26071739.465   137007874.244       -2971.269          36.000  
E30  24078639.626   126534181.328         535.674          45.000  
G10  24932368.435   131020451.909       -2065.090          43.000  
G12  20783743.270   109219421.166         948.360          47.000  
G25  22162102.726   116462765.827        2995.444          44.000  
G32  23426192.242   123105566.092        2503.377          47.000  
> 2023 12 29 13 35 06.0020000  0 15                     
G19  23181616.987   121820173.869       -1758.076          38.000  
G24  21523605.663   113107330.709       -1872.522          46.000  
G15  25199311.274   132423198.644       -3754.703          34.000  
E27  26774223.638   140699478.679        2593.695          39.000  
E10  29444371.986   154731285.971       -1232.009          25.000  
E02  25585257.258   134451418.471       -1860.009          36.000  
E08  26798720.673   140828182.594       -2818.049          41.000  
E14  23425125.883   123099927.410        3807.349          44.000  
E07  24550614.897   129014391.893        -651.541          44.000  
G23  26072305.078   137010845.635       -2971.425          36.000  
E30  24078537.612   126533645.776         535.466          45.000  
G10  24932761.275   131022517.039       -2065.282          42.000  
G12  20783562.992   109218473.033         947.810          47.000  
G25  22161532.907   116459770.472        2994.744          44.000  
G32  23425715.816   123103062.938        2502.780          47.000  
> 2023 12 29 13 35 07.0020000  0 15                     
G19  23181951.682   121821931.805       -1758.389          39.000  
G24  21523961.857   113109203.215       -1872.687          46.000  
G15  25200025.546   132426952.846       -3754.396          35.000  
E27  26773730.111   140696884.997        2593.543          39.000  
E10  29444609.920   154732518.260       -1232.176          28.000  
E02  25585611.096   134453278.526       -1859.993          36.000  
E08  26799256.883   140831000.786       -2818.159          41.000  
E14  23424400.600   123096120.060        3807.219          44.000  
E07  24550739.440   129015043.548        -651.885          44.000  
G23  26072870.064   137013816.927       -2971.526          34.000  
E30  24078435.703   126533110.486         535.408          45.000  
G10  24933154.864   131024582.466       -2065.541          43.000  
G12  20783382.835   109217525.390         947.525          47.000  
G25  22160963.506   116456775.403        2995.046          45.000  
G32  23425238.849   123100560.220        2502.405          47.000  
> 2023 12 29 13 35 08.0020000  0 15                     
G19  23182286.587   121823690.188       -1758.917          40.000  
G24  21524318.173   113111075.951       -1872.949          46.000  
G15  25200739.819   132430706.875       -3754.411          33.000  
E27  26773236.951   140694291.315        2593.615          40.000  
E10  29444845.917   154733750.837       -1232.436          28.000  
E02  25585964.620   134455138.512       -1860.003          36.000  
E08  26799792.727   140833819.023       -2818.566          41.000  
E14  23423675.892   123092313.062        3806.417          43.000  
E07  24550863.737   129015695.512        -652.316          44.000  
G23  26073435.294   137016788.084       -2971.701          34.000  
E30  24078333.776   126532575.359         534.887          45.000  
G10  24933548.733   131026648.170       -2065.925          43.000  
G12  20783202.697   109216578.133         946.908          47.000  
G25  22160393.861   116453780.559        2994.524          45.000  
G32  23424762.632   123098057.834        2502.033          47.000  
> 2023 12 29 13 35 09.0020000  0 15                     
G19  23182621.474   121825449.182       -1759.228          40.000  
G24  21524674.629   113112949.168       -1873.212          46.000  
G15  25201454.161   132434460.960       -3754.817          33.000  
E27  26772743.825   140691697.844        2593.414          40.000  
E10  29445080.675   154734983.992       -1233.824          27.000  
E02  25586318.755   134456998.689       -1860.392          37.000  
E08  26800329.147   140836637.401       -2818.579          41.000  
E14  23422951.848   123088506.526        3806.314          43.000  
E07  24550988.349   129016347.971        -652.710          45.000  
G23  26074000.646   137019759.275       -2970.423          33.000  
E30  24078232.181   126532040.551         534.656          45.000  
G10  24933942.271   131028714.251       -2066.163          42.000  
G12  20783022.680   109215631.436         946.498          47.000  
G25  22159823.414   116450786.052        2994.528          44.000  
G32  23424287.323   123095555.965        2501.755          47.000  
> 2023 12 29 13 35 10.0020000  0 15                     
G19  23182956.414   121827208.668       -1759.476          39.000  
G24  21525031.154   113114822.709       -1873.596          46.000  
G15  25202168.678   132438214.941       -3754.248          34.000  
E27  26772250.856   140689104.424        2593.426          40.000  
E10  29445313.600   154736217.329       -1233.417          27.000  
E02  25586672.593   134458858.954       -1860.374          37.000  
E08  26800865.845   140839455.895       -2818.273          41.000  
E14  23422227.594   123084700.396        3805.943          43.000  
E07  24551112.229   129017000.792        -652.954          44.000  
G23  26074565.580   137022730.219       -2968.430          31.000  
E30  24078130.498   126531505.947         534.523          45.000  
G10  24934335.773   131030780.615       -2066.488          43.000  
G12  20782842.821   109214685.188         946.086          47.000  
G25  22159254.135   116447791.829        2994.081          45.000  
G32  23423811.491   123093054.492        2501.251          47.000  
> 2023 12 29 13 35 11.0020000  0 15                     
G19  23183291.213   121828968.705       -1760.153          39.000  
G24  21525387.418   113116696.615       -1874.139          46.000  
G15  25202883.055   132441968.849       -3753.621          34.000  
E27  26771757.591   140686511.120        2593.321          41.000  
E10  29445549.300   154737451.052       -1233.922          27.000  
E02  25587026.448   134460719.272       -1860.390          37.000  
E08  26801402.544   140842274.514       -2818.858          40.000  
E14  23421503.288   123080894.653        3805.678          43.000  
E07  24551236.614   129017654.007        -653.244          44.000  
G23  26075126.674   137025701.387       -2971.338          29.000  
E30  24078029.025   126530971.583         534.271          45.000  
G10  24934729.258   131032847.304       -2066.683          43.000  
G12  20782662.874   109213739.415         945.468          47.000  
G25  22158684.560   116444797.901        2993.839          44.000  
G32  23423335.589   123090553.433        2500.761          46.000  
> 2023 12 29 13 35 12.0020000  0 15                     
G19  23183626.711   121830729.358       -1760.737          39.000  
G24  21525744.100   113118571.028       -1874.567          45.000  
G15  25203597.938   132445722.908       -3754.256          35.000  
E27  26771264.867   140683918.046        2593.201          41.000  
E10  29445788.316   154738685.374       -1234.770          27.000  
E02  25587380.967   134462579.809       -1860.520          38.000  
E08  26801939.034   140845093.349       -2818.798          40.000  
E14  23420778.754   123077089.437        3805.215          42.000  
E07  24551361.208   129018307.790        -653.910          44.000  
G23  26075692.567   137028672.457       -2971.014          30.000  
E30  24077927.238   126530437.599         533.927          45.000  
G10  24935122.848   131034914.435       -2067.119          43.000  
G12  20782482.928   109212794.282         944.966          47.000  
G25  22158114.915   116441804.398        2993.395          45.000  
G32  23422859.739   123088052.969        2500.267          46.000  
> 2023 12 29 13 35 13.0020000  0 15                     
G19  23183962.279   121832490.654       -1761.804          39.000  
G24  21526100.678   113120445.880       -1875.232          45.000  
G15  25204312.664   132449476.881       -3753.495          36.000  
E27  26770771.095   140681325.186        2592.686          40.000  
E10  29446021.538   154739920.038       -1234.659          27.000  
E02  25587735.364   134464440.493       -1860.570          38.000  
E08  26802475.244   140847912.383       -2819.097          41.000  
E14  23420054.413   123073284.739        3804.593          42.000  
E07  24551485.942   129018962.041        -654.559          44.000  
G23  26076260.153   137031643.534       -2971.568          32.000  
E30  24077825.294   126529903.927         533.520          45.000  
G10  24935516.350   131036981.961       -2067.828          43.000  
G12  20782302.754   109211849.690         944.329          46.000  
G25  22157545.096   116438811.274        2992.955          44.000  
G32  23422384.185   123085552.979        2499.667          47.000  
> 2023 12 29 13 35 14.0020000  0 15                     
G19  23184297.672   121834252.277       -1761.596          39.000  
G24  21526457.553   113122320.916       -1874.841          45.000  
G15  25205027.058   132453230.773       -3753.648          36.000  
E27  26770277.952   140678732.242        2593.313          41.000  
E10  29446255.074   154741154.942       -1234.677          28.000  
E02  25588089.289   134466301.198       -1860.458          37.000  
E08  26803011.681   140850731.388       -2818.643          40.000  
E14  23419330.404   123069480.286        3804.672          42.000  
E07  24551610.485   129019616.529        -654.421          44.000  
G23  26076822.783   137034614.305       -2970.906          32.000  
E30  24077723.856   126529370.354         533.668          45.000  
G10  24935909.538   131039049.677       -2067.683          42.000  
G12  20782122.877   109210905.434         944.233          47.000  
G25  22156975.730   116435818.291        2992.980          45.000  
G32  23421908.894   123083053.267        2499.740          47.000  
> 2023 12 29 13 35 15.0020000  0 15                     
G19  23184633.083   121836014.416       -1762.494          40.000  
G24  21526814.444   113124196.303       -1875.574          45.000  
G15  25205741.383   132456984.564       -3753.386          36.000  
E27  26769784.408   140676139.382        2592.671          41.000  
E10  29446493.392   154742390.306       -1235.652          28.000  
E02  25588443.144   134468161.915       -1861.112          37.000  
E08  26803548.171   140853550.469       -2819.490          41.000  
E14  23418606.831   123065676.220        3803.628          42.000  
E07  24551734.957   129020271.411        -655.185          44.000  
G23  26077388.589   137037585.068       -2970.941          34.000  
E30  24077622.017   126528837.002         533.158          44.000  
G10  24936302.919   131041117.642       -2068.356          43.000  
G12  20781943.437   109209961.637         943.686          47.000  
G25  22156406.766   116432825.560        2992.314          45.000  
G32  23421433.462   123080553.974        2499.149          47.000  
> 2023 12 29 13 35 16.0020000  0 15                     
G19  23184968.685   121837777.259       -1763.151          40.000  
G24  21527171.842   113126072.202       -1875.885          45.000  
G15  25206456.109   132460738.434       -3753.511          36.000  
E27  26769290.933   140673546.762        2592.497          41.000  
E10  29446732.024   154743626.037       -1236.104          27.000  
E02  25588797.314   134470022.820       -1861.483          37.000  
E08  26804084.625   140856369.819       -2819.649          41.000  
E14  23417883.188   123061872.739        3803.093          43.000  
E07  24551860.127   129020926.822        -655.861          44.000  
G23  26077957.221   137040555.855       -2971.742          38.000  
E30  24077520.823   126528304.020         532.583          45.000  
G10  24936696.299   131043186.059       -2068.700          42.000  
G12  20781763.508   109209018.455         942.693          47.000  
G25  22155838.255   116429833.283        2991.904          45.000  
G32  23420957.525   123078055.233        2498.523          46.000  
> 2023 12 29 13 35 17.0020000  0 15                     
G19  23185304.114   121839540.808       -1764.162          40.000  
G24  21527528.752   113127948.675       -1876.892          45.000  
G15  25207170.416   132464492.468       -3754.146          36.000  
E27  26768797.441   140670954.469        2591.905          41.000  
E10  29446964.984   154744862.413       -1236.807          27.000  
E02  25589151.396   134471884.074       -1861.566          37.000  
E08  26804621.952   140859189.466       -2820.003          41.000  
E14  23417159.405   123058069.827        3802.451          43.000  
E07  24551984.792   129021582.841        -656.545          43.000  
G23  26078520.846   137043526.730       -2971.485          35.000  
E30  24077419.385   126527771.481         532.350          45.000  
G10  24937090.133   131045254.999       -2069.398          43.000  
G12  20781583.962   109208075.975         942.033          46.000  
G25  22155269.430   116426841.491        2991.591          45.000  
G32  23420481.745   123075557.131        2497.640          47.000  
> 2023 12 29 13 35 18.0020000  0 15                     
G19  23185640.065   121841305.251       -1764.894          40.000  
G24  21527886.429   113129825.880       -1877.417          45.000  
G15  25207884.653   132468246.835       -3754.400          34.000  
E27  26768303.809   140668362.647        2591.296          41.000  
E10  29447199.497   154746099.525       -1237.386          27.000  
E02  25589505.706   134473745.719       -1861.821          37.000  
E08  26805158.285   140862009.613       -2820.352          41.000  
E14  23416435.413   123054267.733        3801.666          43.000  
E07  24552109.700   129022239.664        -657.183          44.000  
G23  26079088.449   137046497.980       -2970.967          37.000  
E30  24077318.016   126527239.593         531.564          44.000  
G10  24937484.072   131047324.659       -2069.863          42.000  
G12  20781404.208   109207134.345         941.152          46.000  
G25  22154700.152   116423850.393        2990.825          45.000  
G32  23420006.628   123073059.873        2496.776          47.000  
> 2023 12 29 13 35 19.0020000  0 15                     
G19  23185975.807   121843070.463       -1766.085          40.000  
G24  21528243.722   113131703.694       -1878.198          45.000  
G15  25208599.467   132472001.361       -3754.349          35.000  
E27  26767810.456   140665771.190        2590.836          40.000  
E10  29447435.477   154747337.260       -1238.313          27.000  
E02  25589860.573   134475607.797       -1862.592          38.000  
E08  26805695.525   140864830.116       -2820.862          41.000  
E14  23415711.805   123050466.281        3800.722          43.000  
E07  24552234.731   129022897.118        -657.904          44.000  
G23  26079652.022   137049469.319       -2971.578          38.000  
E30  24077216.753   126526708.175         530.920          44.000  
G10  24937878.464   131049394.910       -2071.038          43.000  
G12  20781224.976   109206193.444         940.358          46.000  
G25  22154131.031   116420859.850        2989.832          45.000  
G32  23419531.808   123070563.223        2496.148          48.000  
> 2023 12 29 13 35 20.0020000  0 15                     
G19  23186311.323   121844836.383       -1766.235          40.000  
G24  21528601.259   113133582.064       -1878.632          45.000  
G15  25209313.338   132475755.995       -3753.699          32.000  
E27  26767317.505   140663180.022        2591.222          41.000  
E10  29447670.357   154748575.552       -1238.662          28.000  
E02  25590214.830   134477470.092       -1862.042          37.000  
E08  26806232.171   140867650.933       -2820.798          41.000  
E14  23414988.877   123046665.425        3800.772          43.000  
E07  24552359.919   129023555.180        -658.225          44.000  
G23  26080218.211   137052440.880       -2971.516          36.000  
E30  24077115.768   126526177.197         530.855          44.000  
G10  24938272.752   131051465.678       -2070.546          43.000  
G12  20781046.147   109205253.233         940.011          47.000  
G25  22153561.996   116417869.766        2989.993          45.000  
G32  23419056.970   123068067.269        2495.693          46.000  
> 2023 12 29 13 35 21.0020000  0 15                     
G19  23186647.222   121846602.918       -1766.953          40.000  
G24  21528958.954   113135460.852       -1878.986          45.000  
G15  25210027.610   132479510.712       -3754.766          32.000  
E27  26766825.095   140660589.009        2591.012          41.000  
E10  29447905.655   154749814.291       -1239.642          28.000  
E02  25590569.680   134479332.549       -1862.667          38.000  
E08  26806769.132   140870471.895       -2821.099          41.000  
E14  23414266.106   123042865.017        3800.189          44.000  
E07  24552485.247   129024213.711        -658.969          44.000  
G23  26080783.459   137055412.306       -2971.411          36.000  
E30  24077014.941   126525646.519         530.460          44.000  
G10  24938667.894   131053536.797       -2071.381          44.000  
G12  20780867.334   109204313.543         939.390          46.000  
G25  22152993.067   116414880.006        2989.486          45.000  
G32  23418581.608   123065571.740        2495.062          47.000  
> 2023 12 29 13 35 22.0020000  0 15                     
G19  23186983.348   121848369.907       -1766.793          38.000  
G24  21529316.666   113137339.974       -1879.047          45.000  
G15  25210740.608   132483265.302       -3755.031          31.000  
E27  26766332.406   140657998.107        2591.302          41.000  
E10  29448140.727   154751053.325       -1238.853          28.000  
E02  25590924.321   134481195.043       -1861.844          35.000  
E08  26807306.005   140873292.980       -2821.025          41.000  
E14  23413543.249   123039065.086        3799.726          41.000  
E07  24552610.417   129024872.615        -658.862          44.000  
G23  26081348.950   137058383.747       -2971.389          37.000  
E30  24076913.782   126525116.080         530.694          44.000  
G10  24939062.356   131055608.197       -2071.289          42.000  
G12  20780688.627   109203374.344         939.196          47.000  
G25  22152424.504   116411890.550        2989.749          46.000  
G32  23418106.526   123063076.656        2495.041          47.000  
> 2023 12 29 13 35 23.0020000  0 16                     
G19  23187319.352   121850137.426       -1768.460          39.000  
G24  21529674.727   113139219.402       -1879.956          46.000  
G15  25211456.800   132487019.720       -3755.251          37.000  
E27  26765839.367   140655407.207        2590.881          41.000  
E10  29448376.916   154752292.668       -1239.644          29.000  
E02  25591278.857   134483057.625       -1863.119          36.000  
E08  26807842.722   140876114.067       -2821.405          41.000  
G06  25126576.341                        2601.605          17.000  
E14  23412819.954   123035265.399        3798.961          44.000  
E07  24552736.181   129025531.841        -659.839          44.000  
G23  26081914.547   137061354.954       -2971.526          37.000  
E30  24076812.745   126524585.789         529.896          44.000  
G10  24939456.539   131057679.847       -2072.123          43.000  
G12  20780509.291   109202435.526         938.170          46.000  
G25  22151855.854   116408901.340        2988.645          45.000  
G32  23417631.357   123060581.895        2494.311          46.000  
> 2023 12 29 13 35 24.0020000  0 16                     
G19  23187655.548   121851905.377       -1768.300          39.000  
G24  21530032.544   113141099.181       -1880.011          46.000  
G15  25212167.600   132490774.167       -3754.745          36.000  
E27  26765346.765   140652816.401        2590.805          41.000  
E10  29448614.379   154753532.324       -1239.570          28.000  
E02  25591633.568   134484920.163       -1862.650          38.000  
E08  26808379.996   140878935.270       -2821.232          42.000  
G06  25126077.230                        2601.605          16.000  
E14  23412097.062   123031466.115        3799.072          44.000  
E07  24552861.665   129026191.434        -659.979          44.000  
G23  26082479.550   137064326.067       -2971.355          36.000  
E30  24076711.761   126524055.710         529.798          44.000  
G10  24939850.548   131059751.794       -2072.279          41.000  
G12  20780331.037   109201497.154         938.040          46.000  
G25  22151287.395   116405912.366        2988.774          45.000  
G32  23417156.955   123058087.563        2494.112          47.000  
> 2023 12 29 13 35 25.0020000  0 16                     
G19  23187991.726   121853673.793       -1768.774          39.000  
G24  21530390.395   113142979.246       -1880.164          46.000  
G15  25212884.333   132494528.459       -3754.454          36.000  
E27  26764853.569   140650225.661        2590.803          41.000  
E10  29448858.909   154754772.414       -1240.506          29.000  
E02  25591988.261   134486782.809       -1862.614          37.000  
E08  26808916.608   140881756.516       -2821.071          41.000  
G06  25125579.305                        2601.605          11.000  
E14  23411374.570   123027667.209        3798.969          44.000  
E07  24552987.167   129026851.393        -659.992          44.000  
G23  26083045.356   137067297.118       -2970.966          38.000  
E30  24076611.282   126523525.827         529.938          44.000  
G10  24940243.963   131061823.954       -2071.937          42.000  
G12  20780152.887   109200559.217         937.695          47.000  
G25  22150718.798   116402923.648        2988.694          45.000  
G32  23416682.379   123055593.604        2493.804          47.000  
> 2023 12 29 13 35 26.0020000  0 16                     
G19  23188327.800   121855442.722       -1769.385          39.000  
G24  21530747.863   113144859.677       -1880.670          46.000  
G15  25213597.104   132498282.677       -3754.524          36.000  
E27  26764360.479   140647635.004        2590.351          41.000  
E10  29449088.641   154756012.810       -1240.520          29.000  
E02  25592342.849   134488645.510       -1862.787          37.000  
E08  26809453.272   140884577.892       -2821.496          42.000  
G06  25125079.950                        2601.605          13.000  
E14  23410651.695   123023868.705        3798.211          44.000  
E07  24553112.687   129027511.764        -660.637          44.000  
G23  26083610.883   137070268.004       -2971.034          37.000  
E30  24076510.682   126522996.189         529.558          44.000  
G10  24940637.919   131063896.523       -2072.808          42.000  
G12  20779974.581   109199621.785         937.212          47.000  
G25  22150149.449   116399935.214        2988.196          45.000  
G32  23416208.291   123053100.077        2493.218          47.000  
> 2023 12 29 13 35 27.0020000  0 16                     
G19  23188664.485   121857212.458       -1770.353          39.000  
G24  21531105.750   113146740.724       -1881.317          46.000  
G15  25214311.307   132502037.135       -3754.783          36.000  
E27  26763867.091   140645044.712        2589.967          41.000  
E10  29449321.392   154757253.814       -1240.782          29.000  
E02  25592696.809   134490508.563       -1863.528          37.000  
E08  26809990.006   140887399.622       -2822.022          41.000  
G06  25124580.315                        2601.605          15.000  
E14  23409929.151   123020070.866        3797.572          44.000  
E07  24553238.450   129028172.783        -661.222          45.000  
G23  26084176.566   137073239.167       -2970.947          36.000  
E30  24076409.418   126522467.051         528.975          44.000  
G10  24941031.963   131065969.621       -2073.861          41.000  
G12  20779796.763   109198685.075         936.242          47.000  
G25  22149580.834   116396947.330        2987.386          46.000  
G32  23415734.134   123050607.231        2492.480          47.000  
> 2023 12 29 13 35 28.0020000  0 16                     
G19  23189001.047   121858982.791       -1770.677          39.000  
G24  21531463.654   113148622.228       -1881.750          45.000  
G15  25215026.155   132505791.645       -3754.370          37.000  
E27  26763374.262   140642454.599        2590.251          41.000  
E10  29449550.914   154758495.340       -1241.647          28.000  
E02  25593051.171   134492371.793       -1863.205          37.000  
E08  26810526.740   140890221.529       -2821.865          42.000  
G06  25124085.898                        2601.605          13.000  
E14  23409206.939   123016273.531        3797.240          45.000  
E07  24553363.778   129028834.298        -661.710          44.000  
G23  26084741.971   137076210.317       -2971.310          35.000  
E30  24076308.818   126521938.232         528.887          44.000  
G10  24941426.320   131068043.109       -2073.573          42.000  
G12  20779619.050   109197748.944         935.979          47.000  
G25  22149011.817   116393959.828        2987.419          45.000  
G32  23415259.715   123048114.897        2492.080          47.000  
> 2023 12 29 13 35 29.0020000  0 15                     
G19  23189337.941   121860753.722       -1770.992          39.000  
G24  21531821.645   113150504.165       -1882.092          45.000  
G15  25215740.794   132509546.106       -3753.875          37.000  
E27  26762881.049   140639864.707        2589.785          40.000  
E10  29449786.108   154759737.253       -1242.295          28.000  
E02  25593405.358   134494235.198       -1863.731          37.000  
E08  26811063.788   140893043.655       -2822.167          41.000  
E14  23408484.553   123012476.705        3796.522          44.000  
E07  24553489.925   129029496.297        -662.257          44.000  
G23  26085307.096   137079181.468       -2970.851          32.000  
E30  24076207.973   126521409.770         528.184          44.000  
G10  24941820.555   131070117.018       -2074.141          42.000  
G12  20779440.971   109196813.380         935.351          46.000  
G25  22148443.813   116390972.698        2987.042          46.000  
G32  23414786.081   123045623.096        2491.674          48.000  
> 2023 12 29 13 35 30.0020000  0 15                     
G19  23189674.730   121862525.338       -1772.233          39.000  
G24  21532179.741   113152386.599       -1882.526          45.000  
G15  25216455.084   132513300.748       -3754.599          36.000  
E27  26762387.819   140637275.024        2589.442          41.000  
E10  29450030.708   154760979.642       -1242.368          28.000  
E02  25593759.772   134496098.819       -1863.888          37.000  
E08  26811601.359   140895866.025       -2822.425          42.000  
E14  23407762.114   123008680.381        3796.185          45.000  
E07  24553615.986   129030158.815        -662.478          44.000  
G23  26085872.727   137082152.639       -2971.227          35.000  
E30  24076107.268   126520881.639         528.009          44.000  
G10  24942214.913   131072191.336       -2074.275          42.000  
G12  20779263.118   109195878.410         934.888          47.000  
G25  22147875.860   116387985.985        2986.537          46.000  
G32  23414312.308   123043131.821        2491.063          48.000  
> 2023 12 29 13 35 31.0020000  0 15                     
G19  23190011.781   121864297.491       -1772.556          38.000  
G24  21532538.011   113154269.472       -1883.289          46.000  
G15  25217169.827   132517055.315       -3754.264          37.000  
E27  26761894.606   140634685.499        2589.306          41.000  
E10  29450263.407   154762222.531       -1243.236          28.000  
E02  25594114.692   134497962.591       -1864.173          38.000  
E08  26812138.599   140898688.548       -2822.865          42.000  
E14  23407039.884   123004884.552        3795.506          45.000  
E07  24553742.116   129030821.828        -663.427          45.000  
G23  26086438.027   137085123.780       -2970.498          33.000  
E30  24076006.824   126520353.816         527.658          44.000  
G10  24942609.933   131074266.063       -2075.063          42.000  
G12  20779085.423   109194944.008         933.971          47.000  
G25  22147307.681   116384999.648        2985.947          46.000  
G32  23413838.290   123040641.071        2490.388          47.000  
> 2023 12 29 13 35 32.0020000  0 15                     
G19  23190348.710   121866070.082       -1773.224          39.000  
G24  21532896.770   113156152.551       -1883.472          46.000  
G15  25217884.012   132520809.779       -3754.890          37.000  
E27  26761401.689   140632095.974        2589.181          41.000  
E10  29450500.136   154763465.618       -1243.406          28.000  
E02  25594469.228   134499826.283       -1863.882          37.000  
E08  26812675.786   140901511.077       -2822.860          42.000  
E14  23406317.497   123001089.022        3795.003          45.000  
E07  24553868.141   129031485.088        -663.696          44.000  
G23  26087003.379   137088094.771       -2971.102          34.000  
E30  24075906.381   126519826.132         527.335          44.000  
G10  24943004.291   131076340.955       -2075.131          42.000  
G12  20778907.640   109194009.932         933.576          47.000  
G25  22146739.328   116382013.470        2985.930          46.000  
G32  23413364.168   123038150.596        2490.150          47.000  
> 2023 12 29 13 35 33.0020000  0 15                     
G19  23190685.743   121867843.313       -1773.213          37.000  
G24  21533255.163   113158036.179       -1883.765          46.000  
G15  25218598.511   132524564.320       -3755.122          36.000  
E27  26760909.052   140629506.701        2589.229          41.000  
E10  29450735.330   154764709.317       -1244.001          27.000  
E02  25594823.834   134501690.229       -1863.899          37.000  
E08  26813212.939   140904333.840       -2822.716          41.000  
E14  23405595.303   122997294.030        3794.872          45.000  
E07  24553994.900   129032148.923        -664.005          45.000  
G23  26087568.697   137091065.758       -2971.201          34.000  
E30  24075806.234   126519298.817         527.340          44.000  
G10  24943399.032   131078416.323       -2075.424          42.000  
G12  20778729.997   109193076.505         933.263          47.000  
G25  22146171.376   116379027.755        2985.623          46.000  
G32  23412890.342   123035660.716        2489.919          47.000  
> 2023 12 29 13 35 34.0020000  0 15                     
G19  23191022.724   121869617.117       -1774.326          38.000  
G24  21533613.590   113159920.178       -1884.424          45.000  
G15  25219313.150   132528318.793       -3754.733          37.000  
E27  26760416.904   140626917.567        2588.771          41.000  
E10  29450974.660   154765953.310       -1244.075          27.000  
E02  25595178.771   134503554.352       -1864.438          37.000  
E08  26813750.318   140907156.761       -2823.328          41.000  
E14  23404873.038   122993499.496        3793.959          44.000  
E07  24554121.309   129032813.181        -664.682          44.000  
G23  26088134.398   137094036.830       -2971.483          35.000  
E30  24075706.035   126518771.802         526.657          44.000  
G10  24943793.774   131080492.074       -2076.411          42.000  
G12  20778552.563   109192143.588         932.254          47.000  
G25  22145603.074   116376042.350        2984.933          45.000  
G32  23412416.219   123033171.296        2488.896          46.000  
> 2023 12 29 13 35 35.0020000  0 15                     
G19  23191360.543   121871391.490       -1774.642          38.000  
G24  21533971.965   113161804.587       -1884.894          45.000  
G15  25220027.457   132532073.299       -3755.168          36.000  
E27  26759924.686   140624328.571        2588.756          41.000  
E10  29451213.676   154767197.781       -1245.160          27.000  
E02  25595533.220   134505418.525       -1864.694          37.000  
E08  26814287.314   140909979.846       -2823.579          41.000  
E14  23404150.913   122989705.417        3793.473          44.000  
E07  24554247.736   129033477.877        -665.137          44.000  
G23  26088700.186   137097007.824       -2971.383          35.000  
E30  24075605.818   126518245.061         526.316          44.000  
G10  24944188.340   131082568.164       -2076.486          42.000  
G12  20778374.745   109191211.203         931.863          47.000  
G25  22145035.035   116373057.302        2984.470          46.000  
G32  23411942.394   123030682.361        2488.530          47.000  
> 2023 12 29 13 35 36.0020000  0 15                     
G19  23191698.118   121873166.378       -1775.104          38.000  
G24  21534330.567   113163689.345       -1884.735          46.000  
G15  25220741.677   132535827.674       -3754.725          36.000  
E27  26759432.118   140621739.670        2588.917          41.000  
E10  29451448.224   154768442.570       -1244.805          27.000  
E02  25595888.175   134507282.835       -1864.141          37.000  
E08  26814824.118   140912803.022       -2823.121          40.000  
E14  23403428.910   122985911.706        3793.678          45.000  
E07  24554374.390   129034142.987        -665.214          45.000  
G23  26089265.800   137099978.714       -2970.460          33.000  
E30  24075506.055   126517718.540         526.474          44.000  
G10  24944583.344   131084644.501       -2076.523          42.000  
G12  20778197.940   109190279.259         931.903          48.000  
G25  22144466.926   116370072.509        2984.781          45.000  
G32  23411468.847   123028193.824        2488.478          47.000  
> 2023 12 29 13 35 37.0020000  0 15                     
G19  23192036.059   121874941.778       -1775.777          38.000  
G24  21534689.414   113165574.510       -1885.327          46.000  
G15  25221456.107   132539582.130       -3753.965          36.000  
E27  26758939.342   140619150.920        2588.575          41.000  
E10  29451682.685   154769687.743       -1245.478          27.000  
E02  25596242.938   134509147.236       -1864.655          37.000  
E08  26815361.148   140915626.355       -2823.694          40.000  
E14  23402707.239   122982118.500        3792.809          45.000  
E07  24554501.061   129034808.533        -666.040          44.000  
G23  26089830.803   137102949.568       -2971.241          33.000  
E30  24075405.944   126517192.311         525.880          45.000  
G10  24944979.045   131086721.218       -2076.840          43.000  
G12  20778020.663   109189347.864         931.078          47.000  
G25  22143899.410   116367088.074        2984.199          46.000  
G32  23410994.864   123025705.777        2487.551          46.000  
> 2023 12 29 13 35 38.0020000  0 15                     
G19  23192374.069   121876717.859       -1776.116          38.000  
G24  21535048.016   113167460.157       -1885.705          45.000  
G15  25222170.676   132543336.621       -3754.917          36.000  
E27  26758446.687   140616562.394        2588.417          41.000  
E10  29451917.129   154770933.466       -1245.255          26.000  
E02  25596597.858   134511011.853       -1864.934          37.000  
E08  26815898.056   140918449.918       -2823.737          40.000  
E14  23401985.359   122978325.802        3792.532          44.000  
E07  24554628.133   129035474.584        -666.223          45.000  
G23  26090396.504   137105920.457       -2970.741          33.000  
E30  24075305.867   126516666.433         525.743          45.000  
G10  24945374.781   131088798.397       -2077.295          43.000  
G12  20777843.037   109188417.059         930.649          47.000  
G25  22143331.475   116364104.035        2984.039          45.000  
G32  23410521.527   123023218.260        2487.579          46.000  
> 2023 12 29 13 35 39.0020000  0 15                     
G19  23192712.185   121878494.415       -1776.892          39.000  
G24  21535406.670   113169346.127       -1886.115          45.000  
G15  25222885.314   132547091.004       -3754.825          36.000  
E27  26757954.539   140613973.933        2588.255          42.000  
E10  29452151.765   154772179.547       -1246.680          28.000  
E02  25596952.743   134512876.504       -1864.794          37.000  
E08  26816434.877   140921273.550       -2823.755          40.000  
E14  23401263.618   122974533.476        3792.198          44.000  
E07  24554755.590   129036141.030        -666.722          44.000  
G23  26090953.760   137108891.318       -2971.472          32.000  
E30  24075205.318   126516140.780         525.472          44.000  
G10  24945769.679   131090875.849       -2077.844          41.000  
G12  20777665.952   109187486.716         930.159          47.000  
G25  22142763.348   116361120.280        2983.698          45.000  
G32  23410047.632   123020731.140        2486.753          46.000  
> 2023 12 29 13 35 40.0020000  0 15                     
G19  23193050.789   121880271.556       -1777.268          39.000  
G24  21535765.952   113171232.502       -1886.536          46.000  
G15  25223599.796   132550845.385       -3753.382          33.000  
E27  26757462.530   140611385.612        2588.308          41.000  
E10  29452390.937   154773426.045       -1247.209          28.000  
E02  25597307.366   134514741.298       -1864.838          38.000  
E08  26816972.519   140924097.296       -2823.931          40.000  
E14  23400542.365   122970741.611        3791.611          45.000  
E07  24554882.802   129036807.873        -667.193          45.000  
G23  26091523.370   137111862.064       -2970.686          32.000  
E30  24075105.468   126515615.370         525.275          45.000  
G10  24946165.014   131092953.627       -2078.030          43.000  
G12  20777488.815   109186556.862         929.520          47.000  
G25  22142195.064   116358136.816        2983.420          45.000  
G32  23409573.998   123018244.492        2486.387          47.000  
> 2023 12 29 13 35 41.0020000  0 15                     
G19  23193389.218   121882049.187       -1777.745          39.000  
G24  21536125.270   113173119.243       -1886.810          46.000  
G15  25224313.841   132554599.742       -3754.558          33.000  
E27  26756970.172   140608797.413        2588.138          41.000  
E10  29452627.423   154774672.839       -1247.301          29.000  
E02  25597662.234   134516606.179       -1864.975          37.000  
E08  26817510.422   140926921.209       -2823.943          41.000  
E14  23399820.903   122966950.159        3791.126          45.000  
E07  24555009.490   129037475.175        -667.600          44.000  
G23  26092089.472   137114832.787       -2970.466          33.000  
E30  24075005.897   126515090.254         524.956          45.000  
G10  24946560.994   131095031.729       -2078.270          43.000  
G12  20777312.044   109185627.537         928.989          47.000  
G25  22141626.658   116355153.686        2982.987          45.000  
G32  23409101.132   123015758.284        2486.050          47.000  
> 2023 12 29 13 35 42.0020000  0 15                     
G19  23193727.909   121883827.251       -1778.030          41.000  
G24  21536484.570   113175006.264       -1887.024          46.000  
G15  25225027.660   132558353.900       -3754.491          32.000  
E27  26756477.953   140606209.261        2588.520          41.000  
E10  29452865.042   154775919.863       -1247.152          28.000  
E02  25598017.189   134518471.050       -1865.019          38.000  
E08  26818047.958   140929745.165       -2824.145          41.000  
E14  23399100.157   122963159.049        3791.133          45.000  
E07  24555136.563   129038142.784        -667.769          44.000  
G23  26092653.812   137117803.268       -2970.090          33.000  
E30  24074905.855   126514565.290         524.973          45.000  
G10  24946957.009   131097110.088       -2077.931          42.000  
G12  20777135.413   109184698.606         928.760          47.000  
G25  22141059.020   116352170.775        2982.896          45.000  
G32  23408628.702   123013272.432        2485.761          48.000  
> 2023 12 29 13 35 43.0020000  0 15                     
G19  23194066.601   121885605.876       -1779.073          39.000  
G24  21536843.870   113176893.660       -1887.769          46.000  
G15  25225741.409   132562108.055       -3754.237          33.000  
E27  26755985.473   140603621.198        2587.828          42.000  
E10  29453103.814   154777167.404       -1247.868          28.000  
E02  25598372.266   134520336.061       -1865.391          38.000  
E08  26818584.954   140932569.215       -2824.219          41.000  
E14  23398378.992   122959368.353        3790.241          45.000  
E07  24555262.955   129038810.815        -668.377          44.000  
G23  26093223.370   137120773.781       -2970.463          35.000  
E30  24074806.197   126514040.567         524.573          45.000  
G10  24947352.920   131099188.778       -2078.864          43.000  
G12  20776958.520   109183770.167         927.995          47.000  
G25  22140490.946   116349188.156        2982.430          45.000  
G32  23408155.522   123010787.006        2484.923          47.000  
> 2023 12 29 13 35 44.0020000  0 15                     
G19  23194405.414   121887385.144       -1779.385          39.000  
G24  21537203.013   113178781.533       -1888.092          46.000  
G15  25226455.507   132565862.282       -3753.857          33.000  
E27  26755492.662   140601033.363        2587.841          41.000  
E10  29453340.159   154778415.373       -1247.947          28.000  
E02  25598727.552   134522201.210       -1864.948          37.000  
E08  26819122.420   140935393.508       -2824.334          41.000  
E14  23397657.443   122955578.191        3790.129          45.000  
E07  24555390.341   129039479.368        -668.672          44.000  
G23  26093787.378   137123744.315       -2971.081          33.000  
E30  24074706.469   126513516.240         524.360          45.000  
G10  24947749.075   131101267.901       -2079.109          43.000  
G12  20776781.593   109182842.321         927.853          47.000  
G25  22139923.447   116346205.972        2982.059          45.000  
G32  23407682.918   123008302.144        2484.821          47.000  
> 2023 12 29 13 35 45.0020000  0 15                     
G19  23194744.402   121889164.951       -1780.228          40.000  
G24  21537562.365   113180669.803       -1888.397          46.000  
G15  25227170.320   132569616.455       -3754.315          34.000  
E27  26754999.937   140598445.651        2587.700          41.000  
E10  29453576.400   154779663.781       -1248.681          28.000  
E02  25599082.455   134524066.545       -1865.346          37.000  
E08  26819659.852   140938217.923       -2824.362          41.000  
E14  23396936.487   122951788.476        3789.508          45.000  
E07  24555517.606   129040148.326        -669.249          44.000  
G23  26094352.190   137126714.750       -2970.280          33.000  
E30  24074607.160   126512992.136         524.188          45.000  
G10  24948145.561   131103347.334       -2079.481          44.000  
G12  20776605.084   109181914.973         927.143          47.000  
G25  22139356.018   116343224.071        2981.864          45.000  
G32  23407210.052   123005817.733        2484.320          46.000  
> 2023 12 29 13 35 46.0020000  0 15                     
G19  23195083.181   121890945.276       -1780.577          39.000  
G24  21537922.031   113182558.424       -1888.977          46.000  
G15  25227884.540   132573370.650       -3755.131          34.000  
E27  26754507.702   140595858.039        2587.437          42.000  
E10  29453818.173   154780912.595       -1250.594          26.000  
E02  25599437.235   134525931.924       -1865.492          36.000  
E08  26820197.319   140941042.451       -2824.489          41.000  
E14  23396215.374   122947999.174        3789.034          45.000  
E07  24555644.835   129040817.699        -669.697          44.000  
G23  26094918.851   137129685.178       -2970.602          35.000  
E30  24074507.257   126512468.296         523.630          44.000  
G10  24948541.542   131105427.085       -2079.948          43.000  
G12  20776428.906   109180988.114         926.422          47.000  
G25  22138788.084   116340242.485        2981.456          45.000  
G32  23406736.558   123003333.788        2483.410          46.000  
> 2023 12 29 13 35 47.0020000  0 15                     
G19  23195422.291   121892726.357       -1781.622          40.000  
G24  21538281.087   113184447.652       -1889.691          46.000  
G15  25228598.987   132577124.932       -3754.624          34.000  
E27  26754015.309   140593270.769        2587.059          42.000  
E10  29454054.519   154782161.902       -1249.716          27.000  
E02  25599792.661   134527797.645       -1865.970          36.000  
E08  26820734.716   140943867.352       -2825.343          40.000  
E14  23395494.593   122944210.521        3788.219          45.000  
E07  24555772.047   129041487.710        -670.375          44.000  
G23  26095483.609   137132655.697       -2970.597          34.000  
E30  24074407.721   126511944.940         522.912          45.000  
G10  24948937.993   131107507.419       -2080.638          43.000  
G12  20776253.165   109180061.974         925.509          47.000  
G25  22138220.655   116337261.457        2980.357          45.000  
G32  23406264.163   123000850.475        2482.791          47.000  
> 2023 12 29 13 35 48.0020000  0 15                     
G19  23195761.488   121894508.008       -1782.000          40.000  
G24  21538640.771   113186337.257       -1889.654          46.000  
G15  25229313.748   132580879.238       -3754.389          35.000  
E27  26753522.619   140590683.656        2586.983          42.000  
E10  29454290.254   154783411.608       -1249.914          27.000  
E02  25600147.564   134529663.466       -1865.809          36.000  
E08  26821271.781   140946692.335       -2824.927          40.000  
E14  23394773.358   122940422.293        3788.048          45.000  
E07  24555899.609   129042158.158        -670.611          44.000  
G23  26096048.735   137135626.158       -2969.663          37.000  
E30  24074308.220   126511421.828         523.143          45.000  
G10  24949333.764   131109588.067       -2081.057          43.000  
G12  20776077.162   109179136.330         925.613          47.000  
G25  22137653.593   116334280.704        2980.718          45.000  
G32  23405791.576   122998367.600        2482.696          46.000  
> 2023 12 29 13 35 49.0020000  0 15                     
G19  23196100.755   121896290.155       -1782.347          40.000  
G24  21539000.490   113188227.243       -1890.094          46.000  
G15  25230028.229   132584633.541       -3754.607          35.000  
E27  26753030.105   140588096.633        2586.988          41.000  
E10  29454535.046   154784661.739       -1249.695          29.000  
E02  25600502.205   134531529.387       -1865.581          36.000  
E08  26821809.736   140949517.463       -2825.198          40.000  
E14  23394052.664   122936634.522        3787.620          45.000  
E07  24556027.187   129042829.011        -671.141          43.000  
G23  26096613.982   137138596.626       -2970.341          37.000  
E30  24074208.405   126510898.983         522.729          45.000  
G10  24949729.989   131111669.045       -2081.038          44.000  
G12  20775901.002   109178211.197         924.791          47.000  
G25  22137086.600   116331300.281        2980.317          44.000  
G32  23405319.164   122995885.187        2482.088          47.000  
> 2023 12 29 13 35 50.0020000  0 15                     
G19  23196440.493   121898073.025       -1782.922          40.000  
G24  21539360.156   113190117.787       -1890.759          46.000  
G15  25230742.920   132588388.033       -3754.414          34.000  
E27  26752538.445   140585509.914        2586.709          41.000  
E10  29454769.402   154785912.406       -1250.375          29.000  
E02  25600857.194   134533395.570       -1865.859          35.000  
E08  26822347.500   140952342.907       -2825.623          40.000  
E14  23393331.953   122932847.344        3786.875          45.000  
E07  24556154.835   129043500.472        -671.554          44.000  
G23  26097178.758   137141567.174       -2970.397          35.000  
E30  24074109.235   126510376.581         522.078          45.000  
G10  24950126.109   131113750.553       -2081.863          43.000  
G12  20775725.348   109177286.721         924.283          47.000  
G25  22136519.311   116328320.331        2979.825          44.000  
G32  23404846.751   122993403.398        2481.678          46.000  
> 2023 12 29 13 35 51.0020000  0 15                     
G19  23196780.284   121899856.827       -1783.878          41.000  
G24  21539720.538   113192009.101       -1891.516          46.000  
G15  25231457.350   132592142.729       -3754.162          33.000  
E27  26752046.314   140582923.721        2586.241          42.000  
E10  29455011.751   154787163.976       -1252.227          29.000  
E02  25601212.254   134535262.272       -1867.005          36.000  
E08  26822884.984   140955168.892       -2826.167          40.000  
E14  23392611.695   122929060.978        3785.973          45.000  
E07  24556282.658   129044172.747        -672.448          44.000  
G23  26097743.674   137144538.069       -2970.816          36.000  
E30  24074009.717   126509854.815         521.691          45.000  
G10  24950522.316   131115832.754       -2082.476          43.000  
G12  20775549.590   109176363.168         923.282          47.000  
G25  22135952.441   116325341.110        2979.071          44.000  
G32  23404374.862   122990922.476        2480.653          47.000  
> 2023 12 29 13 35 52.0020000  0 15                     
G19  23197119.848   121901641.263       -1784.844          40.000  
G24  21540080.431   113193900.894       -1892.230          46.000  
G15  25232172.024   132595897.566       -3754.570          33.000  
E27  26751554.741   140580337.728        2585.761          41.000  
E10  29455251.813   154788415.903       -1252.221          29.000  
E02  25601567.837   134537129.168       -1867.092          36.000  
E08  26823422.608   140957995.040       -2826.385          41.000  
E14  23391891.385   122925275.131        3785.344          46.000  
E07  24556410.603   129044845.525        -673.102          44.000  
G23  26098308.468   137147508.945       -2970.598          36.000  
E30  24073910.722   126509333.405         521.085          45.000  
G10  24950919.570   131117915.374       -2082.930          44.000  
G12  20775374.128   109175440.182         922.583          47.000  
G25  22135386.268   116322362.269        2978.505          45.000  
G32  23403903.305   122988442.064        2480.017          47.000  
> 2023 12 29 13 35 53.0020000  0 15                     
G19  23197459.918   121903426.238       -1785.424          41.000  
G24  21540440.883   113195793.051       -1892.615          46.000  
G15  25232886.680   132599652.296       -3754.472          34.000  
E27  26751062.784   140577751.879        2585.594          41.000  
E10  29455494.406   154789668.218       -1252.591          30.000  
E02  25601923.246   134538996.145       -1867.309          37.000  
E08  26823960.842   140960821.345       -2826.547          41.000  
E14  23391171.040   122921489.732        3785.195          46.000  
E07  24556538.880   129045518.733        -673.707          44.000  
G23  26098873.314   137150479.807       -2970.706          36.000  
E30  24073811.378   126508812.254         520.962          44.000  
G10  24951315.899   131119998.348       -2083.237          43.000  
G12  20775198.579   109174517.719         922.049          47.000  
G25  22134819.922   116319383.779        2978.167          45.000  
G32  23403431.312   122985962.113        2479.531          47.000  
> 2023 12 29 13 35 54.0020000  0 15                     
G19  23197800.022   121905211.840       -1785.778          41.000  
G24  21540800.968   113197685.686       -1892.737          46.000  
G15  25233599.224   132603407.184       -3754.904          32.000  
E27  26750570.514   140575166.232        2585.573          41.000  
E10  29455721.643   154790921.066       -1252.705          30.000  
E02  25602278.707   134540863.349       -1867.321          37.000  
E08  26824499.112   140963647.874       -2826.553          41.000  
E14  23390450.643   122917704.867        3784.587          45.000  
E07  24556666.790   129046192.446        -674.066          44.000  
G23  26099437.846   137153450.662       -2970.780          34.000  
E30  24073712.173   126508291.469         520.614          45.000  
G10  24951711.932   131122081.777       -2083.904          43.000  
G12  20775022.977   109173595.827         921.678          47.000  
G25  22134253.488   116316405.671        2977.887          45.000  
G32  23402959.720   122983482.708        2479.247          47.000  
> 2023 12 29 13 35 55.0020000  0 15                     
G19  23198139.813   121906997.858       -1786.569          40.000  
G24  21541161.350   113199578.628       -1893.310          46.000  
G15  25234316.516   132607161.912       -3755.966          32.000  
E27  26750078.243   140572580.632        2585.092          41.000  
E10  29455963.974   154792174.186       -1253.113          30.000  
E02  25602633.522   134542730.544       -1867.307          38.000  
E08  26825037.032   140966474.444       -2826.886          41.000  
E14  23389730.647   122913920.314        3784.230          46.000  
E07  24556795.590   129046866.504        -674.529          44.000  
G23  26100003.111   137156421.362       -2970.797          35.000  
E30  24073613.265   126507770.844         520.347          45.000  
G10  24952108.174   131124165.369       -2083.959          43.000  
G12  20774847.847   109172674.375         921.171          47.000  
G25  22133687.280   116313427.801        2977.468          45.000  
G32  23402487.936   122981003.658        2478.712          47.000  
> 2023 12 29 13 35 56.0020000  0 15                     
G19  23198480.127   121908784.600       -1787.274          41.000  
G24  21541521.785   113201472.032       -1893.738          46.000  
G15  25235028.066   132610916.630       -3755.392          31.000  
E27  26749585.484   140569995.240        2585.087          41.000  
E10  29456202.257   154793427.790       -1254.431          29.000  
E02  25602988.913   134544597.967       -1867.585          37.000  
E08  26825575.371   140969301.246       -2827.241          41.000  
E14  23389010.389   122910136.342        3783.402          46.000  
E07  24556923.936   129047541.074        -675.070          44.000  
G23  26100568.551   137159392.172       -2971.728          35.000  
E30  24073513.904   126507250.591         519.908          45.000  
G10  24952504.643   131126249.447       -2084.375          43.000  
G12  20774672.123   109171753.516         920.386          47.000  
G25  22133120.864   116310450.363        2976.947          45.000  
G32  23402016.675   122978525.158        2478.073          47.000  
> 2023 12 29 13 35 57.0020000  0 15                     
G19  23198820.110   121910571.818       -1787.513          40.000  
G24  21541881.957   113203365.836       -1894.244          45.000  
G15  25235747.224   132614671.359       -3754.543          33.000  
E27  26749092.829   140567409.984        2584.947          40.000  
E10  29456440.574   154794681.850       -1254.823          29.000  
E02  25603344.426   134546465.507       -1867.984          37.000  
E08  26826113.344   140972128.165       -2827.145          41.000  
E14  23388289.852   122906352.795        3783.063          45.000  
E07  24557052.510   129048216.100        -675.501          44.000  
G23  26101134.007   137162362.866       -2970.308          34.000  
E30  24073415.013   126506730.603         519.635          45.000  
G10  24952901.182   131128333.862       -2084.783          43.000  
G12  20774496.958   109170833.196         919.708          47.000  
G25  22132554.534   116307473.223        2976.689          45.000  
G32  23401545.484   122976047.155        2477.540          46.000  
> 2023 12 29 13 35 58.0020000  0 15                     
G19  23199160.005   121912359.753       -1787.702          40.000  
G24  21542242.723   113205260.124       -1894.153          46.000  
G15  25236454.935   132618426.202       -3754.651          26.000  
E27  26748600.995   140564825.002        2585.083          41.000  
E10  29456682.504   154795936.306       -1254.904          29.000  
E02  25603699.678   134548333.225       -1867.597          37.000  
E08  26826651.247   140974955.373       -2827.025          41.000  
E14  23387569.838   122902569.808        3783.098          45.000  
E07  24557181.362   129048891.640        -675.550          43.000  
G23  26101700.023   137165333.655       -2970.465          34.000  
E30  24073316.106   126506210.992         519.695          45.000  
G10  24953297.808   131130418.734       -2084.781          43.000  
G12  20774321.356   109169913.457         919.663          46.000  
G25  22131987.734   116304496.517        2976.821          44.000  
G32  23401073.944   122973569.673        2477.422          47.000  
> 2023 12 29 13 35 59.0020000  0 15                     
G19  23199500.040   121914148.049       -1789.125          39.000  
G24  21542602.948   113207154.622       -1895.026          46.000  
G15  25237164.409   132622180.825       -3754.520          27.000  
E27  26748109.248   140562239.924        2584.970          42.000  
E10  29456915.133   154797191.021       -1254.537          28.000  
E02  25604055.156   134550200.856       -1867.708          36.000  
E08  26827188.766   140977782.492       -2827.510          41.000  
E14  23386850.034   122898787.041        3782.347          45.000  
E07  24557310.127   129049567.401        -676.012          44.000  
G23  26102265.130   137168304.227       -2971.800          36.000  
E30  24073217.547   126505691.458         519.039          44.000  
G10  24953694.294   131132503.712       -2085.643          44.000  
G12  20774146.051   109168994.034         918.862          46.000  
G25  22131421.823   116301519.963        2976.003          45.000  
G32  23400602.038   122971092.483        2476.626          46.000  
> 2023 12 29 13 36 00.0020000  0 15                     
G19  23199839.848   121915936.879       -1789.386          39.000  
G24  21542963.242   113209049.538       -1894.958          46.000  
G15  25237889.343   132625935.519       -3755.878          32.000  
E27  26747617.780   140559655.041        2585.076          42.000  
E10  29457152.613   154798446.294       -1255.559          26.000  
E02  25604410.338   134552068.757       -1868.573          33.000  
E08  26827726.686   140980609.780       -2827.266          41.000  
E14  23386130.387   122895004.799        3782.103          45.000  
E07  24557438.543   129050243.673        -676.497          44.000  
G23  26102830.762   137171274.779       -2970.954          36.000  
E30  24073119.162   126505172.239         518.995          44.000  
G10  24954091.374   131134589.099       -2085.809          44.000  
G12  20773971.340   109168075.161         918.470          47.000  
G25  22130855.634   116298543.769        2975.765          45.000  
G32  23400130.743   122968615.814        2476.342          47.000  
> 2023 12 29 13 36 01.0020000  0 15                     
G19  23200180.162   121917726.331       -1789.666          41.000  
G24  21543323.799   113210944.848       -1895.361          45.000  
G15  25238605.552   132629690.138       -3754.666          32.000  
E27  26747125.160   140557070.248        2584.872          40.000  
E10  29457388.819   154799701.729       -1255.717          26.000  
E02  25604765.694   134553936.659       -1868.333          33.000  
E08  26828264.834   140983437.202       -2827.537          41.000  
E14  23385410.566   122891222.952        3781.799          43.000  
E07  24557567.361   129050920.340        -676.851          44.000  
G23  26103396.131   137174245.214       -2969.855          35.000  
E30  24073020.115   126504653.278         518.846          44.000  
G10  24954488.244   131136674.802       -2085.868          43.000  
G12  20773796.995   109167156.793         918.080          47.000  
G25  22130288.955   116295567.853        2975.892          44.000  
G32  23399659.534   122966139.556        2476.174          47.000  
> 2023 12 29 13 36 02.0020000  0 15                     
G19  23200521.087   121919516.352       -1790.383          40.000  
G24  21543684.617   113212840.654       -1895.807          46.000  
G15  25239319.266   132633444.863       -3755.934          32.000  
E27  26746632.715   140554485.720        2584.489          40.000  
E10  29457629.615   154800957.730       -1256.371          26.000  
E02  25605121.068   134555804.758       -1867.906          36.000  
E08  26828803.155   140986264.878       -2828.176          42.000  
E14  23384690.919   122887441.685        3781.009          44.000  
E07  24557695.672   129051597.541        -677.455          43.000  
G23  26103961.885   137177215.726       -2970.243          35.000  
E30  24072921.347   126504134.659         518.354          44.000  
G10  24954884.608   131138760.922       -2086.360          43.000  
G12  20773621.969   109166239.010         917.660          46.000  
G25  22129722.783   116292592.385        2975.073          45.000  
G32  23399187.611   122963663.835        2475.636          46.000  
> 2023 12 29 13 36 03.0020000  0 15                     
G19  23200861.716   121921306.833       -1790.840          40.000  
G24  21544045.487   113214736.750       -1896.375          45.000  
G15  25240031.253   132637199.314       -3754.425          34.000  
E27  26746140.776   140551901.224        2584.277          40.000  
E10  29457873.377   154802214.125       -1256.867          26.000  
E02  25605476.633   134557672.959       -1868.327          36.000  
E08  26829340.989   140989092.579       -2827.880          41.000  
E14  23383972.005   122883660.739        3780.680          44.000  
E07  24557824.699   129052275.077        -677.571          44.000  
G23  26104527.080   137180186.076       -2970.810          35.000  
E30  24072822.666   126503616.253         518.055          44.000  
G10  24955280.414   131140847.336       -2086.769          42.000  
G12  20773446.961   109165321.699         916.897          47.000  
G25  22129156.122   116289617.128        2975.205          45.000  
G32  23398716.420   122961188.533        2474.945          46.000  
> 2023 12 29 13 36 04.0020000  0 15                     
G19  23201202.553   121923098.059       -1791.298          42.000  
G24  21544405.922   113216633.438       -1897.003          45.000  
G15  25240751.720   132640953.999       -3754.142          34.000  
E27  26745649.116   140549317.074        2583.867          41.000  
E10  29458112.026   154803471.068       -1257.099          26.000  
E02  25605831.710   134559541.470       -1868.557          38.000  
E08  26829879.363   140991920.617       -2828.447          40.000  
E14  23383252.480   122879880.455        3780.092          45.000  
E07  24557953.185   129052953.266        -678.404          44.000  
G23  26105092.275   137183156.604       -2970.123          35.000  
E30  24072724.159   126503098.286         517.773          44.000  
G10  24955677.808   131142934.270       -2087.329          42.000  
G12  20773272.511   109164405.070         916.160          46.000  
G25  22128589.915   116286642.418        2974.504          45.000  
G32  23398245.125   122958713.906        2474.425          45.000  
> 2023 12 29 13 36 05.0020000  0 15                     
G19  23201543.705   121924889.840       -1792.009          41.000  
G24  21544766.810   113218530.471       -1896.899          45.000  
G15  25241465.748   132644708.730       -3753.622          35.000  
E27  26745157.404   140546733.018        2583.959          40.000  
E10  29458350.309                       -1257.312          25.000  
E02  25606187.486   134561410.015       -1868.068          36.000  
E08  26830417.859   140994748.784       -2827.935          40.000  
E14  23382533.112   122876100.597        3779.995          45.000  
E07  24558082.037   129053631.843        -678.365          44.000  
G23  26105657.627   137186127.091       -2970.587          33.000  
E30  24072625.653   126502580.594         518.027          44.000  
G10  24956075.150   131145021.534       -2086.780          42.000  
G12  20773098.078   109163488.923         916.354          47.000  
G25  22128024.196   116283668.017        2974.746          45.000  
G32  23397774.806   122956239.672        2474.426          46.000  
> 2023 12 29 13 36 06.0020000  0 15                     
G19  23201884.543   121926682.092       -1792.354          40.000  
G24  21545127.889   113220427.875       -1897.748          45.000  
G15  25242177.123   132648463.313       -3755.230          31.000  
E27  26744665.761   140544149.087        2583.796          41.000  
E10  29458588.801   154805938.9551      -1257.711          26.000  
E02  25606543.051   134563278.725       -1868.301          36.000  
E08  26830956.024   140997577.097       -2828.734          41.000  
E14  23381813.814   122872321.126        3779.092          45.000  
E07  24558211.762   129054310.866        -679.430          44.000  
G23  26106222.857   137189097.464       -2970.812          35.000  
E30  24072527.373   126502063.161         517.239          44.000  
G10  24956471.880   131147109.154       -2087.960          41.000  
G12  20772923.646   109162573.305         915.169          46.000  
G25  22127458.669   116280693.898        2973.873          46.000  
G32  23397304.593   122953765.896        2473.366          47.000  
> 2023 12 29 13 36 07.0020000  0 15                     
G19  23202225.258   121928475.191       -1794.233          37.000  
G24  21545489.755   113222325.918       -1898.602          45.000  
G15  25242891.378   132652218.193       -3753.865          32.000  
E27  26744174.032   140541565.487        2583.844          41.000  
E10  29458831.062   154807197.340       -1257.591          25.000  
E02  25606897.919   134565147.605       -1869.145          33.000  
E08  26831494.328   141000405.693       -2828.531          40.000  
E14  23381094.813   122868542.335        3778.842          46.000  
E07  24558340.999   129054990.502        -679.694          44.000  
G23  26106788.750   137192067.985       -2970.942          36.000  
E30  24072428.622   126501546.197         516.989          44.000  
G10  24956869.152   131149197.285       -2088.209          43.000  
G12  20772749.353   109161658.393         914.415          46.000  
G25  22126892.131   116277720.343        2973.647          44.000  
G32  23396833.978   122951292.793        2472.783          47.000  
> 2023 12 29 13 36 08.0020000  0 15                     
G19  23202566.148   121930268.713       -1793.939          39.000  
G24  21545850.904   113224224.237       -1898.663          46.000  
G15  25243608.233   132655972.839       -3754.383          37.000  
E27  26743682.180   140538981.955        2583.583          41.000  
E10  29459070.462   154808456.056       -1259.429          26.000  
E02  25607253.292   134567016.724       -1869.073          34.000  
E08  26832032.981   141003234.398       -2828.775          42.000  
E14  23380375.253   122864763.933        3778.222          44.000  
E07  24558470.008   129055670.484        -680.402          44.000  
G23  26107353.998   137195038.380       -2970.329          36.000  
E30  24072330.936   126501029.402         516.913          45.000  
G10  24957266.947   131151285.669       -2088.534          43.000  
G12  20772575.549   109160743.904         914.165          46.000  
G25  22126326.307   116274747.007        2973.011          45.000  
G32  23396363.450   122948820.078        2472.202          46.000  
> 2023 12 29 13 36 09.0020000  0 15                     
G19  23202907.422   121932062.750       -1794.205          39.000  
G24  21546212.316   113226122.910       -1898.694          45.000  
G15  25244326.851   132659727.527       -3755.027          34.000  
E27  26743190.764   140536398.497        2583.701          41.000  
E10  29459311.397   154809714.939       -1258.730          26.000  
E02  25607608.579   134568885.741       -1868.914          36.000  
E08  26832571.687   141006063.190       -2828.770          43.000  
E14  23379655.833   122860985.924        3777.977          43.000  
E07  24558599.471   129056350.865        -680.433          44.000  
G23  26107919.559   137198008.749       -2970.824          37.000  
E30  24072232.412   126500512.873         516.585          44.000  
G10  24957664.830   131153374.369       -2088.826          43.000  
G12  20772401.920   109159829.892         914.034          46.000  
G25  22125760.589   116271773.989        2972.792          45.000  
G32  23395892.905   122946347.780        2472.234          46.000  
> 2023 12 29 13 36 10.0020000  0 15                     
G19  23203249.062   121933857.248       -1794.604          39.000  
G24  21546573.361   113228021.871       -1899.390          44.000  
G15  25245033.881   132663481.988       -3754.235          34.000  
E27  26742699.052   140533815.122        2583.204          41.000  
E10  29459553.397   154810974.220       -1259.471          25.000  
E02  25607964.459   134570754.872       -1869.326          39.000  
E08  26833110.114   141008891.996       -2829.055          42.000  
E14  23378936.797   122857208.277        3777.262          43.000  
E07  24558729.284   129057031.569        -680.785          43.000  
G23  26108484.458   137200978.939       -2970.532          37.000  
E30  24072133.906   126499996.487         516.095          44.000  
G10  24958062.188   131155463.287       -2089.498          43.000  
G12  20772228.429   109158916.307         913.250          47.000  
G25  22125194.748   116268801.167        2972.717          45.000  
G32  23395422.220   122943875.831        2471.572          46.000  
> 2023 12 29 13 36 11.0020000  0 15                     
G19  23203590.406   121935652.271       -1794.570          40.000  
G24  21546935.313   113229921.290       -1899.530          47.000  
G15  25245748.904   132667236.466       -3753.250          34.000  
E27  26742207.567   140531231.876        2583.160          41.000  
E10  29459790.929   154812233.948       -1260.209          25.000  
E02  25608320.007   134572624.121       -1869.323          36.000  
E08  26833648.086   141011721.021       -2828.829          40.000  
E14  23378218.092   122853431.102        3776.939          43.000  
E07  24558858.939   129057712.775        -681.178          44.000  
G23  26109050.124   137203949.057       -2969.733          39.000  
E30  24072036.167   126499480.441         515.702          45.000  
G10  24958459.635   131157552.575       -2089.241          42.000  
G12  20772054.643   109158003.244         913.036          47.000  
G25  22124629.221   116265828.727        2972.303          45.000  
G32  23394951.762   122941404.402        2471.555          46.000  
