     2.11           OBSERVATION DATA    M (MIXED)           RINEX VERSION / TYPE
teqc  2019Feb25                         20231118 19:44:56UTCPGM / RUN BY / DATE
Linux 2.6.32-573.12.1.x86_64|x86_64|gcc|Linux 64|=+         COMMENT
teqc  2019Feb25                         20231118 19:44:55UTCCOMMENT
teqc  2019Feb25     IGN-RGP             20231117 18:02:19UTCCOMMENT
teqc  2019Feb25     Administrateur RGP  20231117 18:02:19UTCCOMMENT
teqc  2019Feb25     IGN-RGP             20231117 18:02:16UTCCOMMENT
teqc  2019Feb25     IGN-RGP             20231117 18:02:14UTCCOMMENT
BIT 2 OF LLI FLAGS DATA COLLECTED UNDER A/S CONDITION       COMMENT
IGNF                                                        MARKER NAME
10001M009                                                   MARKER NUMBER
Automatic           IGN                                     OBSERVER / AGENCY
1834194             LEICA GR50          4.51                REC # / TYPE / VERS
5000113963          TRM57971.00     NONE                    ANT # / TYPE
  4201694.1440   177888.8370  4779371.7670                  APPROX POSITION XYZ
        0.0000        0.0000        0.0000                  ANTENNA: DELTA H/E/N
     1     1                                                WAVELENGTH FACT L1/2
    21    L1    L2    C1    P1    P2    D1    D2    S1    S2# / TYPES OF OBSERV
          L5    C5    D5    S5    L7    C7    D7    S7    L8# / TYPES OF OBSERV
          C8    D8    S8                                    # / TYPES OF OBSERV
    30.0000                                                 INTERVAL
DefaultJobName                                              COMMENT
DefaultUserDiscription                                      COMMENT
Project creator:                                            COMMENT
 SNR is mapped to RINEX snr flag value [0-9]                COMMENT
  L1 & L2: min(max(int(snr_dBHz/6), 0), 9)                  COMMENT
    18                                                      LEAP SECONDS
Forced Modulo Decimation to 30 seconds                      COMMENT
teqc_2019 edited: all GLONASS satellites excluded           COMMENT
teqc_2019 edited: all SBAS satellites excluded              COMMENT
  2023    11    17    17     0    0.0000000     GPS         TIME OF FIRST OBS
                                                            END OF HEADER
 23 11 17 17  0  0.0000000  0 19G06G10G11G12G15G19G24G25G28G29G32E03
                                E05E09E24E25E26E31E33
 125060787.230 7  97449981.35547  23798273.500                    23798273.160
      1426.638        1111.666          44.250          44.150    93389570.114 7
  23798273.880        1065.200          44.700


 133150223.465 6 103753429.35645  25337645.140                    25337648.340
     -2808.432       -2188.393          40.800          35.600    99430377.402 6
  25337649.560       -2097.150          40.800


 130416811.490 7 101623479.20946  24817492.020                    24817492.060
      2777.112        2163.984          43.550          39.600    97389193.873 7
  24817495.580        2073.895          44.800


 105838321.946 8  82471498.59448  20140329.560                    20140326.100
      -422.559        -329.266          51.550          51.350



 136279905.523 6 106192137.73246  25933204.100                    25933206.020
     -3828.487       -2983.246          37.550          36.550



 123757674.379 7  96434586.96446  23550280.820                    23550275.940
     -2953.984       -2301.807          44.600          38.850



 114468110.871 8  89195980.80348  21782537.520                    21782537.660
     -2777.833       -2164.545          48.700          48.750    85479499.007 8
  21782538.200       -2074.384          53.350


 108856355.602 8  84823199.86148  20714652.660                    20714652.920
      2044.383        1593.027          49.800          48.400    81288923.159 9
  20714654.220        1526.605          54.300


 130948012.273 6 102037436.37546  24918571.180                    24918572.900
      3472.771        2706.068          40.750          38.100    97785883.264 7
  24918576.500        2593.259          45.700


 130337854.114 7 101562000.42047  24802455.800                    24802456.640
      3903.616        3041.791          43.250          43.400



 116878147.662 8  91073928.43947  22241160.760                    22241161.040
      1266.469         986.860          49.700          47.000    87279174.349 8
  22241160.140         945.726          50.550


 135876701.454 8                  25856465.560
      1613.737                          48.150                   101466419.153 7
  25856467.900        1205.021          47.150   104113355.972 8  25856466.120
      1236.463          49.000   102789887.252 8  25856468.020        1220.765
        50.850
 120207293.097 8                  22874670.960
     -1165.055                          52.250                    89765252.962 8
  22874673.380        -870.004          51.700    92106945.992 8  22874671.500
      -892.655          53.050    90936094.668 9  22874673.180        -881.308
        55.200
 140233664.444 7                  26685570.980
     -3146.996                          47.050                   104719994.734 7
  26685576.300       -2350.003          46.850   107451805.793 7  26685573.020
     -2411.285          46.250   106085900.957 8  26685573.720       -2380.677
        49.350
 122950030.450 8                  23396584.820
       215.356                          52.650                    91813422.159 9
  23396586.000         160.817          54.650    94208537.733 9  23396583.380
       164.990          55.100    93010978.137 9  23396585.000         162.910
        57.750
 136873142.173 7                  26046074.420
      2267.658                          46.350                   102210535.654 7
  26046079.340        1693.286          46.700   104876885.053 8  26046077.160
      1737.545          48.000   103543711.038 8  26046078.440        1715.447
        50.100
 145642445.271 7                  27714831.660
      -833.816                          42.800                   108758989.048 7
  27714831.940        -622.767          42.600   111596167.087 7  27714829.720
      -638.952          43.500   110177580.254 7  27714831.840        -630.840
        45.850
 131387717.489 8                  25002224.980
     -1985.152                          49.700                    98114304.587 8
  25002229.000       -1482.403          51.350   100673795.123 8  25002226.260
     -1521.182          51.800    99394038.048 9  25002227.640       -1501.780
        54.450
 140976125.328 7                  26826859.960
      1448.729                          45.050                   105274403.327 7
  26826860.540        1081.738          45.950   108020677.058 7  26826859.120
      1109.995          45.600   106647539.384 8  26826861.000        1095.869
        48.750
 23 11 17 17  0 30.0000000  0 19G06G10G11G12G15G19G24G25G28G29G32E03
                                E05E09E24E25E26E31E33
 125018234.325 7  97416823.28547  23790175.760                    23790175.380
      1409.767        1098.521          43.150          43.150    93357793.618 7
  23790176.580        1052.833          44.500


 133234538.212 5 103819129.06545  25353689.720                    25353692.780
     -2813.148       -2192.073          35.050          34.900    99493339.565 7
  25353694.020       -2100.554          42.400


 130333587.766 7 101558629.58346  24801655.160                    24801655.000
      2770.556        2158.875          43.950          40.150    97327046.342 7
  24801658.920        2068.771          46.100


 105851217.383 8  82481547.00848  20142783.480                    20142779.880
      -437.529        -340.932          52.050          52.000



 136394685.056 6 106281575.89346  25955046.120                    25955048.080
     -3823.953       -2979.712          37.800          38.200



 123846466.574 7  96503775.69646  23567177.640                    23567172.460
     -2965.812       -2311.023          45.350          40.650



 114551594.007 8  89261032.59748  21798423.720                    21798423.920
     -2788.109       -2172.554          48.800          48.700    85541840.317 8
  21798424.800       -2082.168          53.550


 108795206.924 8  84775551.55948  20703016.440                    20703016.700
      2031.829        1583.244          49.850          48.600    81243260.219 9
  20703017.940        1517.185          54.350


 130843830.661 6 101956256.18546  24898745.820                    24898747.220
      3472.170        2705.598          41.050          39.550    97708085.669 7
  24898751.160        2592.807          45.600


 130220762.635 7 101470760.54947  24780173.880                    24780174.620
      3902.218        3040.698          43.950          44.100



 116840426.248 8  91044535.16647  22233982.560                    22233982.960
      1247.878         972.373          49.600          47.400    87251005.806 8
  22233982.040         931.753          50.550


 135828459.102 8                  25847285.180
      1601.877                          48.350                   101430394.060 7
  25847287.280        1196.148          47.200   104076391.089 8  25847285.820
      1227.410          49.000   102753392.263 8  25847287.820        1211.756
        51.250
 120242440.789 8                  22881359.420
     -1178.753                          52.600                    89791499.625 8
  22881361.620        -880.230          51.550    92133877.349 8  22881359.860
      -903.198          53.000    90962683.675 9  22881361.560        -891.674
        55.350
 140328119.981 7                  26703545.420
     -3150.488                          46.900                   104790529.713 7
  26703550.500       -2352.726          46.800   107524180.823 7  26703547.060
     -2414.132          46.050   106157355.957 8  26703548.060       -2383.368
        49.550
 122943684.693 8                  23395377.360
       207.078                          52.700                    91808683.469 9
  23395378.320         154.681          54.700    94203675.420 9  23395375.820
       158.760          55.050    93006177.636 9  23395377.400         156.709
        57.950
 136805173.991 7                  26033140.580
      2263.008                          47.600                   102159780.319 7
  26033145.220        1689.964          46.850   104824805.656 8  26033143.240
      1734.164          48.000   103492293.676 8  26033144.460        1712.066
        50.400
 145667673.065 7                  27719632.460
      -848.539                          42.250                   108777827.979 7
  27719632.840        -633.576          42.550   111615497.472 7  27719630.420
      -650.085          43.300   110196664.920 7  27719632.500        -641.868
        46.100
 131447325.784 8                  25013568.060
     -1989.149                          49.900                    98158817.288 8
  25013572.080       -1485.469          51.100   100719469.024 8  25013569.160
     -1524.151          51.750    99439131.348 9  25013570.760       -1504.802
        54.600
 140932851.692 7                  26818624.960
      1435.741                          44.900                   105242088.649 7
  26818626.180        1072.119          45.950   107987519.378 7  26818624.220
      1100.078          45.250   106614803.202 8  26818626.160        1086.134
        48.950
 23 11 17 17  1  0.0000000  0 19G06G10G11G12G15G19G24G25G28G29G32E03
                                E05E09E24E25E26E31E33
 124976186.810 6  97384059.03946  23782173.980                    23782174.000
      1393.155        1085.578          41.700          41.800    93326394.560 7
  23782175.460        1040.288          44.400


 133318983.860 6 103884930.73146  25369759.120                    25369762.780
     -2817.072       -2195.125          39.800          38.500    99556399.481 7
  25369763.700       -2103.519          42.500


 130250569.483 7 101493940.04446  24785857.280                    24785857.080
      2763.804        2153.612          44.700          39.950    97265052.211 7
  24785861.340        2064.017          46.400


 105864567.404 8  82491949.64248  20145323.860                    20145320.160
      -452.432        -352.544          51.650          51.700



 136509337.791 5 106370915.25545  25976864.200                    25976866.220
     -3819.125       -2975.956          34.350          33.500



 123935621.307 7  96573246.91846  23584143.340                    23584138.180
     -2977.745       -2320.321          44.650          39.900



 114635390.671 8  89326328.69948  21814369.660                    21814369.680
     -2798.216       -2180.429          48.400          48.300    85604415.742 8
  21814371.080       -2089.551          53.800


 108734438.735 8  84728199.75447  20691452.620                    20691452.800
      2019.451        1573.599          50.050          47.800    81197881.409 9
  20691453.940        1508.012          54.300


 130739671.793 6 101875093.69546  24878924.880                    24878926.120
      3471.764        2705.280          40.950          39.850    97630304.992 7
  24878930.140        2592.553          45.800


 130103726.789 7 101379564.01547  24757902.440                    24757902.960
      3900.217        3039.138          43.100          43.200



 116803267.648 8  91015580.45648  22226911.440                    22226911.920
      1229.323         957.916          49.400          48.000    87223257.540 8
  22226910.960         918.066          50.650


 135780579.430 8                  25838173.840
      1590.054                          48.100                   101394639.804 7
  25838175.800        1187.470          47.200   104039704.118 8  25838174.520
      1218.368          49.200   102717171.653 8  25838176.640        1202.908
        51.250
 120278001.107 8                  22888126.440
     -1192.121                          52.600                    89818054.402 8
  22888128.420        -890.211          51.700    92161124.857 8  22888126.680
      -913.426          53.250    90989584.824 9  22888128.440        -901.852
        55.450
 140422685.311 7                  26721540.620
     -3153.934                          47.000                   104861146.647 7
  26721545.640       -2355.097          46.550   107596639.944 7  26721542.180
     -2416.545          46.100   106228893.985 8  26721543.320       -2385.821
        49.350
 122937585.520 8                  23394216.760
       199.372                          52.350                    91804128.919 9
  23394217.620         148.814          54.850    94199002.048 9  23394215.160
       152.730          55.200    93001563.676 9  23394216.720         150.776
        58.050
 136737342.487 7                  26020232.740
      2259.007                          47.650                   102109127.060 7
  26020237.180        1686.836          46.650   104772830.998 8  26020235.260
      1730.825          48.400   103440979.719 8  26020236.480        1708.810
        50.450
 145693338.498 7                  27724516.600
      -862.722                          42.350                   108796993.738 7
  27724517.040        -644.215          42.500   111635163.199 7  27724514.700
      -661.010          43.600   110216080.665 7  27724516.460        -652.643
        46.000
 131507056.023 8                  25024934.340
     -1992.779                          49.600                    98203421.055 8
  25024938.240       -1488.202          51.000   100765236.368 8  25024935.300
     -1527.044          52.050    99484316.902 9  25024937.080       -1507.622
        54.600
 140889970.540 7                  26810464.760
      1422.923                          45.450                   105210067.070 7
  26810466.420        1062.564          46.100   107954662.441 7  26810464.040
      1090.308          45.350   106582363.944 8  26810466.040        1076.449
        48.950
 23 11 17 17  1 30.0000000  0 19G06G10G11G12G15G19G24G25G28G29G32E03
                                E05E09E24E25E26E31E33
 124934634.656 7  97351680.79447  23774266.480                    23774266.920
      1376.562        1072.646          42.350          42.450    93295365.380 7
  23774268.460        1027.897          44.350


 133403545.363 6 103950822.64246  25385850.560                    25385854.580
     -2821.171       -2198.322          39.300          38.900    99619545.886 7
  25385855.240       -2106.353          43.550


 130167747.512 7 101429403.48746  24770096.780                    24770096.440
      2757.339        2148.576          44.550          39.800    97203204.689 7
  24770100.860        2059.011          46.150


 105878359.158 8  82502696.47048  20147948.300                    20147944.540
      -467.184        -364.038          51.800          52.000



 136623854.397 6 106460154.46946  25998655.340                    25998657.600
     -3814.753       -2972.552          37.550          36.750



 124025123.655 7  96642989.00546  23601175.000                    23601169.900
     -2989.376       -2329.384          44.400          41.150



 114719487.295 8  89391858.54448  21830372.760                    21830372.680
     -2808.293       -2188.279          48.550          48.650    85667215.173 8
  21830374.360       -2097.146          53.750


 108674039.643 8  84681135.55748  20679959.180                    20679959.100
      2006.938        1563.849          50.500          48.750    81152778.227 8
  20679960.160        1498.688          53.950


 130635524.857 6 101793940.47246  24859106.160                    24859107.060
      3471.381        2704.979          41.650          38.000    97552533.202 7
  24859111.460        2592.074          46.150


 129986736.478 6 101288402.96546  24735639.560                    24735640.100
      3898.798        3038.032          41.850          41.900



 116766661.018 8  90987055.85047  22219945.360                    22219945.800
      1210.837         943.511          49.300          47.750    87195921.471 8
  22219944.880         904.206          50.450


 135733051.565 7                  25829129.480
      1578.295                          47.750                   101359148.257 7
  25829131.400        1178.660          47.250   104003286.707 8  25829130.240
      1209.291          49.150   102681217.177 8  25829132.380        1193.955
        51.400
 120313961.065 8                  22894969.480
     -1205.575                          52.200                    89844907.620 8
  22894971.420        -900.229          51.600    92188678.595 8  22894969.680
      -923.729          53.150    91016788.299 9  22894971.380        -911.979
        55.450
 140517346.451 7                  26739553.940
     -3157.108                          46.950                   104931835.155 7
  26739558.800       -2357.562          46.250   107669172.504 7  26739555.460
     -2419.183          46.050   106300504.525 8  26739556.800       -2388.370
        49.200
 122931720.406 8                  23393100.620
       191.419                          52.450                    91799749.154 9
  23393101.500         142.943          54.800    94194508.030 9  23393099.000
       146.675          55.000    92997126.783 9  23393100.600         144.812
        58.000
 136669635.685 7                  26007348.620
      2254.670                          47.850                   102058566.898 7
  26007352.860        1683.694          46.750   104720951.869 8  26007351.020
      1727.575          48.250   103389760.077 8  26007352.260        1705.607
        50.550
 145719428.669 7                  27729481.240
      -876.873                          42.350                   108816476.677 7
  27729481.960        -654.935          42.450   111655154.394 7  27729479.800
      -671.977          43.950   110235817.722 7  27729481.220        -663.452
        46.250
 131566895.272 8                  25036321.340
     -1996.651                          49.600                    98248106.210 8
  25036325.120       -1490.961          50.750   100811087.221 8  25036322.320
     -1529.905          52.100    99529584.909 9  25036324.100       -1510.448
        54.500
 140847471.124 7                  26802377.500
      1410.153                          46.300                   105178330.532 7
  26802379.460        1053.078          46.400   107922097.990 7  26802376.500
      1080.385          45.350   106550213.451 8  26802378.540        1066.806
        49.150
 23 11 17 17  2  0.0000000  0 19G06G10G11G12G15G19G24G25G28G29G32E03
                                E05E09E24E25E26E31E33
 124893592.491 7  97319699.93547  23766456.440                    23766456.660
      1359.771        1059.564          42.650          42.250    93264717.045 7
  23766458.680        1015.508          44.950


 133488231.899 6 104016811.99545  25401965.940                    25401969.960
     -2824.280       -2200.742          37.000          32.600    99682785.655 6
  25401970.720       -2109.290          40.250


 130085137.603 7 101365032.16246  24754376.620                    24754375.980
      2750.454        2143.212          44.350          38.150    97141515.528 7
  24754380.780        2053.865          46.350


 105892604.227 8  82513796.54248  20150659.020                    20150655.220
      -481.977        -375.565          51.600          51.800



 136738236.077 6 106549282.51446  26020421.780                    26020424.380
     -3809.818       -2968.707          38.100          38.000



 124114983.510 7  96713009.66246  23618274.640                    23618269.740
     -3001.053       -2338.483          44.850          39.850



 114803895.233 7  89457630.95947  21846435.020                    21846435.040
     -2818.487       -2196.224          47.900          47.650    85730247.073 8
  21846436.760       -2104.753          53.500


 108614023.007 8  84634369.38548  20668538.560                    20668538.160
      1994.572        1554.214          51.400          48.200    81107960.653 8
  20668539.200        1489.373          53.900


 130531403.967 6 101712807.46746  24839292.400                    24839293.040
      3470.912        2704.616          41.050          38.750    97474780.780 7
  24839297.700        2591.628          45.550


 129869806.839 7 101197289.19847  24713388.240                    24713388.660
      3896.928        3036.573          42.400          42.100



 116730620.429 8  90958972.31947  22213087.000                    22213087.300
      1192.296         929.063          49.550          47.600    87169008.095 8
  22213086.460         890.322          50.400


 135685889.493 7                  25820154.680
      1566.302                          47.650                   101323929.885 7
  25820156.720        1169.620          47.400   103967149.581 8  25820155.520
      1200.164          49.050   102645539.423 8  25820157.740        1184.898
        51.350
 120350332.571 8                  22901890.800
     -1218.966                          52.450                    89872068.160 8
  22901892.780        -910.241          51.700    92216547.666 8  22901890.960
      -933.982          53.150    91044303.106 9  22901892.600        -922.107
        55.350
 140612114.418 7                  26757587.580
     -3160.369                          46.650                   105002603.430 7
  26757592.440       -2360.088          45.900   107741786.904 7  26757588.960
     -2421.691          45.850   106372195.861 8  26757590.580       -2390.869
        48.850
 122926101.549 8                  23392031.320
       183.549                          52.400                    91795553.296 9
  23392032.260         137.055          54.800    94190202.710 9  23392029.700
       140.630          54.900    92992876.194 9  23392031.340         138.841
        57.850
 136602066.426 8                  25994490.660
      2250.362                          48.250                   102008109.450 7
  25994494.900        1680.501          46.800   104669178.124 8  25994492.940
      1724.268          48.300   103338644.478 8  25994494.180        1702.398
        50.400
 145745955.486 7                  27734528.860
      -891.088                          42.100                   108836285.664 6
  27734529.820        -665.491          41.950   111675480.151 7  27734528.080
      -682.902          43.950   110255885.097 7  27734529.140        -674.272
        45.900
 131626855.487 8                  25047731.400
     -2000.409                          50.100                    98292881.696 8
  25047735.260       -1493.827          50.700   100857030.754 8  25047732.640
     -1532.769          52.350    99574944.417 9  25047734.100       -1513.283
        54.500
 140805367.435 7                  26794365.680
      1397.197                          46.600                   105146889.529 7
  26794367.920        1043.333          46.500   107889836.762 7  26794364.320
      1070.481          45.700   106518362.336 8  26794366.300        1056.895
        49.100
 23 11 17 17  2 30.0000000  0 19G06G10G11G12G15G19G24G25G28G29G32E03
                                E05E09E24E25E26E31E33
 124853052.343 7  97288110.24947  23758742.040                    23758741.740
      1342.718        1046.275          43.350          43.550    93234443.589 7
  23758744.440        1002.813          45.700


 133573030.833 6 104082877.95646  25418102.760                    25418105.180
     -2828.262       -2203.840          40.700          37.450    99746109.330 6
  25418107.680       -2112.147          40.650


 130002732.738 7 101300820.61546  24738695.380                    24738694.620
      2743.565        2137.846          43.650          38.850    97079979.468 7
  24738699.500        2048.603          46.150


 105907291.751 8  82525241.38748  20153454.020                    20153450.040
      -496.973        -387.250          51.850          51.950



 136852475.826 6 106638300.00745  26042161.360                    26042163.940
     -3805.459       -2965.313          36.500          35.600



 124205188.097 7  96783298.95046  23635439.900                    23635434.980
     -3012.574       -2347.460          44.750          41.150



 114888603.058 8  89523637.04848  21862554.300                    21862554.520
     -2828.507       -2204.031          48.800          48.750    85793502.916 8
  21862556.060       -2112.195          53.600


 108554379.514 8  84587893.97048  20657188.940                    20657188.300
      1981.830        1544.284          51.700          48.700    81063421.713 9
  20657189.340        1479.951          54.100


 130427300.480 6 101631688.01446  24819481.920                    24819482.100
      3469.622        2703.605          40.900          39.050    97397041.314 7
  24819487.380        2591.101          45.200


 129752930.073 7 101106216.62347  24691147.040                    24691147.400
      3895.018        3035.084          42.750          42.600



 116695137.200 8  90931323.08947  22206334.880                    22206334.760
      1173.554         914.458          50.250          47.500    87142510.938 8
  22206334.140         876.259          50.550


 135639084.447 7                  25811247.880
      1554.166                          47.850                   101288978.113 7
  25811250.140        1160.593          47.750   103931286.015 8  25811248.800
      1190.901          49.450   102610131.754 8  25811250.980        1175.778
        51.450
 120387104.787 8                  22908888.400
     -1232.418                          52.300                    89899527.933 8
  22908890.520        -920.354          51.800    92244723.781 8  22908888.580
      -944.330          53.500    91072121.048 9  22908890.100        -932.334
        55.400
 140706977.393 7                  26775639.400
     -3163.631                          46.500                   105073442.649 7
  26775644.280       -2362.501          46.500   107814474.107 7  26775641.020
     -2424.121          46.350   106443959.072 8  26775642.420       -2393.345
        49.200
 122920718.548 8                  23391006.900
       175.501                          52.350                    91791533.558 9
  23391007.860         131.034          54.850    94186078.101 9  23391005.260
       134.449          55.150    92988804.020 9  23391006.940         132.739
        57.900
 136534624.906 8                  25981656.940
      2246.008                          48.150                   101957747.410 7
  25981661.200        1677.092          46.900   104617502.271 8  25981659.180
      1720.937          48.350   103287625.530 8  25981660.400        1698.990
        50.400
 145772908.219 7                  27739657.720
      -905.569                          42.650                   108856412.723 7
  27739658.560        -676.256          42.350   111696132.245 7  27739657.280
      -693.943          44.150   110276274.672 7  27739658.020        -685.069
        46.050
 131686925.834 8                  25059162.640
     -2004.231                          50.700                    98337739.426 8
  25059166.420       -1496.618          50.650   100903058.683 8  25059163.900
     -1535.686          52.650    99620387.246 9  25059165.020       -1516.139
        54.400
 140763650.828 7                  26786427.380
      1383.983                          46.400                   105115737.550 7
  26786429.940        1033.586          46.200   107857872.119 7  26786425.720
      1060.549          45.850   106486804.025 8  26786427.780        1047.051
        48.950
 23 11 17 17  3  0.0000000  0 19G06G10G11G12G15G19G24G25G28G29G32E03
                                E05E09E24E25E26E31E33
 124813024.767 7  97256919.96247  23751125.140                    23751124.260
      1325.935        1033.197          43.050          42.900    93204552.928 7
  23751127.720         990.178          46.500


 133657947.350 6 104149065.47556  25434262.120                    25434267.760
     -2831.784       -2206.601          41.300          37.250    99809520.819 7
  25434267.120       -2114.928          42.050


 129920544.635 7 101236777.96446  24723055.380                    24723054.500
      2736.295        2132.180          43.000          38.100    97018605.257 7
  24723059.520        2043.239          45.900


 105922429.433 8  82537037.00748  20156334.680                    20156330.560
      -511.774        -398.784          52.050          51.950



 136966579.567 6 106727211.25446  26063875.020                    26063877.520
     -3800.639       -2961.557          38.300          38.050



 124295743.330 7  96853861.45146  23652671.820                    23652667.020
     -3024.213       -2356.530          44.550          41.550



 114973618.002 8  89589882.45348  21878732.120                    21878732.400
     -2838.666       -2211.947          48.950          48.950    85856988.102 8
  21878733.800       -2119.765          53.550


 108495118.437 8  84541716.55248  20645911.920                    20645911.420
      1969.199        1534.442          51.450          48.200    81019168.363 9
  20645912.520        1470.578          54.350


 130323224.298 6 101550589.81046  24799676.720                    24799676.800
      3469.020        2703.136          41.100          36.550    97319322.267 7
  24799682.380        2590.610          44.700


 129636117.361 7 101015193.95846  24668918.020                    24668918.360
      3893.106        3033.597          42.050          41.750



 116660221.276 8  90904115.91447  22199690.780                    22199690.200
      1154.804         899.849          50.700          46.700    87116437.401 8
  22199689.820         862.331          50.650


 135592646.330 7                  25802410.880
      1542.103                          47.950                   101254300.350 8
  25802413.520        1151.599          48.200   103895703.614 8  25802411.920
      1181.624          49.200   102575001.671 8  25802414.040        1166.658
        51.650
 120424285.490 8                  22915963.740
     -1245.843                          52.750                    89927292.738 8
  22915966.000        -930.312          51.950    92273212.881 8  22915963.900
      -954.546          53.350    91100248.004 9  22915965.300        -942.470
        55.400
 140801942.293 7                  26793710.520
     -3166.797                          46.350                   105144357.982 7
  26793715.340       -2364.798          45.850   107887239.425 7  26793712.220
     -2426.549          46.050   106515799.398 8  26793713.720       -2395.651
        48.850
 122915579.575 8                  23390028.980
       167.645                          52.550                    91787696.042 9
  23390029.880         125.132          54.850    94182140.473 9  23390027.280
       128.365          55.000    92984916.451 9  23390028.980         126.739
        57.850
 136467319.891 8                  25968849.200
      2241.524                          48.250                   101907487.314 7
  25968853.520        1673.899          47.000   104565931.023 8  25968851.380
      1717.549          48.600   103236709.860 8  25968852.520        1695.684
        50.500
 145800294.639 6                  27744868.920
      -919.721                          41.750                   108876863.631 7
  27744870.240        -686.872          43.100   111717116.659 7  27744868.980
      -704.792          44.500   110296992.331 7  27744869.440        -695.832
        46.600
 131747114.204 8                  25070616.340
     -2007.897                          50.650                    98382685.293 8
  25070619.840       -1499.437          50.100   100949177.044 8  25070617.500
     -1538.551          52.400    99665919.359 9  25070618.420       -1518.980
        54.000
 140722331.222 7                  26778564.540
      1371.014                          46.150                   105084882.028 7
  26778567.220        1023.834          45.950   107826211.674 7  26778562.600
      1050.604          45.650   106455546.046 8  26778564.960        1037.146
        48.650
 23 11 17 17  3 30.0000000  0 19G06G10G11G12G15G19G24G25G28G29G32E03
                                E05E09E24E25E26E31E33
 124773499.522 7  97226121.10147  23743603.620                    23743602.700
      1309.291        1020.228          42.850          43.000    93175037.382 7
  23743606.520         977.737          47.000


 133742965.858 6 104215313.56446  25450440.820                    25450444.540
     -2835.329       -2209.347          39.400          37.800    99873008.561 6
  25450445.940       -2117.097          39.200


 129838564.024 7 101172896.99546  24707454.800                    24707453.700
      2729.653        2127.002          42.800          41.050    96957385.993 7
  24707459.020        2038.351          46.000


 105938004.517 8  82549173.45548  20159298.580                    20159294.440
      -526.218        -410.039          52.250          52.250



 137080567.002 5 106816014.26045  26085560.240                    26085563.900
     -3795.492       -2957.544          34.200          34.200



 124386634.166 7  96924685.47346  23669967.640                    23669963.020
     -3035.155       -2365.056          45.000          41.950



 115058926.450 8  89656356.57348  21894965.900                    21894966.000
     -2848.268       -2219.430          49.200          49.150    85920692.459 8
  21894967.380       -2126.881          53.300


 108436228.260 8  84495828.14848  20634705.420                    20634705.200
      1957.040        1524.968          51.400          48.400    80975191.977 9
  20634706.420        1461.443          54.500


 130219164.700 6 101469504.55145  24779874.800                    24779874.440
      3468.495        2702.726          41.250          35.800    97241615.564 7
  24779880.400        2590.229          45.000


 129519358.747 7 100924213.43847  24646699.280                    24646699.680
      3891.186        3032.100          42.200          42.650



 116625861.723 8  90877342.27347  22193152.540                    22193151.560
      1136.188         885.341          51.150          46.500    87090779.344 8
  22193151.460         848.528          50.850


 135546564.148 8                  25793641.740
      1530.361                          48.650                   101219888.387 8
  25793644.600        1142.816          48.150   103860393.933 8  25793642.760
      1172.638          49.250   102540140.854 8  25793644.780        1157.714
        51.800
 120461861.666 8                  22923114.260
     -1258.805                          52.600                    89955352.865 8
  22923116.760        -940.004          51.900    92302005.016 8  22923114.500
      -964.541          53.300    91128674.131 9  22923115.820        -952.269
        55.600
 140896995.153 7                  26811798.320
     -3169.548                          46.050                   105215338.993 7
  26811803.100       -2366.848          45.250   107960072.097 7  26811800.340
     -2428.581          46.100   106587706.242 8  26811801.680       -2397.819
        48.750
 122910671.982 8                  23389095.100
       160.021                          52.900                    91784031.310 9
  23389095.940         119.501          54.750    94178380.133 9  23389093.360
       122.621          55.050    92981203.912 9  23389095.060         121.068
        57.900
 136400139.313 8                  25956065.040
      2237.517                          48.200                   101857320.135 7
  25956069.440        1670.961          46.750   104514455.120 8  25956067.280
      1714.499          48.600   103185888.318 8  25956068.340        1692.684
        50.550
 145828101.715 7                  27750160.360
      -933.490                          42.750                   108897628.657 7
  27750162.260        -697.196          43.050   111738423.397 7  27750160.840
      -715.371          44.300   110318028.209 7  27750161.040        -706.231
        46.650
 131807407.638 8                  25082089.940
     -2011.202                          50.550                    98427709.618 8
  25082093.060       -1501.889          49.650   100995375.907 8  25082090.980
     -1541.067          51.900    99711530.957 8  25082091.800       -1521.496
        53.700
 140681397.741 7                  26770775.100
      1358.282                          45.900                   105054314.857 7
  26770777.900        1014.296          46.100   107794847.095 7  26770772.780
      1040.814          45.450   106424580.169 8  26770775.640        1027.576
        48.900
 23 11 17 17  4  0.0000000  0 18G06G10G11G12G19G24G25G28G29G32E03E05
                                E09E24E25E26E31E33
 124734494.300 7  97195727.48947  23736181.080                    23736180.440
      1291.332        1006.234          43.300          43.400    93145910.184 7
  23736184.200         964.291          47.600


 133828099.624 7 104281651.41046  25466641.560                    25466646.100
     -2839.461       -2212.566          42.800          37.650    99936582.354 7
  25466646.460       -2120.663          42.050


 129756809.706 7 101109192.37946  24691897.400                    24691896.040
      2721.163        2120.387          42.050          41.300    96896335.734 7
  24691901.740        2032.106          46.550


 105954030.457 8  82561661.21148  20162348.200                    20162344.280
      -541.684        -422.091          51.900          51.950



 124477873.553 7  96995781.12047  23687329.860                    23687325.220
     -3047.006       -2374.289          44.500          42.600



 115144542.768 8  89723070.58648  21911258.240                    21911258.100
     -2859.104       -2227.873          48.800          48.800    85984626.724 8
  21911259.400       -2135.101          53.150


 108377725.393 8  84450241.53548  20623572.600                    20623572.540
      1943.653        1514.536          50.800          48.900    80931504.824 9
  20623573.940        1451.340          54.650


 130115138.803 6 101388445.52546  24760079.400                    24760078.400
      3466.985        2701.547          41.150          38.600    97163934.057 7
  24760085.000        2588.872          44.550


 129402672.303 7 100833289.10247  24624494.320                    24624494.260
      3888.285        3029.838          42.400          42.850



 116592075.563 8  90851015.43047  22186723.400                    22186722.140
      1116.555         870.044          51.300          46.950    87065549.467 8
  22186722.300         833.826          51.150


 135500854.933 8                  25784943.640
      1517.306                          48.650                   101185754.933 8
  25784946.680        1133.043          48.400   103825370.023 8  25784944.640
      1162.626          49.250   102505562.169 8  25784946.480        1147.864
        51.750
 120499848.197 8                  22930342.800
     -1273.139                          52.300                    89983719.429 8
  22930345.520        -950.722          52.100    92331111.578 8  22930343.100
      -975.607          53.100    91157410.693 9  22930344.400        -963.138
        55.450
 140992149.944 7                  26829905.700
     -3173.600                          45.900                   105286396.150 7
  26829910.160       -2369.908          45.450   108032982.924 7  26829907.700
     -2431.709          46.350   106659690.229 8  26829909.020       -2400.835
        48.750
 122906011.070 8                  23388208.100
       151.187                          52.300                    91780550.791 9
  23388209.000         112.906          54.850    94174808.815 9  23388206.360
       115.846          55.000    92977677.996 9  23388208.080         114.371
        57.900
 136333099.086 7                  25943307.580
      2232.242                          47.450                   101807257.757 7
  25943311.940        1667.053          46.500   104463086.757 8  25943309.920
      1710.397          48.850   103135172.943 8  25943310.840        1688.785
        50.550
 145856344.440 7                  27755534.880
      -948.860                          42.750                   108918719.004 7
  27755536.560        -708.513          42.200   111760063.925 7  27755535.040
      -726.937          43.650   110339393.658 7  27755535.560        -717.811
        45.900
 131867821.147 8                  25093586.260
     -2015.869                          50.100                    98472823.606 8
  25093588.880       -1505.380          49.100   101041666.782 8  25093586.960
     -1544.683          51.100    99757233.386 8  25093588.060       -1525.036
        53.050
 140640867.431 7                  26763062.320
      1344.147                          45.850                   105024048.750 7
  26763065.320        1003.740          46.500   107763791.443 7  26763059.860
      1029.933          45.550   106393919.288 8  26763063.000        1016.846
        49.000
 23 11 17 17  4 30.0000000  0 18G06G10G11G12G19G24G25G28G29G32E03E05
                                E09E24E25E26E31E33
 124695999.305 7  97165731.45847  23728855.800                    23728855.100
      1274.760         993.320          43.850          43.800    93117164.012 7
  23728858.740         951.801          47.150


 133913333.309 6 104348067.22946  25482861.200                    25482865.900
     -2842.991       -2215.326          38.250          37.800   100000230.747 7
  25482866.240       -2122.811          44.000


 129675273.046 7 101045657.36246  24676381.400                    24676379.980
      2714.218        2114.978          42.450          41.800    96835448.001 7
  24676385.900        2026.899          46.900


 105970495.432 8  82574491.08848  20165481.340                    20165477.560
      -556.104        -433.327          52.000          52.150



 124569446.823 7  97067136.91746  23704755.600                    23704751.020
     -3058.001       -2382.857          44.650          41.750



 115230453.859 8  89790014.29648  21927606.560                    21927606.260
     -2868.534       -2235.221          48.850          48.800    86048781.116 8
  21927607.600       -2142.055          52.900


 108319598.844 8  84404948.16548  20612511.380                    20612511.340
      1931.062        1504.725          50.850          48.550    80888098.666 9
  20612512.960        1442.199          54.650


 130011136.341 7 101307404.77346  24740288.480                    24740287.060
      3466.461        2701.144          42.400          37.000    97086270.033 7
  24740293.940        2588.518          44.250


 129286048.633 7 100742413.67347  24602301.520                    24602301.020
      3886.229        3028.235          42.800          42.900



 116558852.395 8  90825127.28747  22180401.340                    22180399.900
      1098.096         855.660          51.550          46.850    87040740.008 8
  22180400.300         820.098          51.450


 135455508.223 8                  25776314.660
      1505.558                          49.100                   101151892.173 8
  25776317.700        1124.389          48.600   103790623.889 8  25776315.520
      1153.586          49.150   102471257.721 8  25776317.140        1139.021
        51.650
 120538232.555 8                  22937646.960
     -1286.037                          52.150                    90012383.065 8
  22937649.980        -960.382          52.100    92360522.964 8  22937647.360
      -985.410          52.850    91186448.205 9  22937648.740        -972.900
        55.250
 141087393.260 7                  26848029.880
     -3176.095                          46.250                   105357519.388 7
  26848034.520       -2371.760          45.600   108105961.543 7  26848032.420
     -2433.577          46.150   106731741.153 8  26848033.160       -2402.646
        48.550
 122901584.727 8                  23387365.660
       143.781                          52.350                    91777245.431 9
  23387366.840         107.347          55.050    94171417.228 9  23387363.960
       110.166          54.850    92974329.521 9  23387365.780         108.776
        57.800
 136266187.691 7                  25930574.660
      2228.267                          47.650                   101757291.588 7
  25930578.840        1664.007          46.300   104411817.104 8  25930577.140
      1707.437          48.950   103084555.041 8  25930577.960        1685.710
        50.300
 145885010.236 7                  27760990.080
      -962.432                          42.800                   108940125.279 7
  27760991.360        -718.703          42.400   111782028.632 7  27760990.020
      -737.421          43.850   110361079.142 7  27760990.540        -728.098
        45.850
 131928342.305 8                  25105102.920
     -2018.976                          50.300                    98518017.978 8
  25105104.860       -1507.761          48.600   101088040.135 8  25105103.260
     -1547.081          50.600    99803017.247 8  25105104.900       -1527.394
        52.350
 140600729.919 7                  26755424.260
      1331.382                          46.050                   104994075.968 7
  26755427.540         994.220          46.950   107733036.753 7  26755421.840
      1020.230          45.350   106363555.553 8  26755425.080        1007.232
        49.100
 23 11 17 17  5  0.0000000  0 18G06G10G11G12G19G24G25G28G29G32E03E05
                                E09E24E25E26E31E33
 124658025.042 7  97136141.16447  23721629.700                    23721628.720
      1257.235         979.665          43.900          43.850    93088806.641 7
  23721632.040         938.914          46.600


 133998672.507 6 104414565.07546  25499100.980                    25499105.260
     -2846.242       -2217.859          36.600          36.650   100063957.832 7
  25499105.920       -2125.369          44.850


 129593965.595 7 100982300.94146  24660909.180                    24660907.680
      2706.616        2109.052          42.850          41.250    96774731.432 7
  24660913.700        2021.190          47.050


 105987407.074 8  82587669.00948  20168699.460                    20168695.580
      -570.910        -444.864          51.950          52.100



 124661360.129 7  97138757.65046  23722246.140                    23722241.640
     -3069.161       -2391.556          44.850          41.000



 115316666.862 8  89857193.26548  21944012.300                    21944011.820
     -2878.720       -2243.157          48.450          48.600    86113160.950 8
  21944013.280       -2149.582          52.850


 108261857.749 8  84359955.14948  20601523.520                    20601523.400
      1918.448        1494.896          50.300          48.900    80844980.379 9
  20601525.100        1432.660          54.550


 129907167.185 6 101226389.98946  24720503.760                    24720502.280
      3465.266        2700.210          41.600          37.600    97008630.892 7
  24720509.300        2587.634          43.850


 129169498.521 7 100651595.55947  24580122.740                    24580121.900
      3884.012        3026.508          42.600          42.300



 116526201.956 8  90799685.42747  22174188.180                    22174186.680
      1078.927         840.724          51.550          47.000    87016358.237 8
  22174187.220         805.766          51.600


 135410533.801 8                  25767756.520
      1493.085                          49.200                   101118307.430 8
  25767759.500        1115.063          48.550   103756163.000 8  25767757.240
      1144.083          49.400   102437234.904 8  25767758.660        1129.581
        51.450
 120577022.392 8                  22945028.180
     -1299.558                          51.700                    90041349.498 8
  22945031.380        -970.416          52.150    92390245.040 8  22945028.720
      -995.729          52.850    91215792.459 9  22945030.220        -983.068
        55.000
 141182731.887 7                  26866172.140
     -3179.212                          45.400                   105428713.793 7
  26866177.040       -2374.077          45.750   108179013.208 7  26866175.140
     -2436.020          46.750   106803864.199 8  26866175.520       -2405.106
        48.700
 122897401.083 8                  23386569.420
       135.640                          52.050                    91774121.306 9
  23386570.940         101.264          55.050    94168211.603 9  23386567.720
       103.926          55.100    92971164.647 9  23386569.660         102.589
        57.650
 136199413.805 7                  25917867.900
      2223.694                          47.350                   101707428.095 7
  25917871.800        1660.526          46.100   104360652.817 8  25917870.500
      1703.937          49.450   103034041.145 8  25917871.280        1682.235
        50.200
 145914106.781 7                  27766527.440
      -976.862                          43.200                   108961853.237 7
  27766528.000        -729.378          42.650   111804323.391 7  27766526.640
      -748.461          43.200   110383090.509 7  27766527.340        -739.062
        45.550
 131988978.891 8                  25116641.580
     -2022.897                          50.250                    98563298.547 8
  25116642.880       -1510.608          48.000   101134501.940 8  25116641.680
     -1550.024          50.400    99848888.436 8  25116643.700       -1530.347
        51.800
 140560995.007 7                  26747862.840
      1318.015                          46.200                   104964403.838 7
  26747866.380         984.301          47.150   107702590.563 7  26747860.460
      1009.893          45.650   106333496.395 8  26747863.720         997.127
        49.100
 23 11 17 17  5 30.0000000  0 19G06G10G11G12G19G24G25G28G29G32E03E05
                                E09E12E24E25E26E31E33
 124620567.070 7  97106953.15547  23714501.840                    23714500.660
      1239.745         966.036          44.000          44.000    93060834.816 7
  23714503.600         925.756          46.000


 134084107.957 6 104481138.00346  25515358.800                    25515363.120
     -2849.866       -2220.679          41.050          39.050   100127756.862 7
  25515363.900       -2127.953          42.650


 129512884.105 7 100919120.60946  24645479.920                    24645478.400
      2698.672        2102.863          43.350          40.850    96714183.625 7
  24645484.460        2015.173          47.050


 106004757.887 8  82601189.14848  20172001.120                    20171997.300
      -585.938        -456.574          51.550          51.550



 124753604.355 7  97210636.26746  23739799.680                    23739795.200
     -3080.530       -2400.413          44.850          41.100



 115403174.055 8  89924601.47648  21960474.080                    21960473.320
     -2888.702       -2250.937          48.550          48.650    86177760.485 8
  21960475.060       -2157.129          52.600


 108204496.541 8  84315258.16148  20590607.980                    20590607.720
      1905.459        1484.775          50.350          48.800    80802145.767 9
  20590609.420        1422.890          54.400


 129803226.533 6 101145397.40446  24700724.420                    24700722.940
      3463.778        2699.051          40.850          37.400    96931013.023 7
  24700730.000        2586.743          44.200


 129053018.169 7 100560831.75346  24557957.300                    24557956.040
      3881.106        3024.241          42.600          41.950



 116494119.197 8  90774685.92047  22168082.980                    22168081.600
      1059.719         825.756          51.300          46.700    86992400.392 8
  22168082.080         791.289          51.500


 135365926.592 8                  25759268.260
      1480.668                          49.150                   101084996.904 8
  25759271.060        1105.604          48.650   103721983.491 8  25759268.900
      1134.469          49.600   102403489.888 8  25759270.080        1120.037
        51.900
 120616210.542 8                  22952485.220
     -1313.169                          51.000                    90070613.372 8
  22952488.640        -980.602          52.050    92420272.324 8  22952485.840
     -1006.149          52.700    91245438.040 9  22952487.520        -993.375
        55.200
 141278157.769 7                  26884331.180
     -3182.524                          45.700                   105499973.374 7
  26884335.880       -2376.564          45.050   108252131.723 7  26884334.220
     -2438.473          46.050   106876053.239 8  26884334.440       -2407.545
        48.300
 147243917.832 6                  28019586.080
      2960.146                          38.950                   109954879.639 6
  28019587.520        2210.321          41.700   112823251.621 6  28019583.940
      2267.892          41.100   111389067.818 7  28019585.960        2239.177
        44.350
 122893453.385 8                  23385818.180
       127.428                          52.400                    91771173.373 9
  23385819.820          95.160          55.050    94165186.765 9  23385816.400
        97.615          55.000    92968178.261 9  23385818.420          96.393
        57.900
 136132771.332 7                  25905186.240
      2218.965                          46.750                   101657662.722 7
  25905189.680        1656.986          46.100   104309589.224 8  25905188.900
      1700.215          49.650   102983626.664 8  25905189.680        1678.560
        50.600
 145943627.006 7                  27772145.100
      -991.254                          43.000                   108983897.561 7
  27772145.360        -740.276          42.700   111826942.792 7  27772143.440
      -759.627          42.650   110405422.370 7  27772144.860        -749.968
        45.600
 132049723.900 8                  25128200.920
     -2026.878                          50.300                    98608660.082 7
  25128201.540       -1513.550          47.750   101181046.817 8  25128200.800
     -1553.113          50.250    99894841.641 8  25128203.120       -1533.350
        51.900
 140521657.690 7                  26740377.260
      1304.481                          46.900                   104935028.610 7
  26740380.700         974.002          47.050   107672449.021 7  26740374.900
       999.371          45.650   106303738.006 8  26740377.980         986.749
        49.300
 23 11 17 17  6  0.0000000  0 19G06G10G11G12G19G24G25G28G29G32E03E05
                                E09E12E24E25E26E31E33
 124583630.824 7  97078171.68547  23707473.220                    23707472.040
      1222.276         952.424          44.000          44.250    93033252.593 7
  23707474.520         912.643          45.800


 134169640.031 6 104547786.29845  25531635.160                    25531639.540
     -2853.044       -2223.155          38.000          34.500   100191628.153 6
  25531640.320       -2130.399          40.500


 129432035.208 7 100856121.50346  24630094.980                    24630093.580
      2690.601        2096.575          43.400          41.300    96653809.494 7
  24630099.440        2009.259          47.300


 106022550.476 8  82615053.52148  20175386.840                    20175383.140
      -600.747        -468.114          51.250          51.200



 124846180.268 7  97282773.34746  23757416.280                    23757411.960
     -3091.780       -2409.180          44.050          41.350



 115489977.661 8  89992240.65748  21976992.360                    21976991.400
     -2898.660       -2258.696          48.600          48.600    86242581.369 8
  21976993.320       -2164.637          52.850


 108147519.415 8  84270860.45848  20579765.580                    20579765.160
      1892.457        1474.644          50.300          49.100    80759597.980 9
  20579766.760        1413.207          54.600


 129699319.302 6 101064430.88746  24680951.380                    24680950.140
      3462.748        2698.250          41.150          38.850    96853420.162 7
  24680957.140        2585.762          44.000


 128936613.492 7 100470126.91447  24535806.260                    24535804.600
      3878.514        3022.223          43.000          42.700



 116462608.909 8  90750132.49347  22162086.700                    22162085.500
      1040.514         810.792          51.200          47.250    86968870.033 8
  22162085.800         776.929          51.600


 135321691.427 8                  25750850.660
      1467.961                          48.650                   101051964.192 8
  25750853.360        1096.178          48.650   103688089.050 8  25750851.340
      1124.783          49.700   102370026.309 8  25750852.320        1110.464
        51.750
 120655799.711 8                  22960018.620
     -1326.624                          51.300                    90100176.719 8
  22960022.020        -990.700          52.250    92450606.893 8  22960019.260
     -1016.527          52.400    91275386.998 9  22960021.100       -1003.623
        54.950
 141373672.765 7                  26902507.020
     -3185.595                          45.550                   105571299.506 7
  26902511.780       -2378.821          45.700   108325318.542 7  26902510.140
     -2440.994          46.500   106948309.714 8  26902510.300       -2409.916
        48.550
 147155146.168 6                  28002693.300
      2957.927                          38.300                   109888589.142 7
  28002694.480        2208.537          42.000   112755231.819 6  28002690.800
      2266.198          40.800   111321912.670 7  28002693.380        2237.391
        44.200
 122889744.841 8                  23385112.560
       119.292                          52.300                    91768404.028 9
  23385114.060          89.104          55.150    94162345.174 9  23385110.560
        91.393          55.050    92965372.795 9  23385112.720          90.251
        57.750
 136066264.024 7                  25892530.260
      2214.496                          46.900                   101607998.295 7
  25892533.440        1653.513          46.550   104258629.198 8  25892532.900
      1696.697          49.550   102933314.432 8  25892533.820        1675.165
        50.600
 145973573.619 6                  27777843.660
     -1005.809                          41.400                   109006260.297 7
  27777843.820        -750.999          42.700   111849888.915 7  27777841.440
      -770.566          42.350   110428076.796 7  27777843.620        -760.758
        45.200
 132110580.188 8                  25139781.640
     -2030.725                          50.800                    98654104.726 7
  25139781.820       -1516.475          47.900   101227676.966 8  25139781.420
     -1556.033          50.300    99940879.038 8  25139783.660       -1536.271
        51.800
 140482722.848 7                  26732968.480
      1290.781                          47.250                   104905953.910 7
  26732971.400         963.918          46.800   107642615.841 7  26732966.000
       989.024          45.650   106274284.067 8  26732968.820         976.506
        48.950
 23 11 17 17  6 30.0000000  0 19G06G10G11G12G19G24G25G28G29G32E03E05
                                E09E12E24E25E26E31E33
 124547215.698 7  97049796.30347  23700543.660                    23700542.560
      1205.397         939.272          43.600          43.050    93006059.517 7
  23700544.860         900.126          45.750


 134255263.364 6 104614505.77045  25547928.780                    25547933.180
     -2855.657       -2225.185          36.300          35.700   100255567.520 7
  25547933.820       -2132.282          43.600


 129351419.480 7 100793304.07746  24614754.340                    24614753.100
      2683.564        2091.088          43.600          40.250    96593609.466 7
  24614758.660        2003.985          47.550


 106040781.347 8  82629259.39948  20178855.960                    20178852.360
      -614.645        -478.944          51.100          51.150



 124939082.497 7  97355164.69046  23775094.900                    23775090.780
     -3102.037       -2417.173          43.900          41.100



 115577073.810 8  90060107.78648  21993566.240                    21993565.400
     -2907.791       -2265.812          48.900          48.800    86307620.699 8
  21993566.960       -2171.348          52.850


 108090924.577 8  84226760.64048  20568995.960                    20568995.480
      1880.479        1465.311          50.300          49.100    80717335.661 9
  20568996.960        1404.211          54.700


 129595444.501 6 100983489.66146  24661184.520                    24661183.860
      3461.970        2697.647          40.850          37.700    96775851.479 7
  24661190.320        2585.441          43.350


 128820284.156 7 100379480.75447  24513669.460                    24513667.460
      3876.694        3020.804          42.950          42.900



 116431669.806 8  90726024.14547  22156199.140                    22156198.140
      1022.084         796.431          51.600          47.700    86945766.195 8
  22156198.160         763.240          51.550


 135277827.026 8                  25742503.440
      1456.303                          48.750                   101019208.353 8
  25742506.140        1087.429          48.700   103654478.703 8  25742504.320
      1115.896          49.600   102336843.214 8  25742505.140        1101.697
        52.000
 120695786.569 8                  22967627.780
     -1339.149                          51.450                    90130037.027 8
  22967631.240       -1000.039          52.350    92481246.161 8  22967628.300
     -1026.129          52.100    91305636.786 9  22967630.380       -1013.091
        55.150
 141469272.699 7                  26920699.000
     -3187.732                          45.900                   105642689.048 7
  26920704.040       -2380.415          45.950   108398570.417 7  26920702.300
     -2442.569          46.050   107020630.429 8  26920702.300       -2411.588
        48.800
 147066436.072 6                  27985812.160
      2956.302                          38.750                   109822344.615 7
  27985813.220        2207.652          42.350   112687259.156 6  27985809.500
      2265.259          39.950   111254804.081 7  27985812.400        2236.414
        44.300
 122886272.513 8                  23384451.840
       112.104                          52.150                    91765811.079 9
  23384453.200          83.706          55.100    94159684.579 9  23384449.740
        85.909          54.950    92962746.021 9  23384451.940          84.810
        57.950
 135999889.573 7                  25879899.580
      2210.492                          47.050                   101558433.054 7
  25879902.720        1650.791          47.050   104207770.953 8  25879902.180
      1693.856          49.050   102883102.695 8  25879903.240        1672.358
        50.900
 146003943.265 7                  27783622.760
     -1019.195                          42.350                   109028938.943 6
  27783623.120        -761.049          41.950   111873159.173 7  27783620.140
      -780.960          42.050   110451051.252 7  27783622.860        -771.028
        45.000
 132171544.564 8                  25151383.040
     -2033.619                          51.250                    98699630.079 8
  25151383.140       -1518.633          48.050   101274389.933 8  25151382.800
     -1558.264          50.150    99986998.196 8  25151384.740       -1538.433
        52.100
 140444189.239 7                  26725636.020
      1278.017                          46.850                   104877178.846 7
  26725638.280         954.397          46.600   107613090.101 7  26725633.440
       979.371          45.650   106245133.668 8  26725636.040         966.821
        49.050
 23 11 17 17  7  0.0000000  0 19G06G10G11G12G19G24G25G28G29G32E03E05
                                E09E12E24E25E26E31E33
 124511326.909 7  97021831.03547  23693714.080                    23693713.040
      1187.136         925.042          42.850          42.650    92979259.512 7
  23693715.740         886.388          45.950


 134340977.824 6 104681296.07146  25564239.700                    25564244.220
     -2858.966       -2227.765          37.850          36.800   100319574.924 7
  25564244.740       -2135.045          42.650


 129271043.360 7 100730673.38646  24599459.340                    24599458.300
      2674.729        2084.207          43.600          40.800    96533588.381 7
  24599463.400        1997.424          47.500


 106059453.219 8  82643808.92848  20182409.040                    20182405.540
      -630.210        -491.072          51.100          51.000



 125032311.716 7  97427810.83146  23792835.880                    23792831.820
     -3113.427       -2426.047          43.200          41.750



 115664464.461 8  90128204.39648  22010196.080                    22010195.400
     -2918.428       -2274.101          48.700          48.750    86372879.950 8
  22010196.820       -2179.282          52.750


 108034716.080 8  84182961.86448  20558299.700                    20558299.380
      1866.767        1454.624          50.350          48.850    80675361.845 9
  20558300.760        1394.004          54.600


 129491606.973 6 100902577.42546  24641424.760                    24641424.400
      3460.146        2696.224          41.150          39.200    96698310.637 7
  24641430.280        2583.936          43.300


 128704036.268 6 100288898.03446  24491548.140                    24491545.880
      3873.141        3018.034          41.850          41.600



 116401306.519 8  90702364.47547  22150421.160                    22150420.260
      1002.080         780.843          51.200          47.600    86923092.346 8
  22150420.080         748.255          51.350


 135234338.076 8                  25734227.540
      1442.997                          48.150                   100986732.880 8
  25734230.440        1077.512          48.650   103621156.041 8  25734228.760
      1105.674          49.600   102303944.148 8  25734229.440        1091.608
        51.900
 120736173.603 8                  22975313.240
     -1353.298                          51.400                    90160196.177 8
  22975316.520       -1010.597          52.250    92512192.074 8  22975313.520
     -1036.989          51.750    91336189.321 9  22975315.780       -1023.790
        54.950
 141564959.230 7                  26938907.520
     -3191.368                          45.550                   105714143.268 7
  26938912.940       -2383.218          45.900   108471888.659 7  26938911.000
     -2445.385          46.200   107093016.653 8  26938910.860       -2414.295
        48.750
 146977793.104 6                  27968943.740
      2953.190                          38.100                   109756150.205 6
  27968944.880        2205.363          41.800   112619337.926 6  27968941.060
      2262.870          39.550   111187746.253 7  27968944.100        2234.134
        43.850
 122883039.452 8                  23383836.560
       103.315                          51.700                    91763396.792 9
  23383837.740          77.151          54.900    94157207.311 9  23383834.580
        79.189          54.950    92960300.242 9  23383836.700          78.187
        57.800
 135933651.588 7                  25867294.880
      2205.148                          46.850                   101508969.734 7
  25867298.080        1646.770          47.500   104157017.279 8  25867297.320
      1689.719          48.950   102832994.202 8  25867298.560        1668.240
        51.000
 146034738.522 6                  27789482.460
     -1034.090                          41.650                   109051935.414 7
  27789482.980        -772.114          42.700   111896755.534 6  27789479.800
      -792.182          41.650   110474347.672 7  27789482.840        -782.222
        45.050
 132232619.745 8                  25163005.480
     -2038.086                          50.650                    98745238.175 7
  25163005.660       -1521.946          47.900   101321187.809 8  25163005.160
     -1561.688          49.850   100033201.186 8  25163006.920       -1541.842
        51.750
 140406061.550 7                  26718380.540
      1263.640                          45.850                   104848706.902 7
  26718382.320         943.652          46.200   107583875.408 7  26718378.340
       968.357          45.950   106216290.347 8  26718380.500         956.019
        48.900
 23 11 17 17  7 30.0000000  0 19G06G10G11G12G19G24G25G28G29G32E03E05
                                E09E12E24E25E26E31E33
 124475965.473 7  96994276.71147  23686984.740                    23686984.180
      1169.673         911.436          42.400          42.550    92952853.282 7
  23686987.220         873.500          46.650


 134426780.046 5 104748154.78845  25580567.220                    25580572.480
     -2861.853       -2230.017          35.700          34.800   100383647.855 6
  25580572.340       -2136.940          38.250


 129190909.014 7 100668231.08046  24584210.220                    24584209.600
      2666.951        2078.144          42.800          41.150    96473747.847 7
  24584214.060        1991.524          47.550


 106078563.670 8  82658700.19548  20186045.680                    20186042.160
      -644.472        -502.186          51.750          51.900



 125125864.380 7  97500709.02746  23810638.320                    23810634.180
     -3123.793       -2434.121          42.000          41.800



 115752147.373 8  90196528.73948  22026881.500                    22026881.060
     -2927.859       -2281.449          48.550          48.700    86438357.459 8
  22026882.300       -2186.430          52.900


 107978893.685 8  84139463.96648  20547676.900                    20547676.740
      1854.213        1444.843          50.500          48.750    80633676.373 9
  20547677.960        1384.599          54.550


 129387807.324 6 100821694.73146  24621672.220                    24621672.040
      3459.064        2695.381          41.450          38.600    96620798.110 7
  24621677.740        2583.065          43.100


 128587871.410 7 100198379.98347  24469442.660                    24469440.100
      3870.456        3015.940          43.350          43.200



 116371519.267 8  90679153.66847  22144752.760                    22144751.980
       982.886         765.886          50.950          47.250    86900848.647 8
  22144751.640         734.087          51.350


 135191224.904 8                  25726023.160
      1430.525                          48.250                   100954538.011 8
  25726026.220        1068.338          48.700   103588121.305 8  25726024.640
      1096.182          49.750   102271329.348 8  25726025.260        1082.274
        52.100
 120776959.050 8                  22983074.620
     -1366.354                          52.050                    90190652.840 8
  22983077.740       -1020.348          52.250    92543443.257 8  22983074.540
     -1046.969          51.900    91367043.242 9  22983076.980       -1033.667
        55.150
 141660729.764 7                  26957131.880
     -3193.946                          45.550                   105785660.209 7
  26957137.620       -2385.110          45.200   108545271.261 7  26957135.480
     -2447.348          46.100   107165466.428 8  26957135.420       -2416.192
        48.400
 146889218.464 6                  27952088.260
      2951.169                          38.350                   109690006.858 6
  27952089.500        2203.688          41.050   112551469.079 6  27952085.640
      2261.091          39.600   111120740.155 7  27952088.760        2232.607
        43.600
 122880044.324 8                  23383266.520
        95.673                          51.950                    91761160.192 9
  23383267.520          71.426          54.850    94154912.361 9  23383264.880
        73.301          55.200    92958034.469 9  23383266.720          72.370
        57.950
 135867549.337 7                  25854716.000
      2200.955                          47.450                   101459607.783 7
  25854719.380        1643.530          47.900   104106367.607 8  25854718.240
      1686.429          48.900   102782988.384 8  25854719.640        1665.033
        51.350
 146065957.587 7                  27795422.920
     -1047.884                          42.800                   109075248.364 7
  27795424.200        -782.539          43.000   111920676.654 7  27795420.620
      -802.940          42.350   110497964.709 7  27795423.640        -792.738
        45.700
 132293804.178 8                  25174648.480
     -2041.492                          50.650                    98790927.859 7
  25174648.980       -1524.507          47.750   101368069.390 8  25174648.300
     -1564.243          49.950   100079486.816 8  25174649.920       -1544.339
        51.800
 140368340.170 7                  26711202.380
      1250.370                          45.650                   104820538.378 7
  26711203.780         933.743          45.750   107554972.053 7  26711200.640
       958.051          46.500   106187754.407 8  26711202.320         945.904
        49.000
 23 11 17 17  8  0.0000000  0 19G06G10G11G12G19G24G25G28G29G32E03E05
                                E09E12E24E25E26E31E33
 124441132.090 7  96967133.86447  23680356.120                    23680356.040
      1152.284         897.886          43.150          42.950    92926841.407 7
  23680359.240         860.293          47.350


 134512666.904 6 104815079.53845  25596911.000                    25596916.100
     -2864.533       -2232.092          38.850          34.900   100447784.049 6
  25596915.860       -2139.008          40.250


 129111018.397 7 100605978.70246  24569007.420                    24569007.300
      2658.835        2071.821          42.550          41.550    96414089.323 7
  24569011.020        1985.280          47.400


 106098111.346 8  82673932.17348  20189765.560                    20189761.820
      -659.052        -513.546          51.650          51.650



 125219737.215 7  97573856.67646  23828501.680                    23828497.460
     -3134.794       -2442.696          42.250          41.200



 115840120.062 8  90265078.86948  22043622.020                    22043621.820
     -2937.431       -2288.908          48.750          48.700    86504051.344 8
  22043623.100       -2193.655          53.000


 107923457.010 8  84096266.61848  20537127.540                    20537127.400
      1841.215        1434.715          50.700          48.550    80592278.937 9
  20537128.540        1374.850          54.500


 129284045.934 6 100740841.85346  24601926.980                    24601927.160
      3458.053        2694.593          41.950          38.250    96543314.106 7
  24601931.840        2582.068          42.650


 128471791.009 7 100107927.70447  24447353.200                    24447350.540
      3867.669        3013.767          42.550          42.600



 116342308.136 8  90656391.78547  22139193.920                    22139193.220
       963.920         751.107          51.550          46.400    86879035.189 8
  22139192.880         719.700          51.400


 135148487.637 8                  25717890.320
      1417.956                          48.600                   100922623.869 8
  25717893.660        1058.870          49.050   103555374.618 8  25717892.060
      1086.467          50.100   102238998.935 8  25717892.600        1072.648
        52.250
 120818140.934 8                  22990911.480
     -1379.735                          52.250                    90221405.542 8
  22990914.440       -1030.287          52.350    92574998.199 8  22990911.120
     -1057.141          52.050    91398197.064 9  22990913.620       -1043.699
        55.050
 141756581.521 7                  26975371.780
     -3196.643                          45.400                   105857237.820 7
  26975377.660       -2387.218          45.900   108618716.096 7  26975375.240
     -2449.446          46.200   107237977.650 8  26975375.320       -2418.307
        48.650
 146800713.299 6                  27935246.200
      2948.435                          39.600                   109623915.338 6
  27935247.260        2201.885          41.300   112483653.422 6  27935243.840
      2259.516          40.350   111053786.572 7  27935246.680        2230.677
        43.800
 122877285.698 8                  23382741.460
        87.764                          52.100                    91759100.201 9
  23382742.400          65.497          54.850    94152798.627 9  23382740.180
        67.232          55.450    92955947.606 9  23382741.720          66.382
        57.900
 135801581.992 8                  25842162.860
      2196.346                          48.350                   101410346.546 8
  25842166.340        1640.148          48.250   104055821.292 8  25842164.720
      1682.854          48.750   102733084.613 8  25842166.360        1661.524
        51.300
 146097598.578 7                  27801443.940
     -1061.993                          42.200                   109098876.401 7
  27801445.620        -793.045          42.700   111944921.040 7  27801441.720
      -813.607          43.000   110521900.914 7  27801444.600        -803.335
        45.650
 132355096.090 8                  25186311.840
     -2045.123                          50.600                    98836697.801 7
  25186312.620       -1527.203          47.800   101415033.333 8  25186311.960
     -1567.099          50.200   100125853.758 8  25186313.340       -1547.112
        51.800
 140331025.301 7                  26704101.480
      1236.801                          45.650                   104792673.415 7
  26704102.480         923.459          45.350   107526380.184 7  26704100.180
       947.630          46.650   106159525.985 8  26704101.580         935.587
        48.750
 23 11 17 17  8 30.0000000  0 19G06G10G11G12G19G24G25G28G29G32E03E05
                                E09E12E24E25E26E31E33
 124406825.944 7  96940401.81847  23673828.040                    23673828.160
      1135.059         884.462          43.650          44.150    92901223.205 7
  23673831.520         847.435          47.050


 134598631.483 5 104882076.70545  25613269.580                    25613274.480
     -2866.634       -2233.741          35.500          33.550   100511978.114 6
  25613274.120       -2140.805          37.600


 129031371.900 7 100543916.52947  24553851.060                    24553851.320
      2651.082        2065.779          42.650          42.150    96354613.081 7
  24553854.500        1979.579          47.300


 106118092.242 8  82689501.71848  20193567.860                    20193564.020
      -673.014        -524.425          51.850          51.850



 125313924.256 7  97647249.15946  23846425.000                    23846420.600
     -3144.482       -2450.245          43.000          41.050



 115928378.443 8  90333851.63647  22060416.980                    22060416.680
     -2946.557       -2296.018          48.000          47.900    86569958.569 8
  22060418.320       -2200.334          52.900


 107868403.960 8  84053368.19748  20526651.200                    20526651.100
      1828.864        1425.091          50.700          49.000    80551167.956 9
  20526652.120        1365.727          54.300


 129180321.621 6 100660017.84446  24582188.920                    24582188.720
      3456.944        2693.725          41.750          37.650    96465857.780 7
  24582193.220        2581.583          42.750


 128355794.183 7 100017540.55047  24425279.480                    24425276.980
      3865.351        3011.959          43.250          43.550



 116313671.579 8  90634077.61347  22133744.400                    22133743.740
       945.091         736.436          51.050          46.750    86857650.777 8
  22133743.460         705.786          51.200


 135106124.843 8                  25709828.840
      1405.904                          48.450                   100890989.351 8
  25709832.420        1049.897          49.050   103522914.848 8  25709830.780
      1077.291          50.200   102206951.791 8  25709831.200        1063.620
        52.350
 120859715.601 8                  22998823.020
     -1392.216                          52.300                    90252451.567 8
  22998825.880       -1039.645          52.250    92606854.120 8  22998822.440
     -1066.790          52.100    91429648.036 9  22998825.020       -1053.197
        55.050
 141852510.057 7                  26993626.440
     -3198.609                          45.700                   105928872.764 7
  26993632.480       -2388.660          45.700   108692219.794 7  26993629.660
     -2451.016          45.800   107310546.973 8  26993629.900       -2419.854
        48.400
 146712276.940 6                  27918417.260
      2946.738                          38.100                   109557875.240 6
  27918418.300        2200.516          41.200   112415890.543 6  27918415.260
      2258.087          40.350   110986885.078 7  27918417.780        2229.262
        43.800
 122874760.459 8                  23382260.900
        80.395                          52.050                    91757214.484 9
  23382261.840          59.994          54.750    94150863.715 9  23382259.720
        61.618          55.400    92954037.291 9  23382261.160          60.817
        57.900
 135735746.976 8                  25829634.960
      2192.330                          48.650                   101361184.140 8
  25829638.460        1637.235          48.250   104005376.362 8  25829636.520
      1679.986          48.600   102683280.948 8  25829638.240        1658.556
        51.300
 146129657.839 6                  27807544.600
     -1075.345                          41.650                   109122816.760 7
  27807546.700        -803.104          42.050   111969485.943 7  27807542.600
      -824.029          42.950   110546153.549 7  27807545.060        -813.644
        45.250
 132416492.120 8                  25197994.780
     -2048.124                          49.800                    98882545.489 7
  25197996.120       -1529.462          47.750   101462077.036 8  25197995.400
     -1569.359          50.050   100172299.453 8  25197996.520       -1549.380
        51.750
 140294115.458 7                  26697077.540
      1223.587                          44.750                   104765110.890 7
  26697078.300         913.823          45.200   107498098.637 7  26697076.540
       937.686          46.350   106131603.956 8  26697077.920         925.767
        48.650
 23 11 17 17  9  0.0000000  0 18G06G11G12G19G24G25G28G29G32E03E05E09
                                E12E24E25E26E31E33
 124373044.177 7  96914078.39647  23667399.680                    23667399.860
      1117.064         870.440          43.450          42.950    92875996.580 7
  23667403.180         834.152          46.550


 128951967.988 7 100482043.39446  24538740.940                    24538741.700
      2642.563        2059.142          43.000          41.950    96295317.986 7
  24538744.120        1973.278          46.950


 106138500.647 8  82705404.38648  20197451.500                    20197447.640
      -687.617        -535.806          51.750          51.800



 125408417.918 7  97720880.58246  23864406.680                    23864401.940
     -3155.309       -2458.684          42.600          40.750



 116016916.547 8  90402842.35648  22077265.160                    22077264.840
     -2956.210       -2303.540          48.050          48.100    86636074.680 8
  22077266.680       -2207.525          52.400


 107813730.637 8  84010765.66348  20516247.160                    20516247.160
      1815.948        1415.026          50.650          49.450    80510340.545 9
  20516248.080        1356.009          54.050


 129076631.284 6 100579220.35346  24562457.280                    24562456.880
      3455.720        2692.775          41.550          37.150    96388426.877 7
  24562461.400        2580.438          42.650


 128239879.026 7  99927217.01647  24403221.540                    24403219.200
      3862.296        3009.578          42.950          43.150



 116285606.148 8  90612208.47547  22128403.700                    22128402.960
       925.707         721.331          51.250          46.700    86836692.862 8
  22128402.780         691.234          50.900


 135064133.140 8                  25701838.020
      1393.245                          48.350                   100859631.956 8
  25701841.780        1040.382          48.900   103490739.427 8  25701840.080
      1067.479          49.950   102175185.382 8  25701840.400        1053.967
        52.500
 120901677.618 8                  23006808.240
     -1405.361                          52.200                    90283786.837 8
  23006811.120       -1049.507          52.050    92639006.829 8  23006807.560
     -1076.841          51.750    91461392.028 9  23006810.120       -1063.200
        55.150
 141948509.119 7                  27011894.380
     -3201.282                          45.650                   106000560.363 7
  27011900.740       -2390.635          45.100   108765777.510 7  27011897.520
     -2453.010          45.850   107383169.629 8  27011898.000       -2421.830
        48.550
 146623907.005 6                  27901600.920
      2944.427                          38.700                   109491884.751 6
  27901601.980        2198.678          40.900   112348178.557 6  27901599.240
      2255.979          39.750   110920033.852 7  27901601.480        2227.238
        43.750
 122872463.641 8                  23381823.920
        72.594                          52.400                    91755499.343 9
  23381824.840          54.171          54.450    94149103.828 9  23381822.520
        55.581          54.900    92952299.779 9  23381824.060          54.875
        57.850
 135670039.941 8                  25817131.420
      2187.919                          49.250                   101312117.296 8
  25817134.880        1633.797          48.100   103955029.496 8  25817132.480
      1676.441          48.000   102633574.089 8  25817134.460        1655.116
        51.300
 146162129.978 6                  27813723.660
     -1089.606                          41.650                   109147065.417 6
  27813726.120        -813.534          41.650   111994367.181 7  27813721.940
      -834.821          42.000   110570718.495 7  27813724.240        -824.212
        44.900
 132477987.025 8                  25209696.620
     -2051.711                          49.600                    98928467.026 7
  25209698.320       -1532.116          47.700   101509196.513 8  25209697.480
     -1572.101          49.550   100218819.964 8  25209698.520       -1552.159
        51.800
 140257607.313 7                  26690130.060
      1210.056                          44.550                   104737848.344 7
  26690130.860         903.638          45.250   107470124.892 7  26690129.300
       927.076          46.100   106103985.806 8  26690130.660         915.387
        48.850
 23 11 17 17  9 30.0000000  0 18G06G11G12G19G24G25G28G29G32E03E05E09
                                E12E24E25E26E31E33
 124339804.275 7  96888177.22147  23661074.260                    23661074.560
      1099.337         856.628          43.000          42.700    92851174.621 7
  23661077.800         820.920          46.550


 128872825.491 7 100420373.93047  24523680.700                    24523681.620
      2634.286        2052.691          43.000          42.350    96236218.110 7
  24523683.500        1966.928          46.900


 106159351.370 8  82721651.72348  20201419.200                    20201415.380
      -701.959        -546.980          51.250          51.250



 125503231.207 7  97794761.05946  23882449.160                    23882444.120
     -3165.481       -2466.606          42.600          40.700



 116105748.720 8  90472062.23848  22094169.340                    22094168.980
     -2965.550       -2310.817          48.100          48.250    86702410.397 8
  22094171.040       -2214.617          52.350


 107759453.449 8  83968471.80748  20505918.560                    20505918.620
      1803.084        1405.003          50.750          49.050    80469808.943 9
  20505919.500        1346.372          54.300


 128972992.260 7 100498462.82046  24542735.280                    24542734.520
      3454.299        2691.666          42.050          36.050    96311034.280 7
  24542739.540        2579.373          42.950


 128124064.161 6  99836971.65147  24381182.620                    24381180.360
      3859.416        3007.337          41.650          42.250



 116258128.671 8  90590797.47047  22123174.940                    22123174.080
       906.568         706.417          51.100          46.850    86816174.000 8
  22123173.960         676.932          50.950


 135022529.476 8                  25693921.080
      1380.673                          48.200                   100828564.332 8
  25693924.920        1031.012          49.150   103458861.343 8  25693923.260
      1057.886          50.150   102143712.530 8  25693923.460        1044.460
        52.800
 120944041.817 8                  23014869.900
     -1418.440                          51.900                    90315422.432 8
  23014872.820       -1059.204          52.150    92671467.709 8  23014869.240
     -1086.879          52.000    91493440.263 9  23014871.760       -1073.027
        55.350
 142044592.779 7                  27030178.440
     -3203.800                          45.000                   106072311.132 7
  27030184.840       -2392.379          44.800   108839400.045 7  27030181.400
     -2454.882          46.150   107455856.284 8  27030182.160       -2423.651
        48.600
 146535621.371 6                  27884800.700
      2941.827                          39.000                   109425957.185 6
  27884801.780        2196.665          40.700   112280531.115 6  27884799.320
      2254.128          40.150   110853246.341 7  27884801.080        2225.328
        43.800
 122870410.625 8                  23381433.360
        64.740                          52.400                    91753966.259 9
  23381434.260          48.313          54.600    94147530.751 9  23381431.580
        49.592          55.000    92950746.695 9  23381433.380          48.962
        58.000
 135604476.841 8                  25804655.260
      2183.450                          49.250                   101263157.927 8
  25804658.600        1630.446          48.100   103904792.920 7  25804656.040
      1672.957          47.900   102583976.117 8  25804658.060        1651.652
        51.350
 146195029.732 6                  27819984.260
     -1103.458                          41.000                   109171633.454 6
  27819986.660        -823.983          41.700   112019576.118 6  27819982.400
      -845.354          41.950   110595606.981 7  27819984.940        -834.710
        45.200
 132539595.900 8                  25221420.180
     -2055.105                          48.950                    98974473.662 8
  25221422.400       -1534.699          48.250   101556403.323 8  25221421.180
     -1574.770          49.450   100265426.684 8  25221422.200       -1554.732
        52.100
 140221517.837 7                  26683262.260
      1196.376                          44.600                   104710898.444 7
  26683263.400         893.395          45.550   107442471.949 7  26683261.580
       916.735          46.000   106076684.389 8  26683263.040         904.993
        49.000
 23 11 17 17 10  0.0000000  0 18G06G11G12G19G24G25G28G29G32E03E05E09
                                E12E24E25E26E31E33
 124307096.222 7  96862690.45747  23654850.200                    23654850.360
      1081.419         842.665          44.300          44.350    92826749.799 7
  23654853.500         807.460          46.650


 128793935.668 7 100358901.37247  24508668.360                    24508669.720
      2625.258        2045.657          43.250          42.000    96177306.883 7
  24508670.840        1960.482          46.950


 106180631.586 8  82738233.72448  20205468.600                    20205464.840
      -716.520        -558.326          51.000          50.950



 125598349.982 7  97868879.58146  23900549.900                    23900544.440
     -3176.093       -2474.879          42.750          40.750



 116194861.773 8  90541500.96748  22111127.060                    22111126.640
     -2975.111       -2318.269          48.650          48.650    86768955.850 8
  22111128.660       -2221.810          52.550


 107705561.226 8  83926477.92148  20495663.220                    20495663.340
      1789.843        1394.685          50.750          49.150    80429564.809 9
  20495664.200        1336.514          54.550


 128869394.231 7 100417737.25046  24523020.940                    24523020.080
      3452.396        2690.186          42.700          36.700    96233672.291 7
  24523025.540        2578.062          44.000


 128008339.454 7  99746796.56547  24359160.860                    24359158.920
      3855.667        3004.417          42.600          42.450



 116231228.436 8  90569836.26347  22118056.080                    22118055.080
       886.966         691.143          51.300          46.850    86796086.182 8
  22118054.980         662.274          51.000


 134981303.258 8                  25686076.000
      1367.787                          48.350                   100797778.568 8
  25686079.940        1021.402          49.400   103427272.463 8  25686078.280
      1048.062          50.200   102112525.209 8  25686078.360        1034.722
        52.550
 120986795.393 8                  23023005.600
     -1431.758                          51.900                    90347348.805 8
  23023008.640       -1069.138          52.150    92704226.949 8  23023005.120
     -1097.081          52.150    91525783.070 9  23023007.520       -1083.077
        55.050
 142140747.471 7                  27048476.020
     -3206.538                          45.600                   106144114.964 7
  27048482.160       -2394.512          44.750   108913076.994 7  27048478.820
     -2456.917          45.550   107528596.670 7  27048479.700       -2425.722
        47.850
 146447410.343 6                  27868014.880
      2939.097                          38.900                   109360085.315 6
  27868015.720        2194.578          40.050   112212940.831 6  27868013.740
      2252.046          40.600   110786515.277 7  27868014.960        2223.107
        43.150
 122868589.174 8                  23381086.780
        56.765                          52.450                    91752606.100 9
  23381087.740          42.386          54.850    94146135.111 9  23381084.780
        43.474          55.000    92949368.798 9  23381086.780          42.902
        57.750
 135539046.040 8                  25792204.280
      2178.708                          49.150                   101214297.360 8
  25792207.540        1626.904          48.300   103854657.705 7  25792204.640
      1669.398          47.900   102534478.224 8  25792206.860        1648.166
        50.950
 146228344.444 6                  27826323.760
     -1117.582                          41.850                   109196511.320 7
  27826326.480        -834.503          42.700   112045102.982 7  27826322.420
      -856.291          42.750   110620809.348 7  27826324.600        -845.397
        45.450
 132601306.291 8                  25233163.080
     -2058.874                          48.900                    99020556.107 8
  25233165.820       -1537.462          48.850   101603687.906 8  25233164.060
     -1577.552          49.200   100312110.194 8  25233165.220       -1557.474
        51.850
 140185836.435 7                  26676472.140
      1182.393                          44.800                   104684253.274 7
  26676473.680         882.944          45.850   107415131.674 7  26676471.240
       905.979          45.600   106049691.666 8  26676473.080         894.485
        48.650
 23 11 17 17 10 30.0000000  0 18G06G11G12G19G24G25G28G29G32E03E05E09
                                E12E24E25E26E31E33
 124274928.256 7  96837624.51847  23648728.980                    23648728.880
      1063.655         828.821          44.700          44.800    92802728.280 7
  23648731.900         794.394          46.750


 128715308.036 7 100297633.11146  24493705.900                    24493707.580
      2617.209        2039.386          42.900          40.850    96118591.494 7
  24493708.260        1954.328          46.700


 106202346.809 8  82755154.69548  20209600.880                    20209597.220
      -730.531        -569.244          51.900          52.050



 125693778.084 7  97943239.15746  23918709.400                    23918703.860
     -3185.626       -2482.305          42.650          38.900



 116284260.749 8  90611162.50148  22128139.240                    22128138.880
     -2984.103       -2325.275          49.400          49.550    86835714.822 8
  22128140.720       -2228.489          52.650


 107652061.097 8  83884789.55648  20485482.460                    20485482.560
      1777.469        1385.042          50.950          48.750    80389613.472 9
  20485483.460        1327.267          54.850


 128765845.223 7 100337049.88845  24503315.900                    24503314.720
      3451.242        2689.285          42.600          35.900    96156346.951 7
  24503321.080        2577.237          44.550


 127892714.538 7  99656699.24647  24337158.220                    24337156.440
      3852.991        3002.331          42.800          42.850



 116204912.979 8  90549330.72647  22113048.420                    22113047.380
       867.933         676.312          51.700          46.800    86776435.043 8
  22113047.280         648.188          51.100


 134940462.186 8                  25678304.260
      1355.487                          48.950                   100767280.413 8
  25678308.080        1012.227          49.550   103395978.709 8  25678306.420
      1038.614          50.000   102081629.253 8  25678306.540        1025.418
        52.550
 121029943.956 8                  23031216.400
     -1444.443                          52.200                    90379570.129 8
  23031219.520       -1078.556          52.300    92737288.834 8  23031216.140
     -1106.754          52.250    91558424.675 9  23031218.460       -1092.662
        55.200
 142236977.995 7                  27066788.160
     -3208.513                          45.400                   106215975.413 7
  27066794.280       -2395.999          45.250   108986812.060 7  27066790.740
     -2458.348          45.550   107601394.429 8  27066791.720       -2427.227
        48.050
 146359282.586 6                  27851244.720
      2936.748                          39.300                   109294275.664 6
  27851245.420        2192.923          40.350   112145414.446 6  27851244.000
      2250.137          40.550   110719847.247 7  27851244.880        2221.452
        43.150
 122867005.451 8                  23380785.320
        49.354                          52.400                    91751423.466 9
  23380786.480          36.835          55.000    94144921.624 9  23380783.320
        37.779          54.900    92948170.735 9  23380785.400          37.334
        57.850
 135473754.271 8                  25779779.660
      2174.600                          49.600                   101165540.600 8
  25779782.840        1623.831          48.350   103804629.022 7  25779779.900
      1666.168          47.600   102485085.501 8  25779782.120        1645.020
        50.950
 146262079.741 7                  27832743.340
     -1131.125                          42.700                   109221703.253 6
  27832746.160        -844.666          41.650   112070952.115 7  27832742.120
      -866.673          42.500   110646329.877 7  27832744.360        -855.711
        44.850
 132663124.045 8                  25244926.540
     -2061.919                          48.850                    99066718.730 8
  25244929.860       -1539.729          49.500   101651054.779 8  25244927.280
     -1579.907          48.700   100358874.946 8  25244928.740       -1559.830
        52.000
 140150570.796 7                  26669761.080
      1169.153                          45.050                   104657918.585 7
  26669763.120         873.061          46.150   107388109.984 7  26669759.860
       895.803          45.400   106023013.475 8  26669762.160         884.452
        48.750
 23 11 17 17 11  0.0000000  0 18G06G11G12G19G24G25G28G29G32E03E05E09
                                E12E24E25E26E31E33
 124243297.664 7  96812977.32647  23642709.860                    23642710.040
      1045.203         814.445          44.600          44.300    92779108.050 7
  23642712.680         780.519          47.350


 128636941.245 6 100236568.11246  24478793.000                    24478794.860
      2607.695        2031.974          41.300          40.650    96060070.868 7
  24478795.160        1947.349          46.700


 106224491.423 8  82772410.25948  20213814.880                    20213811.320
      -745.465        -580.882          51.300          51.250



 125789507.933 7  98017833.84846  23936926.200                    23936921.000
     -3196.370       -2490.679          43.200          39.950



 116373939.892 8  90681042.34648  22145204.780                    22145204.460
     -2994.125       -2333.084          48.900          48.850    86902683.006 8
  22145206.000       -2235.791          52.900


 107598949.295 8  83843403.78348  20475375.580                    20475375.520
      1763.671        1374.291          50.700          48.700    80349952.111 9
  20475376.660        1317.068          55.000


 128662342.439 7 100256398.54446  24483619.700                    24483618.400
      3449.029        2687.563          42.100          37.800    96079056.123 7
  24483625.200        2575.612          44.600


 127777186.847 7  99566677.73647  24315174.020                    24315172.600
      3849.139        2999.334          42.700          42.600



 116179178.963 8  90529278.26047  22108151.380                    22108150.420
       847.843         660.656          51.450          47.500    86757218.104 8
  22108150.220         633.146          51.050


 134900003.048 8                  25670605.240
      1342.142                          48.600                   100737067.469 8
  25670608.860        1002.255          49.700   103364977.598 8  25670607.180
      1028.386          49.850   102051022.222 8  25670607.460        1015.359
        52.550
 121073482.140 8                  23039501.340
     -1457.926                          51.650                    90412082.421 8
  23039504.580       -1088.767          52.300    92770649.269 8  23039501.420
     -1117.125          52.550    91591361.037 9  23039503.540       -1102.937
        55.200
 142333278.276 7                  27085113.600
     -3211.275                          45.000                   106287887.941 7
  27085119.580       -2398.030          45.300   109060600.590 7  27085115.860
     -2460.668          45.600   107674244.960 8  27085117.140       -2429.347
        48.100
 146271235.797 6                  27834490.160
      2933.687                          39.950                   109228526.467 6
  27834490.800        2190.436          40.600   112077950.045 6  27834489.260
      2247.580          40.100   110653240.449 7  27834490.140        2218.914
        43.050
 122865654.668 8                  23380528.200
        40.980                          52.250                    91750414.770 9
  23380529.560          30.606          55.100    94143886.611 9  23380526.240
        31.415          54.950    92947148.883 9  23380528.360          31.021
        57.850
 135408597.262 8                  25767380.640
      2169.465                          49.000                   101116884.475 8
  25767383.940        1620.071          48.550   103754703.586 7  25767380.820
      1662.390          47.800   102435794.722 8  25767383.040        1641.200
        50.900
 146296230.180 7                  27839242.160
     -1145.405                          42.000                   109247205.237 6
  27839244.240        -855.483          40.850   112097119.353 7  27839240.600
      -877.751          42.050   110672164.491 7  27839243.000        -866.627
        44.250
 132725044.102 8                  25256709.540
     -2065.827                          48.600                    99112957.751 8
  25256713.340       -1542.670          49.800   101698500.042 8  25256709.740
     -1582.845          48.400   100405717.086 8  25256711.820       -1562.746
        51.950
 140115717.764 7                  26663128.680
      1154.648                          45.350                   104631892.015 7
  26663130.860         862.304          46.100   107361404.451 7  26663127.080
       884.843          45.650   105996647.426 8  26663129.740         873.559
        48.800
 23 11 17 17 11 30.0000000  0 18G06G11G12G19G24G25G28G29G32E03E05E09
                                E12E24E25E26E31E33
 124212203.416 7  96788748.06547  23636792.620                    23636793.320
      1027.118         800.351          43.700          43.600    92755888.367 7
  23636795.820         767.034          47.800


 128558835.595 6 100175706.61146  24463929.720                    24463931.760
      2598.784        2025.031          41.900          40.800    96001745.271 7
  24463931.880        1940.731          46.000


 106247062.158 8  82789997.86348  20218109.900                    20218106.300
      -759.649        -591.934          51.450          51.500



 125885534.299 7  98092659.59146  23955199.520                    23955194.400
     -3206.143       -2498.292          44.350          37.000



 116463895.082 8  90751137.29448  22162322.820                    22162322.560
     -3003.460       -2340.358          49.100          49.000    86969857.330 8
  22162323.820       -2242.832          52.550


 107546223.724 8  83802318.96348  20465342.280                    20465341.820
      1750.668        1364.158          51.200          48.650    80310579.177 9
  20465343.320        1307.400          54.700


 128558884.664 6 100175782.26946  24463932.120                    24463930.860
      3447.693        2686.523          41.950          37.600    96001798.935 7
  24463937.820        2574.445          44.900


 127661756.346 7  99476731.99847  24293208.280                    24293207.180
      3845.991        2996.883          42.550          42.250



 116154024.648 8  90509677.51147  22103364.660                    22103363.820
       828.491         645.578          51.400          47.550    86738434.063 8
  22103363.440         618.604          50.700


 134859924.309 8                  25662978.620
      1329.317                          48.750                   100707138.591 8
  25662982.100         992.671          49.550   103334267.963 8  25662980.160
      1018.609          49.700   102020702.971 8  25662980.740        1005.597
        52.450
 121117406.281 8                  23047859.720
     -1470.870                          52.100                    90444882.918 8
  23047862.980       -1098.438          51.950    92804305.435 8  23047860.080
     -1127.040          52.900    91624589.372 9  23047862.040       -1112.768
        55.250
 142429643.907 7                  27103451.420
     -3213.473                          45.400                   106359849.285 7
  27103457.360       -2399.854          44.850   109134439.163 7  27103453.700
     -2462.291          46.000   107747144.919 8  27103454.900       -2431.071
        48.100
 146183269.506 6                  27817750.880
      2930.633                          38.500                   109162837.366 6
  27817751.380        2188.324          39.900   112010547.281 6  27817749.940
      2245.626          40.100   110586694.523 7  27817750.640        2216.854
        42.950
 122864533.706 8                  23380314.960
        33.312                          52.600                    91749577.701 9
  23380316.260          24.820          54.850    94143027.708 9  23380312.900
        25.471          55.200    92946300.900 9  23380315.040          25.146
        57.850
 135343572.565 8                  25755006.740
      2164.981                          48.950                   101068327.159 8
  25755010.140        1616.716          48.050   103704879.550 8  25755007.060
      1658.878          48.050   102386604.042 8  25755009.120        1637.853
        50.900
 146330792.191 7                  27845819.220
     -1159.272                          42.000                   109273014.553 6
  27845820.340        -865.517          41.100   112123601.951 7  27845817.500
      -888.269          42.250   110698310.449 7  27845819.880        -876.910
        44.550
 132787063.148 8                  25268511.400
     -2069.268                          48.900                    99159270.692 8
  25268515.200       -1545.222          49.300   101746021.159 8  25268511.020
     -1585.574          48.600   100452634.123 8  25268513.780       -1565.447
        51.950
 140081275.820 7                  26656574.640
      1140.897                          46.000                   104606172.429 7
  26656576.540         851.958          45.700   107335013.925 7  26656572.740
       874.155          46.000   105970592.369 8  26656575.620         863.065
        48.850
 23 11 17 17 12  0.0000000  0 18G06G11G12G19G24G25G28G29G32E03E05E09
                                E12E24E25E26E31E33
 124181655.591 6  96764944.60946  23630979.120                    23630980.480
      1010.004         787.018          41.350          41.450    92733076.742 7
  23630982.980         754.079          47.950


 128481002.657 7 100115057.60046  24449118.580                    24449120.320
      2590.537        2018.602          42.300          41.000    95943623.294 7
  24449120.520        1934.576          46.300


 106270065.986 8  82807922.93848  20222487.320                    20222483.660
      -773.160        -602.463          51.100          51.050



 125981862.915 7  98167720.84946  23973530.300                    23973525.200
     -3215.002       -2505.193          44.150          38.600



 116554133.326 8  90821452.79948  22179494.680                    22179494.400
     -3011.842       -2346.890          48.750          48.350    87037243.028 8
  22179495.480       -2249.202          52.600


 107493893.474 8  83761542.19048  20455384.280                    20455383.500
      1738.546        1354.712          51.350          48.700    80271501.458 9
  20455385.020        1298.189          54.600


 128455481.967 6 100095208.91146  24444255.160                    24444254.080
      3446.694        2685.743          41.850          38.850    95924582.857 7
  24444260.780        2573.662          44.550


 127546433.975 7  99386870.51947  24271263.240                    24271262.220
      3843.029        2994.575          42.600          43.250



 116129459.506 8  90490535.85947  22098689.920                    22098689.360
       809.766         630.986          50.900          47.250    86720089.980 8
  22098688.800         604.648          50.750


 134820235.588 8                  25655426.160
      1317.171                          48.350                   100677500.967 8
  25655429.500         983.538          49.450   103303857.173 8  25655427.080
      1009.262          48.900   101990678.763 8  25655428.220         996.388
        52.100
 121161723.816 8                  23056293.000
     -1483.123                          51.200                    90477977.181 8
  23056296.400       -1107.511          51.850    92838263.029 8  23056293.680
     -1136.391          52.800    91658115.297 9  23056295.420       -1121.960
        55.200
 142526081.628 7                  27121802.980
     -3215.040                          45.350                   106431864.464 7
  27121808.540       -2400.921          43.850   109208332.998 7  27121805.060
     -2463.495          45.200   107820099.422 7  27121806.380       -2432.215
        47.300
 146095394.199 6                  27801028.760
      2928.425                          38.950                   109097216.215 6
  27801029.220        2186.807          39.600   111943214.307 6  27801027.820
      2243.773          40.100   110520217.439 7  27801028.520        2215.330
        42.700
 122863650.618 8                  23380146.980
        26.200                          52.300                    91748918.278 9
  23380148.140          19.531          54.800    94142351.076 9  23380144.840
        20.070          54.950    92945632.870 9  23380147.000          19.787
        57.800
 135278688.792 8                  25742659.640
      2161.242                          48.650                   101019875.077 8
  25742663.300        1613.834          48.050   103655163.482 7  25742660.100
      1655.916          47.950   102337519.969 8  25742662.020        1634.905
        50.900
 146365773.241 6                  27852475.740
     -1172.389                          41.350                   109299136.787 6
  27852476.460        -875.523          40.950   112150405.621 6  27852474.220
      -898.263          41.900   110724773.396 7  27852476.520        -886.876
        44.400
 132849188.973 8                  25280333.680
     -2071.929                          49.150                    99205663.374 8
  25280337.080       -1547.252          49.400   101793624.080 8  25280332.940
     -1587.623          48.650   100499631.919 8  25280336.020       -1567.433
        52.100
 140047254.552 7                  26650100.680
      1127.693                          45.800                   104580766.982 7
  26650102.220         842.059          45.550   107308945.709 7  26650098.420
       864.134          45.800   105944855.542 8  26650101.620         853.077
        48.700
 23 11 17 17 12 30.0000000  0 18G06G11G12G19G24G25G28G29G32E03E05E09
                                E12E24E25E26E31E33
 124151651.516 7  96741564.85846  23625269.260                    23625271.040
       991.262         772.414          42.400          41.400    92710671.151 8
  23625273.560         740.151          48.300


 128403441.056 7 100054620.01146  24434359.280                    24434360.480
      2581.081        2011.232          42.750          40.200    95885703.975 7
  24434360.860        1927.334          46.550


 106293497.940 8  82826181.62848  20226946.260                    20226942.640
      -788.009        -614.032          51.450          51.400



 126078486.605 7  98243012.04746  23991917.240                    23991912.120
     -3225.535       -2513.403          44.000          39.850



 116644648.850 8  90891984.37048  22196719.220                    22196718.920
     -3021.690       -2354.563          48.400          48.350    87104835.776 8
  22196719.880       -2256.334          52.550


 107441954.797 8  83721070.53348  20445500.780                    20445499.960
      1724.946        1344.113          51.700          51.750    80232716.122 9
  20445501.180        1288.102          54.600


 128352131.505 7 100014676.28646  24424588.080                    24424587.280
      3444.198        2683.796          42.300          40.500    95847405.768 7
  24424593.400        2572.102          44.550


 127431217.977 7  99297091.92147  24249338.280                    24249337.460
      3839.043        2991.465          43.300          43.050



 116105480.130 8  90471850.64947  22094126.660                    22094126.280
       789.710         615.359          51.200          47.850    86702183.327 8
  22094125.660         589.711          50.900


 134780933.698 8                  25647947.240
      1303.718                          48.250                   100648152.192 8
  25647950.480         973.590          49.700   103273742.784 8  25647947.580
       998.927          48.750   101960947.178 8  25647949.280         986.255
        52.100
 121206429.419 8                  23064800.220
     -1496.351                          51.850                    90511361.243 8
  23064803.520       -1117.472          52.000    92872517.978 8  23064800.980
     -1146.579          52.950    91691934.804 9  23064802.620       -1132.055
        55.150
 142622585.383 7                  27140167.140
     -3217.577                          45.200                   106503928.943 7
  27140172.360       -2402.862          44.750   109282277.422 7  27140168.960
     -2465.496          45.050   107893103.876 7  27140170.300       -2434.207
        47.650
 146007607.788 6                  27784323.640
      2924.939                          39.750                   109031661.420 6
  27784324.080        2184.247          40.000   111875949.403 6  27784322.600
      2241.199          40.300   110453807.600 7  27784323.440        2212.680
        42.900
 122863000.712 8                  23380023.260
        18.005                          52.000                    91748432.978 9
  23380024.420          13.443          54.900    94141853.121 9  23380021.240
        13.744          55.050    92945141.242 9  23380023.300          13.587
        57.750
 135213941.791 8                  25730338.560
      2156.179                          48.650                   100971525.127 8
  25730342.440        1610.062          48.100   103605552.213 8  25730339.300
      1652.088          48.300   102288539.363 8  25730340.960        1631.010
        50.900
 146401167.949 6                  27859211.180
     -1186.527                          40.950                   109325567.922 6
  27859211.240        -886.108          41.550   112177526.273 6  27859209.700
      -909.173          41.800   110751549.289 7  27859211.960        -897.582
        44.600
 132911416.562 8                  25292175.400
     -2075.730                          49.550                    99252132.030 8
  25292178.560       -1550.061          49.900   101841304.966 8  25292174.740
     -1590.513          49.000   100546706.692 8  25292177.540       -1570.306
        52.300
 140013650.760 7                  26643706.160
      1113.362                          46.350                   104555673.268 7
  26643707.220         831.385          45.450   107283197.393 7  26643703.820
       853.104          46.300   105919434.526 8  26643707.080         842.226
        48.700
 23 11 17 17 13  0.0000000  0 18G06G11G12G19G24G25G28G29G32E03E05E09
                                E12E24E25E26E31E33
 124122189.291 7  96718607.32347  23619662.660                    23619664.540
       972.850         758.067          43.300          43.750    92688670.202 8
  23619667.080         726.417          48.100


 128326150.399 7  99994393.55846  24419651.440                    24419651.960
      2571.607        2003.852          42.900          41.000    95827986.948 7
  24419652.940        1920.377          46.400


 106317353.533 8  82844770.42348  20231485.860                    20231482.400
      -802.271        -625.146          51.300          51.250



 126175399.231 7  98318528.38946  24010359.180                    24010353.920
     -3235.498       -2521.168          43.900          39.000



 116735436.751 8  90962728.18448  22213995.480                    22213995.140
     -3030.876       -2361.722          48.000          48.300    87172631.935 8
  22213996.300       -2263.378          52.400


 107390404.786 8  83680901.73848  20435691.140                    20435690.360
      1711.765        1333.844          51.600          51.500    80194221.030 9
  20435691.360        1278.140          54.350


 128248831.344 6  99934182.82546  24404930.760                    24404930.040
      3442.395        2682.390          41.850          40.950    95770266.277 7
  24404935.480        2570.604          44.200


 127316106.551 7  99207394.82547  24227433.120                    24227432.680
      3835.009        2988.322          43.000          42.850



 116082083.995 8  90453619.90947  22089674.460                    22089674.140
       769.976         599.981          51.750          46.800    86684712.202 8
  22089673.500         574.975          50.900


 134742016.276 8                  25640541.400
      1290.610                          48.450                   100619090.538 8
  25640544.720         963.760          49.650   103243922.980 8  25640541.240
       988.896          48.300   101931506.450 8  25640543.460         976.328
        51.950
 121251518.601 8                  23073380.440
     -1509.429                          51.900                    90545031.730 8
  23073383.920       -1127.204          51.850    92907066.833 8  23073381.340
     -1156.655          53.050    91726044.471 9  23073382.800       -1141.896
        55.150
 142719149.949 7                  27158542.880
     -3220.105                          45.150                   106576038.834 7
  27158547.740       -2404.504          44.600   109356268.455 7  27158544.340
     -2467.251          44.800   107966154.330 7  27158545.940       -2435.828
        47.500
 145919908.897 6                  27767635.120
      2921.591                          38.850                   108966172.002 6
  27767635.660        2181.764          40.200   111808751.568 6  27767633.800
      2238.704          39.200   110387463.972 7  27767635.060        2210.262
        42.800
 122862580.041 8                  23379943.080
        10.028                          51.850                    91748118.878 9
  23379944.360           7.481          54.750    94141530.821 9  23379941.300
         7.677          55.000    92944823.039 9  23379943.220           7.592
        57.700
 135149328.266 8                  25718042.880
      2151.480                          48.750                   100923274.863 7
  25718047.040        1606.503          47.800   103556043.235 8  25718043.880
      1648.504          48.600   102239659.740 8  25718045.320        1627.498
        50.900
 146436971.904 6                  27866024.300
     -1200.357                          41.400                   109352304.641 6
  27866024.380        -896.383          41.550   112204960.484 7  27866023.540
      -919.842          42.850   110778634.754 7  27866025.360        -908.127
        45.000
 132973741.814 8                  25304035.700
     -2079.235                          49.300                    99298673.631 8
  25304038.580       -1552.725          49.900   101889060.694 8  25304035.060
     -1593.239          49.000   100593855.356 8  25304037.640       -1572.963
        52.450
 139980462.084 7                  26637390.680
      1099.163                          46.000                   104530889.558 7
  26637391.300         820.800          45.100   107257767.163 7  26637388.500
       842.261          46.400   105894327.552 8  26637391.600         831.582
        48.700
 23 11 17 17 13 30.0000000  0 18G06G11G12G19G24G25G28G29G32E03E05E09
                                E12E24E25E26E31E33
 124093276.572 7  96696077.96847  23614160.600                    23614162.460
       954.237         743.563          44.150          44.800    92667079.562 7
  23614164.860         712.782          47.400


 128249139.630 7  99934385.19546  24404996.960                    24404996.500
      2562.241        1996.552          43.350          40.050    95770478.950 7
  24404998.180        1913.319          46.150


 106341637.149 8  82863692.73948  20236106.820                    20236103.640
      -816.755        -636.432          51.400          51.300



 126272603.995 7  98394272.37746  24028856.640                    24028851.060
     -3244.882       -2528.479          43.700          37.400



 116826501.607 8  91033687.81748  22231324.460                    22231323.920
     -3040.396       -2369.140          48.200          48.300    87240634.907 8
  22231325.360       -2270.302          52.200


 107339250.066 8  83641040.94848  20425956.660                    20425955.800
      1698.416        1323.442          51.500          51.450    80156021.109 9
  20425956.860        1268.320          54.400


 128145589.156 7  99853734.56146  24385284.420                    24385283.760
      3440.187        2680.670          43.200          39.000    95693170.036 7
  24385288.540        2569.087          44.000


 127201108.721 7  99117786.26747  24205549.620                    24205549.440
      3831.206        2985.362          42.250          42.200



 116059278.029 8  90435849.03347  22085334.700                    22085334.240
       750.244         584.606          52.050          46.600    86667681.789 8
  22085333.660         560.239          50.800


 134703490.468 8                  25633210.060
      1277.518                          48.400                   100590321.327 8
  25633213.380         953.983          49.500   103214403.249 8  25633209.460
       978.883          48.400   101902361.976 8  25633212.120         966.462
        51.950
 121296996.380 8                  23082034.660
     -1522.481                          51.900                    90578992.405 8
  23082038.000       -1136.910          51.650    92941913.429 8  23082035.420
     -1166.562          53.000    91760448.110 9  23082036.900       -1151.751
        55.150
 142815779.631 7                  27176930.880
     -3222.273                          45.850                   106648197.343 7
  27176936.100       -2406.177          44.800   109430309.348 7  27176932.580
     -2468.879          45.050   108039254.036 7  27176933.960       -2437.541
        47.750
 145832305.706 6                  27750964.840
      2918.304                          39.200                   108900754.060 6
  27750965.700        2179.300          40.750   111741627.031 6  27750962.820
      2236.276          39.550   110321192.737 7  27750964.660        2207.769
        43.100
 122862394.268 8                  23379907.580
         2.180                          52.300                    91747980.177 9
  23379908.900           1.615          54.550    94141388.495 9  23379906.040
         1.657          55.200    92944682.526 9  23379907.820           1.644
        57.800
 135084854.409 8                  25705773.700
      2146.646                          48.850                   100875128.876 7
  25705778.120        1603.099          47.650   103506641.265 8  25705775.060
      1644.938          49.000   102190885.762 8  25705776.280        1624.055
        51.200
 146473190.097 6                  27872916.300
     -1214.406                          41.900                   109379350.697 6
  27872916.680        -906.718          41.150   112232712.077 7  27872916.100
      -930.437          42.650   110806033.574 7  27872917.320        -918.496
        44.800
 133036170.148 8                  25315915.540
     -2082.737                          49.150                    99345292.204 8
  25315918.120       -1555.296          50.050   101936895.404 8  25315915.080
     -1595.813          49.400   100641082.001 8  25315917.380       -1575.595
        52.800
 139947695.685 7                  26631155.560
      1084.958                          45.450                   104506421.186 7
  26631155.920         810.272          45.250   107232660.486 7  26631153.360
       831.531          46.200   105869540.029 8  26631156.500         820.846
        48.800
 23 11 17 17 14  0.0000000  0 18G06G11G12G19G24G25G28G29G32E03E05E09
                                E12E24E25E26E31E33
 124064910.768 7  96673974.77147  23608762.900                    23608764.260
       936.432         729.688          44.850          44.000    92645897.359 7
  23608766.300         699.158          46.900


 128172407.765 7  99874594.15846  24390395.340                    24390394.540
      2553.013        1989.360          43.600          40.900    95713179.217 7
  24390396.640        1906.400          46.350


 106366343.943 8  82882944.79948  20240808.320                    20240805.260
      -830.629        -647.242          50.950          51.050



 126370093.913 7  98470238.56546  24047408.340                    24047402.420
     -3254.582       -2536.040          43.700          38.650



 116917837.923 8  91104858.96448  22248705.080                    22248704.420
     -3049.084       -2375.910          48.350          48.450    87308840.591 8
  22248706.200       -2276.965          52.250


 107288487.188 8  83601485.48348  20416296.680                    20416295.740
      1685.479        1313.361          51.400          51.350    80118113.796 9
  20416297.000        1258.649          54.700


 128042402.365 7  99773329.45646  24365648.540                    24365648.160
      3438.693        2679.511          42.550          40.800    95616115.179 7
  24365652.160        2567.815          44.300


 127086222.578 6  99028264.72546  24183687.180                    24183687.280
      3827.569        2982.526          41.650          41.500



 116037059.064 8  90418535.56147  22081106.660                    22081106.080
       730.872         569.512          52.050          46.750    86651089.722 8
  22081105.520         545.722          51.050


 134665353.386 8                  25625952.740
      1264.649                          48.650                   100561842.384 8
  25625955.880         944.419          49.450   103185181.369 8  25625952.000
       968.988          48.400   101873511.570 8  25625954.740         956.689
        51.900
 121342857.639 8                  23090761.840
     -1535.190                          51.900                    90613239.445 8
  23090765.340       -1146.422          51.850    92977053.876 8  23090762.540
     -1176.357          53.050    91795141.855 9  23090764.000       -1161.394
        55.200
 142912468.705 7                  27195330.160
     -3224.108                          45.000                   106720400.217 7
  27195335.440       -2407.591          44.000   109504395.773 7  27195331.940
     -2470.338          45.250   108112398.685 7  27195333.320       -2438.934
        47.400
 145744796.173 6                  27734312.360
      2915.701                          39.750                   108835406.093 6
  27734313.400        2176.961          40.400   111674574.352 6  27734309.920
      2233.867          39.750   110254992.413 7  27734312.100        2205.397
        43.000
 122862438.954 8                  23379916.020
        -5.395                          52.150                    91748013.564 9
  23379917.160          -4.052          54.600    94141422.749 9  23379914.600
        -4.119          55.150    92944716.351 9  23379916.280          -4.098
        57.750
 135020516.317 8                  25693530.400
      2142.309                          48.650                   100827084.290 7
  25693535.100        1599.695          47.600   103457343.337 8  25693532.000
      1641.475          49.250   102142214.504 8  25693533.140        1620.628
        51.100
 146509817.408 6                  27879886.180
     -1227.694                          41.850                   109406702.293 6
  27879886.440        -916.771          41.350   112260777.195 7  27879886.340
      -940.801          42.700   110833741.929 7  27879887.160        -928.732
        44.850
 133098696.857 8                  25327813.960
     -2085.976                          48.700                    99391984.231 8
  25327816.580       -1557.678          50.500   101984805.485 8  25327813.940
     -1598.315          49.600   100688383.048 8  25327815.800       -1577.952
        53.000
 139915348.629 7                  26625000.080
      1071.085                          45.350                   104482265.945 7
  26625000.500         799.970          45.800   107207875.114 7  26624997.860
       820.752          45.750   105845069.723 8  26625001.100         810.368
        48.750
 23 11 17 17 14 30.0000000  0 18G06G11G12G19G24G25G28G29G32E03E05E09
                                E12E24E25E26E31E33
 124037092.558 7  96652298.26847  23603469.500                    23603470.440
       918.094         715.398          44.900          44.700    92625124.061 7
  23603471.820         685.437          46.900


 128095956.870 7  99815022.06146  24375847.220                    24375845.940
      2543.448        1981.909          43.400          40.150    95656089.293 7
  24375848.600        1899.270          46.400


 106391471.899 8  82902525.03248  20245589.880                    20245586.880
      -844.619        -658.145          50.300          50.050



 126467865.590 7  98546424.30246  24066013.640                    24066007.540
     -3263.825       -2543.241          43.700          36.800



 117009443.333 8  91176239.81548  22266137.020                    22266136.100
     -3058.289       -2383.083          48.250          48.150    87377247.231 8
  22266138.180       -2283.764          52.250


 107238115.779 8  83562235.05748  20406711.240                    20406710.360
      1672.406        1303.175          51.500          51.350    80080498.816 9
  20406711.700        1248.857          54.950


 127939271.711 7  99692968.07146  24346023.340                    24346023.040
      3436.616        2677.890          42.250          40.150    95539102.210 7
  24346026.460        2566.187          44.050


 126971449.564 6  98938831.35646  24161846.300                    24161846.760
      3823.573        2979.413          41.400          41.450



 116015427.081 8  90401679.48147  22076990.320                    22076989.700
       711.136         554.132          51.850          46.900    86634935.992 8
  22076989.020         530.902          51.200


 134627605.184 8                  25618769.540
      1251.623                          48.900                   100533653.844 8
  25618772.440         934.665          49.350   103156257.469 8  25618768.800
       958.964          48.700   101844955.348 8  25618771.400         946.841
        52.050
 121389100.398 8                  23099561.540
     -1547.943                          51.850                    90647771.382 8
  23099564.940       -1155.972          51.700    93012486.638 8  23099562.060
     -1186.159          52.700    91830124.204 9  23099563.680       -1171.070
        55.050
 143009214.528 7                  27213740.200
     -3226.070                          44.750                   106792645.449 7
  27213745.600       -2408.922          44.250   109578525.674 7  27213742.080
     -2471.979          44.550   108185586.250 7  27213743.300       -2440.403
        47.200
 145657381.787 6                  27717678.060
      2912.105                          39.800                   108770129.120 6
  27717679.120        2174.536          41.200   111607594.494 6  27717675.100
      2231.446          39.600   110188864.010 7  27717677.760        2202.888
        43.600
 122862712.718 8                  23379968.120
       -13.146                          52.100                    91748218.031 9
  23379969.000          -9.827          54.650    94141632.544 9  23379966.700
       -10.075          55.150    92944923.479 9  23379968.360          -9.961
        57.800
 134956313.268 8                  25681312.780
      2137.641                          48.600                   100779140.539 7
  25681317.700        1596.223          47.800   103408148.881 8  25681314.560
      1637.915          49.450   102093645.403 8  25681315.740        1617.060
        51.450
 146546851.973 7                  27886933.620
     -1241.408                          42.050                   109434357.983 6
  27886933.820        -926.981          41.350   112289154.338 7  27886934.060
      -951.265          42.700   110861758.351 7  27886934.560        -939.079
        44.950
 133161320.376 8                  25339730.700
     -2089.303                          48.750                    99438748.547 8
  25339733.620       -1560.176          50.750   102032789.749 8  25339730.980
     -1600.889          49.650   100735757.338 8  25339732.660       -1580.528
        53.200
 139883421.067 7                  26618924.340
      1057.034                          45.200                   104458423.972 7
  26618925.100         789.394          46.150   107183411.164 7  26618922.100
       809.835          45.550   105820916.764 8  26618925.380         799.582
        48.800
 23 11 17 17 15  0.0000000  0 18G06G11G12G19G24G25G28G29G32E03E05E09
                                E12E24E25E26E31E33
 124009829.168 7  96631054.10547  23598281.620                    23598282.460
       899.775         701.125          44.800          44.750    92604765.062 7
  23598283.200         671.891          46.750


 128019795.718 7  99755675.72046  24361354.180                    24361352.600
      2534.082        1974.609          43.600          40.250    95599215.719 7
  24361355.820        1892.438          46.200


 106417025.854 8  82922437.23248  20250452.640                    20250449.460
      -858.685        -669.104          51.050          51.000



 126565922.242 7  98622832.12046  24084673.080                    24084667.240
     -3272.998       -2550.387          43.550          38.500



 117101322.111 8  91247833.65948  22283621.040                    22283620.060
     -3066.750       -2389.676          48.400          48.250    87445858.000 8
  22283622.200       -2290.224          52.000


 107188142.118 8  83523294.57548  20397201.480                    20397200.860
      1659.391        1293.033          51.550          51.650    80043180.860 9
  20397202.080        1239.154          55.000


 127836204.464 7  99612656.09246  24326410.120                    24326409.900
      3434.857        2676.518          42.350          40.900    95462136.605 7
  24326412.900        2564.897          43.850


 126856798.114 6  98849492.71446  24140028.580                    24140029.240
      3819.728        2976.418          41.500          41.800



 115994388.617 8  90385285.89447  22072986.880                    22072986.340
       691.573         538.890          51.650          47.200    86619225.463 8
  22072985.440         516.477          51.000


 134590252.726 8                  25611661.700
      1238.771                          49.300                   100505760.822 8
  25611664.280         925.044          48.950   103127636.796 8  25611661.080
       949.162          49.000   101816698.502 8  25611663.380         937.108
        52.150
 121435729.369 8                  23108434.740
     -1560.514                          51.700                    90682591.711 8
  23108438.200       -1165.322          51.600    93048215.323 8  23108435.120
     -1195.745          52.650    91865398.709 9  23108436.860       -1180.535
        55.200
 143106021.081 7                  27232161.660
     -3227.772                          45.050                   106864936.053 7
  27232167.100       -2410.309          44.500   109652702.097 7  27232163.280
     -2473.149          43.900   108258819.765 7  27232164.920       -2441.738
        47.250
 145570070.143 6                  27701063.200
      2908.869                          40.050                   108704928.916 6
  27701064.580        2172.169          41.900   111540693.411 6  27701059.800
      2228.902          38.950   110122813.349 7  27701062.920        2200.631
        43.950
 122863220.932 8                  23380064.860
       -20.587                          52.550                    91748597.572 9
  23380065.600         -15.373          54.450    94142021.986 9  23380063.440
       -15.779          55.200    92945307.968 9  23380065.040         -15.535
        57.950
 134892251.159 8                  25669122.080
      2133.262                          48.950                   100731302.022 7
  25669127.180        1593.035          47.800   103359062.405 8  25669123.900
      1634.603          49.550   102045182.909 8  25669125.160        1613.766
        51.700
 146584298.423 7                  27894059.560
     -1254.767                          42.550                   109462321.257 6
  27894059.620        -936.980          41.100   112317847.087 7  27894060.060
      -961.456          42.650   110890086.359 7  27894060.380        -949.191
        45.100
 133224045.788 8                  25351666.920
     -2092.348                          49.450                    99485588.952 8
  25351670.020       -1562.476          50.700   102080852.081 8  25351667.400
     -1603.233          49.950   100783208.707 8  25351668.980       -1582.830
        53.600
 139851919.807 7                  26612929.600
      1043.254                          44.750                   104434900.343 7
  26612930.740         778.890          46.400   107159273.853 7  26612927.380
       799.138          45.100   105797086.285 8  26612930.700         789.127
        49.150
 23 11 17 17 15 30.0000000  0 18G06G11G12G19G24G25G28G29G32E03E05E09
                                E12E24E25E26E31E33
 123983115.997 7  96610238.68247  23593198.500                    23593199.040
       881.208         686.657          45.400          45.400    92584816.960 7
  23593199.520         658.054          47.050


 127943921.177 7  99696552.76146  24346915.660                    24346913.920
      2524.173        1966.892          43.100          40.550    95542556.198 7
  24346917.740        1885.063          46.300


 106442998.391 8  82942675.58948  20255395.040                    20255391.760
      -872.684        -680.013          50.800          50.900



 126664254.828 7  98699454.91246  24103384.980                    24103379.540
     -3282.149       -2557.521          44.050          38.050



 117193466.696 7  91319634.63147  22301155.600                    22301154.760
     -3075.832       -2396.753          47.800          47.600    87514667.252 8
  22301156.780       -2296.928          51.850


 107138560.679 8  83484659.73348  20387766.300                    20387766.140
      1646.195        1282.750          51.600          51.750    80006155.809 9
  20387767.120        1229.222          55.100


 127733196.178 6  99532390.06746  24306808.020                    24306808.000
      3432.623        2674.779          41.600          39.800    95385215.008 7
  24306810.760        2563.305          43.750


 126742264.285 7  98760245.69147  24118233.300                    24118234.040
      3815.792        2973.349          42.600          42.350



 115973938.402 8  90369350.68447  22069095.320                    22069094.900
       671.723         523.421          51.500          47.800    86603954.224 8
  22069093.800         501.631          51.000


 134553290.963 8                  25604628.240
      1225.663                          49.700                   100478159.551 8
  25604630.460         915.182          48.800   103099315.488 8  25604627.860
       939.058          49.250   101788737.206 8  25604629.780         927.182
        51.950
 121482737.348 8                  23117380.000
     -1573.169                          52.000                    90717695.074 8
  23117383.320       -1174.800          51.300    93084234.424 8  23117380.260
     -1205.491          52.250    91900959.940 9  23117382.160       -1190.126
        54.700
 143202880.512 7                  27250593.500
     -3229.562                          44.750                   106937266.146 7
  27250599.060       -2411.702          44.300   109726919.076 7  27250594.700
     -2474.585          43.550   108332093.302 7  27250596.740       -2443.151
        46.850
 145482857.424 6                  27684467.260
      2905.559                          40.350                   108639802.596 6
  27684468.900        2169.618          41.400   111473868.127 6  27684463.400
      2226.121          39.250   110056837.564 7  27684466.660        2197.766
        43.550
 122863957.094 8                  23380205.060
       -28.328                          52.450                    91749147.331 9
  23380205.720         -21.158          54.600    94142586.082 9  23380203.640
       -21.716          55.150    92945864.896 9  23380205.100         -21.436
        57.800
 134828324.057 8                  25656957.100
      2128.649                          49.450                   100683564.332 8
  25656962.300        1589.545          48.100   103310079.383 8  25656958.780
      1631.006          49.300   101996822.555 8  25656960.260        1610.257
        51.650
 146622149.598 7                  27901262.560
     -1268.425                          42.650                   109490586.787 6
  27901262.640        -947.230          41.050   112346849.979 7  27901263.240
      -971.796          42.350   110918720.575 7  27901263.280        -959.553
        44.650
 133286866.434 8                  25363621.400
     -2095.634                          49.600                    99532500.468 8
  25363624.520       -1564.909          50.700   102128987.388 8  25363622.020
     -1605.795          49.900   100830732.122 8  25363623.400       -1585.354
        53.350
 139820839.812 7                  26607015.060
      1028.802                          44.950                   104411691.271 7
  26607016.800         768.348          46.850   107135459.311 7  26607012.840
       788.389          45.350   105773574.488 8  26607016.140         778.364
        49.200
 23 11 17 17 16  0.0000000  0 18G06G11G12G19G24G25G28G29G32E03E05E09
                                E12E24E25E26E31E33
 123956957.250 7  96589855.27647  23588220.680                    23588221.120
       862.745         672.271          44.850          44.750    92565282.860 7
  23588221.480         644.291          46.750


 127868338.922 7  99637657.51846  24332532.560                    24332530.900
      2514.504        1959.354          42.650          40.950    95486114.947 7
  24332535.220        1877.772          46.600


 106469391.365 8  82963241.55748  20260417.460                    20260414.140
      -886.652        -690.897          50.700          50.650



 126762863.272 7  98776292.68746  24122149.420                    24122144.260
     -3291.363       -2564.698          43.100          38.650



 117285878.373 7  91391643.71447  22318740.880                    22318740.320
     -3084.545       -2403.542          46.600          46.450    87583675.955 8
  22318741.980       -2303.551          51.450


 107089374.759 8  83446333.07848  20378406.460                    20378406.560
      1633.287        1272.692          50.900          50.900    79969426.108 9
  20378407.520        1219.504          55.150


 127630251.126 6  99452173.29346  24287217.900                    24287217.880
      3430.782        2673.341          40.900          40.250    95308340.653 7
  24287220.900        2561.767          44.150


 126627853.323 7  98671094.39147  24096461.600                    24096462.260
      3811.787        2970.227          42.200          42.250



 115954079.923 8  90353876.56447  22065316.300                    22065316.040
       652.203         508.211          51.200          47.650    86589124.866 8
  22065314.820         486.946          51.050


 134516723.754 8                  25597669.860
      1212.417                          49.550                   100450852.898 8
  25597671.880         905.413          48.750   103071296.492 8  25597669.780
       929.065          49.550   101761074.386 8  25597671.300         917.231
        52.050
 121530126.007 8                  23126397.620
     -1585.800                          51.300                    90753082.707 8
  23126400.880       -1184.241          51.200    93120545.201 8  23126397.820
     -1215.099          52.150    91936809.145 9  23126399.880       -1199.686
        54.650
 143299793.882 7                  27269035.600
     -3231.122                          44.150                   107009636.498 7
  27269041.540       -2412.922          44.800   109801177.378 7  27269036.700
     -2475.995          43.750   108405407.633 7  27269038.820       -2444.509
        47.150
 145395748.464 6                  27667890.980
      2902.310                          40.000                   108574753.748 6
  27667892.580        2167.118          41.300   111407122.363 6  27667887.100
      2223.515          39.050   109990940.245 7  27667890.320        2195.384
        43.400
 122864923.508 8                  23380389.040
       -36.008                          51.950                    91749869.013 9
  23380389.760         -26.835          54.600    94143326.591 9  23380387.620
       -27.566          55.100    92946595.994 9  23380388.960         -27.213
        57.750
 134764534.868 8                  25644818.400
      2124.035                          49.150                   100635929.625 8
  25644823.700        1586.132          48.300   103261202.025 8  25644820.000
      1627.549          49.200   101948566.522 8  25644821.560        1606.841
        51.700
 146660407.207 7                  27908542.820
     -1282.016                          42.400                   109519155.789 6
  27908543.580        -957.305          41.000   112376164.261 6  27908543.400
      -982.285          41.800   110947662.216 7  27908543.500        -969.766
        44.350
 133349784.364 8                  25375594.440
     -2098.762                          48.900                    99579484.636 8
  25375597.340       -1567.296          50.250   102177197.234 8  25375594.880
     -1608.125          49.850   100878329.125 8  25375596.360       -1587.705
        53.100
 139790184.859 7                  26601181.540
      1014.759                          44.700                   104388799.619 7
  26601183.840         757.822          46.900   107111970.467 7  26601179.260
       777.652          45.300   105750384.236 8  26601182.520         767.726
        49.200
 23 11 17 17 16 30.0000000  0 18G06G11G12G19G24G25G28G29G32E03E05E09
                                E12E24E25E26E31E33
 123931354.659 7  96569905.24047  23583348.520                    23583348.980
       844.022         657.681          44.500          44.600    92546164.078 7
  23583349.320         630.246          46.650


 127793052.304 7  99578992.65846  24318205.780                    24318204.100
      2504.527        1951.581          42.050          39.400    95429894.464 7
  24318209.120        1870.272          46.650


 106496203.925 8  82984134.48548  20265519.700                    20265516.400
      -900.873        -701.979          50.550          50.600



 126861745.054 7  98853343.43346  24140965.900                    24140961.080
     -3300.867       -2572.105          43.150          38.550



 117378555.955 7  91463860.00147  22336376.680                    22336376.520
     -3093.756       -2410.719          46.500          46.300    87652883.226 8
  22336377.640       -2310.293          51.300


 107040585.217 8  83408315.28748  20369122.100                    20369122.200
      1619.460        1261.917          50.400          50.350    79932992.383 9
  20369123.360        1209.393          55.250


 127527371.305 6  99372007.37346  24267640.240                    24267640.300
      3428.382        2671.472          40.250          40.150    95231514.985 7
  24267643.500        2559.970          44.650


 126513567.916 7  98582040.95947  24074713.900                    24074714.580
      3807.280        2966.715          42.800          42.850



 115934814.330 8  90338864.44447  22061650.100                    22061649.960
       632.141         492.578          51.300          47.750    86574738.239 8
  22061648.700         472.096          51.150


 134480552.454 8                  25590786.780
      1199.058                          49.900                   100423841.898 8
  25590788.760         895.399          48.750   103043580.861 8  25590786.920
       918.786          49.750   101733711.070 8  25590788.180         907.060
        52.100
 121577894.550 8                  23135487.560
     -1598.677                          51.100                    90788754.020 8
  23135490.760       -1193.817          51.050    93157147.070 8  23135487.740
     -1224.943          52.000    91972945.733 9  23135489.900       -1209.374
        54.350
 143396759.807 7                  27287487.440
     -3233.063                          43.700                   107082046.103 7
  27287493.360       -2414.323          43.900   109875475.908 7  27287488.600
     -2477.437          43.850   108478761.693 7  27287490.900       -2445.774
        46.600
 145308745.792 6                  27651334.900
      2898.304                          38.700                   108509784.297 6
  27651336.580        2164.218          41.800   111340458.032 6  27651331.100
      2220.729          39.200   109925123.360 7  27651334.240        2192.521
        43.650
 122866120.109 8                  23380616.740
       -43.827                          51.850                    91750762.600 9
  23380617.600         -32.692          54.650    94144243.483 9  23380615.340
       -33.573          55.150    92947501.232 9  23380616.640         -33.127
        57.750
 134700884.063 8                  25632706.040
      2119.245                          49.400                   100588398.244 8
  25632711.280        1582.648          48.700   103212430.692 8  25632707.420
      1623.886          49.350   101900415.165 8  25632709.160        1603.247
        51.850
 146699070.431 6                  27915900.260
     -1295.615                          41.700                   109548027.691 6
  27915901.260        -967.516          41.600   112405789.333 6  27915900.400
      -992.686          41.550   110976910.706 7  27915900.860        -980.109
        44.500
 133412799.294 8                  25387585.580
     -2102.228                          48.450                    99626541.226 8
  25387588.420       -1569.769          50.000   102225481.387 8  25387586.140
     -1610.734          50.000   100925999.499 8  25387587.760       -1590.281
        52.950
 139759956.290 7                  26595429.220
      1000.508                          44.600                   104366226.378 7
  26595431.920         747.015          46.950   107088808.357 7  26595426.560
       766.506          44.950   105727516.563 8  26595430.140         756.715
        48.950
 23 11 17 17 17  0.0000000  0 18G06G11G12G19G24G25G28G29G32E03E05E09
                                E12E24E25E26E31E33
 123906309.076 7  96550389.21947  23578582.440                    23578583.040
       825.396         643.166          43.950          44.100    92527461.227 7
  23578583.380         616.203          47.050


 127718063.720 7  99520560.00946  24303935.720                    24303933.980
      2494.491        1943.760          42.300          37.600    95373896.544 7
  24303939.540        1862.609          46.750


 106523434.584 8  83005353.19248  20270701.440                    20270698.200
      -914.946        -712.944          50.300          50.550



 126960896.764 7  98930604.50346  24159833.760                    24159829.240
     -3310.000       -2579.223          42.650          39.400



 117471497.377 7  91536281.86847  22354062.640                    22354062.820
     -3102.698       -2417.687          46.750          46.850    87722287.521 8
  22354063.540       -2316.984          51.400


 106992191.953 8  83370606.27648  20359913.140                    20359913.020
      1606.116        1251.520          50.600          50.750    79896854.593 9
  20359914.560        1199.400          55.450


 127424557.719 6  99291893.02146  24248075.300                    24248075.040
      3425.531        2669.247          41.050          40.100    95154738.751 7
  24248079.000        2558.217          45.350


 126399409.609 7  98493086.53947  24052990.280                    24052990.840
      3802.853        2963.266          42.800          42.950



 115916141.723 8  90324314.38847  22058096.820                    22058096.720
       612.104         476.966          51.600          47.600    86560794.432 8
  22058095.520         457.220          51.400


 134444777.513 8                  25583979.140
      1185.571                          50.050                   100397126.886 8
  25583981.120         885.320          48.950   103016168.943 8  25583979.480
       908.396          50.150   101706647.603 8  25583980.500         896.878
        52.350
 121626041.282 8                  23144649.420
     -1611.520                          51.600                    90824707.746 8
  23144652.480       -1203.427          51.150    93194038.713 8  23144649.600
     -1234.795          52.100    92009368.424 9  23144651.880       -1219.170
        54.550
 143493775.899 7                  27305948.940
     -3234.990                          43.900                   107154493.140 7
  27305955.080       -2415.748          44.050   109949812.863 7  27305950.100
     -2478.784          42.600   108552153.699 7  27305952.340       -2447.305
        46.350
 145221850.840 6                  27634799.220
      2894.541                          39.400                   108444895.278 6
  27634800.960        2161.328          41.650   111273876.252 6  27634795.600
      2217.863          39.300   109859387.961 7  27634798.540        2189.514
        43.650
 122867545.847 8                  23380888.020
       -51.645                          52.150                    91751827.303 9
  23380889.000         -38.572          54.800    94145335.954 9  23380886.580
       -39.588          55.300    92948579.822 9  23380887.900         -39.089
        57.900
 134637371.176 8                  25620619.920
      2114.513                          49.600                   100540969.872 8
  25620625.020        1578.966          48.900   103163765.039 8  25620621.180
      1620.212          49.300   101852368.150 8  25620623.000        1599.604
        52.000
 146738137.600 7                  27923334.500
     -1309.416                          42.350                   109577201.224 6
  27923335.840        -977.645          41.400   112435723.931 6  27923334.080
     -1003.216          41.850   111006464.767 7  27923335.260        -990.311
        44.600
 133475910.003 8                  25399594.740
     -2105.647                          48.550                    99673669.345 8
  25399597.820       -1572.391          49.950   102273838.937 8  25399595.500
     -1613.405          50.300   100973742.336 8  25399597.360       -1592.917
        53.050
 139730154.571 7                  26589758.200
       985.935                          45.350                   104343971.883 7
  26589761.100         736.164          47.200   107065973.294 7  26589755.160
       755.496          45.100   105704971.780 8  26589758.980         745.835
        49.150
 23 11 17 17 17 30.0000000  0 18G06G11G12G19G24G25G28G29G32E03E05E09
                                E12E24E25E26E31E33
 123881821.291 7  96531307.85347  23573922.540                    23573923.360
       807.201         628.990          43.850          43.850    92509174.904 7
  23573923.840         602.883          47.800


 127643375.514 6  99462361.39746  24289722.880                    24289720.960
      2484.902        1936.286          41.750          40.600    95318122.908 7
  24289727.020        1855.588          46.300


 106551081.414 8  83026896.17648  20275962.400                    20275959.080
      -928.208        -723.279          50.200          50.500



 127060315.109 7  99008073.36446  24178752.360                    24178748.340
     -3318.104       -2585.535          42.200          40.300



 117564700.555 7  91608907.70247  22371798.540                    22371798.840
     -3110.835       -2424.027          46.800          46.550    87791887.283 8
  22371799.360       -2323.011          51.350


 106944194.900 8  83333206.00848  20350779.600                    20350779.240
      1593.538        1241.720          51.050          50.950    79861012.673 9
  20350780.940        1190.042          55.250


 127321811.373 6  99211831.08346  24228523.220                    24228522.780
      3424.068        2668.110          40.350          39.600    95078012.752 7
  24228527.460        2556.909          45.850


 126285380.444 7  98404232.76547  24031291.340                    24031291.620
      3799.132        2960.366          43.850          43.800



 115898062.233 8  90310226.49847  22054656.420                    22054656.240
       593.053         462.120          51.650          47.350    86547293.544 8
  22054655.240         442.867          51.350


 134409399.403 8                  25577246.980
      1172.878                          50.100                   100370708.195 8
  25577249.120         875.878          49.000   102989061.069 8  25577247.460
       898.749          50.250   101679884.324 8  25577248.320         887.300
        52.350
 121674564.482 8                  23153882.960
     -1623.385                          50.750                    90860942.594 8
  23153886.180       -1212.314          51.150    93231218.812 8  23153883.240
     -1243.911          52.050    92046075.894 9  23153885.480       -1228.104
        54.450
 143590839.880 7                  27324419.600
     -3235.866                          44.200                   107226975.971 7
  27324425.780       -2416.446          44.350   110024186.565 7  27324420.340
     -2479.476          43.700   108625581.961 7  27324423.120       -2447.951
        46.700
 145135065.151 6                  27618284.240
      2891.388                          38.600                   108380087.842 6
  27618286.000        2159.047          41.150   111207378.161 6  27618281.020
      2215.470          39.700   109793735.198 7  27618283.580        2187.145
        43.400
 122869199.704 8                  23381202.740
       -58.621                          52.400                    91753062.351 9
  23381203.740         -43.766          54.700    94146603.217 9  23381201.200
       -44.928          55.350    92949830.976 9  23381202.560         -44.361
        57.800
 134573995.798 8                  25608559.880
      2110.517                          49.550                   100493644.165 8
  25608564.860        1575.987          48.950   103115204.739 8  25608561.140
      1617.144          49.350   101804425.147 8  25608562.980        1596.521
        51.950
 146777606.971 7                  27930845.320
     -1321.888                          42.100                   109606675.172 6
  27930847.020        -987.289          41.650   112465966.730 6  27930844.480
     -1013.044          41.900   111036323.143 7  27930845.860       -1000.188
        44.600
 133539115.265 8                  25411622.180
     -2108.048                          49.250                    99720868.074 8
  25411625.360       -1574.188          49.700   102322268.931 8  25411622.900
     -1615.226          50.600   101021556.696 8  25411624.920       -1594.705
        52.950
 139700780.050 7                  26584168.660
       972.354                          45.300                   104322036.399 7
  26584171.400         726.063          47.150   107043465.580 7  26584165.380
       745.064          45.650   105682750.183 8  26584169.160         735.569
        49.300
 23 11 17 17 18  0.0000000  0 18G06G11G12G19G24G25G28G29G32E03E05E09
                                E12E24E25E26E31E33
 123857896.079 7  96512664.85747  23569369.560                    23569370.600
       788.502         614.420          43.850          43.750    92491308.707 8
  23569371.580         588.729          48.800


 127568994.019 6  99404401.81746  24275568.420                    24275566.620
      2474.390        1928.097          41.600          38.200    95262578.306 7
  24275572.760        1847.812          46.250


 106579147.227 8  83048765.64648  20281303.140                    20281299.580
      -942.196        -734.179          50.350          50.350



 127160001.025 7  99085750.73046  24197721.980                    24197717.800
     -3326.947       -2592.424          42.350          37.750



 117658167.425 7  91681739.01747  22389584.680                    22389585.200
     -3119.770       -2430.989          46.950          46.900    87861683.958 8
  22389585.620       -2329.687          51.600


 106896597.997 8  83296117.54748  20341722.220                    20341721.720
      1580.197        1231.323          51.050          50.850    79825469.567 9
  20341723.380        1180.046          55.250


 127219137.313 6  99131825.44546  24208985.020                    24208984.360
      3421.584        2666.172          41.400          40.000    95001340.715 7
  24208989.600        2554.982          46.650


 126171486.235 7  98315484.15147  24009617.960                    24009618.420
      3794.431        2956.703          44.000          43.950



 115880579.923 8  90296603.94747  22051329.660                    22051329.300
       573.117         446.586          51.300          47.500    86534238.610 8
  22051328.640         427.929          51.450


 134374422.538 8                  25570591.160
      1159.366                          50.250                   100344589.143 8
  25570593.480         865.774          49.200   102962260.648 8  25570591.660
       888.410          50.100   101653424.585 8  25570592.480         877.105
        52.650
 121723466.418 8                  23163188.660
     -1636.147                          51.250                    90897460.269 8
  23163191.740       -1221.833          51.350    93268689.126 8  23163188.940
     -1253.718          51.900    92083069.889 9  23163191.180       -1237.773
        54.700
 143687953.430 7                  27342899.860
     -3237.729                          44.150                   107299495.818 7
  27342905.860       -2417.750          44.600   110098598.234 7  27342900.060
     -2480.755          42.300   108699047.723 7  27342903.260       -2449.264
        46.700
 145048394.238 6                  27601791.020
      2887.127                          38.550                   108315366.109 6
  27601792.720        2156.007          41.200   111140968.043 6  27601788.420
      2212.388          39.850   109728169.267 7  27601790.640        2184.148
        43.800
 122871084.701 8                  23381561.500
       -66.443                          52.100                    91754470.004 9
  23381562.420         -49.634          54.800    94148047.586 9  23381559.820
       -50.939          55.200    92951256.986 9  23381561.220         -50.280
        58.000
 134510761.467 8                  25596526.700
      2105.764                          49.150                   100446423.779 8
  25596531.360        1572.479          48.950   103066752.516 8  25596527.960
      1613.466          49.050   101756588.839 8  25596529.800        1592.949
        52.100
 146817480.874 6                  27938433.140
     -1335.525                          41.650                   109636451.143 6
  27938434.760        -997.254          41.550   112496519.489 6  27938431.640
     -1023.354          40.850   111066487.506 7  27938433.520       -1010.276
        44.500
 133602417.850 8                  25423668.440
     -2111.476                          49.250                    99768139.487 8
  25423671.440       -1576.726          49.550   102370773.510 8  25423668.960
     -1617.883          50.400   101069444.693 8  25423670.980       -1597.309
        53.050
 139671837.185 7                  26578661.340
       957.882                          45.850                   104300423.258 7
  26578663.840         715.257          47.200   107021288.620 7  26578658.240
       733.941          46.000   105660855.130 8  26578661.500         724.605
        49.800
 23 11 17 17 18 30.0000000  0 18G06G11G12G19G24G25G28G29G32E03E05E09
                                E12E24E25E26E31E33
 123834528.051 7  96494456.02447  23564922.820                    23564923.480
       769.344         599.489          44.800          44.650    92473858.611 8
  23564925.180         574.540          48.300


 127494915.507 6  99346678.31846  24261471.540                    24261470.020
      2463.793        1919.840          41.100          37.150    95207259.982 7
  24261476.280        1839.851          45.550


 106607623.042 8  83070954.59148  20286721.920                    20286718.240
      -956.288        -745.159          50.500          50.300



 127259944.865 7  99163629.02646  24216740.620                    24216736.620
     -3336.202       -2599.639          42.600          37.100



 117751889.790 7  91754769.42347  22407419.560                    22407420.040
     -3128.710       -2437.956          47.200          47.200    87931671.428 8
  22407420.440       -2336.321          51.600


 106849395.051 8  83259336.06748  20332739.840                    20332739.300
      1566.679        1220.790          51.150          51.050    79790220.664 9
  20332740.880        1169.840          55.050


 127116530.475 6  99051872.20246  24189459.540                    24189459.000
      3418.988        2664.151          41.750          41.100    94924718.899 7
  24189464.580        2552.981          47.200


 126057722.628 7  98226837.28347  23987969.460                    23987969.860
      3789.641        2952.969          43.650          43.500



 115863688.830 8  90283442.07847  22048115.320                    22048114.760
       552.878         430.814          51.250          46.800    86521625.155 8
  22048114.440         412.804          51.250


 134339841.270 8                  25564010.580
      1145.727                          50.050                   100318765.502 8
  25564012.980         855.627          49.050   102935763.353 8  25564010.980
       877.870          50.250   101627264.120 8  25564011.920         866.755
        52.400
 121772739.281 8                  23172565.060
     -1648.866                          51.200                    90934254.924 8
  23172568.300       -1231.310          51.350    93306443.641 8  23172565.280
     -1263.479          52.050    92120344.471 9  23172567.460       -1247.377
        54.450
 143785108.110 7                  27361387.760
     -3239.479                          43.900                   107372046.375 7
  27361393.780       -2419.100          43.550   110173041.423 7  27361387.880
     -2482.142          42.550   108772544.592 7  27361391.340       -2450.612
        45.850
 144961833.609 6                  27585318.900
      2883.052                          38.600                   108250726.713 6
  27585320.500        2153.096          41.250   111074642.385 6  27585316.460
      2209.303          39.100   109662686.753 7  27585318.720        2181.099
        43.200
 122873193.778 8                  23381962.800
       -74.357                          51.850                    91756044.988 9
  23381963.720         -55.527          54.600    94149663.648 9  23381961.100
       -56.953          55.450    92952852.509 9  23381962.540         -56.250
        57.800
 134447661.639 8                  25584519.060
      2100.813                          48.900                   100399303.840 8
  25584523.520        1568.813          48.750   103018403.352 8  25584520.400
      1609.643          49.150   101708854.286 8  25584522.260        1589.264
        51.800
 146857751.467 7                  27946096.520
     -1349.239                          43.350                   109666523.372 6
  27946097.840       -1007.641          41.150   112527376.199 6  27946094.480
     -1033.860          41.500   111096951.984 7  27946096.820       -1020.822
        44.250
 133665810.476 8                  25435731.800
     -2114.897                          49.700                    99815478.144 8
  25435734.600       -1579.320          49.150   102419347.082 8  25435732.140
     -1620.507          50.550   101117400.805 8  25435734.140       -1599.904
        52.700
 139643320.223 7                  26573234.960
       943.194                          46.000                   104279128.152 7
  26573237.080         704.235          46.650   106999438.003 7  26573232.300
       722.683          46.700   105639282.269 8  26573235.000         713.475
        49.500
 23 11 17 17 19  0.0000000  0 18G06G11G12G19G24G25G28G29G32E03E05E09
                                E12E24E25E26E31E33
 123811724.668 7  96476687.17347  23560583.700                    23560583.820
       750.822         585.057          45.350          45.250    92456830.144 7
  23560585.800         560.667          47.750


 127421149.040 6  99289198.00546  24247434.100                    24247432.960
      2453.888        1912.126          40.500          40.000    95152174.700 7
  24247439.260        1832.320          45.400


 106636514.297 8  83093467.25948  20292219.780                    20292216.180
      -969.930        -755.789          50.700          50.500



 127360149.983 7  99241710.95746  24235809.040                    24235804.740
     -3344.430       -2606.049          42.100          37.950



 117845872.281 7  91828002.52147  22425303.960                    22425304.400
     -3136.886       -2444.326          47.350          47.500    88001853.143 8
  22425304.900       -2342.525          51.550


 106802592.712 8  83222866.73848  20323833.680                    20323833.100
      1553.455        1210.484          51.050          51.350    79755270.889 9
  20323834.740        1160.082          55.250


 127013998.737 7  98971977.44346  24169948.480                    24169947.940
      3416.396        2662.130          42.450          41.100    94848153.102 7
  24169953.720        2551.318          47.700


 125944098.086 7  98138298.78947  23966347.340                    23966347.680
      3785.163        2949.481          43.400          43.750



 115847395.682 8  90270746.13747  22045014.680                    22045013.960
       533.274         415.539          50.600          46.650    86509458.219 8
  22045013.960         398.230          51.300


 134305662.735 8                  25557506.540
      1132.704                          49.750                   100293242.607 8
  25557509.000         845.812          49.150   102909574.638 8  25557506.860
       867.929          50.100   101601408.316 8  25557507.980         856.887
        52.550
 121822388.007 8                  23182013.120
     -1661.023                          51.300                    90971330.266 8
  23182016.200       -1240.351          51.400    93344486.164 8  23182013.180
     -1272.721          51.950    92157903.405 9  23182015.300       -1256.559
        54.550
 143882308.328 7                  27379884.180
     -3240.583                          43.750                   107444630.918 7
  27379890.240       -2419.953          43.350   110247519.480 7  27379884.540
     -2483.146          42.750   108846075.898 7  27379887.980       -2451.598
        46.000
 144875391.468 6                  27568869.160
      2879.491                          38.650                   108186175.830 6
  27568870.860        2150.284          40.400   111008407.531 6  27568867.140
      2206.481          40.500   109597293.874 7  27568869.120        2178.382
        43.200
 122875532.592 8                  23382407.680
       -81.705                          51.650                    91757791.516 9
  23382408.680         -60.970          54.750    94151455.740 9  23382406.140
       -62.580          55.550    92954621.818 9  23382407.580         -61.757
        57.950
 134384702.615 8                  25572538.220
      2096.372                          48.550                   100352289.031 8
  25572542.440        1565.514          48.850   102970162.058 8  25572539.640
      1606.327          49.150   101661226.241 8  25572541.480        1585.858
        51.950
 146898423.718 7                  27953836.400
     -1362.300                          43.250                   109696895.519 6
  27953837.320       -1017.308          41.000   112558540.673 6  27953834.200
     -1043.869          41.800   111127720.290 7  27953836.480       -1030.562
        44.400
 133729298.688 8                  25447813.360
     -2117.832                          49.650                    99862888.164 8
  25447816.080       -1581.436          49.500   102467993.885 8  25447813.700
     -1622.672          50.650   101165429.217 8  25447815.480       -1602.032
        52.900
 139615236.270 7                  26567890.900
       929.140                          46.650                   104258156.379 7
  26567892.380         693.781          46.600   106977919.157 7  26567888.740
       711.885          46.700   105618036.961 8  26567890.980         702.838
        49.600
 23 11 17 17 19 30.0000000  0 18G06G11G12G19G24G25G28G29G32E03E05E09
                                E12E24E25E26E31E33
 123789483.442 7  96459356.36847  23556351.480                    23556351.200
       732.128         570.490          45.950          45.800    92440221.474 7
  23556353.180         546.813          47.100


 127347693.820 6  99231960.20446  24233456.000                    24233455.500
      2443.486        1904.018          41.200          40.400    95097321.804 7
  24233461.540        1824.612          45.400


 106665816.138 8  83116299.87148  20297795.820                    20297792.300
      -983.343        -766.241          50.750          50.800



 127460609.876 7  99319991.38346  24254925.940                    24254921.680
     -3352.569       -2612.395          42.100          38.500



 117940109.597 7  91901434.18447  22443236.840                    22443237.400
     -3145.288       -2450.874          47.500          47.250    88072225.157 8
  22443237.840       -2348.753          52.050


 106756187.627 8  83186706.95548  20315003.120                    20315002.520
      1540.450        1200.352          51.800          51.850    79720617.777 9
  20315004.140        1150.338          55.350


 126911539.821 7  98892139.42946  24150451.460                    24150450.640
      3414.368        2660.548          43.650          41.000    94771641.709 8
  24150456.600        2549.632          48.350


 125830611.280 7  98049867.61347  23944751.360                    23944751.660
      3780.698        2946.001          43.200          43.050



 115831697.312 8  90258513.66747  22042027.180                    22042026.420
       513.612         400.218          50.350          47.000    86497735.446 8
  22042026.560         383.543          51.350


 134271884.124 8                  25551078.580
      1119.574                          49.650                   100268018.359 8
  25551080.980         835.995          49.350   102883692.364 8  25551078.780
       857.832          49.700   101575855.058 8  25551080.120         846.892
        52.150
 121872407.653 8                  23191531.820
     -1673.199                          51.550                    91008682.592 8
  23191534.920       -1249.482          52.000    93382812.903 8  23191531.600
     -1282.099          51.500    92195742.941 9  23191533.720       -1265.851
        54.450
 143979548.561 7                  27398388.420
     -3241.714                          44.650                   107517245.343 7
  27398394.240       -2420.762          43.700   110322028.223 7  27398388.540
     -2483.927          42.100   108919637.482 7  27398392.240       -2452.398
        45.650
 144789066.146 6                  27552441.740
      2875.636                          38.600                   108121712.146 6
  27552443.180        2147.523          40.550   110942262.228 6  27552440.200
      2203.479          40.500   109531989.373 7  27552442.000        2175.592
        43.250
 122878096.915 8                  23382895.380
       -88.964                          51.600                    91759706.451 9
  23382896.560         -66.476          54.950    94153420.625 9  23382894.180
       -68.203          55.150    92956561.732 9  23382895.540         -67.351
        57.700
 134321880.713 8                  25560583.540
      2092.034                          48.300                   100305376.634 8
  25560587.540        1562.223          49.050   102922025.853 8  25560584.980
      1602.968          48.650   101613701.937 8  25560586.820        1582.622
        51.600
 146939492.663 7                  27961651.740
     -1375.229                          42.950                   109727563.927 6
  27961652.180       -1027.030          40.700   112590009.122 6  27961649.120
     -1053.852          40.700   111158788.714 7  27961651.640       -1040.458
        43.600
 133792877.998 8                  25459912.200
     -2120.592                          49.550                    99910366.227 8
  25459915.100       -1583.544          49.700   102516710.506 8  25459912.700
     -1624.894          50.150   101213526.560 8  25459914.140       -1604.240
        52.600
 139587582.484 7                  26562628.660
       914.866                          47.000                   104237505.852 7
  26562629.660         683.121          46.950   106956729.918 7  26562626.880
       701.016          45.950   105597117.077 8  26562628.780         692.008
        49.300
 23 11 17 17 20  0.0000000  0 18G06G11G12G19G24G25G28G29G32E03E05E09
                                E12E24E25E26E31E33
 123767809.865 7  96442467.87547  23552227.300                    23552226.640
       712.819         555.443          46.200          46.500    92424036.676 7
  23552228.160         532.277          45.600


 127274556.930 6  99174970.45446  24219538.620                    24219538.500
      2432.503        1895.460          41.950          40.900    95042706.639 7
  24219544.480        1816.343          45.450


 106695531.979 8  83139455.07648  20303450.680                    20303447.020
      -997.671        -777.405          51.150          51.000



 127561325.889 6  99398471.40746  24274091.560                    24274087.140
     -3361.706       -2619.513          41.950          37.950



 118034604.442 7  91975066.52847  22461218.720                    22461219.180
     -3154.305       -2457.900          47.600          47.500    88142789.487 8
  22461219.660       -2355.523          51.950


 106710184.521 8  83150860.40548  20306249.060                    20306248.460
      1526.447        1189.439          51.800          51.800    79686264.838 9
  20306249.940        1139.912          55.350


 126809159.670 7  98812362.78246  24130969.340                    24130968.340
      3411.141        2658.035          44.050          40.650    94695189.113 8
  24130974.340        2547.276          48.250


 125717268.928 7  97961548.99147  23923182.980                    23923183.120
      3775.510        2941.958          43.650          43.950



 115816598.539 8  90246748.41447  22039153.760                    22039153.120
       492.988         384.147          50.250          47.250    86486460.419 8
  22039153.180         368.195          51.250


 134238510.647 8                  25544727.700
      1105.581                          49.600                   100243096.648 8
  25544730.020         825.506          49.450   102858120.517 8  25544727.720
       847.094          49.500   101550608.273 8  25544729.340         836.318
        52.200
 121922801.225 8                  23201121.640
     -1686.144                          51.850                    91046314.154 8
  23201124.720       -1259.156          52.100    93421426.162 8  23201121.240
     -1292.043          51.350    92233865.352 9  23201123.340       -1275.630
        54.500
 144076831.280 7                  27416900.860
     -3243.614                          44.650                   107589891.523 7
  27416906.040       -2422.229          43.250   110396569.500 7  27416900.880
     -2485.479          42.000   108993231.198 7  27416904.600       -2453.731
        45.650
 144702864.047 6                  27536037.820
      2870.893                          39.400                   108057340.476 6
  27536039.320        2143.951          41.500   110876211.283 6  27536036.480
      2199.969          40.050   109466778.058 7  27536038.400        2172.132
        43.800
 122880890.566 8                  23383426.780
       -97.212                          51.750                    91761792.634 9
  23383428.160         -72.535          55.050    94155561.233 9  23383425.840
       -74.448          55.150    92958675.122 9  23383427.140         -73.489
        57.800
 134259200.321 7                  25548655.680
      2086.742                          47.950                   100258569.907 8
  25548659.700        1558.271          49.300   102873998.071 8  25548657.240
      1598.949          48.600   101566284.681 8  25548659.060        1578.651
        51.800
 146980961.344 7                  27969542.960
     -1389.199                          43.300                   109758530.820 7
  27969543.080       -1037.189          42.000   112621783.809 6  27969540.360
     -1064.442          40.900   111190159.511 7  27969542.600       -1050.788
        44.250
 133856552.080 8                  25472028.960
     -2124.221                          49.900                    99957915.050 8
  25472032.200       -1586.321          49.350   102565499.734 8  25472029.400
     -1627.675          49.900   101261695.582 8  25472030.920       -1606.987
        52.300
 139560363.997 7                  26557449.020
       899.759                          46.250                   104217180.379 7
  26557449.920         671.920          47.150   106935874.218 7  26557447.740
       689.414          46.000   105576526.488 8  26557449.300         680.686
        49.450
 23 11 17 17 20 30.0000000  0 18G06G11G12G19G24G25G28G29G32E03E05E09
                                E12E24E25E26E31E33
 123746700.659 7  96426019.14547  23548210.420                    23548209.600
       694.281         540.999          45.400          45.250    92408273.319 7
  23548210.220         518.293          45.200


 127201736.832 6  99118227.55546  24205681.500                    24205681.560
      2422.000        1887.272          41.350          41.100    94988328.023 7
  24205687.700        1808.602          45.550


 106725655.939 8  83162928.29748  20309183.180                    20309179.300
     -1010.983        -787.778          50.550          50.550



 127662290.867 6  99477145.44346  24293304.600                    24293300.060
     -3369.452       -2625.545          40.550          37.850



 118129350.808 7  92048894.85347  22479248.420                    22479248.940
     -3162.441       -2464.240          47.350          47.400    88213541.632 8
  22479249.460       -2361.613          51.850


 106664579.389 8  83115323.97048  20297570.740                    20297570.140
      1513.447        1179.311          51.650          51.650    79652209.081 9
  20297571.380        1130.182          55.150


 126706855.433 7  98732645.27346  24111501.480                    24111500.440
      3408.860        2656.258          43.800          39.900    94618793.198 8
  24111506.420        2545.564          48.000


 125604068.493 7  97873340.94047  23901641.640                    23901641.660
      3770.820        2938.303          44.050          44.200



 115802095.398 8  90235447.29348  22036393.700                    22036393.380
       473.500         368.962          49.600          48.050    86475630.183 8
  22036393.100         353.573          50.750


 134205538.781 8                  25538453.260
      1092.316                          49.350                   100218474.833 8
  25538455.480         815.740          49.200   102832856.394 8  25538453.100
       836.985          49.850   101525665.306 8  25538454.980         826.342
        52.200
 121973563.055 8                  23210781.480
     -1698.294                          51.250                    91084220.703 8
  23210784.620       -1268.182          52.150    93460321.584 8  23210780.860
     -1301.292          51.800    92272266.334 9  23210783.040       -1284.725
        54.650
 144174150.281 7                  27435419.920
     -3244.730                          43.950                   107662564.762 7
  27435425.140       -2423.020          42.750   110471138.553 7  27435420.180
     -2486.067          42.150   109066852.344 7  27435423.780       -2454.459
        45.250
 144616782.714 6                  27519656.840
      2867.478                          38.600                   107993059.032 6
  27519658.500        2141.004          41.000   110810252.907 6  27519655.580
      2197.021          41.550   109401658.159 7  27519657.540        2169.019
        43.950
 122883908.606 8                  23384000.980
      -104.340                          51.150                    91764046.383 9
  23384002.580         -77.944          54.950    94157873.775 9  23384000.120
       -79.998          55.600    92960958.272 9  23384001.440         -78.997
        57.850
 134196657.048 7                  25536753.960
      2082.488                          47.750                   100211865.578 8
  25536758.000        1555.073          49.250   102826075.358 8  25536755.600
      1595.698          48.900   101518971.160 8  25536757.400        1575.407
        51.850
 147022824.133 6                  27977509.140
     -1401.991                          41.950                   109789792.020 6
  27977509.260       -1046.977          41.150   112653860.537 6  27977506.560
     -1074.265          41.900   111221828.470 7  27977508.900       -1060.536
        44.350
 133920315.806 8                  25484162.780
     -2126.894                          49.150                   100005530.827 8
  25484165.980       -1588.349          48.800   102614357.653 8  25484163.160
     -1629.778          50.450   101309932.430 8  25484164.780       -1609.056
        52.250
 139533577.171 7                  26552351.340
       885.695                          45.650                   104197177.261 7
  26552352.500         661.338          47.250   106915349.282 7  26552350.620
       678.633          45.900   105556262.462 8  26552351.900         670.005
        49.450
 23 11 17 17 21  0.0000000  0 18G06G11G12G19G24G25G28G29G32E03E05E09
                                E12E24E25E26E31E33
 123726162.438 7  96410015.34647  23544301.980                    23544301.200
       674.639         525.693          44.800          44.650    92392936.332 7
  23544301.820         503.763          45.600


 127129241.786 6  99061737.95846  24191886.160                    24191886.240
      2410.821        1878.563          41.400          41.300    94934192.163 7
  24191892.560        1800.126          45.300


 106756192.223 8  83186722.80848  20314993.980                    20314990.140
     -1025.168        -798.832          50.400          50.300



 127763507.625 6  99556015.65446  24312565.500                    24312560.960
     -3378.543       -2632.631          40.850          38.600



 118224352.558 7  92122922.18347  22497326.740                    22497327.180
     -3171.314       -2471.154          47.750          47.600    88284484.490 8
  22497327.780       -2368.202          51.650


 106619378.057 8  83080102.17748  20288969.260                    20288968.660
      1499.533        1168.468          51.900          51.750    79618454.869 9
  20288969.700        1119.804          55.000


 126604634.178 7  98652992.46246  24092049.340                    24092048.300
      3405.660        2653.765          43.400          40.750    94542459.275 7
  24092054.240        2543.094          47.500


 125491017.798 7  97785249.58747  23880128.880                    23880128.540
      3765.438        2934.110          44.050          43.600



 115788193.845 8  90224614.94847  22033748.240                    22033748.160
       452.828         352.854          49.950          47.900    86465249.185 8
  22033747.500         338.199          50.400


 134172974.895 8                  25532256.520
      1078.180                          49.600                   100194157.683 8
  25532258.620         805.166          49.000   102807904.877 8  25532256.240
       826.163          49.900   101501030.974 8  25532258.220         815.654
        52.150
 122024697.314 8                  23220512.040
     -1711.107                          51.350                    91122405.378 8
  23220515.360       -1277.813          51.850    93499502.386 8  23220511.440
     -1311.116          51.800    92310949.073 9  23220513.620       -1294.451
        54.550
 144271509.172 7                  27453946.520
     -3246.387                          43.200                   107735267.794 7
  27453951.780       -2424.216          42.950   110545738.213 7  27453947.220
     -2487.442          42.800   109140503.699 7  27453950.620       -2455.821
        45.650
 144530829.751 6                  27503300.380
      2862.739                          38.800                   107928873.376 6
  27503301.800        2137.557          40.300   110744392.883 7  27503299.260
      2193.248          42.000   109336635.318 7  27503301.260        2165.419
        43.800
 122887156.029 8                  23384618.880
      -112.529                          51.300                    91766471.415 9
  23384620.700         -83.980          54.700    94160362.068 9  23384618.020
       -86.224          55.700    92963414.930 9  23384619.400         -85.097
        57.750
 134134256.461 8                  25524879.460
      2077.186                          48.000                   100165267.808 8
  25524883.660        1551.146          49.150   102778261.975 8  25524881.100
      1591.656          49.000   101471765.580 8  25524882.840        1571.450
        51.900
 147065085.184 7                  27985551.000
     -1415.727                          42.550                   109821350.612 6
  27985551.120       -1057.225          40.650   112686242.384 6  27985549.140
     -1084.900          41.850   111253798.692 7  27985550.800       -1071.133
        44.000
 133984173.985 8                  25496314.580
     -2130.615                          49.350                   100053217.144 8
  25496317.620       -1591.078          48.600   102663287.947 8  25496314.960
     -1632.557          50.600   101358240.734 8  25496316.500       -1611.749
        52.100
 139507228.357 7                  26547337.160
       870.492                          46.100                   104177501.219 7
  26547338.460         650.126          46.900   106895159.929 7  26547336.200
       667.051          44.950   105536329.769 8  26547337.800         658.603
        49.000
 23 11 17 17 21 30.0000000  0 18G06G11G12G19G24G25G28G29G32E03E05E09
                                E12E24E25E26E31E33
 123706190.820 7  96394453.06547  23540501.260                    23540500.560
       656.292         511.397          45.200          44.800    92378022.477 7
  23540501.920         490.232          45.800


 127057069.208 7  99005499.63547  24178152.320                    24178152.260
      2400.596        1870.596          42.550          42.200    94880297.089 7
  24178158.520        1792.571          45.200


 106787134.124 8  83210833.38248  20320881.980                    20320878.320
     -1037.941        -808.785          50.600          50.600



 127864967.787 6  99635075.53546  24331872.720                    24331867.960
     -3385.867       -2638.337          41.400          36.700



 118319602.648 7  92197143.03048  22515452.280                    22515452.500
     -3178.857       -2477.030          47.750          48.100    88355612.802 8
  22515453.340       -2373.886          51.750


 106574575.441 8  83045191.07048  20280443.640                    20280442.960
      1486.974        1158.682          51.700          51.600    79584998.409 9
  20280444.040        1110.361          55.200


 126502492.046 7  98573401.28846  24072611.980                    24072611.060
      3403.613        2652.170          42.850          41.700    94466184.424 7
  24072617.020        2541.755          47.400


 125378114.260 7  97697272.87247  23858644.140                    23858643.400
      3761.268        2930.860          44.600          44.600



 115774888.860 8  90214247.45347  22031216.400                    22031216.460
       433.746         337.985          50.400          47.950    86455313.675 8
  22031215.560         323.910          50.550


 134140814.406 8                  25526136.560
      1065.482                          49.850                   100170141.769 8
  25526138.600         795.609          49.150   102783262.453 8  25526136.260
       816.347          49.650   101476701.803 8  25526138.220         805.999
        52.350
 122076197.255 8                  23230312.120
     -1722.514                          50.950                    91160863.130 8
  23230315.640       -1286.369          52.050    93538963.382 8  23230311.600
     -1319.876          51.450    92349908.449 9  23230313.760       -1303.123
        54.800
 144368900.676 7                  27472479.720
     -3246.509                          43.850                   107807995.228 7
  27472484.380       -2424.494          42.750   110620362.874 7  27472480.380
     -2487.779          42.700   109214179.748 7  27472483.660       -2456.149
        45.750
 144445001.764 6                  27486967.760
      2858.973                          38.500                   107864781.063 6
  27486969.260        2135.044          41.550   110678628.603 6  27486966.600
      2190.525          41.550   109271707.023 7  27486968.880        2162.766
        44.650
 122890626.864 8                  23385279.340
      -119.218                          51.550                    91769063.288 9
  23385281.280         -89.040          54.700    94163021.550 9  23385278.500
       -91.346          55.400    92966040.613 9  23385279.900         -90.220
        58.000
 134071993.132 8                  25513031.200
      2073.404                          48.900                   100118772.535 8
  25513035.420        1548.220          49.550   102730553.775 8  25513032.700
      1588.615          48.650   101424663.848 8  25513034.400        1568.417
        52.100
 147107737.721 6                  27993667.240
     -1427.880                          41.850                   109853201.582 6
  27993667.380       -1066.545          39.000   112718924.219 6  27993665.760
     -1094.342          41.200   111286065.091 7  27993667.240       -1080.471
        43.000
 134048120.468 8                  25508483.120
     -2132.844                          48.850                   100100969.379 8
  25508486.380       -1592.697          48.850   102712285.891 8  25508483.520
     -1634.255          50.000   101406615.831 8  25508485.000       -1613.509
        52.300
 139481312.916 7                  26542405.520
       856.801                          45.900                   104158148.802 7
  26542406.800         639.763          46.950   106875302.637 7  26542403.860
       656.469          44.400   105516724.918 8  26542405.980         648.129
        49.050
 23 11 17 17 22  0.0000000  0 18G06G11G12G19G24G25G28G29G32E03E05E09
                                E12E24E25E26E31E33
 123686790.532 7  96379335.98747  23536809.160                    23536808.680
       636.982         496.351          44.700          44.700    92363535.267 7
  23536810.460         475.583          45.900


 126985225.545 7  98949517.61147  24164481.260                    24164480.900
      2388.901        1861.483          43.850          42.750    94826647.628 7
  24164486.640        1784.080          45.650


 106818484.060 8  83235261.90848  20326847.700                    20326844.220
     -1052.062        -819.789          51.150          51.250



 127966671.841 6  99714325.44146  24351226.300                    24351221.500
     -3394.398       -2644.984          41.250          38.200



 118415103.070 7  92271558.94147  22533625.440                    22533625.600
     -3187.880       -2484.062          47.400          47.350    88426928.042 8
  22533626.660       -2380.478          51.850


 106530175.567 8  83010593.78848  20271994.680                    20271993.940
      1473.004        1147.796          51.900          51.950    79551842.679 9
  20271995.080        1100.007          55.350


 126400434.275 7  98493875.86146  24053190.720                    24053189.900
      3400.303        2649.593          42.700          41.050    94389972.590 7
  24053195.840        2539.052          47.150


 125265363.285 7  97609415.02547  23837188.460                    23837187.340
      3755.585        2926.430          44.850          44.550



 115762184.470 8  90204347.96147  22028798.940                    22028799.040
       413.222         321.991          50.600          47.950    86445826.660 8
  22028798.000         308.587          50.650


 134109061.787 8                  25520094.240
      1051.254                          50.050                   100146430.431 8
  25520096.280         785.060          49.250   102758932.548 8  25520094.040
       805.528          49.850   101452681.180 8  25520095.820         795.287
        52.300
 122128065.215 8                  23240182.140
     -1735.331                          51.100                    91199595.693 8
  23240185.840       -1295.854          52.050    93578706.364 8  23240181.800
     -1329.615          51.550    92389146.219 9  23240183.940       -1312.737
        54.600
 144466326.656 7                  27491019.460
     -3248.339                          44.750                   107880748.359 7
  27491023.740       -2425.535          42.000   110695013.952 6  27491020.160
     -2489.028          41.700   109287881.851 7  27491023.200       -2457.307
        44.750
 144359304.259 6                  27470659.940
      2853.956                          38.850                   107800786.222 6
  27470661.620        2131.295          41.600   110612964.303 6  27470658.640
      2186.808          41.650   109206877.456 7  27470661.100        2159.073
        44.500
 122894324.215 8                  23385982.980
      -127.165                          51.400                    91771824.308 9
  23385984.760         -94.975          54.750    94165854.601 9  23385982.100
       -97.446          55.600    92968837.646 9  23385983.500         -96.230
        57.850
 134009870.770 8                  25501209.880
      2068.061                          49.500                   100072382.518 8
  25501214.180        1544.400          49.750   102682953.569 8  25501211.180
      1584.675          48.800   101377668.738 8  25501212.760        1564.522
        52.150
 147150784.134 6                  28001858.320
     -1441.730                          40.950                   109885346.648 6
  28001858.700       -1076.590          40.600   112751907.860 6  28001857.180
     -1104.540          40.950   111318629.449 7  28001858.540       -1090.676
        43.400
 134112158.177 8                  25520669.040
     -2136.379                          49.050                   100148789.751 8
  25520672.440       -1595.276          48.900   102761353.742 8  25520669.520
     -1636.946          50.050   101455059.937 8  25520670.900       -1616.094
        52.150
 139455835.201 7                  26537557.040
       841.609                          45.650                   104139123.265 7
  26537558.420         628.550          46.850   106855780.745 7  26537555.380
       644.962          44.950   105497451.196 8  26537557.340         636.747
        48.950
 23 11 17 17 22 30.0000000  0 18G06G11G12G19G24G25G28G29G32E03E05E09
                                E12E24E25E26E31E33
 123667958.939 7  96364662.04747  23533225.480                    23533225.060
       618.113         481.647          45.600          45.450    92349472.724 7
  23533226.920         461.557          46.050


 126913709.780 7  98893791.07247  24150872.400                    24150871.960
      2378.158        1853.112          44.250          42.800    94773243.048 7
  24150877.080        1775.819          46.350


 106850237.365 8  83260004.75948  20332890.240                    20332886.800
     -1065.402        -830.184          51.300          51.500



 128068613.373 6  99793760.41346  24370625.200                    24370620.420
     -3401.937       -2650.863          40.400          38.100



 118510848.487 7  92346165.76547  22551845.220                    22551845.200
     -3195.778       -2490.217          47.050          47.250    88498426.251 8
  22551846.460       -2386.481          52.000


 106486175.024 8  82976307.68148  20263621.660                    20263620.920
      1459.760        1137.477          52.250          52.200    79518985.169 9
  20263622.160        1090.124          55.350


 126298458.769 7  98414414.52646  24033785.180                    24033784.320
      3397.593        2647.479          42.700          41.200    94313822.154 7
  24033790.220        2537.141          46.650


 125152763.583 7  97521675.06447  23815761.460                    23815760.040
      3750.729        2922.648          44.750          44.950



 115750077.323 8  90194913.85047  22026495.120                    22026495.260
       393.418         306.561          50.650          47.600    86436785.642 8
  22026494.220         293.782          50.750


 134077714.139 8                  25514129.000
      1037.952                          50.050                   100123021.508 8
  25514131.140         775.097          49.350   102734912.954 8  25514128.960
       795.272          49.750   101428966.922 8  25514130.480         785.187
        52.250
 122180296.134 8                  23250121.200
     -1747.190                          51.050                    91238599.304 8
  23250125.040       -1304.768          52.050    93618727.462 8  23250121.200
     -1338.807          51.700    92428658.575 9  23250123.180       -1321.796
        54.550
 144563781.514 7                  27509564.480
     -3249.135                          44.350                   107953523.097 7
  27509568.460       -2426.383          42.450   110769687.117 7  27509565.920
     -2489.663          42.650   109361605.803 7  27509568.240       -2458.041
        45.300
 144273735.654 6                  27454376.800
      2849.894                          38.900                   107736887.638 6
  27454378.300        2128.256          41.150   110547398.797 7  27454375.380
      2183.713          42.200   109142145.404 7  27454377.880        2156.038
        44.400
 122898243.867 8                  23386728.900
      -134.699                          51.700                    91774751.339 9
  23386730.360        -100.562          54.550    94168857.993 9  23386727.980
      -103.197          55.400    92971802.858 9  23386729.400        -101.865
        57.650
 133947885.666 8                  25489414.700
      2063.689                          49.500                   100026095.016 8
  25489418.980        1541.063          49.900   102635458.552 8  25489415.700
      1581.229          48.800   101330777.477 8  25489417.260        1561.107
        52.050
 147194219.306 6                  28010123.460
     -1454.392                          41.500                   109917782.037 6
  28010124.320       -1086.061          40.550   112785189.416 6  28010122.480
     -1114.491          41.100   111351487.917 7  28010124.120       -1100.283
        43.550
 134176282.700 8                  25532871.660
     -2139.187                          49.450                   100196674.964 8
  25532875.000       -1597.476          49.100   102810488.123 8  25532872.080
     -1639.124          49.550   101503569.730 8  25532873.280       -1618.281
        51.900
 139430792.298 7                  26532791.520
       827.272                          46.300                   104120422.428 7
  26532792.680         617.787          46.650   106836592.039 7  26532790.340
       633.857          45.650   105478506.424 8  26532791.480         625.854
        48.900
 23 11 17 17 23  0.0000000  0 18G06G11G12G19G24G25G28G29G32E03E05E09
                                E12E24E25E26E31E33
 123649702.074 7  96350435.93447  23529751.520                    23529750.760
       598.886         466.663          46.250          46.000    92335839.371 7
  23529752.360         447.310          45.550


 126842529.820 7  98838326.23147  24137327.340                    24137326.860
      2366.982        1844.407          44.100          42.200    94720089.229 7
  24137331.360        1767.530          46.800


 106882397.520 8  83285064.63348  20339010.120                    20339006.660
     -1078.935        -840.728          50.750          50.800



 128170794.721 6  99873382.23546  24390069.460                    24390064.720
     -3409.989       -2657.135          40.800          36.950



 118606842.317 7  92420966.15047  22570112.200                    22570112.180
     -3204.046       -2496.659          46.750          46.850    88570109.949 8
  22570113.700       -2392.624          51.900


 106442579.247 8  82942336.98148  20255325.580                    20255324.840
      1446.294        1126.983          51.650          51.750    79486429.911 9
  20255326.240        1080.043          55.300


 126196572.145 7  98335022.46446  24014396.740                    24014395.860
      3394.632        2645.173          43.000          40.650    94237738.112 7
  24014401.540        2534.974          46.250


 125040322.634 7  97434058.80547  23794364.700                    23794363.100
      3745.283        2918.403          44.950          45.200



 115738572.815 8  90185949.32947  22024305.880                    22024306.120
       373.363         290.934          50.600          47.550    86428194.645 8
  22024305.140         278.783          50.750


 134046777.370 8                  25508241.860
      1024.211                          49.800                   100099919.403 8
  25508244.180         764.881          49.250   102711208.179 8  25508242.040
       784.818          49.800   101405563.483 8  25508243.340         774.830
        52.150
 122232893.713 8                  23260130.060
     -1759.423                          50.800                    91277876.727 8
  23260133.840       -1313.876          51.750    93659029.511 8  23260130.280
     -1348.147          51.550    92468448.308 9  23260132.160       -1331.003
        54.300
 144661268.500 7                  27528115.620
     -3250.123                          43.800                   108026321.806 7
  27528119.460       -2427.069          42.400   110844384.939 6  27528117.260
     -2490.191          41.550   109435354.068 7  27528119.340       -2458.712
        44.750
 144188303.121 6                  27438119.640
      2845.048                          38.950                   107673090.642 6
  27438120.880        2124.821          41.750   110481937.548 6  27438117.940
      2180.210          41.800   109077516.288 7  27438120.700        2152.530
        44.500
 122902390.343 8                  23387517.980
      -142.045                          51.750                    91777847.749 9
  23387519.100        -106.122          54.400    94172035.174 9  23387516.920
      -108.887          55.250    92974939.651 9  23387518.480        -107.517
        57.450
 133886042.927 8                  25477646.560
      2058.938                          49.250                    99979913.820 8
  25477650.920        1537.539          49.900   102588072.616 8  25477647.300
      1577.657          48.850   101283993.910 8  25477648.880        1557.572
        52.000
 147238047.035 6                  28018463.380
     -1467.479                          41.250                   109950510.570 6
  28018465.060       -1095.913          40.850   112818771.708 6  28018462.680
     -1124.445          40.800   111384643.325 7  28018464.140       -1110.146
        43.500
 134240498.425 8                  25545091.600
     -2142.104                          49.350                   100244628.269 8
  25545095.000       -1599.669          49.200   102859692.387 8  25545091.760
     -1641.388          48.950   101552148.522 8  25545093.100       -1620.595
        51.750
 139406190.016 7                  26528109.880
       812.723                          45.700                   104102050.625 7
  26528110.940         606.760          46.150   106817740.949 7  26528109.540
       622.661          46.250   105459894.984 8  26528109.580         614.644
        48.700
 23 11 17 17 23 30.0000000  0 19G03G06G11G12G19G24G25G28G29G32E03E05
                                E09E12E24E25E26E31E33
 134219195.654 6 104586400.05645  25541063.900                    25541063.160
       937.073         730.181          37.900          33.650   100228623.586 6
  25541065.600         699.621          41.800


 123632019.016 7  96336656.94447  23526386.640                    23526385.760
       580.234         452.132          45.000          45.050    92322634.506 7
  23526386.500         433.456          45.200


 126771686.474 7  98783123.66547  24123846.220                    24123845.920
      2356.228        1836.024          43.250          42.550    94667186.785 8
  24123849.860        1759.549          48.050


 106914960.917 8  83310438.71548  20345206.620                    20345203.080
     -1091.791        -850.746          50.500          50.650



 128273211.185 6  99953187.31046  24409558.460                    24409554.020
     -3416.968       -2662.570          39.850          38.650



 118703080.984 7  92495957.30647  22588425.700                    22588425.820
     -3211.571       -2502.524          46.250          46.200    88641976.484 8
  22588427.280       -2398.242          52.200


 106399386.597 8  82908680.40548  20247106.100                    20247105.380
      1433.472        1116.991          50.850          50.900    79454175.700 9
  20247106.960        1070.430          55.450


 126094774.094 7  98255699.40846  23995025.140                    23995024.180
      3392.183        2643.262          42.750          40.550    94161720.201 7
  23995029.800        2533.130          46.400


 124928040.465 7  97346566.26047  23772998.040                    23772996.180
      3740.481        2914.663          44.700          44.800



 115727669.318 8  90177453.12247  22022231.000                    22022231.280
       353.872         275.746          50.250          47.550    86420052.453 8
  22022230.440         264.247          51.000


 134016250.312 8                  25502432.640
      1011.115                          49.400                   100077123.246 8
  25502435.180         755.103          49.400   102687817.338 8  25502433.080
       774.803          49.900   101382469.984 8  25502434.180         764.947
        52.300
 122285854.647 8                  23270208.060
     -1770.926                          50.750                    91317425.475 8
  23270211.720       -1322.478          51.800    93699609.965 8  23270208.640
     -1356.971          51.950    92508512.908 9  23270210.300       -1339.714
        54.550
 144758783.847 7                  27546672.140
     -3250.496                          44.700                   108099141.671 6
  27546676.120       -2427.281          41.850   110919104.464 7  27546674.360
     -2490.748          42.200   109509123.755 7  27546676.000       -2458.946
        44.750
 144103006.596 6                  27421888.440
      2841.495                          39.350                   107609395.275 7
  27421889.500        2121.825          42.000   110416580.527 6  27421886.360
      2177.220          41.600   109012990.094 7  27421889.200        2149.496
        44.600
 122906761.166 8                  23388349.700
      -148.991                          51.450                    91781111.675 9
  23388350.660        -111.274          54.600    94175384.247 9  23388348.500
      -114.144          55.250    92978246.155 9  23388350.220        -112.732
        57.650
 133824340.628 8                  25465904.900
      2054.831                          48.750                    99933837.499 8
  25465909.440        1534.497          50.050   102540794.304 8  25465905.460
      1574.482          48.800   101237316.591 8  25465907.260        1554.478
        52.100
 147282263.928 6                  28026877.420
     -1479.842                          41.150                   109983529.711 6
  28026879.580       -1105.114          40.950   112852652.243 6  28026876.380
     -1133.860          40.800   111418093.173 7  28026878.480       -1119.614
        43.750
 134304802.699 8                  25557328.280
     -2144.487                          48.900                   100292647.690 8
  25557331.700       -1601.445          49.100   102908964.495 8  25557328.140
     -1643.195          48.550   101600794.284 8  25557329.860       -1622.356
        51.600
 139382027.129 7                  26523511.540
       798.497                          44.600                   104084006.923 7
  26523512.660         596.271          45.450   106799226.539 7  26523512.200
       611.820          46.750   105441615.915 8  26523511.400         604.091
        48.600
 23 11 17 17 24  0.0000000  0 19G03G06G11G12G19G24G25G28G29G32E03E05
                                E09E12E24E25E26E31E33
 134191377.517 6 104564723.44645  25535770.540                    25535768.960
       918.318         715.564          37.850          30.650   100207850.175 6
  25535772.000         685.848          38.700


 123614911.127 7  96323326.13447  23523131.240                    23523130.500
       560.896         437.063          44.950          44.850    92309859.166 7
  23523130.120         418.707          44.900


 126701182.911 7  98728185.87147  24110429.860                    24110429.640
      2344.693        1827.035          43.700          42.800    94614538.091 8
  24110433.200        1750.746          48.550


 106947927.218 8  83336126.74848  20351479.800                    20351476.260
     -1105.397        -861.349          50.700          50.900



 128375860.168 6 100033173.56846  24429091.800                    24429087.300
     -3425.473       -2669.198          39.950          36.150



 118799563.254 7  92571138.28547  22606785.540                    22606785.780
     -3220.071       -2509.146          46.050          46.250    88714024.927 8
  22606787.260       -2404.593          52.050


 106356597.802 8  82875338.52448  20238963.460                    20238962.720
      1419.736        1106.289          50.800          51.050    79422223.068 9
  20238964.320        1060.087          55.350


 125993066.590 7  98176446.91346  23975670.740                    23975669.840
      3388.754        2640.590          42.900          40.750    94085769.915 7
  23975675.420        2530.586          46.050


 124815919.708 7  97259199.49647  23751662.080                    23751659.920
      3734.680        2910.144          44.400          44.300



 115717367.528 8  90169425.78047  22020270.600                    22020270.860
       333.489         259.862          50.500          47.650    86412359.591 8
  22020270.120         248.961          50.950


 133986134.174 8                  25496701.600
       997.145                          49.300                   100054633.966 8
  25496704.380         744.637          49.300   102664741.377 8  25496702.160
       763.971          49.850   101359687.362 8  25496703.260         754.279
        52.300
 122339177.972 8                  23280355.040
     -1783.481                          50.400                    91357244.842 8
  23280358.400       -1331.808          51.400    93740468.099 8  23280355.880
     -1366.546          51.600    92548851.663 9  23280357.400       -1349.193
        54.300
 144856326.062 7                  27565233.940
     -3251.790                          43.950                   108171981.633 7
  27565238.020       -2428.369          43.150   110993844.601 6  27565236.660
     -2491.571          41.600   109582913.810 7  27565237.600       -2460.024
        45.400
 144017848.526 6                  27405683.720
      2836.384                          40.200                   107545803.262 6
  27405684.220        2118.088          41.600   110351329.590 6  27405681.180
      2173.372          41.400   108948568.618 7  27405684.020        2145.703
        44.400
 122911356.200 8                  23389224.120
      -156.844                          51.450                    91784543.036 9
  23389225.080        -117.090          54.600    94178905.121 9  23389222.880
      -120.157          55.250    92981722.270 9  23389224.620        -118.632
        57.700
 133762779.162 8                  25454190.000
      2049.808                          48.550                    99887866.356 8
  25454194.820        1530.674          50.050   102493623.906 8  25454190.340
      1570.591          48.700   101190745.819 8  25454192.480        1550.685
        52.200
 147326869.140 6                  28035365.500
     -1493.271                          41.050                   110016838.800 6
  28035367.920       -1115.157          40.150   112886830.250 6  28035364.840
     -1144.259          41.600   111451836.728 7  28035366.660       -1129.786
        43.700
 134369195.250 8                  25569581.680
     -2147.894                          48.450                   100340733.037 8
  25569584.900       -1603.906          49.050   102958304.248 8  25569581.520
     -1645.786          48.400   101649506.832 8  25569583.420       -1624.809
        51.650
 139358304.732 7                  26518997.180
       783.491                          45.250                   104066292.164 7
  26518998.000         585.001          44.350   106781049.658 7  26518998.240
       600.222          46.850   105423670.104 8  26518997.180         592.601
        48.250
 23 11 17 17 24 30.0000000  0 19G03G06G11G12G19G24G25G28G29G32E03E05
                                E09E12E24E25E26E31E33
 134164106.434 5 104543473.29545  25530580.880                    25530579.700
       900.692         701.841          33.400          30.850   100187485.383 6
  25530581.820         672.327          40.150


 123598378.213 7  96310443.35647  23519985.160                    23519984.460
       541.970         422.315          44.700          44.700    92297513.174 7
  23519983.380         404.527          45.200


 126631020.754 7  98673514.11346  24097078.460                    24097078.380
      2333.346        1818.191          44.050          41.700    94562144.318 8
  24097081.720        1742.456          48.900


 106981293.561 8  83362126.50648  20357829.320                    20357825.640
     -1118.495        -871.555          51.450          51.600



 128478737.750 6 100113337.93846  24448668.640                    24448664.220
     -3432.784       -2674.896          39.950          38.350



 118896286.305 7  92646506.88547  22625191.240                    22625191.580
     -3227.499       -2514.935          46.350          46.700    88786253.177 8
  22625192.960       -2410.349          51.950


 106314212.041 8  82842310.68748  20230897.600                    20230896.960
      1406.551        1096.016          50.550          50.750    79390571.397 9
  20230898.320        1050.307          55.350


 125891450.127 7  98097265.37747  23956333.760                    23956332.900
      3385.858        2638.336          42.400          42.000    94009887.623 7
  23956338.540        2528.542          46.200


 124703961.866 7  97171959.66247  23730357.080                    23730354.840
      3729.513        2906.114          44.000          44.100



 115707666.530 8  90161866.57947  22018424.580                    22018424.700
       313.913         244.608          50.850          47.250    86405115.369 8
  22018424.020         234.279          50.900


 133956428.596 8                  25491048.640
       983.680                          49.100                   100032451.255 8
  25491051.620         734.558          49.250   102641979.984 8  25491049.280
       753.722          50.050   101337215.312 8  25491050.460         744.134
        52.600
 122392861.160 8                  23290570.520
     -1795.101                          50.700                    91397332.935 8
  23290573.500       -1340.517          51.300    93781601.973 8  23290571.600
     -1375.499          52.100    92589462.644 9  23290573.000       -1357.981
        54.650
 144953892.233 7                  27583800.100
     -3252.279                          44.350                   108244839.479 7
  27583804.040       -2428.580          42.600   111068603.084 7  27583803.560
     -2491.980          43.900   109656721.975 7  27583803.980       -2460.412
        46.050
 143932829.835 6                  27389505.520
      2831.923                          40.200                   107482315.334 6
  27389505.580        2114.810          41.950   110286185.449 6  27389502.680
      2169.988          41.850   108884252.582 7  27389505.440        2142.359
        44.900
 122916173.783 8                  23390140.980
      -163.925                          51.950                    91788140.595 9
  23390141.980        -122.441          54.600    94182596.528 9  23390139.740
      -125.600          55.600    92985366.754 9  23390141.380        -124.051
        57.900
 133701357.427 8                  25442501.700
      2045.396                          48.900                    99841999.561 8
  25442506.660        1527.386          49.950   102446560.575 8  25442501.780
      1567.321          48.900   101144280.761 8  25442504.280        1547.330
        52.350
 147371859.950 6                  28043926.720
     -1505.518                          40.250                   110050435.875 6
  28043929.180       -1124.364          39.400   112921303.786 6  28043926.100
     -1153.816          41.850   111485872.025 7  28043928.060       -1139.085
        43.500
 134433674.196 7                  25581851.400
     -2150.395                          47.400                   100388882.891 8
  25581854.640       -1605.766          49.000   103007710.192 8  25581851.360
     -1647.655          48.550   101698284.737 8  25581853.420       -1626.753
        51.800
 139335022.345 7                  26514566.900
       769.116                          46.400                   104048905.962 7
  26514566.940         574.294          43.850   106763209.910 7  26514567.560
       589.334          46.950   105406057.127 8  26514566.820         581.818
        48.200
 23 11 17 17 25  0.0000000  0 19G03G06G11G12G19G24G25G28G29G32E03E05
                                E09E12E24E25E26E31E33
 134137384.754 5 104522651.16844  25525495.880                    25525495.900
       881.551         686.918          32.250          27.300   100167530.881 6
  25525497.100         658.424          39.550


 123582422.845 7  96298010.62147  23516948.700                    23516948.240
       522.147         406.869          43.600          43.600    92285598.487 7
  23516947.280         390.020          45.700


 126561204.410 7  98619111.79447  24083792.780                    24083792.880
      2321.576        1809.022          43.000          42.750    94510008.787 8
  24083796.120        1733.592          48.850


 107015061.111 8  83388438.88448  20364255.140                    20364251.260
     -1132.164        -882.206          51.000          51.100



 128581842.650 6 100193679.44346  24468288.780                    24468284.140
     -3440.465       -2680.880          41.100          37.200



 118993250.172 7  92722063.14247  22643642.960                    22643642.980
     -3235.972       -2521.536          47.200          47.050    88858661.250 8
  22643644.520       -2416.438          51.600


 106272231.255 8  82809598.41548  20222908.820                    20222908.420
      1392.674        1085.202          50.600          50.700    79359222.144 9
  20222909.480        1040.032          55.000


 125789928.036 7  98018157.35446  23937014.680                    23937014.000
      3382.405        2635.643          42.800          40.750    93934075.786 7
  23937019.700        2525.901          45.800


 124592171.242 7  97084850.15647  23709083.860                    23709081.620
      3723.695        2901.581          44.650          44.100



 115698568.301 8  90154777.07047  22016693.300                    22016693.220
       293.384         228.611          51.100          47.600    86398321.258 8
  22016692.540         219.053          50.550


 133927136.025 8                  25485474.360
       969.669                          49.600                   100010576.973 8
  25485477.400         724.075          48.850   102619535.063 8  25485474.880
       743.040          49.900   101315055.709 8  25485476.280         733.565
        52.150
 122446904.465 8                  23300854.540
     -1807.245                          50.550                    91437689.950 8
  23300857.180       -1349.627          50.600    93823011.780 8  23300855.920
     -1384.799          51.850    92630346.054 9  23300857.080       -1367.200
        54.000
 145051482.139 7                  27602370.720
     -3253.275                          43.850                   108317715.024 7
  27602375.060       -2429.251          42.250   111143379.748 7  27602374.520
     -2492.684          42.050   109730548.069 7  27602374.580       -2460.931
        45.100
 143847954.167 6                  27373354.620
      2826.796                          41.200                   107418934.208 6
  27373354.200        2111.024          41.600   110221150.888 6  27373351.480
      2166.108          41.450   108820044.747 7  27373354.080        2138.415
        44.550
 122921215.080 8                  23391100.480
      -171.609                          52.300                    91791905.216 9
  23391101.400        -128.188          54.050    94186459.354 9  23391099.220
      -131.495          55.550    92989180.477 9  23391100.700        -129.842
        57.600
 133640077.148 8                  25430840.400
      2040.388                          49.400                    99796238.392 8
  25430845.480        1523.683          49.550   102399605.630 8  25430840.160
      1563.444          48.650   101097922.703 8  25430843.000        1543.568
        51.950
 147417236.850 6                  28052561.700
     -1518.798                          41.700                   110084321.263 6
  28052563.400       -1134.169          38.950   112956073.092 6  28052561.440
     -1163.927          40.200   111520199.373 7  28052562.780       -1149.094
        42.350
 134498240.596 7                  25594137.700
     -2153.636                          47.550                   100437098.047 8
  25594140.960       -1608.194          48.300   103057183.136 8  25594138.020
     -1650.074          48.700   101747128.785 8  25594140.100       -1629.170
        51.400
 139312182.419 7                  26510220.860
       753.963                          46.450                   104031850.166 7
  26510220.320         563.053          43.750   106745709.207 7  26510220.660
       577.842          46.700   105388778.875 7  26510220.800         570.434
        47.950
 23 11 17 17 25 30.0000000  0 19G03G06G11G12G19G24G25G28G29G32E03E05
                                E09E12E24E25E26E31E33
 134111211.780 5 104502256.78044  25520515.160                    25520516.120
       862.892         672.378          31.400          29.700   100147986.227 6
  25520516.640         644.376          40.000


 123567044.299 7  96286027.36547  23514021.940                    23514021.880
       502.881         391.856          43.700          44.050    92274114.569 7
  23514021.600         375.363          46.600


 126491735.090 6  98564979.87146  24070572.980                    24070573.420
      2309.500        1799.611          41.550          41.200    94458132.361 8
  24070576.600        1724.669          48.900


 107049226.238 8  83415061.06948  20370756.480                    20370752.500
     -1145.803        -892.833          50.750          50.650



 128685170.652 6 100274194.77346  24487951.340                    24487946.900
     -3448.531       -2687.169          41.000          39.650



 119090451.644 7  92797804.53447  22662140.000                    22662139.760
     -3244.391       -2528.097          47.750          47.750    88931246.757 8
  22662141.180       -2422.675          51.300


 106230654.208 8  82777200.74948  20214996.840                    20214996.700
      1378.815        1074.401          50.550          50.200    79328174.386 9
  20214997.600        1029.656          55.050


 125688500.341 7  97939122.90246  23917713.680                    23917712.960
      3378.810        2632.844          43.500          41.750    93858334.447 7
  23917718.820        2523.324          46.000


 124480547.423 7  96997870.61547  23687842.520                    23687839.900
      3717.715        2896.925          44.700          44.650



 115690071.471 8  90148156.18247  22015076.500                    22015076.300
       272.863         212.621          51.550          47.500    86391976.240 8
  22015075.460         203.740          50.600


 133898255.658 8                  25479978.560
       955.498                          49.650                    99989010.491 8
  25479981.580         713.521          48.900   102597405.984 8  25479978.880
       732.154          49.950   101293207.929 8  25479980.560         722.826
        52.100
 122501304.971 8                  23311206.600
     -1819.612                          50.900                    91478313.693 8
  23311208.820       -1358.764          50.600    93864695.278 8  23311207.980
     -1394.213          52.150    92671499.673 9  23311209.200       -1376.469
        54.000
 145149092.410 7                  27620945.280
     -3254.367                          45.300                   108390605.785 6
  27620949.860       -2430.132          41.700   111218171.984 7  27620949.760
     -2493.552          42.800   109804389.577 7  27620949.200       -2461.860
        44.900
 143763221.988 6                  27357230.920
      2821.715                          41.150                   107355660.228 6
  27357230.160        2106.892          41.350   110156226.254 6  27357227.520
      2162.074          41.650   108755945.435 7  27357229.960        2134.433
        44.250
 122926477.980 8                  23392102.080
      -179.360                          52.300                    91795835.317 9
  23392102.840        -133.998          54.050    94190491.982 9  23392100.840
      -137.487          55.650    92993161.838 9  23392102.200        -135.721
        57.500
 133578936.760 8                  25419205.820
      2035.386                          50.050                    99750581.693 8
  25419210.860        1519.922          49.650   102352757.881 8  25419205.360
      1559.558          48.850   101051670.482 8  25419208.320        1539.730
        51.950
 147462996.785 7                  28061269.840
     -1531.992                          42.000                   110118492.653 6
  28061271.180       -1143.911          40.000   112991135.929 6  28061269.600
     -1173.808          41.700   111554816.485 7  28061270.620       -1158.891
        43.500
 134562892.173 7                  25606440.360
     -2156.735                          47.800                   100485376.820 8
  25606443.240       -1610.573          48.000   103106721.351 8  25606441.280
     -1652.572          49.250   101796037.276 8  25606442.880       -1631.567
        51.350
 139289783.965 7                  26505958.760
       738.873                          46.400                   104015124.045 7
  26505958.180         551.885          44.600   106728546.776 7  26505957.600
       566.233          46.750   105371834.604 8  26505958.800         558.970
        48.300
 23 11 17 17 26  0.0000000  0 19G03G06G11G12G19G24G25G28G29G32E03E05
                                E09E12E24E25E26E31E33
                                  25515639.980
       845.343                          34.750                   100128854.367 6
  25515641.560         631.015          38.650


 123552246.671 7  96274496.77047  23511205.780                    23511206.000
       483.896         377.062          44.300          44.700    92263064.416 7
  23511206.480         361.275          46.950


 126422618.615 6  98511122.91446  24057419.980                    24057421.020
      2297.980        1790.634          39.750          40.300    94406519.454 8
  24057424.260        1716.105          49.200


 107083790.753 8  83441994.47248  20377333.880                    20377329.760
     -1158.623        -902.823          51.600          51.600



 128788721.893 6 100354884.09746  24507656.440                    24507652.020
     -3455.370       -2692.495          41.350          38.750



 119187892.172 7  92873732.21847  22680682.480                    22680681.860
     -3251.583       -2533.701          47.500          47.400    89004010.789 8
  22680683.420       -2428.248          50.950


 106189484.363 8  82745120.37748  20207162.340                    20207162.360
      1365.855        1064.304          50.500          50.550    79297430.708 9
  20207163.240        1019.898          55.000


 125587171.881 7  97860165.75446  23898431.580                    23898430.800
      3376.173        2630.787          43.500          41.250    93782667.208 7
  23898436.720        2521.142          46.550


 124369095.919 7  96911025.35047  23666633.820                    23666630.960
      3712.410        2892.791          45.250          45.450



 115682179.348 8  90142006.49247  22013574.720                    22013574.460
       253.269         197.353          51.450          47.100    86386082.792 8
  22013573.460         189.088          50.600


 133869791.404 8                  25474562.040
       942.032                          49.750                    99967754.744 8
  25474565.040         703.493          49.000   102575595.737 8  25474562.000
       721.808          49.950   101271674.932 8  25474564.000         712.682
        52.450
 122556064.382 8                  23321626.940
     -1831.041                          50.950                    91519205.445 8
  23321629.040       -1367.291          50.400    93906653.776 8  23321628.540
     -1403.029          52.200    92712924.804 9  23321629.600       -1385.201
        54.350
 145246724.374 7                  27639524.020
     -3254.597                          44.700                   108463512.763 7
  27639528.880       -2430.371          43.400   111292980.877 7  27639528.440
     -2493.693          42.650   109878247.506 7  27639527.740       -2462.036
        46.050
 143678638.404 6                  27341135.460
      2817.162                          41.600                   107292497.193 6
  27341134.400        2103.702          41.350   110091415.508 7  27341132.180
      2158.520          42.300   108691958.537 7  27341134.160        2131.110
        44.850
 122931965.109 8                  23393146.300
      -186.430                          52.150                    91799932.851 9
  23393146.960        -139.209          54.050    94194696.408 9  23393145.120
      -142.834          55.800    92997312.820 9  23393146.360        -141.021
        57.900
 133517939.443 8                  25407598.480
      2031.063                          50.000                    99705031.827 8
  25407603.420        1516.674          49.700   102306019.750 8  25407597.920
      1556.233          49.050   101005526.483 8  25407600.860        1536.413
        52.350
 147509141.516 7                  28070051.340
     -1544.489                          42.400                   110152951.418 6
  28070051.820       -1153.341          39.250   113026493.617 6  28070051.040
     -1183.205          40.700   111589724.716 7  28070051.740       -1168.463
        42.950
 134627631.417 8                  25618759.980
     -2159.207                          48.350                   100533721.056 8
  25618762.560       -1612.393          48.400   103156326.740 8  25618761.020
     -1654.469          49.300   101845012.087 8  25618762.280       -1633.436
        51.800
 139267830.823 7                  26501781.360
       724.687                          46.750                   103998730.490 7
  26501781.440         541.045          45.800   106711725.572 7  26501779.440
       555.089          47.000   105355227.221 8  26501781.420         548.094
        49.350
 23 11 17 17 26 30.0000000  0 18G03G06G11G12G19G24G25G28G29G32E03E05
                                E09E12E24E25E31E33
 134060544.761 5 104462760.33645  25510869.320                    25510869.260
       826.722         644.194          35.600          34.650   100110131.632 6
  25510870.260         617.436          39.800


 123538025.029 7  96263414.99747  23508499.540                    23508499.600
       464.647         362.064          43.700          44.050    92252444.386 7
  23508500.940         346.907          47.300


 126353852.043 6  98457538.59746  24044333.820                    24044335.260
      2286.460        1781.658          39.650          39.700    94355167.801 8
  24044338.460        1707.526          49.400


 107118748.124 8  83469233.99048  20383986.160                    20383981.820
     -1171.560        -912.903          51.850          51.850



 128892488.083 6 100435740.89746  24527402.640                    24527397.980
     -3462.161       -2697.783          40.950          37.650



 119285564.389 7  92949840.43747  22699268.980                    22699268.140
     -3259.404       -2539.796          46.550          46.400    89076947.825 8
  22699269.680       -2433.971          51.100


 106148716.226 8  82713353.02648  20199404.300                    20199404.480
      1352.551        1053.938          50.300          50.200    79266987.007 9
  20199405.240        1009.919          55.100


 125485938.551 7  97781282.73446  23879167.560                    23879166.680
      3373.036        2628.343          43.950          41.300    93707071.003 7
  23879172.560        2518.821          46.900


 124257814.071 7  96824312.27647  23645457.600                    23645454.440
      3706.736        2888.366          45.450          45.650



 115674886.376 8  90136323.67547  22012186.940                    22012186.700
       233.414         181.882          50.900          47.350    86380636.761 8
  22012185.560         174.198          50.700


 133841738.262 8                  25469223.800
       928.433                          49.900                    99946805.999 8
  25469226.620         693.299          49.050   102554100.500 8  25469223.460
       711.375          50.100   101250452.941 8  25469225.680         702.339
        52.250
 122611175.566 8                  23332114.320
     -1842.675                          50.950                    91560359.898 8
  23332116.280       -1376.019          50.400    93948881.825 8  23332115.760
     -1411.928          52.300    92754616.053 9  23332116.960       -1393.965
        54.050
 145344370.376 7                  27658105.540
     -3254.821                          43.750                   108536430.221 7
  27658110.640       -2430.673          42.250   111367800.560 7  27658110.060
     -2494.014          43.550   109952116.071 7  27658109.420       -2462.319
        45.350
 143594199.719 6                  27325067.460
      2812.446                          41.100                   107229442.370 6
  27325066.260        2100.160          41.900   110026715.774 6  27325064.360
      2154.977          41.950   108628081.267 7  27325066.040        2127.515
        44.650
 122937670.191 8                  23394232.000
      -193.601                          52.100                    91804193.147 9
  23394232.680        -144.569          54.150    94199067.844 9  23394230.840
      -148.361          55.900    93001628.687 9  23394231.980        -146.463
        57.700
 133457079.450 8                  25396017.280
      2026.537                          50.000                    99659584.508 8
  25396022.120        1513.346          49.650   102259386.841 8  25396016.880
      1552.828          49.500   100959486.372 8  25396019.520        1533.059
        52.250
 134692451.862 8                  25631095.340
     -2161.758                          48.900                   100582125.924 8
  25631097.620       -1614.331          48.450   103205994.357 8  25631096.240
     -1656.506          49.850   101894048.329 8  25631097.200       -1635.389
        51.800
 139246317.914 7                  26497687.760
       709.995                          46.900                   103982665.673 7
  26497688.700         530.102          46.800   106695241.664 7  26497685.440
       544.053          47.350   105338952.864 8  26497687.700         536.999
        49.700
 23 11 17 17 27  0.0000000  0 19G03G06G11G12G19G24G25G28G29G32E03E05
                                E09E10E12E24E25E31E33
 134036029.091 6 104443657.25945  25506203.880                    25506203.440
       807.772         629.435          36.050          34.200   100091824.548 6
  25506204.940         603.056          41.750


 123524388.057 7  96252788.80247  23505904.700                    23505904.400
       444.382         346.271          44.750          44.600    92242260.952 7
  23505906.580         331.932          47.550


 126285445.912 6  98404235.12846  24031316.400                    24031317.980
      2273.832        1771.820          39.850          39.650    94304085.320 8
  24031321.220        1698.047          49.050


 107154105.072 8  83496784.86648  20390714.520                    20390709.960
     -1185.515        -923.777          52.000          52.000



 128996474.089 6 100516768.97946  24547190.620                    24547185.540
     -3470.097       -2703.974          41.800          36.200



 119383474.455 7  93026134.00747  22717900.580                    22717899.660
     -3267.784       -2546.324          47.400          47.400    89150062.498 8
  22717901.160       -2440.262          50.600


 106108357.953 8  82681905.05448  20191724.340                    20191724.620
      1338.182        1042.740          50.800          50.800    79236849.367 9
  20191725.240         999.262          55.150


 125384809.819 7  97702481.21746  23859923.300                    23859922.420
      3369.077        2625.257          44.800          41.800    93631552.923 7
  23859928.200        2515.791          47.350


 124146711.772 7  96737739.15247  23624315.440                    23624312.120
      3700.443        2883.466          44.700          44.100



 115668200.573 8  90131113.97747  22010914.620                    22010914.440
       212.504         165.588          51.050          47.400    86375644.135 8
  22010913.260         158.670          50.800


 133814104.834 8                  25463965.460
       913.823                          50.050                    99926170.676 8
  25463968.180         682.399          49.150   102532926.867 8  25463964.900
       700.161          49.900   101229548.464 8  25463967.220         691.271
        52.650
 122666644.958 8                  23342669.880
     -1855.232                          51.400                    91601781.840 8
  23342671.860       -1385.400          50.450    93991384.343 8  23342671.260
     -1421.524          52.100    92796578.284 9  23342672.480       -1403.453
        54.550
 145442036.538 7                  27676690.860
     -3256.249                          44.150                   108609362.693 7
  27676696.220       -2431.594          43.000   111442635.614 6  27676695.480
     -2494.911          41.650   110025999.842 7  27676694.580       -2463.279
        45.800
 148740236.886 7                  28304326.320
      3118.202                          42.800                   111072273.305 7
  28304329.760        2328.526          42.450   113969796.696 7  28304326.960
      2389.278          42.300   112521030.191 7  28304329.220        2358.862
        45.700
 143509915.781 6                  27309028.820
      2806.691                          40.750                   107166503.136 6
  27309027.700        2095.780          41.850   109962134.626 7  27309026.020
      2150.512          42.300   108564321.068 7  27309027.260        2123.148
        45.250
 122943600.565 8                  23395360.660
      -201.646                          52.950                    91808621.688 9
  23395361.300        -150.639          54.050    94203611.906 9  23395359.340
      -154.545          55.550    93006114.988 9  23395360.480        -152.584
        57.950
 133396364.678 8                  25384463.620
      2021.176                          50.100                    99614245.645 8
  25384468.320        1509.269          49.500   102212865.221 8  25384463.540
      1548.620          49.350   100913556.124 8  25384465.840        1528.973
        52.600
 134757360.751 8                  25643447.440
     -2165.268                          48.900                   100630596.836 8
  25643449.260       -1616.994          48.200   103255729.722 8  25643448.580
     -1659.202          50.000   101943151.470 8  25643448.960       -1638.078
        52.200
 139225253.732 7                  26493679.460
       694.403                          46.950                   103966935.948 7
  26493681.120         518.545          47.100   106679101.617 7  26493676.940
       531.972          47.050   105323017.974 8  26493679.360         525.295
        50.200
 23 11 17 17 27 30.0000000  0 19G03G06G11G12G19G24G25G28G29G32E03E05
                                E09E10E12E24E25E31E33
 134012064.989 6 104424983.90045  25501643.680                    25501643.320
       789.615         615.282          37.650          33.350   100073929.226 7
  25501644.720         589.693          43.700


 123511330.757 7  96242614.28747  23503420.100                    23503419.880
       425.551         331.599          44.250          43.900    92232510.395 7
  23503422.260         317.799          47.350


 126217397.088 6  98351210.07746  24018367.000                    24018368.620
      2262.140        1762.708          39.500          39.000    94253269.685 8
  24018371.760        1689.271          49.050


 107189854.321 8  83524641.43548  20397517.440                    20397512.920
     -1198.148        -933.622          51.650          51.600



 129100671.145 6 100597961.52546  24567018.660                    24567013.500
     -3476.968       -2709.323          40.650          36.750



 119481614.957 7  93102607.10147  22736575.980                    22736575.080
     -3275.253       -2552.146          47.100          47.150    89223349.209 8
  22736576.700       -2445.762          50.650


 106068404.013 8  82650772.14448  20184121.480                    20184121.620
      1325.052        1032.509          51.050          51.250    79207013.670 9
  20184122.340         989.381          55.600


 125283781.573 7  97623758.01246  23840698.140                    23840697.260
      3365.768        2622.679          44.750          41.400    93556109.877 8
  23840702.900        2513.462          48.000


 124035785.383 7  96651303.07647  23603206.780                    23603203.320
      3694.628        2878.933          45.600          45.700



 115662116.225 8  90126372.94347  22009756.760                    22009756.640
       192.741         150.188          50.850          47.600    86371100.648 8
  22009755.520         143.898          51.150


 133786886.025 8                  25458785.900
       900.325                          49.700                    99905844.972 8
  25458788.700         672.287          49.350   102512070.927 8  25458785.280
       689.780          50.100   101208957.645 8  25458787.660         681.031
        52.700
 122722465.269 8                  23353292.180
     -1866.601                          51.100                    91643465.834 8
  23353294.400       -1393.907          50.650    94034155.750 8  23353293.460
     -1430.269          52.000    92838805.983 9  23353294.760       -1412.084
        54.400
 145539715.158 7                  27695278.680
     -3256.281                          44.050                   108682304.489 7
  27695284.160       -2431.521          44.400   111517480.269 7  27695282.940
     -2495.067          43.650   110099893.072 7  27695282.360       -2463.353
        46.900
 148646669.395 6                  28286520.900
      3119.177                          41.500                   111002401.461 7
  28286524.160        2329.368          42.250   113898102.082 6  28286521.220
      2390.119          41.750   112450246.961 7  28286523.740        2359.739
        45.200
 143425782.887 6                  27293018.940
      2801.926                          40.750                   107103676.642 6
  27293017.740        2092.257          41.950   109897669.196 7  27293016.440
      2146.753          42.300   108500675.103 7  27293017.300        2119.557
        45.250
 122949749.923 8                  23396530.980
      -208.660                          52.650                    91813213.744 9
  23396531.440        -155.854          54.200    94208323.756 9  23396529.380
      -159.922          55.450    93010766.942 9  23396530.680        -157.893
        57.800
 133335789.361 8                  25372936.420
      2016.734                          49.950                    99569010.899 8
  25372941.000        1506.060          49.600   102166450.436 8  25372936.860
      1545.304          49.600   100867731.364 8  25372938.700        1525.657
        52.550
 134822351.612 8                  25655815.020
     -2167.789                          48.850                   100679128.967 8
  25655816.520       -1618.801          48.400   103305527.898 8  25655816.420
     -1661.073          49.700   101992316.620 8  25655816.220       -1639.901
        52.050
 139204633.052 7                  26489755.500
       679.854                          46.200                   103951537.408 7
  26489757.520         507.743          47.350   106663301.370 7  26489752.980
       520.988          47.250   105307418.581 8  26489755.380         514.407
        50.250
 23 11 17 17 28  0.0000000  0 19G03G06G11G12G19G24G25G28G29G32E03E05
                                E09E10E12E24E25E31E33
 133988656.218 6 104406743.36746  25497188.980                    25497188.580
       771.248         600.981          39.600          36.500   100056448.664 7
  25497190.220         575.923          44.650


 123498856.992 7  96232894.50147  23501046.480                    23501046.560
       406.011         316.374          44.750          44.350    92223195.606 7
  23501048.340         303.326          46.250


 126149711.459 6  98298468.04946  24005486.700                    24005488.420
      2250.607        1753.720          39.300          38.500    94202725.277 8
  24005491.320        1680.451          48.350


 107225996.758 8  83552804.37448  20404395.080                    20404390.860
     -1211.128        -943.735          51.700          51.600



 129205079.680 6 100679318.83446  24586886.940                    24586881.780
     -3483.691       -2714.565          40.900          38.700



 119579987.297 7  93179260.86747  22755295.420                    22755294.840
     -3282.812       -2558.037          45.900          45.700    89296809.068 8
  22755296.280       -2451.459          50.300


 106028857.830 8  82619956.96148  20176596.240                    20176596.120
      1311.525        1021.969          51.700          51.900    79177482.454 9
  20176597.120         979.385          55.600


 125182858.645 7  97545116.86747  23821493.080                    23821492.240
      3362.455        2620.099          44.400          42.550    93480745.471 7
  23821497.600        2510.906          47.950


 123925040.169 7  96565008.19647  23582132.520                    23582129.120
      3688.621        2874.254          44.600          45.050



 115656636.586 8  90122103.10747  22008713.980                    22008713.960
       172.689         134.563          50.950          47.600    86367008.722 8
  22008712.880         128.997          51.000


 133760085.673 8                  25453685.880
       886.552                          49.600                    99885831.749 8
  25453688.840         661.979          49.250   102491535.616 8  25453685.460
       679.252          50.150   101188683.376 8  25453687.700         670.614
        52.700
 122778638.214 8                  23363981.560
     -1878.187                          50.850                    91685413.163 8
  23363983.920       -1402.557          50.500    94077197.360 8  23363982.620
     -1439.097          52.150    92881300.457 9  23363984.180       -1420.887
        54.350
 145637407.560 7                  27713869.080
     -3256.587                          44.300                   108755256.611 6
  27713874.100       -2431.854          41.000   111592335.454 7  27713873.080
     -2495.228          44.250   110173796.712 7  27713872.860       -2463.441
        45.650
 148553081.793 6                  28268711.440
      3119.950                          39.400                   110932514.628 6
  28268714.740        2329.909          41.600   113826392.102 6  28268712.140
      2390.665          41.150   112379448.550 7  28268714.600        2360.434
        44.600
 143341806.075 6                  27277038.600
      2796.685                          40.750                   107040966.720 7
  27277037.600        2088.538          42.250   109833323.379 7  27277036.500
      2142.851          42.050   108437147.232 7  27277037.100        2115.792
        45.300
 122956120.836 8                  23397743.280
      -215.942                          52.250                    91817971.244 8
  23397743.640        -161.246          53.950    94213205.367 9  23397741.560
      -165.457          55.400    93015586.496 9  23397743.040        -163.348
        57.750
 133275356.635 8                  25361436.260
      2012.176                          49.750                    99523882.655 8
  25361440.680        1502.558          49.350   102120144.919 8  25361437.240
      1541.813          49.550   100822014.478 8  25361438.700        1522.205
        52.450
 134887426.920 8                  25668198.620
     -2170.346                          49.100                   100727724.147 8
  25668200.160       -1620.832          48.550   103355390.781 8  25668199.880
     -1662.976          49.250   102041545.657 8  25668199.640       -1641.910
        51.850
 139184459.612 7                  26485916.560
       665.091                          46.050                   103936472.838 7
  26485918.740         496.680          47.200   106647843.821 7  26485914.460
       509.685          47.550   105292157.520 8  26485916.540         503.159
        50.350
 23 11 17 17 28 30.0000000  0 19G03G06G11G12G19G24G25G28G29G32E03E05
                                E09E10E12E24E25E31E33
 133965801.209 6 104388934.18545  25492839.720                    25492839.640
       752.181         586.112          38.700          34.300   100039381.597 7
  25492841.080         561.401          42.950


 123486965.331 7  96223628.29547  23498783.520                    23498783.940
       386.234         300.963          44.700          44.550    92214315.514 7
  23498784.720         288.153          45.700


 126082389.525 6  98246009.44846  23992675.840                    23992677.200
      2237.269        1743.330          40.400          39.800    94152452.443 7
  23992680.060        1670.783          47.750


 107262529.333 8  83581271.32748  20411346.980                    20411342.980
     -1224.752        -954.352          51.550          51.450



 129309694.764 6 100760837.15145  24606794.560                    24606789.420
     -3491.162       -2720.378          41.000          35.950



 119678587.601 7  93256092.28547  22774058.340                    22774057.940
     -3290.902       -2564.340          45.950          46.050    89370439.179 8
  22774059.380       -2457.581          50.600


 105989717.458 8  82589457.99948  20169148.260                    20169147.900
      1297.350        1010.923          51.750          51.600    79148254.294 9
  20169149.140         968.743          55.900


 125082040.509 7  97466557.38247  23802308.020                    23802307.140
      3358.378        2616.922          43.950          43.050    93405459.312 8
  23802312.240        2507.749          48.350


 123814476.146 7  96478854.51547  23561092.740                    23561089.620
      3681.987        2869.084          44.750          44.650



 115651759.482 8  90118302.77247  22007785.940                    22007786.020
       151.903         118.366          51.300          47.650    86363366.746 8
  22007784.900         113.398          51.250


 133733702.281 8                  25448665.100
       871.933                          49.150                    99866129.899 8
  25448668.280         651.138          49.500   102471319.801 8  25448665.040
       668.064          50.400   101168724.543 8  25448667.060         659.622
        52.600
 122835160.146 8                  23374737.300
     -1890.482                          50.900                    91727621.092 8
  23374740.100       -1411.732          50.750    94120506.366 8  23374738.380
     -1448.590          52.150    92924058.919 9  23374739.940       -1430.127
        54.100
 145735109.684 7                  27732461.440
     -3257.588                          43.900                   108828215.964 7
  27732466.440       -2432.642          43.250   111667198.119 6  27732464.740
     -2496.024          41.400   110247707.735 7  27732464.720       -2464.365
        45.300
 148459473.807 6                  28250898.360
      3120.132                          40.350                   110862612.558 6
  28250901.420        2329.789          41.050   113754666.510 7  28250899.480
      2390.673          42.550   112308634.719 7  28250901.480        2360.275
        44.400
 143257985.235 6                  27261088.100
      2790.805                          40.300                   106978373.279 7
  27261087.100        2083.993          42.300   109769097.035 7  27261086.180
      2138.456          42.150   108373737.344 7  27261086.460        2111.161
        44.950
 122962710.630 8                  23398996.960
      -223.948                          51.800                    91822892.207 9
  23398997.560        -167.246          54.250    94218254.700 9  23398995.520
      -171.585          55.550    93020571.646 9  23398997.020        -169.429
        57.500
 133215064.323 8                  25349962.800
      2006.733                          49.300                    99478859.259 8
  25349967.060        1498.565          49.400   102073946.998 8  25349964.160
      1537.650          49.350   100776403.819 8  25349965.420        1518.154
        52.100
 134952583.803 8                  25680597.800
     -2173.908                          49.200                   100776380.239 8
  25680599.480       -1623.325          48.550   103405316.200 8  25680598.620
     -1665.687          49.400   102090836.411 8  25680598.760       -1644.510
        51.650
 139164731.815 7                  26482162.300
       649.550                          46.100                   103921741.065 7
  26482164.620         485.050          47.300   106632727.745 7  26482160.720
       497.696          47.250   105277233.595 8  26482162.540         491.407
        50.000
 23 11 17 17 29  0.0000000  0 19G03G06G11G12G19G24G25G28G29G32E03E05
                                E09E10E12E24E25E31E33
 133943505.342 6 104371560.75746  25488596.800                    25488596.740
       734.291         572.175          40.750          38.750   100022732.020 7
  25488598.120         548.335          43.700


 123475660.998 7  96214819.75147  23496632.200                    23496632.880
       367.271         286.187          43.300          42.800    92205874.000 7
  23496633.020         274.200          45.500


 126015438.437 6  98193839.79846  23979935.620                    23979936.540
      2225.923        1734.486          40.550          40.200    94102456.552 7
  23979939.220        1662.071          47.200


 107299455.338 8  83610044.84548  20418373.720                    20418369.740
     -1237.102        -963.975          51.000          51.250



 129414518.157 6 100842517.70746  24626741.780                    24626736.720
     -3497.182       -2725.075          41.150          37.750



 119777418.785 7  93333103.58147  22792865.120                    22792865.180
     -3297.945       -2569.829          45.900          46.350    89444241.671 8
  22792866.320       -2462.744          50.550


 105950987.650 8  82559278.94248  20161778.340                    20161777.880
      1284.389        1000.823          51.300          51.200    79119332.711 9
  20161779.240         959.112          56.050


 124981333.382 7  97388084.38046  23783144.000                    23783143.140
      3355.383        2614.587          43.600          41.400    93330256.039 8
  23783148.000        2505.530          48.300


 123704100.172 7  96392847.38347  23540088.720                    23540085.760
      3676.348        2864.690          44.900          45.000



 115647489.532 8  90114975.55147  22006973.440                    22006973.600
       132.438         103.199          51.150          47.750    86360178.157 8
  22006972.400          98.903          51.250


 133707741.045 8                  25443724.600
       858.655                          48.700                    99846743.291 8
  25443728.040         641.188          49.700   102451427.449 8  25443725.040
       657.925          50.300   101149085.060 8  25443726.760         649.552
        52.800
 122892034.073 8                  23385560.020
     -1901.329                          50.650                    91770091.885 8
  23385562.960       -1419.807          50.700    94164085.096 8  23385560.700
     -1456.873          51.850    92967083.682 9  23385562.740       -1438.339
        54.100
 145832824.334 7                  27751055.960
     -3257.239                          44.300                   108901184.664 7
  27751060.760       -2432.265          42.450   111742070.330 7  27751059.180
     -2495.623          43.350   110321628.192 7  27751059.300       -2464.003
        45.750
 148365851.893 7                  28233083.000
      3121.099                          42.000                   110792700.042 7
  28233085.640        2330.776          42.100   113682930.217 7  28233083.940
      2391.400          42.500   112237810.320 7  28233086.040        2361.085
        45.200
 143174326.912 6                  27245168.280
      2786.103                          39.950                   106915901.157 7
  27245167.320        2080.605          42.200   109704995.217 6  27245166.660
      2134.915          41.550   108310450.374 7  27245166.800        2107.755
        44.850
 122969523.263 8                  23400293.040
      -230.511                          51.550                    91827979.573 9
  23400294.080        -172.176          54.550    94223474.777 9  23400291.940
      -176.657          55.300    93025725.367 9  23400293.400        -174.423
        57.750
 133154916.960 8                  25338516.940
      2002.797                          49.100                    99433944.104 8
  25338520.960        1495.528          49.550   102027860.123 8  25338518.420
      1534.558          48.800   100730902.804 8  25338519.660        1515.081
        52.150
 135017826.138 8                  25693012.940
     -2175.937                          48.750                   100825100.174 7
  25693014.620       -1624.864          47.800   103455307.082 8  25693013.820
     -1667.224          49.250   102140191.820 8  25693014.140       -1646.056
        51.450
 139145454.729 7                  26478493.720
       635.298                          45.750                   103907345.864 7
  26478496.140         474.419          47.500   106617957.031 7  26478492.320
       486.777          46.150   105262650.641 8  26478494.340         480.600
        49.900
 23 11 17 17 29 30.0000000  0 19G03G06G11G12G19G24G25G28G29G32E03E05
                                E09E10E12E24E25E31E33
 133921764.046 6 104354619.41846  25484459.540                    25484459.600
       715.147         557.254          41.200          40.100   100006496.557 7
  25484460.800         534.097          44.250


 123464939.533 7  96206465.38947  23494591.880                    23494592.680
       347.675         270.916          44.750          45.000    92197867.743 7
  23494592.560         259.557          44.900


 125948855.750 6  98141957.24446  23967265.480                    23967266.060
      2212.896        1724.335          41.300          40.800    94052735.736 7
  23967268.660        1652.737          46.900


 107336768.625 8  83639120.14648  20425474.140                    20425470.060
     -1250.325        -974.279          50.800          50.750



 129519541.848 6 100924354.40745  24646727.120                    24646721.860
     -3504.178       -2730.526          40.600          35.900



 119876473.950 7  93410289.41347  22811714.500                    22811715.060
     -3305.565       -2575.766          45.750          45.950    89518211.426 8
  22811716.000       -2468.524          50.200


 105912663.496 8  82529415.98748  20154485.560                    20154484.980
      1270.609         990.086          51.600          51.600    79090714.051 9
  20154486.300         948.776          55.600


 124880733.750 7  97309695.14246  23764000.360                    23763999.620
      3351.248        2611.364          43.400          41.950    93255133.035 7
  23764004.140        2502.672          47.750


 123593909.504 7  96306984.62147  23519120.020                    23519117.220
      3669.733        2859.535          44.950          44.800



 115643821.539 8  90112117.37847  22006275.440                    22006275.680
       112.043          87.307          51.250          47.650    86357439.075 8
  22006274.380          83.664          50.850


 133682197.487 8                  25438863.500
       844.394                          48.450                    99827668.588 8
  25438867.300         630.563          49.450   102431855.139 8  25438864.480
       646.950          50.500   101129761.554 8  25438865.920         638.744
        52.750
 122949253.404 8                  23396448.540
     -1913.089                          50.750                    91812820.614 8
  23396451.680       -1428.652          50.600    94207928.481 8  23396449.140
     -1465.912          51.850    93010369.738 9  23396451.180       -1447.271
        54.000
 145930544.409 7                  27769651.560
     -3257.524                          44.000                   108974157.481 7
  27769656.100       -2432.642          42.050   111816946.759 7  27769654.760
     -2495.981          43.050   110395552.807 7  27769654.660       -2464.270
        45.050
 148272212.699 7                  28215264.340
      3121.376                          42.550                   110722774.649 7
  28215266.740        2330.953          42.550   113611180.688 7  28215264.780
      2391.692          42.850   112166972.853 7  28215267.220        2361.398
        45.600
 143090827.853 6                  27229278.840
      2780.361                          40.400                   106853547.995 7
  27229277.920        2076.436          42.000   109641015.454 6  27229277.300
      2130.479          40.900   108247283.917 7  27229277.460        2103.356
        44.500
 122976553.055 8                  23401630.620
      -238.253                          51.800                    91833229.111 9
  23401632.020        -177.916          54.300    94228861.252 9  23401629.560
      -182.543          55.250    93031043.373 9  23401631.100        -180.230
        57.550
 133094909.374 8                  25327097.640
      1997.835                          49.150                    99389133.322 8
  25327101.400        1491.879          49.100   101981880.340 8  25327099.120
      1530.768          48.700   100685507.528 8  25327100.440        1511.281
        51.800
 135083148.092 8                  25705442.960
     -2178.935                          48.250                   100873879.567 7
  25705444.500       -1627.194          47.000   103505358.979 8  25705443.880
     -1669.460          48.850   102189607.464 8  25705444.560       -1648.319
        50.850
 139126623.745 7                  26474910.020
       620.180                          45.850                   103893283.805 7
  26474912.640         463.055          47.400   106603528.122 7  26474908.300
       475.149          45.600   105248405.158 8  26474910.940         469.104
        49.550
 23 11 17 17 30  0.0000000  0 19G03G06G11G12G19G24G25G28G29G32E03E05
                                E09E10E12E24E25E31E33
 133900580.213 6 104338112.51746  25480428.320                    25480428.580
       696.738         542.914          40.600          38.400    99990677.458 7
  25480429.560         520.322          45.750


 123454803.870 7  96198567.48447  23492663.300                    23492663.740
       327.994         255.580          45.050          45.000    92190298.915 7
  23492663.860         244.933          44.800


 125882646.268 7  98090365.47746  23954666.420                    23954666.700
      2200.799        1714.909          42.400          41.600    94003293.651 7
  23954669.300        1643.382          47.000


 107374470.065 8  83668497.90448  20432648.440                    20432644.280
     -1263.160        -984.279          51.150          51.300



 129624765.176 6 101006346.62745  24666750.440                    24666744.940
     -3510.908       -2735.776          40.850          35.250



 119975753.598 7  93487650.17447  22830606.800                    22830607.580
     -3313.114       -2581.647          45.950          45.850    89592348.828 8
  22830608.420       -2474.070          50.400


 105874747.430 8  82499871.02348  20147270.400                    20147269.560
      1256.965         979.454          51.700          51.650    79062400.121 9
  20147270.840         938.680          55.650


 124780245.561 7  97231392.76047  23744877.800                    23744877.420
      3347.689        2608.594          43.300          42.500    93180093.256 7
  23744881.620        2499.898          47.700


 123483908.595 7  96221269.73147  23498187.400                    23498184.840
      3663.534        2854.706          44.400          44.850



 115640757.729 8  90109730.00247  22005692.420                    22005692.580
        92.048          71.726          51.000          47.900    86355151.171 8
  22005691.300          68.747          50.750


 133657074.497 8                  25434082.480
       830.354                          48.300                    99808907.931 8
  25434086.480         620.088          49.600   102412605.070 8  25434083.960
       636.262          50.600   101110756.190 8  25434085.100         628.188
        52.850
 123006818.873 8                  23407402.940
     -1924.621                          51.300                    91855807.811 8
  23407406.120       -1437.242          50.350    94252037.083 8  23407403.100
     -1474.706          51.650    93053917.639 8  23407405.520       -1455.982
        53.800
 146028270.369 7                  27788248.200
     -3257.586                          44.950                   109047134.577 7
  27788253.280       -2432.674          43.050   111891827.698 6  27788251.220
     -2496.146          41.750   110469481.820 7  27788251.220       -2464.347
        45.200
 148178560.240 6                  28197443.040
      3121.807                          41.500                   110652839.377 7
  28197445.460        2331.313          42.600   113539421.009 6  28197443.280
      2392.088          41.900   112096125.379 7  28197445.840        2361.776
        45.200
 143007492.345 6                  27213420.380
      2774.979                          40.250                   106791316.979 6
  27213419.540        2072.390          41.550   109577161.003 6  27213418.880
      2126.411          40.500   108184241.185 7  27213419.140        2099.306
        44.150
 122983801.712 8                  23403010.060
      -245.447                          52.100                    91838642.077 9
  23403011.480        -183.263          54.300    94234415.425 9  23403008.740
      -188.026          55.050    93036526.943 9  23403010.440        -185.629
        57.500
 133035043.844 8                  25315705.360
      1993.045                          49.300                    99344428.624 8
  25315708.900        1488.356          48.950   101936009.406 8  25315706.800
      1527.207          48.750   100640219.705 8  25315708.180        1507.820
        51.800
 135148551.238 7                  25717888.300
     -2181.528                          47.500                   100922719.569 7
  25717890.240       -1629.062          47.150   103555473.076 8  25717889.380
     -1671.496          49.100   102239084.514 8  25717890.380       -1650.307
        50.900
 139108241.673 7                  26471411.820
       605.257                          45.550                   103879556.966 7
  26471414.720         451.937          47.750   106589443.174 7  26471409.700
       463.733          45.200   105234499.268 8  26471412.840         457.820
        49.550
 23 11 17 17 30 30.0000000  0 19G03G06G11G12G19G24G25G28G29G32E03E05
                                E09E10E12E24E25E31E33
 133879957.351 6 104322042.71446  25476503.840                    25476504.480
       678.317         528.560          39.500          38.200    99975277.221 7
  25476505.120         506.582          47.100


 123445257.533 7  96191128.79747  23490846.840                    23490846.920
       308.730         240.570          46.150          46.300    92183170.175 7
  23490848.100         230.479          45.400


 125816815.659 7  98039068.94146  23942139.460                    23942139.340
      2188.149        1705.053          43.000          41.250    93954134.473 7
  23942142.160        1634.100          47.550


 107412561.116 8  83698179.24448  20439896.880                    20439892.820
     -1275.828        -994.151          51.150          51.200



 129730188.306 6 101088494.57345  24686811.760                    24686806.200
     -3517.089       -2740.585          41.250          35.500



 120075259.048 7  93565186.88647  22849542.160                    22849542.880
     -3320.203       -2587.171          46.650          46.850    89666654.852 8
  22849543.620       -2479.453          50.400


 105837242.686 8  82470646.56548  20140133.460                    20140132.440
      1243.720         969.133          51.650          51.850    79034393.361 9
  20140133.780         928.641          55.750


 124679873.461 7  97153180.82446  23725777.400                    23725777.200
      3344.076        2605.777          44.050          41.100    93105140.162 7
  23725781.160        2497.183          47.650


 123374102.674 7  96135706.78447  23477291.860                    23477289.540
      3657.519        2850.019          45.400          45.700



 115638301.058 8  90107815.72147  22005224.840                    22005225.040
        72.019          56.119          50.900          47.400    86353316.654 8
  22005223.700          53.735          50.700


 133632375.662 8                  25429382.240
       816.451                          48.350                    99790464.033 8
  25429386.380         609.632          49.800   102393680.006 8  25429384.060
       625.597          50.800   101092071.709 8  25429385.000         617.636
        52.850
 123064731.899 8                  23418423.540
     -1935.942                          51.200                    91899054.569 8
  23418426.680       -1445.714          50.600    94296412.005 8  23418423.520
     -1483.415          51.800    93097728.476 8  23418425.940       -1464.510
        53.850
 146126003.243 7                  27806846.240
     -3257.327                          43.500                   109120116.941 7
  27806850.880       -2432.682          42.850   111966713.880 7  27806849.280
     -2496.108          43.700   110543416.098 7  27806849.300       -2464.368
        45.800
 148084899.446 6                  28179620.160
      3122.488                          41.650                   110582897.902 7
  28179622.520        2331.640          42.400   113467654.966 6  28179620.040
      2392.435          41.250   112025271.622 7  28179622.780        2362.043
        44.700
 142924325.392 6                  27197594.180
      2769.739                          40.350                   106729211.839 6
  27197593.120        2068.163          41.150   109513435.694 6  27197592.340
      2122.367          40.600   108121325.961 7  27197592.900        2095.200
        43.700
 122991271.664 8                  23404431.700
      -252.417                          52.350                    91844220.303 9
  23404432.820        -188.518          54.150    94240139.164 9  23404430.100
      -193.409          55.100    93042177.927 9  23404431.880        -190.947
        57.300
 132975323.306 8                  25304340.680
      1988.559                          49.600                    99299832.203 8
  25304343.940        1484.967          48.700   101890249.584 8  25304342.200
      1523.757          49.200   100595041.585 8  25304343.540        1504.376
        51.700
 135214037.872 8                  25730349.580
     -2183.972                          48.000                   100971621.931 7
  25730352.020       -1630.922          46.950   103605651.142 8  25730350.960
     -1673.487          49.300   102288624.727 8  25730352.060       -1652.218
        50.750
 139090311.960 7                  26467999.540
       590.552                          45.650                   103866167.934 7
  26468002.920         440.927          47.800   106575704.856 7  26467997.580
       452.364          45.400   105220935.592 8  26468000.780         446.627
        49.600
 23 11 17 17 31  0.0000000  0 19G03G06G11G12G19G24G25G28G29G32E03E05
                                E09E10E12E24E25E31E33
 133859889.280 6 104306405.26046  25472685.080                    25472685.880
       659.514         513.904          40.100          38.350    99960291.323 7
  25472686.440         492.470          46.300


 123436294.474 7  96184144.61547  23489141.260                    23489141.460
       288.635         224.911          45.800          45.900    92176476.993 7
  23489143.560         215.716          45.600


 125751359.828 7  97988064.41846  23929683.780                    23929683.360
      2175.283        1695.023          43.300          40.650    93905255.163 7
  23929686.440        1624.419          47.950


 107451033.347 8  83728157.60848  20447217.900                    20447214.040
     -1289.014       -1004.427          51.400          51.350



 129835801.870 6 101170790.87345  24706909.380                    24706903.680
     -3523.771       -2745.796          39.850          34.900



 120174981.878 7  93642892.97747  22868518.900                    22868519.440
     -3327.788       -2593.082          46.800          46.950    89741123.189 8
  22868520.340       -2485.150          50.300


 105800142.805 8  82441737.58048  20133073.520                    20133072.560
      1229.688         958.199          51.450          51.600    79006688.916 9
  20133073.960         918.242          55.850


 124579612.516 7  97075055.47446  23706698.340                    23706697.920
      3339.848        2602.480          44.600          41.000    93030270.047 7
  23706701.980        2494.020          47.700


 123264487.067 7  96050292.12647  23456432.600                    23456430.520
      3650.412        2844.481          44.950          45.000



 115636444.688 8  90106369.20547  22004871.480                    22004871.620
        51.534          40.157          50.550          47.250    86351930.403 8
  22004870.420          38.568          50.800


 133608094.902 8                  25424761.740
       802.058                          48.450                    99772332.318 8
  25424765.780         598.908          49.900   102375075.284 8  25424763.620
       614.587          50.950   101073703.492 8  25424764.420         606.758
        53.000
 123122984.306 8                  23429508.720
     -1947.733                          51.700                    91942554.729 8
  23429511.840       -1454.450          50.500    94341046.958 8  23429508.460
     -1492.431          51.750    93141796.037 8  23429510.960       -1473.446
        53.650
 146223734.617 7                  27825443.820
     -3258.013                          42.200                   109193098.136 7
  27825448.620       -2432.903          42.900   112041598.972 7  27825446.480
     -2496.500          43.100   110617349.240 7  27825447.060       -2464.624
        45.600
 147991225.501 7                  28161794.960
      3122.340                          43.500                   110512946.599 7
  28161797.120        2331.577          42.350   113395878.814 6  28161794.240
      2392.457          41.550   111954407.895 7  28161797.020        2361.978
        44.650
 142841322.225 6                  27181799.000
      2763.769                          40.350                   106667228.988 6
  27181797.900        2063.748          41.150   109449835.911 6  27181796.980
      2117.668          40.700   108058534.644 7  27181797.860        2090.615
        43.700
 122998955.666 8                  23405894.060
      -259.943                          52.400                    91849958.362 9
  23405894.760        -194.137          54.250    94246026.910 9  23405892.240
      -199.155          55.050    93047990.828 9  23405894.080        -196.664
        57.250
 132915741.060 8                  25293002.480
      1983.501                          49.450                    99255339.045 8
  25293005.340        1481.143          48.700   101844595.721 8  25293003.920
      1519.855          49.600   100549968.073 8  25293005.280        1500.498
        51.800
 135279600.685 8                  25742825.580
     -2186.938                          48.100                   101020581.177 7
  25742828.200       -1633.098          47.100   103655887.571 8  25742826.900
     -1675.687          48.950   102338222.563 8  25742828.120       -1654.403
        50.600
 139072828.433 7                  26464672.300
       575.079                          44.950                   103853112.097 7
  26464675.800         429.475          47.700   106562308.422 7  26464670.540
       440.541          45.350   105207709.457 8  26464673.660         435.029
        49.450
 23 11 17 17 31 30.0000000  0 19G03G06G11G12G19G24G25G28G29G32E03E05
                                E09E10E12E24E25E31E33
 133840384.273 6 104291206.54046  25468973.460                    25468974.400
       640.794         499.318          37.050          37.700    99945725.886 7
  25468975.060         478.290          45.900


 123427922.727 7  96177621.19847  23487548.160                    23487548.660
       268.896         209.529          45.450          45.250    92170225.379 7
  23487551.040         200.852          45.650


 125686288.912 7  97937359.85346  23917301.320                    23917300.580
      2162.249        1684.872          43.700          40.800    93856663.291 7
  23917304.000        1614.809          47.900


 107489893.998 8  83758438.64348  20454612.900                    20454609.100
     -1301.964       -1014.517          51.350          51.250



 129941610.855 6 101253239.51145  24727044.060                    24727038.260
     -3530.397       -2750.954          40.150          35.000



 120274927.876 7  93720772.98547  22887538.100                    22887538.180
     -3335.783       -2599.312          46.000          45.700    89815758.177 8
  22887539.360       -2490.809          50.650


 105763455.453 8  82413150.03948  20126092.040                    20126091.260
      1215.745         947.334          51.250          51.450    78979292.531 9
  20126092.600         907.896          55.700


 124479471.917 7  96997023.89146  23687642.300                    23687641.660
      3335.711        2599.257          45.050          40.950    92955489.799 7
  23687645.760        2490.956          47.700


 123155071.692 7  95965033.49047  23435611.460                    23435609.460
      3643.527        2839.114          46.150          46.150



 115635196.081 8  90105396.27147  22004633.800                    22004633.860
        31.274          24.370          50.550          47.200    86350998.020 8
  22004632.840          23.339          50.850


 133584240.357 8                  25420222.440
       787.696                          48.200                    99754518.877 8
  25420226.240         588.313          49.800   102356797.146 8  25420224.200
       603.558          51.000   101055657.703 8  25420224.980         595.949
        52.900
 123181582.056 8                  23440659.640
     -1959.233                          51.250                    91986312.805 8
  23440662.660       -1463.108          50.550    94385946.537 8  23440659.240
     -1501.274          51.900    93186124.862 8  23440661.660       -1482.168
        53.700
 146321470.105 7                  27844042.020
     -3258.060                          43.000                   109266082.371 7
  27844047.120       -2432.981          42.400   112116487.171 7  27844044.840
     -2496.541          43.050   110691285.460 7  27844045.660       -2464.748
        45.300
 147897547.799 7                  28143969.000
      3122.399                          44.200                   110442992.455 7
  28143970.640        2331.630          42.200   113324099.798 7  28143968.240
      2392.530          42.600   111883541.304 7  28143970.620        2362.231
        45.150
 142758492.392 6                  27166037.100
      2758.032                          40.750                   106605375.546 6
  27166035.680        2059.486          40.850   109386368.896 6  27166034.620
      2113.197          41.000   107995874.416 7  27166035.740        2086.315
        43.700
 123006860.705 8                  23407398.440
      -267.379                          52.700                    91855861.486 9
  23407398.760        -199.709          54.200    94252084.031 9  23407396.460
      -204.890          55.000    93053970.951 9  23407398.360        -202.295
        57.200
 132856304.649 8                  25281692.180
      1978.512                          49.650                    99210954.777 8
  25281694.600        1477.476          48.500   101799053.605 8  25281693.520
      1515.983          50.050   100505004.879 8  25281694.840        1496.781
        51.850
 135345246.504 7                  25755317.540
     -2189.870                          47.850                   101069602.403 7
  25755320.380       -1635.240          47.250   103706187.608 8  25755318.360
     -1677.878          48.700   102387883.199 8  25755319.980       -1656.562
        50.500
 139055799.007 7                  26461431.480
       559.839                          44.300                   103840395.357 7
  26461434.720         418.081          47.150   106549259.935 7  26461429.880
       428.908          45.300   105194826.843 8  26461432.980         423.487
        49.100
