     2.11           OBSERVATION DATA    M (MIXED)           RINEX VERSION / TYPE
teqc  2019Feb25                         20231219 14:45:51UTCPGM / RUN BY / DATE
Linux 2.6.32-573.12.1.x86_64|x86_64|gcc|Linux 64|=+         COMMENT
teqc  2019Feb25                         20231219 14:45:51UTCCOMMENT
teqc  2019Feb25     IGN-RGP             20231219 11:02:18UTCCOMMENT
teqc  2019Feb25     Administrateur RGP  20231219 11:02:18UTCCOMMENT
teqc  2019Feb25     IGN-RGP             20231219 11:02:15UTCCOMMENT
teqc  2019Feb25     IGN-RGP             20231219 11:02:14UTCCOMMENT
BIT 2 OF LLI FLAGS DATA COLLECTED UNDER A/S CONDITION       COMMENT
IGNF                                                        MARKER NAME
10001M009                                                   MARKER NUMBER
Automatic           IGN                                     OBSERVER / AGENCY
1834194             LEICA GR50          4.51                REC # / TYPE / VERS
5000113963          TRM57971.00     NONE                    ANT # / TYPE
  4201694.1440   177888.8370  4779371.7670                  APPROX POSITION XYZ
        0.0000        0.0000        0.0000                  ANTENNA: DELTA H/E/N
     1     1                                                WAVELENGTH FACT L1/2
    21    L1    L2    C1    P1    P2    D1    D2    S1    S2# / TYPES OF OBSERV
          L5    C5    D5    S5    L7    C7    D7    S7    L8# / TYPES OF OBSERV
          C8    D8    S8                                    # / TYPES OF OBSERV
    30.0000                                                 INTERVAL
DefaultJobName                                              COMMENT
DefaultUserDiscription                                      COMMENT
Project creator:                                            COMMENT
 SNR is mapped to RINEX snr flag value [0-9]                COMMENT
  L1 & L2: min(max(int(snr_dBHz/6), 0), 9)                  COMMENT
    18                                                      LEAP SECONDS
Forced Modulo Decimation to 30 seconds                      COMMENT
teqc_2019 edited: all GLONASS satellites excluded           COMMENT
teqc_2019 edited: all SBAS satellites excluded              COMMENT
  2023    12    19    10     0    0.0000000     GPS         TIME OF FIRST OBS
                                                            END OF HEADER
 23 12 19 10  0  0.0000000  0 21G05G07G08G13G14G15G18G20G22G23G24G30
                                E02E03E05E08E13E15E24E25E26
 109912236.757 8  85645891.82348  20915608.620                    20915607.100
     -1436.408       -1119.281          50.750          50.700



 125557630.846 7  97837093.99647  23892832.640                    23892832.680
     -2874.166       -2239.614          43.400          43.200



 130932144.362 6 102025080.07646  24915555.740                    24915559.020
       -58.891         -45.889          41.250          40.900    97774037.655 7
  24915562.400         -44.010          43.000


 105360656.821 8  82099210.36448  20049465.660                    20049463.960
       826.125         643.733          50.500          50.350



 112124521.676 8  87369779.15247  21336576.640                    21336575.860
      1044.791         814.123          49.100          47.350    83729404.737 8
  21336581.700         780.255          53.650


 114748509.438 8  89414399.42847  21835918.840                    21835918.100
      2910.149        2267.650          48.300          45.950



 127335169.628 7  99222185.32246  24231085.820                    24231087.000
      -262.013        -204.165          43.150          39.600    95087944.333 7
  24231092.020        -195.530          46.950


 118411569.258 7  92268731.71547  22532983.040                    22532983.380
     -3374.201       -2629.253          46.650          42.100



 114330554.947 8  89088764.12047  21756368.260                    21756367.720
      2064.448        1608.663          49.900          44.100



 134041623.155 6 104448022.24446  25507275.520                    25507275.240
      3629.691        2828.322          40.550          39.000   100096034.860 7
  25507280.820        2710.494          44.200


 129373900.934 6 100810847.73846  24619035.480                    24619042.000
      3684.971        2871.405          39.600          37.900    96610404.364 7
  24619041.720        2751.740          43.800


 113301019.952 8  88286504.10148  21560468.740                    21560469.360
     -2056.094       -1602.152          49.950          49.750    84607896.905 8
  21560470.660       -1535.281          53.950


 135797036.840 8                  25841308.220
      2950.979                          48.850                   101406938.285 7
  25841314.440        2203.751          46.650   104052314.092 7  25841310.100
      2261.167          47.050   102729608.336 8  25841313.260        2232.491
        50.050
 123401060.625 8                  23482441.280
      -714.745                          53.000                    92150157.635 9
  23482445.480        -533.715          54.000    94554066.055 8  23482442.000
      -547.637          53.900    93352106.996 9  23482443.960        -540.659
        57.150
 133210874.554 7                  25349195.800
     -2430.789                          46.850                    99475650.223 7
  25349202.300       -1815.252          45.400   102070655.170 7  25349198.040
     -1862.544          43.550   100773150.352 7  25349201.760       -1838.902
        47.900
 128291256.753 8                  24413015.680
      1662.996                          52.700                    95801925.370 8
  24413017.640        1241.843          51.900    98301094.270 8  24413015.380
      1274.238          53.000    97051509.468 9  24413016.520        1258.045
        55.550
 141485730.564 7                  26923849.560
     -1968.989                          46.100                   105654926.776 7
  26923856.440       -1470.255          45.550   108411128.263 7  26923852.960
     -1508.697          43.300   107033027.172 7  26923854.820       -1489.488
        47.750
 149562576.375 6                  28460831.500
     -3032.227                          40.150                   111686325.381 6
  28460842.240       -2264.267          41.850   114599876.380 6  28460837.780
     -2323.151          41.850   113143100.034 7  28460840.780       -2293.691
        45.000
 139722962.493 7                  26588396.180
     -2031.013                          46.600                   104338595.383 7
  26588401.220       -1516.699          47.850   107060459.068 7  26588397.560
     -1556.266          46.550   105699519.377 8  26588400.000       -1536.494
        50.600
 127407145.655 8                  24244765.940
       715.721                          52.550                    95141754.079 8
  24244770.880         534.501          52.400    97623689.408 8  24244768.300
       548.428          52.850    96382719.395 9  24244769.640         541.454
        55.750
 144275739.896 7                  27454766.940
       476.391                          43.850                   107738384.700 7
  27454770.840         355.673          43.850   110548936.413 7  27454770.100
       365.036          45.200   109143659.207 7  27454770.200         360.394
        47.600
 23 12 19 10  0 30.0000000  0 21G05G07G08G13G14G15G18G20G22G23G24G30
                                E02E03E05E08E13E15E24E25E26
 109955619.448 8  85679696.47048  20923864.060                    20923862.760
     -1455.425       -1134.099          50.550          50.650



 125643904.568 7  97904320.14246  23909249.780                    23909250.320
     -2877.146       -2241.937          42.300          41.950



 130934199.972 6 102026681.85846  24915946.940                    24915950.840
       -77.812         -60.634          40.600          41.000    97775572.708 7
  24915953.220         -57.905          43.150


 105336066.926 8  82080049.39248  20044786.380                    20044784.740
       813.604         633.977          50.150          50.100



 112093461.823 8  87345576.68947  21330666.040                    21330665.300
      1026.271         799.691          48.450          47.600    83706210.720 8
  21330671.200         766.328          53.650


 114661339.860 8  89346475.13347  21819331.000                    21819329.880
      2901.486        2260.898          48.300          47.000



 127343315.948 6  99228533.06546  24232635.880                    24232637.260
      -280.854        -218.849          41.700          41.300    95094027.579 7
  24232642.520        -209.676          46.950


 118512932.198 7  92347715.73947  22552271.940                    22552272.180
     -3383.017       -2636.119          46.800          42.150



 114268857.959 8  89040688.60447  21744627.640                    21744627.100
      2049.008        1596.632          49.250          44.750



 133932800.456 6 104363225.13746  25486567.400                    25486567.200
      3625.408        2824.988          39.450          38.300   100014770.895 7
  25486573.040        2707.425          44.850


 129263408.661 6 100724749.83046  24598009.500                    24598015.720
      3681.720        2868.868          38.450          38.200    96527893.853 7
  24598015.660        2749.259          43.400


 113362849.993 8  88334683.30648  21572234.560                    21572235.460
     -2065.432       -1609.429          49.800          49.800    84654068.637 8
  21572236.440       -1542.461          53.950


 135708599.964 8                  25824479.160
      2945.233                          48.950                   101340897.961 7
  25824485.180        2199.375          47.500   103984550.954 7  25824480.760
      2256.735          47.600   102662706.614 8  25824484.160        2228.017
        50.450
 123422624.684 8                  23486544.760
      -722.359                          52.550                    92166260.661 9
  23486548.960        -539.462          54.000    94570589.162 8  23486545.320
      -553.529          53.850    93368420.065 9  23486547.500        -546.495
        56.800
 133283856.439 7                  25363083.900
     -2434.238                          46.550                    99530149.536 7
  25363090.660       -1817.634          46.000   102126576.236 7  25363086.040
     -1865.191          43.850   100828360.541 8  25363090.000       -1841.374
        48.100
 128241448.358 8                  24403537.480
      1657.973                          52.300                    95764730.809 8
  24403539.500        1238.111          51.850    98262929.412 8  24403537.420
      1270.422          53.150    97013829.760 9  24403538.280        1254.304
        55.250
 141544963.671 7                  26935121.220
     -1979.354                          45.800                   105699159.185 7
  26935128.300       -1478.204          45.950   108456514.579 7  26935124.760
     -1516.666          43.950   107077836.532 7  26935126.740       -1497.426
        47.950
 149653524.546 6                  28478138.460
     -3030.665                          40.600                   111754240.996 6
  28478149.140       -2263.147          40.500   114669563.733 6  28478144.920
     -2322.142          41.400   113211901.516 7  28478147.860       -2292.601
        43.850
 139784051.473 7                  26600021.000
     -2040.961                          46.150                   104384213.717 7
  26600025.760       -1524.297          47.750   107107267.448 7  26600022.520
     -1564.002          46.700   105745732.737 8  26600024.900       -1544.150
        50.250
 127385893.312 8                  24240721.920
       701.540                          52.150                    95125883.838 8
  24240726.940         523.860          52.550    97607405.157 8  24240724.300
       537.515          52.900    96366642.145 9  24240725.420         530.714
        55.450
 144261676.751 7                  27452090.720
       461.656                          43.700                   107727882.946 7
  27452095.180         344.703          43.850   110538160.711 7  27452094.380
       353.725          44.850   109133020.484 7  27452094.080         349.184
        47.100
 23 12 19 10  1  0.0000000  0 21G05G07G08G13G14G15G18G20G22G23G24G30
                                E02E03E05E08E13E15E24E25E26
 109999585.531 8  85713955.70048  20932230.520                    20932229.380
     -1475.106       -1149.436          50.750          50.700



 125730272.232 7  97971619.49147  23925684.940                    23925685.540
     -2880.025       -2244.181          42.950          43.150



 130936820.702 6 102028724.01446  24916445.800                    24916449.700
       -96.573         -75.250          41.200          41.300    97777529.802 7
  24916451.700         -72.028          43.100


 105311864.534 8  82061190.38848  20040180.820                    20040179.260
       800.491         623.760          50.200          50.150



 112062969.532 8  87321816.48547  21324863.400                    21324862.940
      1007.150         784.794          48.600          47.350    83683440.519 8
  21324868.580         752.154          53.650


 114574436.472 8  89278758.25047  21802793.880                    21802792.500
      2892.540        2253.929          49.000          46.600



 127352037.433 7  99235329.00746  24234295.460                    24234296.780
      -300.040        -233.799          42.250          41.000    95100540.355 7
  24234302.400        -224.006          46.650


 118614566.115 7  92426910.89447  22571612.340                    22571612.680
     -3392.072       -2643.178          46.950          42.000



 114207637.164 8  88992984.15647  21732977.660                    21732977.160
      2032.903        1584.082          49.750          44.350



 133824110.476 6 104278531.40945  25465884.700                    25465884.400
      3620.863        2821.438          38.300          35.650    99933606.037 7
  25465890.480        2703.972          43.900


 129153023.406 6 100638735.29846  24577004.200                    24577009.720
      3678.154        2866.093          38.600          38.800    96445463.279 7
  24577010.320        2746.533          44.150


 113424974.765 8  88383092.17648  21584056.560                    21584057.760
     -2075.528       -1617.297          50.250          50.250    84700460.447 9
  21584058.440       -1549.804          54.100


 135620344.757 8                  25807684.660
      2939.024                          49.250                   101274993.279 7
  25807690.840        2194.867          47.700   103916927.018 7  25807686.280
      2251.987          47.650   102595942.300 8  25807689.680        2223.438
        50.100
 123444426.780 8                  23490693.480
      -730.511                          52.600                    92182541.429 9
  23490697.600        -545.474          54.050    94587294.652 9  23490694.060
      -559.702          54.150    93384913.195 9  23490696.360        -552.605
        56.600
 133356943.832 7                  25376992.040
     -2437.785                          46.600                    99584727.644 7
  25376999.100       -1820.297          45.650   102182578.146 7  25376994.180
     -1867.831          44.200   100883650.556 7  25376998.320       -1844.074
        47.650
 128191796.775 8                  24394088.980
      1652.751                          52.250                    95727653.360 8
  24394091.160        1234.171          51.900    98224884.731 8  24394089.240
      1266.364          53.650    96976268.698 9  24394089.940        1250.249
        55.100
 141604516.308 7                  26946453.680
     -1990.116                          45.700                   105743630.187 7
  26946460.960       -1486.180          45.800   108502145.714 7  26946457.440
     -1524.959          44.400   107122887.607 7  26946459.420       -1505.586
        47.600
 149744435.196 6                  28495438.440
     -3029.370                          40.850                   111822128.587 6
  28495448.860       -2262.267          41.950   114739222.273 6  28495445.000
     -2321.314          41.350   113280674.588 7  28495447.620       -2291.768
        43.950
 139845451.534 7                  26611704.920
     -2051.615                          45.700                   104430064.337 7
  26611709.540       -1532.036          47.650   107154314.175 7  26611706.680
     -1571.919          47.200   105792181.410 8  26611709.020       -1551.971
        49.950
 127365075.042 8                  24236760.480
       686.988                          52.350                    95110337.736 8
  24236765.580         513.015          52.800    97591453.504 8  24236762.840
       526.398          53.150    96350893.271 9  24236763.820         519.689
        55.300
 144248062.341 7                  27449499.840
       446.665                          43.500                   107717716.277 7
  27449505.020         333.526          44.500   110527728.832 7  27449503.740
       342.226          44.900   109122721.205 7  27449503.380         337.942
        47.050
 23 12 19 10  1 30.0000000  0 21G05G07G08G13G14G15G18G20G22G23G24G30
                                E02E03E05E08E13E15E24E25E26
 110044133.917 8  85748668.67148  20940707.760                    20940706.740
     -1495.098       -1165.014          50.300          50.150



 125816732.766 7  98038991.18047  23942137.920                    23942138.120
     -2884.058       -2247.323          42.850          42.800



 130940006.641 6 102031206.59946  24917051.960                    24917056.480
      -116.282         -90.608          40.050          40.300    97779908.959 7
  24917057.980         -86.720          43.350


 105288051.357 8  82042634.64748  20035649.240                    20035647.700
       786.777         613.072          49.900          49.800



 112033046.244 8  87298499.66047  21319169.060                    21319168.900
       987.546         769.518          48.450          47.900    83661095.233 8
  21319174.220         737.362          53.300


 114487801.174 8  89211250.24847  21786307.760                    21786306.440
      2882.768        2246.313          48.950          47.000



 127361333.759 7  99242572.86846  24236064.400                    24236065.680
      -319.974        -249.330          42.850          40.650    95107482.369 7
  24236071.400        -238.902          46.050


 118716468.376 7  92506315.16546  22591003.880                    22591004.220
     -3401.594       -2650.596          46.700          41.350



 114146894.934 8  88945652.61647  21721418.720                    21721418.140
      2016.213        1571.077          49.300          44.300



 133715556.250 6 104193943.49546  25445227.560                    25445227.680
      3615.497        2817.262          40.100          40.200    99852542.553 7
  25445233.700        2700.071          45.250


 129042746.771 6 100552805.51246  24556019.280                    24556024.640
      3673.568        2862.521          39.500          39.600    96363113.863 7
  24556025.500        2743.250          44.100


 113487393.051 8  88431729.74948  21595934.420                    21595935.760
     -2085.975       -1625.437          50.100          50.000    84747071.451 8
  21595936.320       -1557.712          53.900


 135532273.271 8                  25790925.180
      2932.045                          49.000                   101209225.774 7
  25790931.320        2189.534          47.550   103849443.812 7  25790926.100
      2246.615          46.950   102529316.942 8  25790930.160        2218.155
        50.250
 123466467.400 8                  23494887.600
      -739.166                          52.300                    92199000.334 8
  23494891.560        -551.977          53.950    94604182.921 9  23494888.280
      -566.371          54.200    93401586.781 9  23494890.580        -559.183
        56.950
 133430136.802 7                  25390920.200
     -2442.053                          46.100                    99639384.622 7
  25390927.580       -1823.621          46.100   102238660.962 7  25390922.600
     -1871.083          44.750   100939020.451 8  25390926.660       -1847.404
        48.550
 128142303.117 8                  24384670.420
      1646.622                          52.000                    95690693.829 8
  24384672.920        1229.603          51.850    98186961.045 8  24384670.940
      1261.686          53.550    96938827.089 9  24384671.660        1245.647
        55.450
 141664386.977 7                  26957846.580
     -2001.266                          44.650                   105788338.703 7
  26957854.020       -1494.611          45.800   108548020.557 7  26957850.680
     -1533.638          44.650   107168179.284 8  26957852.600       -1514.129
        48.150
 149835306.675 7                  28512730.920
     -3028.869                          42.100                   111889986.839 6
  28512741.200       -2261.947          39.450   114808850.823 7  28512737.680
     -2320.814          43.550   113349417.984 7  28512740.320       -2291.388
        44.350
 139907161.381 7                  26623447.580
     -2062.804                          44.850                   104476146.287 7
  26623452.300       -1540.272          47.350   107201598.273 7  26623449.820
     -1580.440          47.500   105838864.436 8  26623452.060       -1560.366
        50.350
 127344691.540 8                  24232881.700
       671.671                          52.600                    95095116.293 8
  24232887.000         501.581          52.850    97575834.984 8  24232884.020
       514.628          53.050    96335473.290 9  24232884.980         508.091
        55.750
 144234897.269 7                  27446994.520
       430.810                          43.300                   107707885.169 7
  27447000.320         321.679          44.450   110517641.261 7  27446998.060
       330.164          44.500   109112761.874 7  27446998.200         325.870
        47.300
 23 12 19 10  2  0.0000000  0 21G05G07G08G13G14G15G18G20G22G23G24G30
                                E02E03E05E08E13E15E24E25E26
 110089255.730 8  85783828.47848  20949294.140                    20949293.180
     -1514.090       -1179.812          49.950          50.200



 125903277.622 7  98106428.60146  23958607.060                    23958606.340
     -2886.852       -2249.498          42.150          41.850



 130943750.767 6 102034124.13146  24917764.160                    24917769.760
      -134.687        -104.950          37.550          37.650    97782704.907 7
  24917770.740        -100.425          43.700


 105264620.730 8  82024377.00148  20031190.400                    20031188.820
       774.215         603.283          49.350          49.650



 112003685.567 8  87275621.23748  21313581.840                    21313581.920
       968.982         755.052          48.300          48.100    83639170.078 8
  21313586.820         723.498          53.250


 114401428.617 8  89143946.98647  21769871.680                    21769870.560
      2874.199        2239.637          48.400          47.750



 127371196.762 7  99250258.28846  24237941.300                    24237942.560
      -338.771        -263.979          42.400          41.000    95114847.565 7
  24237948.020        -252.866          45.800


 118818628.985 7  92585920.72447  22610444.520                    22610444.760
     -3410.032       -2657.172          46.650          42.450



 114086626.044 8  88898689.91847  21709949.880                    21709949.300
      2000.618        1558.926          49.100          44.600



 133607132.684 6 104109457.34846  25424595.460                    25424595.660
      3611.321        2814.006          38.700          36.800    99771576.644 7
  25424601.660        2696.833          44.200


 128932572.761 6 100466955.63846  24535053.940                    24535059.040
      3670.377        2860.035          38.050          37.250    96280841.102 7
  24535060.140        2740.750          45.000


 113550095.945 8  88480589.09448  21607866.380                    21607867.660
     -2095.346       -1632.739          49.450          49.250    84793894.972 8
  21607868.320       -1564.685          53.950


 135444379.839 8                  25774199.480
      2926.264                          48.900                   101143591.215 8
  25774205.760        2185.214          48.400   103782097.030 7  25774200.520
      2242.193          47.600   102462826.275 8  25774204.440        2213.747
        50.900
 123488739.402 8                  23499125.780
      -746.711                          52.200                    92215632.015 9
  23499129.680        -557.591          54.150    94621248.475 9  23499126.660
      -572.170          54.250    93418435.402 9  23499128.840        -564.910
        57.100
 133503427.728 7                  25404866.940
     -2445.007                          44.950                    99694114.724 7
  25404874.880       -1825.858          45.700   102294818.831 7  25404869.740
     -1873.555          44.150   100994464.437 8  25404873.580       -1849.704
        48.050
 128092960.746 8                  24375280.640
      1641.791                          51.250                    95653847.269 8
  24375283.480        1225.975          51.900    98149153.269 8  24375281.220
      1257.990          53.250    96901499.921 9  24375282.160        1241.981
        55.400
 141724566.479 7                  26969298.220
     -2011.580                          43.600                   105833277.816 7
  26969305.760       -1502.288          45.700   108594131.991 7  26969302.540
     -1541.296          44.350   107213704.558 8  26969304.460       -1521.762
        48.000
 149926129.516 6                  28530014.080
     -3027.359                          38.200                   111957808.787 6
  28530024.160       -2260.433          40.600   114878442.050 6  28530021.080
     -2319.469          40.500   113418124.567 7  28530023.280       -2289.975
        43.450
 139969172.045 7                  26635247.560
     -2072.439                          45.200                   104522452.889 7
  26635252.400       -1547.649          47.550   107249112.873 7  26635250.240
     -1587.903          47.350   105885775.035 8  26635252.280       -1567.800
        50.350
 127324735.740 8                  24229084.300
       657.513                          52.350                    95080214.236 8
  24229089.700         491.058          52.950    97560544.176 8  24229086.460
       503.888          52.800    96320376.855 9  24229087.520         497.476
        55.700
 144222174.497 7                  27444573.300
       416.215                          43.000                   107698384.347 7
  27444579.600         310.821          44.700   110507892.621 7  27444576.500
       318.913          44.000   109103137.134 7  27444577.240         314.878
        47.350
 23 12 19 10  2 30.0000000  0 21G05G07G08G13G14G15G18G20G22G23G24G30
                                E02E03E05E08E13E15E24E25E26
 110134958.064 8  85819440.62948  20957991.020                    20957990.040
     -1532.746       -1194.350          50.450          50.350



 125989914.181 7  98173937.47947  23975093.760                    23975092.240
     -2889.059       -2251.219          43.550          43.600



 130948061.715 6 102037483.33146  24918584.540                    24918590.560
      -152.871        -119.119          39.650          39.550    97785924.141 7
  24918591.460        -114.197          43.400


 105241581.567 8  82006424.40048  20026806.080                    20026804.520
       761.801         593.610          49.850          49.700



 111974896.993 8  87253188.59847  21308103.580                    21308103.820
       950.514         740.660          48.750          47.400    83617672.137 8
  21308108.300         709.672          52.900


 114315329.417 8  89076856.71547  21753487.500                    21753486.660
      2865.691        2233.007          48.900          47.000



 127381633.961 7  99258391.15246  24239927.640                    24239928.780
      -357.165        -278.312          42.700          40.800    95122641.562 7
  24239933.660        -266.679          45.400


 118921053.657 7  92665732.06246  22629935.460                    22629935.680
     -3418.335       -2663.642          46.650          40.500



 114026840.574 8  88852103.91447  21698573.080                    21698572.260
      1985.015        1546.767          49.550          44.250



 133498850.742 6 104025081.55746  25403990.260                    25403990.420
      3607.290        2810.868          37.900          36.550    99690716.485 7
  25403996.620        2693.702          45.000


 128822511.046 6 100381193.39046  24514109.840                    24514115.080
      3667.024        2857.428          38.600          38.650    96198652.285 7
  24514116.320        2738.428          44.400


 113613090.252 8  88529675.51348  21619853.720                    21619854.880
     -2104.306       -1639.721          49.300          49.400    84840936.118 8
  21619855.780       -1571.496          53.750


 135356674.506 8                  25757509.640
      2920.681                          48.700                   101078097.116 8
  25757516.000        2180.916          48.000   103714894.373 7  25757510.800
      2237.934          47.050   102396477.901 8  25757514.580        2209.414
        50.550
 123511251.364 8                  23503409.640
      -754.201                          52.450                    92232442.881 9
  23503413.620        -563.155          54.100    94638497.884 9  23503410.780
      -577.907          54.450    93435465.533 9  23503412.700        -570.521
        57.050
 133576824.716 7                  25418833.820
     -2447.992                          44.800                    99748924.049 7
  25418842.160       -1828.021          46.050   102351057.973 7  25418836.960
     -1875.788          44.700   101049988.673 8  25418840.620       -1851.945
        48.350
 128043778.830 8                  24365921.460
      1636.997                          51.800                    95617120.531 8
  24365924.360        1222.390          51.400    98111468.442 8  24365921.940
      1254.335          53.200    96864294.139 9  24365923.200        1238.331
        55.100
 141785061.365 7                  26980809.840
     -2021.478                          43.150                   105878452.441 7
  26980817.540       -1509.585          45.900   108640485.110 7  26980814.300
     -1548.910          44.650   107259468.431 8  26980816.340       -1529.303
        48.200
 150016910.146 6                  28547289.040
     -3025.007                          41.200                   112025599.224 6
  28547299.300       -2259.062          39.700   114948000.938 6  28547296.420
     -2317.793          39.650   113486799.236 7  28547298.340       -2288.516
        42.600
 140031490.368 7                  26647106.280
     -2081.916                          45.800                   104568989.226 7
  26647111.180       -1554.836          47.200   107296863.202 7  26647109.120
     -1595.296          47.400   105932918.366 8  26647111.060       -1575.081
        50.200
 127305216.331 8                  24225369.900
       643.701                          52.700                    95065638.060 8
  24225375.380         480.638          52.800    97545587.752 8  24225371.900
       493.171          52.850    96305610.559 9  24225373.120         486.892
        55.600
 144209902.773 7                  27442237.860
       402.032                          42.400                   107689220.350 7
  27442244.440         300.137          44.250   110498489.569 7  27442240.460
       307.971          43.750   109093853.614 7  27442242.160         303.981
        46.850
 23 12 19 10  3  0.0000000  0 21G05G07G08G13G14G15G18G20G22G23G24G30
                                E02E03E05E08E13E15E24E25E26
 110181235.362 8  85855500.81048  20966797.380                    20966796.300
     -1552.070       -1209.407          50.700          50.600



 126076637.167 7  98241513.69747  23991596.900                    23991595.320
     -2892.208       -2253.672          44.250          44.500



 130952936.230 6 102041281.67546  24919512.360                    24919518.280
      -171.716        -133.803          40.200          39.600    97789564.219 7
  24919519.320        -128.284          43.350


 105218930.924 8  81988774.54548  20022495.720                    20022494.300
       748.513         583.257          49.600          49.400



 111946677.497 8  87231199.40348  21302733.620                    21302733.920
       931.131         725.558          48.950          48.050    83596599.150 8
  21302738.040         695.319          52.800


 114229501.419 8  89009977.76147  21737154.940                    21737154.240
      2856.538        2225.873          49.250          46.100



 127392640.557 7  99266967.68146  24242022.180                    24242023.380
      -376.317        -293.234          42.150          41.150    95130860.730 7
  24242027.860        -281.113          45.800


 119023735.674 7  92745743.91246  22649475.280                    22649475.440
     -3426.912       -2670.323          47.500          40.300



 113967536.206 8  88805892.80847  21687287.780                    21687286.900
      1968.874        1534.189          50.050          43.600



 133390709.085 6 103940815.10646  25383411.820                    25383411.780
      3602.149        2806.866          37.850          37.500    99609961.085 7
  25383418.240        2690.046          45.550


 128712558.874 6 100295516.52346  24493186.480                    24493191.880
      3663.413        2854.613          38.550          38.100    96116545.330 7
  24493192.960        2735.515          45.100


 113676370.482 8  88578984.72948  21631895.520                    21631896.560
     -2113.923       -1647.215          49.400          49.750    84888190.765 8
  21631897.660       -1578.699          53.600


 135269154.962 8                  25740854.980
      2914.196                          48.850                   101012741.734 8
  25740861.300        2176.187          48.000   103647834.046 7  25740855.880
      2233.017          47.050   102330270.051 8  25740860.040        2204.564
        50.500
 123533999.461 8                  23507738.420
      -762.143                          52.750                    92249430.090 9
  23507742.580        -569.127          54.050    94655928.237 9  23507739.840
      -584.016          54.500    93452674.315 9  23507741.500        -576.554
        57.000
 133650323.484 7                  25432820.080
     -2451.595                          44.650                    99803809.367 7
  25432829.000       -1830.763          45.900   102407375.099 7  25432823.560
     -1878.563          44.000   101105589.895 7  25432826.980       -1854.680
        47.900
 127994754.120 8                  24356592.300
      1631.574                          51.650                    95580511.174 8
  24356594.900        1218.327          51.150    98073904.066 8  24356592.540
      1250.126          53.100    96827207.273 9  24356594.160        1234.223
        54.950
 141845865.761 7                  26992380.500
     -2031.939                          43.600                   105923858.194 7
  26992388.300       -1517.370          45.850   108687075.372 7  26992385.160
     -1556.895          44.700   107305466.441 8  26992387.160       -1537.197
        48.100
 150107642.503 6                  28564555.260
     -3023.561                          38.550                   112093353.550 6
  28564565.520       -2257.728          39.750   115017522.842 6  28564562.860
     -2316.861          40.750   113555437.349 7  28564564.420       -2287.332
        43.050
 140094110.708 7                  26659022.540
     -2092.239                          46.100                   104615751.086 7
  26659027.500       -1562.499          47.150   107344844.944 7  26659025.400
     -1603.268          47.300   105980290.169 8  26659027.320       -1582.887
        50.050
 127286129.643 8                  24221737.860
       629.072                          52.900                    95051385.012 8
  24221743.280         469.726          52.600    97530962.885 8  24221739.700
       481.983          52.800    96291171.601 9  24221741.060         475.866
        55.400
 144198078.275 7                  27439987.760
       386.640                          42.600                   107680390.323 7
  27439994.160         288.775          44.100   110489429.206 7  27439989.500
       296.303          42.950   109084908.419 7  27439992.220         292.516
        46.550
 23 12 19 10  3 30.0000000  0 21G05G07G08G13G14G15G18G20G22G23G24G30
                                E02E03E05E08E13E15E24E25E26
 110228091.347 8  85892011.91848  20975713.880                    20975712.700
     -1571.855       -1224.824          50.600          50.600



 126163450.174 7  98309160.04847  24008117.220                    24008115.960
     -2895.669       -2256.370          44.200          44.350



 130958378.319 6 102045522.28446  24920547.900                    24920553.800
      -191.156        -148.949          39.300          39.350    97793628.110 7
  24920555.020        -142.677          42.850


 105196674.280 8  81971431.70748  20018260.340                    20018259.040
       734.931         572.674          49.550          49.450



 111919032.957 8  87209658.21848  21297473.180                    21297473.380
       911.586         710.328          48.750          48.300    83575955.524 8
  21297477.260         680.718          52.850


 114143951.428 8  88943315.42747  21720875.240                    21720874.600
      2846.840        2218.316          48.700          46.550



 127404220.600 7  99275991.06346  24244225.820                    24244227.200
      -396.020        -308.590          42.600          41.100    95139508.121 7
  24244231.440        -295.641          46.250


 119126677.021 7  92825957.84046  22669064.500                    22669064.660
     -3436.007       -2677.412          46.400          41.900



 113908720.594 8  88760062.54847  21676095.580                    21676094.640
      1952.038        1521.072          49.800          44.750



 133282715.043 6 103856663.68746  25362861.480                    25362861.500
      3596.737        2802.635          40.650          37.850    99529315.899 7
  25362867.760        2686.102          45.250


 128602722.461 6 100209929.89946  24472284.800                    24472290.700
      3658.778        2851.002          37.950          38.550    96034524.871 7
  24472291.840        2732.368          45.450


 113739939.979 8  88628519.35648  21643992.380                    21643993.640
     -2124.117       -1655.157          49.250          49.600    84935661.430 8
  21643994.480       -1586.165          53.350


 135181827.820 8                  25724236.980
      2907.317                          48.200                   100947530.031 8
  25724243.460        2171.064          48.550   103580921.156 7  25724238.440
      2227.721          47.650   102264207.747 8  25724242.060        2199.428
        51.150
 123556988.823 8                  23512113.080
      -770.733                          52.300                    92266597.457 9
  23512117.420        -575.508          54.150    94673543.443 9  23512114.740
      -590.512          54.650    93470065.602 9  23512116.180        -583.004
        57.350
 133723928.672 7                  25446826.620
     -2455.616                          44.650                    99858774.137 7
  25446835.940       -1833.757          46.800   102463773.742 7  25446830.560
     -1881.574          44.600   101161271.602 8  25446833.680       -1857.706
        48.900
 127945892.288 8                  24347294.000
      1625.631                          51.000                    95544023.443 8
  24347296.460        1213.983          51.400    98036464.489 8  24347294.140
      1245.639          53.100    96790243.620 9  24347296.180        1229.795
        55.250
 141906982.741 7                  27004010.820
     -2042.878                          43.950                   105969497.369 7
  27004018.580       -1525.402          45.950   108733905.158 7  27004015.280
     -1565.176          44.800   107351700.916 8  27004017.460       -1545.265
        48.500
 150198329.777 6                  28581812.620
     -3022.303                          39.800                   112161074.150 7
  28581822.940       -2256.994          42.450   115087010.138 7  28581820.540
     -2315.866          43.050   113624041.296 7  28581822.160       -2286.432
        45.650
 140157036.439 7                  26670997.020
     -2102.878                          46.300                   104662740.984 7
  26671002.060       -1570.408          47.200   107393060.674 7  26670999.740
     -1611.241          47.500   106027892.982 8  26671001.700       -1590.829
        50.350
 127267480.875 8                  24218189.140
       614.001                          52.700                    95037458.980 8
  24218194.420         458.494          52.600    97516673.566 8  24218190.880
       470.469          53.000    96277063.926 9  24218192.320         464.489
        55.700
 144186706.253 7                  27437823.560
       371.149                          42.400                   107671898.163 7
  27437829.740         277.221          43.750   110480715.522 7  27437824.780
       284.413          43.000   109076305.500 7  27437828.300         280.832
        46.650
 23 12 19 10  4  0.0000000  0 21G05G07G08G13G14G15G18G20G22G23G24G30
                                E02E03E05E08E13E15E24E25E26
 110275521.350 8  85928970.30548  20984739.640                    20984738.280
     -1590.464       -1239.324          50.550          50.700



 126250348.964 7  98376873.25247  24024653.860                    24024652.780
     -2897.960       -2258.155          44.550          44.550



 130964385.815 6 102050203.44046  24921691.240                    24921696.800
      -209.688        -163.397          39.600          40.050    97798114.186 6
  24921697.780        -156.380          41.700


 105174809.110 8  81954393.90548  20014099.540                    20014098.180
       722.426         562.929          49.300          49.150



 111891961.148 8  87188563.31447  21292321.660                    21292321.720
       892.869         695.742          49.200          47.950    83555739.572 8
  21292325.580         666.786          52.900


 114058678.304 8  88876868.84647  21704648.220                    21704647.760
      2837.773        2211.252          49.100          47.300



 127416370.061 7  99285458.14146  24246537.880                    24246539.460
      -414.493        -322.982          42.300          40.150    95148580.727 7
  24246543.580        -309.474          46.150


 119229871.773 7  92906369.21346  22688701.940                    22688702.160
     -3443.866       -2683.535          46.950          41.600



 113850392.306 8  88714612.01347  21664996.160                    21664994.880
      1936.214        1508.741          50.200          44.250



 133174868.154 6 103772626.96846  25342339.220                    25342339.500
      3592.385        2799.258          40.550          38.500    99448780.616 7
  25342345.240        2682.704          45.050


 128492999.806 6 100124431.98946  24451404.780                    24451411.200
      3655.490        2848.445          38.550          38.650    95952589.438 7
  24451412.160        2729.795          44.600


 113803793.997 8  88678275.68048  21656143.400                    21656145.080
     -2133.141       -1662.189          49.250          49.400    84983344.568 8
  21656145.440       -1592.921          53.200


 135094691.536 7                  25707655.200
      2901.514                          47.950                   100882460.850 7
  25707661.780        2166.697          47.950   103514154.504 7  25707657.020
      2223.204          47.300   102198289.833 8  25707660.480        2194.937
        50.700
 123580216.408 8                  23516533.020
      -778.176                          52.200                    92283942.718 9
  23516537.540        -581.045          54.100    94691341.191 9  23516534.880
      -596.230          54.650    93487637.105 9  23516536.220        -588.624
        57.250
 133797636.764 7                  25460852.820
     -2458.600                          43.850                    99913815.747 7
  25460862.560       -1835.972          47.100   102520251.252 7  25460857.160
     -1883.853          44.350   101217031.156 8  25460860.020       -1859.920
        48.900
 127897190.879 8                  24338026.220
      1620.832                          51.300                    95507655.529 8
  24338028.760        1210.338          51.600    97999147.855 8  24338026.260
      1241.894          53.000    96753401.344 9  24338028.680        1226.111
        55.200
 141968407.242 7                  27015699.740
     -2052.517                          44.550                   106015366.180 7
  27015707.380       -1532.672          45.750   108780970.575 7  27015704.040
     -1572.726          45.000   107398168.037 8  27015706.320       -1552.789
        48.400
 150288966.740 6                  28599060.580
     -3020.287                          39.650                   112228757.159 6
  28599070.800       -2255.255          38.700   115156458.804 6  28599068.660
     -2314.224          40.350   113692607.124 7  28599070.100       -2284.645
        42.500
 140220262.695 7                  26683028.960
     -2112.553                          46.750                   104709955.292 7
  26683033.900       -1577.460          47.150   107441506.665 7  26683031.240
     -1618.570          47.300   106075723.127 8  26683033.280       -1597.979
        50.150
 127249267.098 8                  24214723.160
       599.939                          52.750                    95023857.781 8
  24214728.240         447.984          52.350    97502717.553 8  24214724.940
       459.711          53.150    96263285.320 9  24214726.360         453.835
        55.600
 144175783.690 7                  27435745.260
       356.866                          42.900                   107663741.641 7
  27435751.060         266.428          43.800   110472346.223 7  27435746.020
       273.276          43.050   109068042.589 7  27435749.860         269.876
        46.500
 23 12 19 10  4 30.0000000  0 21G05G07G08G13G14G15G18G20G22G23G24G30
                                E02E03E05E08E13E15E24E25E26
 110323523.498 8  85966374.52548  20993874.200                    20993872.740
     -1609.692       -1254.308          50.250          50.300



 126337332.295 7  98444652.31847  24041206.440                    24041205.540
     -2900.998       -2260.523          44.750          45.550



 130970958.201 6 102055324.74546  24922941.640                    24922947.460
      -228.689        -178.200          39.750          39.450    97803022.082 7
  24922947.800        -170.738          42.850


 105153336.069 8  81937661.66448  20010013.400                    20010011.860
       709.171         552.601          49.850          49.700



 111865462.939 8  87167915.37147  21287279.280                    21287279.220
       873.416         680.584          49.250          47.450    83535951.966 8
  21287283.100         652.277          52.850


 113973683.936 8  88810639.48347  21688474.400                    21688473.980
      2828.329        2203.894          49.750          46.350



 127429087.977 6  99295368.18146  24248957.900                    24248959.640
      -433.675        -337.932          41.750          39.700    95158077.820 7
  24248963.900        -323.818          45.850


 119333316.999 7  92986975.77846  22708386.980                    22708387.160
     -3452.510       -2690.271          46.550          41.150



 113792553.013 8  88669542.52247  21653989.740                    21653988.500
      1919.669        1495.849          50.300          44.550



 133067170.850 6 103688706.80746  25321845.340                    25321845.720
      3587.015        2795.072          39.550          38.550    99368357.093 7
  25321851.480        2678.754          46.050


 128383392.108 6 100039023.63846  24430546.880                    24430553.500
      3651.615        2845.422          37.950          37.700    95870739.842 7
  24430554.160        2726.648          44.550


 113867930.932 8  88728252.46448  21668348.240                    21668350.280
     -2142.577       -1669.542          48.950          49.000    85031238.990 8
  21668350.360       -1600.148          53.050


 135007747.765 8                  25691110.160
      2894.747                          48.050                   100817535.404 8
  25691116.580        2161.701          48.100   103447535.343 8  25691112.080
      2218.021          48.000   102132517.528 8  25691115.500        2189.903
        51.050
 123603682.356 8                  23520998.320
      -786.305                          52.050                    92301465.977 9
  23521002.980        -587.193          54.000    94709321.577 9  23521000.300
      -602.475          54.650    93505388.929 9  23521001.620        -594.856
        57.250
 133871447.452 7                  25474898.560
     -2462.352                          43.750                    99968933.969 7
  25474908.620       -1838.697          47.700   102576807.371 7  25474903.360
     -1886.760          45.350   101272868.327 8  25474905.960       -1862.718
        49.750
 127848650.621 8                  24328789.240
      1615.112                          51.350                    95471407.953 8
  24328791.940        1206.058          51.800    97961954.686 8  24328789.080
      1237.548          53.000    96716680.972 9  24328791.820        1221.800
        55.350
 142030137.264 7                  27027446.800
     -2062.853                          44.400                   106061463.166 7
  27027454.240       -1540.627          45.700   108828270.091 7  27027450.980
     -1580.655          45.300   107444866.290 8  27027453.280       -1560.742
        48.600
 150379551.378 6                  28616298.560
     -3018.786                          40.750                   112296401.221 6
  28616308.700       -2254.301          38.850   115225867.502 6  28616306.800
     -2313.060          41.350   113761133.510 7  28616307.980       -2283.662
        42.900
 140283787.887 7                  26695117.620
     -2122.566                          46.100                   104757392.843 7
  26695122.620       -1585.047          46.950   107490181.733 7  26695119.500
     -1626.464          47.050   106123779.443 8  26695121.760       -1605.795
        49.950
 127231488.520 8                  24211340.000
       585.123                          52.750                    95010581.566 8
  24211344.820         436.942          52.150    97489095.006 8  24211341.880
       448.354          53.250    96249835.937 9  24211343.240         442.674
        55.650
 144165310.854 7                  27433752.460
       341.374                          43.650                   107655920.962 7
  27433758.040         254.889          43.950   110464321.526 7  27433753.500
       261.565          43.700   109060119.899 7  27433756.980         258.254
        46.800
 23 12 19 10  5  0.0000000  0 21G05G07G08G13G14G15G18G20G22G23G24G30
                                E02E03E05E08E13E15E24E25E26
 110372092.701 8  86004220.60448  21003116.580                    21003115.100
     -1628.291       -1268.800          50.100          50.250



 126424395.132 7  98512493.33047  24057774.020                    24057773.220
     -2903.177       -2262.220          44.350          44.100



 130978092.169 6 102060883.67346  24924299.300                    24924305.020
      -247.081        -192.529          40.750          41.000    97808349.374 7
  24924305.020        -184.494          42.400


 105132252.228 8  81921232.70148  20006001.340                    20005999.600
       696.504         542.729          49.600          49.600



 111839535.359 8  87147712.06648  21282345.520                    21282345.280
       854.949         666.195          48.950          48.100    83516590.479 8
  21282349.340         638.374          53.000


 113888966.208 8  88744625.68647  21672353.220                    21672352.740
      2819.431        2196.959          49.050          47.050



 127442369.414 6  99305717.31646  24251485.080                    24251487.240
      -451.825        -352.071          41.300          41.050    95167995.743 7
  24251491.420        -337.497          46.100


 119437006.316 7  93067772.52046  22728118.420                    22728118.700
     -3460.409       -2696.428          46.100          41.750



 113735200.925 8  88624852.66347  21643076.000                    21643074.640
      1903.785        1483.472          50.050          44.950



 132959621.799 6 103604902.16546  25301379.580                    25301380.240
      3582.480        2791.536          38.350          36.250    99288044.323 7
  25301385.940        2675.326          43.350


 128273896.688 6  99953702.76046  24409710.320                    24409716.960
      3648.037        2842.635          38.100          38.200    95788974.045 7
  24409717.700        2724.202          44.550


 113932345.404 8  88778445.50248  21680606.060                    21680608.140
     -2151.696       -1676.648          49.300          49.250    85079340.639 8
  21680608.180       -1606.744          53.100


 134920994.245 7                  25674601.220
      2888.706                          47.250                   100752752.061 8
  25674607.880        2157.083          48.300   103381061.979 8  25674603.860
      2213.416          48.350   102066889.171 8  25674606.740        2185.308
        51.100
 123627382.947 8                  23525508.240
      -793.840                          51.850                    92319164.455 8
  23525512.980        -592.790          53.900    94727481.760 9  23525510.380
      -608.285          54.700    93523318.260 9  23525511.700        -600.540
        57.000
 133945356.562 7                  25488962.900
     -2465.306                          43.300                   100024125.662 7
  25488973.400       -1840.833          47.700   102633438.865 7  25488968.360
     -1888.863          45.800   101328779.916 8  25488970.600       -1864.839
        49.700
 127800268.392 8                  24319582.400
      1610.214                          51.000                    95435278.380 8
  24319585.280        1202.406          52.150    97924882.607 8  24319582.040
      1233.772          53.100    96680080.146 9  24319585.020        1218.118
        55.400
 142092167.040 7                  27039250.760
     -2072.556                          44.050                   106107783.958 7
  27039258.160       -1547.624          45.350   108875799.273 7  27039254.960
     -1588.029          45.550   107491791.266 8  27039257.260       -1567.827
        48.250
 150470077.927 6                  28633525.320
     -3016.491                          40.550                   112364001.835 6
  28633535.780       -2252.436          40.800   115295231.671 6  28633533.920
     -2311.225          41.650   113829615.907 7  28633534.840       -2281.894
        43.900
 140347606.422 7                  26707262.000
     -2131.962                          46.050                   104805049.465 7
  26707267.200       -1592.079          46.800   107539081.576 7  26707263.560
     -1633.646          46.900   106172057.677 8  26707266.080       -1612.872
        49.550
 127214141.466 8                  24208038.980
       571.257                          52.400                    94997627.602 8
  24208043.540         426.524          52.050    97475803.112 8  24208040.900
       437.674          53.450    96236713.009 9  24208042.220         432.099
        55.450
 144155284.002 7                  27431844.720
       326.840                          43.400                   107648433.317 7
  27431849.900         244.131          43.650   110456638.557 7  27431845.720
       250.508          43.800   109052534.593 7  27431848.880         247.268
        46.650
 23 12 19 10  5 30.0000000  0 20G05G07G08G13G14G15G18G20G22G23G24G30
                                E02E03E05E08E13E24E25E26
 110421230.404 8  86042509.66848  21012467.080                    21012465.760
     -1647.764       -1283.974          50.250          50.200



 126511539.304 7  98580397.71947  24074357.080                    24074356.480
     -2906.714       -2264.977          44.900          44.800



 130985790.363 6 102066882.21446  24925764.340                    24925769.800
      -266.391        -207.581          39.550          38.700    97814098.000 7
  24925770.080        -198.992          42.700


 105111561.070 8  81905109.72548  20002064.080                    20002062.300
       682.741         532.007          50.100          49.900



 111814182.325 8  87127956.46547  21277521.000                    21277520.640
       835.055         650.691          49.150          47.750    83497658.021 8
  21277524.980         623.644          53.200


 113804530.464 8  88678831.62147  21656285.660                    21656285.040
      2809.423        2189.161          49.650          46.700



 127456216.533 7  99316507.23546  24254119.940                    24254122.560
      -471.411        -367.331          42.200          40.950    95178336.070 7
  24254126.540        -352.091          46.650


 119540939.762 7  93148759.50946  22747896.260                    22747896.580
     -3468.896       -2703.040          46.100          40.350



 113678340.753 8  88580546.11547  21632255.760                    21632254.440
      1886.678        1470.142          50.250          44.800



 132852226.670 6 103521217.49546  25280943.100                    25280943.660
      3576.821        2787.130          40.250          38.450    99207846.469 7
  25280949.300        2670.965          44.350


 128164517.747 6  99868472.61246  24388896.140                    24388902.720
      3643.753        2839.297          40.050          37.800    95707295.191 7
  24388903.080        2720.826          43.950


 113997038.806 8  88828855.89848  21692917.060                    21692918.900
     -2161.458       -1684.255          50.250          50.000    85127650.598 8
  21692919.180       -1614.089          53.050


 134834435.647 7                  25658129.540
      2881.677                          47.900                   100688114.239 7
  25658136.040        2151.862          47.950   103314737.945 8  25658132.380
      2208.002          48.100   102001408.249 8  25658135.100        2179.908
        50.950
 123651321.350 8                  23530063.540
      -802.300                          52.500                    92337040.523 8
  23530068.160        -599.111          53.850    94745824.162 9  23530065.680
      -614.739          54.450    93541427.492 9  23530067.060        -606.916
        56.950
 134019366.755 7                  25503046.620
     -2469.201                          43.100                   100079392.849 7
  25503057.240       -1843.764          47.950   102690147.830 7  25503052.500
     -1891.922          46.200   101384767.991 8  25503054.460       -1867.802
        50.050
 127752047.940 8                  24310406.400
      1604.232                          51.700                    95399269.621 8
  24310409.480        1197.988          52.600    97887934.492 8  24310405.960
      1229.185          53.000    96643601.710 9  24310408.980        1213.573
        55.700
 142154497.728 7                  27051111.980
     -2083.062                          44.250                   106154329.460 7
  27051119.380       -1555.573          45.100   108923559.016 7  27051116.180
     -1596.153          44.950   107538943.894 7  27051118.500       -1575.913
        47.800
 140411719.760 7                  26719462.480
     -2142.333                          46.650                   104852926.204 7
  26719467.880       -1599.780          46.950   107588207.279 7  26719463.740
     -1641.520          46.500   106220558.899 8  26719466.500       -1620.700
        49.550
 127197229.201 8                  24204820.720
       556.070                          52.800                    94984998.311 8
  24204825.080         415.261          52.050    97462844.361 8  24204822.620
       426.125          53.300    96223918.989 9  24204823.960         420.673
        55.450
 144145706.377 7                  27430022.400
       311.564                          43.550                   107641281.133 7
  27430027.080         232.496          43.400   110449299.778 7  27430023.800
       238.620          43.950   109045289.108 7  27430026.260         235.567
        46.500
 23 12 19 10  6  0.0000000  0 21G05G07G08G13G14G15G18G20G22G23G24G30
                                E02E03E05E08E13E15E24E25E26
 110470939.787 8  86081244.21148  21021926.380                    21021925.400
     -1666.406       -1298.500          49.850          49.750



 126598768.833 7  98648368.61147  24090956.340                    24090956.140
     -2909.079       -2266.822          43.800          44.150



 130994058.467 6 102073324.84246  24927337.560                    24927342.980
      -285.306        -222.316          39.900          40.600    97820272.210 7
  24927343.280        -213.056          42.050


 105091268.172 8  81889297.08048  19998202.600                    19998200.760
       669.748         521.882          50.050          49.950



 111789409.759 8  87108653.17347  21272806.840                    21272806.540
       815.925         635.786          49.000          47.650    83479159.039 8
  21272811.180         609.377          53.650


 113720383.577 8  88613262.63647  21640273.100                    21640272.240
      2799.994        2181.813          49.700          46.350



 127470633.373 7  99327741.08846  24256863.520                    24256866.140
      -489.932        -381.766          43.300          40.750    95189101.846 7
  24256870.280        -365.928          47.350


 119645119.684 7  93229938.55346  22767720.980                    22767721.300
     -3476.795       -2709.193          45.950          40.500



 113621979.439 8  88536628.27747  21621530.400                    21621529.200
      1870.318        1457.393          49.850          45.000



 132744993.086 6 103437658.70745  25260537.280                    25260537.760
      3571.849        2783.249          39.450          33.900    99127769.299 7
  25260543.400        2667.166          44.250


 128055261.700 6  99783338.15146  24368105.480                    24368111.840
      3639.909        2836.295          40.250          39.700    95625708.028 7
  24368112.100        2718.065          43.950


 114062014.692 8  88879486.41548  21705281.820                    21705283.220
     -2170.522       -1691.317          50.350          50.600    85176171.499 8
  21705283.860       -1620.831          53.050


 134748078.711 7                  25641696.240
      2875.164                          47.950                   100623627.021 8
  25641702.700        2147.019          48.450   103248568.440 8  25641699.240
      2203.068          48.600   101936079.889 8  25641701.840        2175.010
        51.300
 123675502.826 8                  23534665.240
      -810.097                          52.600                    92355098.099 8
  23534669.660        -604.900          53.950    94764352.808 9  23534667.180
      -620.699          54.400    93559720.608 9  23534668.680        -612.813
        56.900
 134093482.848 7                  25517150.500
     -2472.380                          43.700                   100134739.129 7
  25517161.120       -1846.168          47.750   102746937.940 7  25517156.740
     -1894.320          46.300   101440836.191 8  25517158.440       -1870.271
        49.950
 127703995.147 8                  24301262.420
      1598.939                          52.250                    95363386.051 8
  24301265.620        1194.052          53.000    97851114.823 8  24301261.980
      1225.170          53.050    96607250.092 9  24301264.800        1209.610
        55.850
 142217132.504 7                  27063030.960
     -2092.922                          44.300                   106201102.037 7
  27063038.360       -1562.803          45.250   108971551.759 7  27063035.240
     -1603.592          44.900   107586326.549 7  27063037.600       -1583.182
        47.850
 150651077.172 6                  28667946.620
     -3013.017                          40.300                   112499224.667 7
  28667958.120       -2250.014          42.900   115433977.332 7  28667955.700
     -2308.656          43.550   113966601.657 7  28667957.280       -2279.466
        45.850
 140476131.336 7                  26731719.440
     -2152.091                          46.100                   104901025.673 7
  26731725.320       -1607.091          46.800   107637561.524 7  26731720.700
     -1648.940          46.100   106269285.747 8  26731723.680       -1627.990
        49.300
 127180757.004 8                  24201686.200
       541.764                          53.050                    94972697.644 8
  24201690.400         404.513          52.200    97450222.811 8  24201688.040
       415.073          53.300    96211457.878 9  24201689.420         409.807
        55.400
 144136583.241 7                  27428286.500
       296.563                          44.100                   107634468.339 7
  27428290.660         221.441          43.550   110442309.273 7  27428288.600
       227.154          44.400   109038387.453 7  27428290.140         224.339
        46.750
 23 12 19 10  6 30.0000000  0 21G05G07G08G13G14G15G18G20G22G23G24G30
                                E02E03E05E08E13E15E24E25E26
 110521214.798 8  86120419.50348  21031493.360                    21031492.840
     -1685.335       -1313.248          49.950          50.150



 126686077.692 7  98716401.32147  24107570.680                    24107570.760
     -2911.669       -2268.838          43.950          43.650



 131002891.102 6 102080207.43046  24929018.320                    24929023.720
      -304.073        -236.941          39.250          39.550    97826868.009 6
  24929024.000        -227.039          41.750


 105071369.725 8  81873791.80548  19994416.160                    19994414.120
       656.480         511.543          50.300          49.500



 111765213.697 8  87089799.10947  21268202.400                    21268202.060
       796.788         620.875          48.800          47.700    83461090.559 9
  21268207.140         595.040          54.000


 113636522.899 8  88547916.65947  21624315.000                    21624313.880
      2790.579        2174.477          49.150          46.900



 127485614.192 7  99339414.41046  24259714.580                    24259716.860
      -508.855        -396.514          43.950          40.200    95200288.774 7
  24259721.480        -379.978          47.750


 119749538.707 7  93311303.90946  22787591.240                    22787591.580
     -3484.610       -2715.284          44.850          41.700



 113566113.850 8  88493096.72447  21610899.360                    21610898.360
      1853.745        1444.479          49.400          45.600



 132637918.954 6 103354224.18146  25240161.900                    25240162.220
      3565.949        2778.660          38.700          36.200    99047811.145 7
  25240167.860        2663.281          44.250


 127946124.973 6  99698296.66246  24347337.640                    24347343.620
      3635.987        2833.238          40.550          40.100    95544209.953 7
  24347343.880        2715.059          44.600


 114127266.762 8  88930332.13048  21717698.980                    21717700.100
     -2179.816       -1698.560          49.950          49.850    85224898.647 8
  21717700.880       -1627.777          52.850


 134661920.324 8                  25625300.840
      2868.482                          48.100                   100559288.054 8
  25625307.260        2142.108          48.550   103182551.055 8  25625304.040
      2197.933          48.450   101870901.710 8  25625306.360        2170.014
        51.400
 123699922.784 8                  23539312.400
      -818.118                          52.550                    92373333.755 9
  23539316.620        -610.923          54.000    94783064.183 9  23539314.060
      -626.894          54.250    93578194.122 9  23539315.700        -618.909
        56.900
 134167699.798 7                  25531273.520
     -2475.751                          43.550                   100190160.713 7
  25531284.120       -1848.774          47.550   102803805.316 7  25531279.960
     -1896.928          46.100   101496980.669 8  25531281.560       -1872.852
        49.700
 127656105.995 8                  24292149.660
      1593.482                          52.200                    95327624.684 8
  24292152.820        1189.921          53.250    97814420.545 8  24292149.340
      1220.973          53.050    96571022.268 9  24292151.720        1205.451
        56.000
 142280064.680 7                  27075006.620
     -2102.747                          44.750                   106248096.709 7
  27075014.100       -1570.312          45.250   109019772.405 7  27075011.100
     -1611.294          44.750   107633934.211 7  27075013.360       -1590.772
        47.900
 150741432.291 6                  28685141.740
     -3010.848                          41.350                   112566697.307 6
  28685153.300       -2248.333          40.950   115503210.197 7  28685150.640
     -2306.959          42.400   114034954.406 7  28685151.700       -2277.702
        44.500
 140540834.712 7                  26744031.840
     -2161.740                          45.550                   104949343.035 7
  26744038.220       -1614.111          46.600   107687139.358 7  26744033.260
     -1656.328          45.750   106318233.353 8  26744036.440       -1635.258
        49.050
 127164720.299 8                  24198634.540
       527.223                          52.750                    94960722.182 8
  24198638.680         393.689          52.350    97437934.946 8  24198636.300
       403.971          53.150    96199326.217 9  24198637.760         398.813
        55.600
 144127910.010 7                  27426636.120
       281.559                          43.250                   107627991.515 7
  27426639.960         210.248          43.700   110435663.495 7  27426638.840
       215.650          44.150   109031826.152 7  27426639.720         213.022
        46.700
 23 12 19 10  7  0.0000000  0 21G05G07G08G13G14G15G18G20G22G23G24G30
                                E02E03E05E08E13E15E24E25E26
 110572051.664 8  86160032.60448  21041167.340                    21041167.140
     -1703.922       -1327.732          50.450          50.600



 126773462.871 7  98784493.51247  24124199.500                    24124199.820
     -2914.408       -2270.973          44.200          44.300



 131012286.895 6 102087528.86746  24930806.260                    24930811.240
      -322.489        -251.291          40.250          40.750    97833884.395 6
  24930811.480        -240.823          41.400


 105051864.631 8  81858593.03448  19990704.580                    19990702.300
       643.679         501.567          50.600          49.750



 111741592.912 8  87071393.30647  21263707.420                    21263707.140
       777.737         606.028          49.100          47.600    83443451.670 9
  21263712.580         580.771          54.050


 113552948.415 8  88482793.69247  21608411.320                    21608410.000
      2781.004        2167.017          50.100          46.500



 127501155.841 7  99351524.72846  24262672.320                    24262674.080
      -527.410        -410.971          43.650          40.700    95211894.492 7
  24262679.320        -393.828          47.800


 119854191.743 7  93392851.61046  22807506.020                    22807506.440
     -3492.505       -2721.437          45.300          40.650



 113510744.159 8  88449951.57347  21600362.760                    21600361.800
      1837.369        1431.719          49.700          45.800



 132531004.637 6 103270914.22546  25219816.540                    25219817.520
      3561.164        2774.930          40.200          38.000    98967972.449 7
  25219822.860        2659.278          45.650


 127837106.811 6  99613347.51546  24326592.380                    24326598.000
      3631.872        2830.031          41.900          40.150    95462800.365 7
  24326598.300        2712.149          44.400


 114192791.373 8  88981390.21848  21730167.920                    21730168.820
     -2188.571       -1705.382          50.100          49.950    85273829.314 8
  21730169.660       -1634.424          52.550


 134575960.025 8                  25608943.100
      2862.050                          48.400                   100495097.017 8
  25608949.460        2137.213          48.550   103116685.460 8  25608946.320
      2192.939          48.850   101805873.392 8  25608948.580        2165.085
        51.600
 123724579.324 8                  23544004.580
      -825.844                          52.750                    92391746.084 8
  23544008.540        -616.694          53.750    94801956.838 9  23544005.960
      -632.809          54.350    93596846.613 9  23544007.720        -624.724
        56.900
 134242015.125 7                  25545415.440
     -2478.630                          43.400                   100245655.783 7
  25545425.740       -1850.970          47.100   102860748.106 7  25545421.760
     -1899.334          46.100   101553199.602 8  25545423.400       -1875.171
        49.600
 127608379.190 8                  24283067.760
      1588.161                          52.700                    95291984.547 8
  24283070.860        1185.960          53.250    97777850.661 8  24283067.700
      1216.904          53.250    96534917.256 9  24283069.560        1201.445
        56.150
 142343290.293 7                  27087038.120
     -2112.336                          45.450                   106295310.501 7
  27087045.660       -1577.428          45.100   109068217.885 7  27087042.800
     -1618.637          44.800   107681763.847 7  27087044.920       -1598.017
        47.950
 150831722.886 6                  28702323.420
     -3008.379                          38.400                   112634121.896 6
  28702335.100       -2246.612          40.350   115572393.687 6  28702332.000
     -2305.187          40.150   114103258.444 7  28702333.520       -2275.903
        43.100
 140605826.263 7                  26756399.260
     -2171.155                          45.750                   104997875.612 7
  26756405.840       -1621.165          46.050   107736938.021 7  26756400.740
     -1663.682          45.600   106367398.972 8  26756404.040       -1642.405
        48.750
 127149117.221 8                  24195665.340
       512.851                          52.950                    94949070.539 8
  24195669.560         383.019          52.300    97425979.349 8  24195667.080
       392.999          53.300    96187522.594 9  24195668.600         388.023
        55.700
 144119684.763 7                  27425070.900
       266.592                          43.600                   107621849.224 7
  27425074.840         199.075          43.250   110429360.970 7  27425073.920
       204.317          44.150   109025603.751 7  27425074.540         201.647
        46.600
 23 12 19 10  7 30.0000000  0 21G05G07G08G13G14G15G18G20G22G23G24G30
                                E02E03E05E08E13E15E24E25E26
 110623453.888 8  86200086.25148  21050949.020                    21050948.980
     -1723.184       -1342.742          50.350          50.550



 126860927.867 7  98852647.90947  24140843.480                    24140843.960
     -2917.202       -2273.150          43.600          43.650



 131022249.744 6 102095292.11346  24932702.100                    24932706.700
      -341.873        -266.397          39.800          39.050    97841324.227 6
  24932706.740        -255.263          41.750


 105032758.111 8  81843704.83648  19987068.840                    19987066.300
       630.007         490.914          50.400          50.250



 111718553.039 8  87053440.16348  21259323.040                    21259322.780
       757.950         590.611          49.050          48.000    83426246.578 9
  21259328.500         565.999          54.350


 113469666.768 8  88417898.91547  21592563.360                    21592562.000
      2770.864        2159.115          49.750          46.750



 127517262.151 7  99364075.07446  24265737.500                    24265738.780
      -546.368        -425.741          43.300          40.550    95223921.888 8
  24265744.580        -408.251          48.050


 119959080.871 7  93474583.25546  22827465.800                    22827466.200
     -3500.519       -2727.683          45.050          41.300



 113455876.948 8  88407197.96647  21589921.800                    21589920.800
      1820.208        1418.347          49.850          45.700



 132424257.646 6 103187734.63146  25199503.320                    25199504.280
      3555.304        2770.365          39.650          37.650    98888258.636 7
  25199509.500        2654.764          44.350


 127728213.361 6  99528495.52546  24305871.100                    24305876.060
      3627.282        2826.459          41.150          40.400    95381483.874 7
  24305876.760        2708.834          44.650


 114258591.900 8  89032663.30548  21742689.220                    21742690.100
     -2198.087       -1712.797          49.700          50.100    85322966.018 8
  21742690.940       -1641.527          52.400


 134490204.357 8                  25592624.360
      2854.707                          48.350                   100431058.769 8
  25592630.660        2131.765          48.750   103050976.638 8  25592627.520
      2187.373          48.900   101740999.861 8  25592629.740        2159.565
        51.450
 123749477.438 8                  23548742.660
      -834.153                          52.600                    92410338.804 8
  23548746.480        -622.965          53.800    94821034.589 9  23548743.760
      -639.211          54.200    93615681.850 9  23548745.720        -631.094
        56.650
 134316433.516 7                  25559576.880
     -2482.676                          43.200                   100301227.798 7
  25559587.020       -1853.921          46.800   102917769.839 7  25559583.060
     -1902.359          45.850   101609496.473 8  25559584.860       -1878.133
        49.050
 127560820.368 8                  24274017.740
      1582.111                          52.250                    95256469.848 8
  24274020.900        1181.451          53.500    97741409.483 8  24274017.980
      1212.288          53.150    96498939.318 9  24274019.340        1196.870
        55.950
 142406812.242 7                  27099126.000
     -2122.629                          45.050                   106342745.593 7
  27099133.780       -1585.111          45.400   109116890.431 7  27099130.820
     -1626.443          45.100   107729817.666 7  27099132.940       -1605.806
        47.950
 150921951.806 6                  28719493.560
     -3006.729                          36.750                   112701500.425 6
  28719505.200       -2245.377          41.150   115641529.979 6  28719501.920
     -2304.078          41.000   114171515.851 7  28719503.820       -2274.662
        43.800
 140671109.180 7                  26768821.940
     -2181.234                          45.200                   105046625.772 7
  26768828.840       -1628.869          45.800   107786959.920 7  26768823.720
     -1671.367          45.550   106416785.001 8  26768827.080       -1650.084
        48.350
 127133952.773 8                  24192779.540
       497.813                          52.600                    94937746.446 8
  24192784.020         371.739          52.650    97414359.843 8  24192781.380
       381.483          53.450    96176050.795 9  24192782.920         376.622
        55.650
 144111912.481 7                  27423592.000
       251.245                          42.950                   107616045.165 7
  27423596.000         187.568          43.600   110423405.537 7  27423594.960
       192.450          44.000   109019724.003 7  27423595.660         190.045
        46.450
 23 12 19 10  8  0.0000000  0 21G05G07G08G13G14G15G18G20G22G23G24G30
                                E02E03E05E08E13E15E24E25E26
 110675419.791 8  86240579.11948  21060837.940                    21060837.860
     -1741.828       -1357.271          50.700          50.700



 126948471.545 7  98920863.59647  24157502.620                    24157503.180
     -2919.807       -2275.180          44.900          45.000



 131032779.555 6 102103497.23446  24934706.000                    24934710.400
      -360.529        -280.929          40.600          41.850    97849187.467 7
  24934710.740        -269.371          42.250


 105014050.891 8  81829127.79248  19983509.080                    19983506.420
       616.662         480.517          50.700          50.600



 111696094.786 8  87035940.23147  21255049.460                    21255049.060
       738.593         575.527          49.200          47.800    83409475.809 9
  21255055.000         551.545          54.300


 113386679.668 8  88353233.67147  21576771.320                    21576770.180
      2760.995        2151.426          49.450          47.000



 127533931.920 7  99377064.46346  24268909.660                    24268910.820
      -565.217        -440.430          43.100          40.850    95236370.012 7
  24268916.820        -422.150          47.650


 120064203.255 7  93556496.70746  22847470.040                    22847470.380
     -3508.330       -2733.766          45.550          40.550



 113401513.824 8  88364837.15247  21579576.820                    21579575.760
      1803.396        1405.246          50.250          45.450



 132317680.476 6 103104687.36346  25179222.280                    25179223.640
      3549.462        2765.808          40.150          37.000    98808671.643 7
  25179228.540        2650.425          44.250


 127619445.804 7  99443741.64846  24285173.460                    24285178.200
      3622.997        2823.114          42.250          40.900    95300261.377 7
  24285178.880        2705.780          44.500


 114324666.667 8  89084150.08948  21755262.800                    21755263.700
     -2207.332       -1720.001          49.900          49.850    85372307.522 8
  21755264.640       -1648.405          52.650


 134404654.805 8                  25576344.880
      2847.877                          48.300                   100367174.435 8
  25576351.040        2126.654          48.700   102985425.742 8  25576347.960
      2182.130          48.800   101676282.246 8  25576350.120        2154.364
        51.700
 123774617.215 8                  23553526.660
      -842.385                          52.500                    92429111.977 8
  23553530.520        -629.045          53.700    94840297.497 9  23553527.540
      -645.438          54.050    93634699.890 9  23553529.680        -637.244
        56.750
 134390954.489 7                  25573757.960
     -2485.939                          43.200                   100356876.426 7
  25573767.680       -1856.514          46.100   102974870.171 7  25573763.880
     -1904.820          45.600   101665870.957 8  25573765.860       -1880.731
        48.800
 127513430.156 8                  24264999.680
      1576.539                          52.200                    95221081.063 8
  24265002.980        1177.267          53.350    97705097.505 8  24265000.040
      1207.965          52.850    96463088.938 9  24265001.200        1192.611
        56.000
 142470628.470 7                  27111269.840
     -2132.361                          45.650                   106390400.437 7
  27111277.800       -1592.480          45.250   109165788.457 7  27111274.860
     -1633.983          45.100   107778094.099 8  27111276.940       -1613.167
        48.100
 151012117.329 6                  28736651.680
     -3004.630                          37.800                   112768831.645 6
  28736663.460       -2243.770          38.050   115710617.662 6  28736659.500
     -2302.540          38.550   114239725.301 6  28736662.040       -2272.991
        41.200
 140736681.699 7                  26781299.880
     -2190.971                          46.000                   105095592.197 7
  26781306.840       -1635.989          45.350   107837203.750 7  26781301.860
     -1678.788          45.100   106466390.132 8  26781305.200       -1657.401
        48.200
 127119227.005 8                  24189977.180
       483.311                          52.400                    94926749.945 8
  24189981.960         360.830          52.750    97403076.480 8  24189979.180
       370.267          53.300    96164910.867 9  24189980.700         365.531
        55.850
 144104593.183 7                  27422199.260
       236.196                          42.950                   107610579.364 7
  27422203.260         176.467          43.100   110417797.180 7  27422201.980
       180.834          43.650   109014186.924 7  27422203.040         178.645
        46.250
 23 12 19 10  8 30.0000000  0 21G05G07G08G13G14G15G18G20G22G23G24G30
                                E02E03E05E08E13E15E24E25E26
 110727942.149 8  86281505.59148  21070832.700                    21070832.440
     -1760.016       -1371.442          50.400          50.550



 127036088.034 7  98989136.04247  24174175.660                    24174176.340
     -2921.755       -2276.697          43.850          43.750



 131043872.013 6 102112140.79246  24936816.820                    24936821.260
      -379.194        -295.475          39.300          39.000    97857470.870 6
  24936821.280        -283.079          40.350


 104995738.572 8  81814858.46948  19980024.420                    19980021.740
       603.841         470.525          50.750          50.200



 111674213.974 8  87018890.25447  21250885.780                    21250885.260
       719.716         560.817          49.550          47.800    83393136.251 8
  21250891.260         537.443          53.950


 113303984.580 8  88288795.97547  21561034.800                    21561033.960
      2751.630        2144.129          49.350          47.400



 127551159.240 7  99390488.28546  24272188.000                    24272188.840
      -583.552        -454.716          43.200          39.900    95249234.483 7
  24272194.760        -435.773          46.450


 120169551.156 7  93638585.84146  22867517.160                    22867517.460
     -3515.363       -2739.249          44.950          40.900



 113347651.626 8  88322866.65947  21569327.160                    21569325.940
      1787.148        1392.585          50.250          45.400



 132211270.898 6 103021770.64946  25158973.240                    25158974.640
      3544.431        2761.894          39.100          38.100    98729209.798 7
  25158979.380        2646.657          44.100


 127510800.484 7  99359082.99846  24264499.140                    24264503.120
      3619.591        2820.464          42.300          40.100    95219130.241 7
  24264504.740        2702.860          45.450


 114391009.230 8  89135845.54448  21767887.420                    21767888.320
     -2215.933       -1726.702          49.700          49.750    85421848.989 8
  21767889.660       -1654.736          52.600


 134319308.155 8                  25560103.980
      2841.528                          48.600                   100303441.618 8
  25560110.120        2121.891          48.750   102920030.330 8  25560106.960
      2177.175          48.900   101611718.129 8  25560109.120        2149.526
        51.900
 123799993.928 8                  23558355.660
      -849.870                          52.500                    92448062.087 8
  23558359.640        -634.617          53.400    94859741.959 9  23558356.500
      -651.146          54.000    93653897.178 9  23558358.740        -642.899
        56.700
 134465572.873 7                  25587957.680
     -2488.905                          44.000                   100412597.798 7
  25587966.980       -1858.563          45.550   103032045.176 7  25587963.260
     -1907.194          45.200   101722319.140 8  25587965.360       -1882.842
        48.400
 127466204.508 8                  24256012.760
      1571.373                          51.750                    95185815.159 8
  24256016.200        1173.446          53.000    97668911.609 8  24256013.280
      1204.080          53.000    96427363.034 9  24256014.320        1188.773
        56.000
 142534732.189 7                  27123468.420
     -2141.659                          44.850                   106438269.962 7
  27123476.580       -1599.250          44.750   109214906.780 7  27123473.580
     -1641.033          44.700   107826588.031 7  27123475.600       -1620.167
        47.800
 151102212.760 6                  28753796.500
     -3001.907                          39.900                   112836110.665 6
  28753808.420       -2241.664          40.550   115779651.769 6  28753803.440
     -2300.316          37.100   114307881.881 7  28753806.600       -2271.056
        42.200
 140802537.315 7                  26793831.920
     -2199.874                          46.050                   105144770.035 7
  26793838.600       -1642.790          44.750   107887664.492 7  26793833.920
     -1685.671          44.900   106516209.418 7  26793837.200       -1664.193
        47.900
 127104935.224 8                  24187257.380
       469.186                          52.150                    94916077.517 8
  24187262.500         350.327          52.650    97392125.645 8  24187259.620
       359.453          53.350    96154099.234 9  24187261.100         354.877
        55.950
 144097722.088 7                  27420891.780
       221.678                          42.400                   107605448.315 7
  27420895.700         165.427          42.750   110412532.272 7  27420894.220
       169.725          43.550   109008988.951 7  27420895.700         167.551
        46.300
 23 12 19 10  9  0.0000000  0 21G05G07G08G13G14G15G18G20G22G23G24G30
                                E02E03E05E08E13E15E24E25E26
 110781020.964 8  86322865.66748  21080933.260                    21080932.800
     -1778.497       -1385.843          50.550          50.700



 127123777.455 7  99057465.30747  24190862.500                    24190863.500
     -2924.021       -2278.463          43.900          43.850



 131055528.018 6 102121223.47746  24939034.740                    24939039.340
      -397.769        -309.947          38.550          38.100    97866175.104 6
  24939038.920        -296.979          41.000


 104977823.389 8  81800898.59648  19976615.240                    19976612.620
       590.520         460.146          50.250          50.250



 111652912.659 8  87002291.83547  21246832.460                    21246831.720
       700.448         545.805          49.550          47.750    83377229.427 8
  21246837.640         523.112          53.950


 113221584.492 8  88224588.15447  21545354.520                    21545353.900
      2741.843        2136.502          49.750          47.850



 127568944.256 7  99404346.69246  24275572.420                    24275573.100
      -602.259        -469.294          42.900          40.700    95262515.432 7
  24275578.640        -449.574          46.150


 120275123.189 7  93720849.64946  22887607.040                    22887607.060
     -3522.655       -2744.931          45.850          39.200



 113294293.488 8  88281288.94047  21559173.380                    21559171.980
      1770.137        1379.329          50.300          45.000



 132105032.891 6 102938987.70846  25138756.920                    25138758.520
      3538.428        2757.214          39.200          37.750    98649876.106 7
  25138762.920        2642.301          43.550


 127402280.094 6  99274521.75746  24243848.340                    24243852.180
      3615.367        2817.172          41.650          39.900    95138092.396 7
  24243854.580        2699.825          45.550


 114457619.395 8  89187749.52148  21780562.960                    21780563.800
     -2224.657       -1733.500          50.050          50.000    85471590.287 8
  21780565.500       -1661.229          52.600


 134234167.368 8                  25543902.320
      2834.648                          48.450                   100239862.524 8
  25543908.380        2116.835          48.750   102854792.632 8  25543904.920
      2171.986          48.700   101547309.731 8  25543907.280        2144.425
        51.600
 123825609.063 8                  23563230.060
      -857.741                          52.450                    92467190.234 8
  23563234.120        -640.461          53.500    94879369.110 9  23563230.880
      -657.178          54.050    93673274.825 9  23563233.160        -648.828
        56.600
 134540289.682 7                  25602176.140
     -2492.088                          43.900                   100468392.661 7
  25602185.040       -1860.869          45.100   103089295.575 7  25602181.440
     -1909.523          44.900   101778841.779 7  25602183.620       -1885.310
        47.950
 127419145.492 8                  24247057.420
      1565.989                          51.650                    95150673.700 8
  24247061.000        1169.406          52.800    97632853.410 8  24247058.260
      1199.868          53.100    96391763.204 9  24247059.180        1184.635
        55.800
 142599122.771 7                  27135721.580
     -2151.025                          45.000                   106486353.713 7
  27135730.040       -1606.235          45.050   109264244.896 7  27135726.920
     -1648.153          45.050   107875298.959 7  27135728.840       -1627.181
        47.850
 151192237.321 6                  28770927.620
     -2999.614                          41.000                   112903336.750 7
  28770940.100       -2239.953          42.550   115848631.608 7  28770934.180
     -2298.361          42.200   114375984.834 7  28770937.740       -2269.081
        45.150
 140868675.694 7                  26806417.900
     -2209.216                          46.200                   105194159.043 7
  26806424.020       -1649.669          44.100   107938341.911 7  26806419.920
     -1692.727          45.000   106566242.637 7  26806422.980       -1671.246
        47.400
 127091078.838 8                  24184620.500
       454.707                          52.150                    94905730.228 8
  24184625.800         339.523          52.750    97381508.425 8  24184622.940
       348.391          53.400    96143616.978 9  24184624.320         343.971
        55.850
 144091300.642 7                  27419669.800
       206.743                          42.600                   107600653.035 7
  27419673.720         154.287          42.750   110407611.901 7  27419672.040
       158.220          43.400   109004131.123 7  27419673.860         156.289
        45.950
 23 12 19 10  9 30.0000000  0 21G05G07G08G13G14G15G18G20G22G23G24G30
                                E02E03E05E08E13E15E24E25E26
 110834658.162 8  86364660.84448  21091140.080                    21091139.260
     -1797.157       -1400.384          50.200          50.250



 127211542.391 7  99125853.41347  24207563.620                    24207565.020
     -2926.703       -2280.553          44.050          43.600



 131067751.254 6 102130748.13046  24941360.520                    24941365.320
      -416.777        -324.759          39.950          40.250    97875302.932 6
  24941364.620        -311.406          40.900


 104960309.646 8  81787251.53248  19973282.420                    19973279.940
       577.062         449.658          50.300          50.100



 111632195.236 8  86986148.39547  21242890.180                    21242889.360
       680.820         530.510          49.750          47.550    83361758.632 8
  21242895.040         508.502          53.800


 113139485.120 8  88160614.64747  21529731.520                    21529731.040
      2731.638        2128.550          49.750          47.500



 127587289.459 7  99418641.60446  24279063.280                    24279064.040
      -620.779        -483.726          42.400          41.550    95276214.727 7
  24279069.140        -463.460          45.950


 120380920.010 7  93803288.61146  22907739.580                    22907739.640
     -3530.297       -2750.885          45.200          41.200



 113241444.958 8  88240108.31447  21549116.560                    21549115.000
      1753.170        1366.107          50.300          44.700



 131998972.736 6 102856343.31346  25118574.460                    25118575.900
      3532.489        2752.587          38.700          37.400    98570675.182 7
  25118580.500        2637.980          43.150


 127293889.533 7  99190061.69446  24223222.300                    24223226.240
      3610.879        2813.677          42.000          37.950    95057151.510 7
  24223229.040        2696.518          45.800


 114524499.323 8  89239863.70648  21793289.880                    21793290.580
     -2233.845       -1740.660          50.150          50.100    85521533.035 8
  21793292.320       -1668.008          52.550


 134149237.697 8                  25527740.760
      2827.470                          48.750                   100176441.081 8
  25527746.760        2111.516          48.950   102789716.715 8  25527743.280
      2166.563          49.050   101483061.054 8  25527745.600        2139.021
        51.750
 123851466.433 8                  23568150.560
      -865.916                          52.150                    92486499.272 8
  23568154.720        -646.596          53.400    94899181.872 9  23568151.520
      -663.499          54.300    93692835.724 9  23568153.700        -655.023
        56.550
 134615108.218 7                  25616414.040
     -2495.512                          44.700                   100524263.524 7
  25616422.420       -1863.592          44.850   103146623.927 7  25616419.020
     -1912.163          44.900   101835441.379 7  25616421.200       -1887.872
        47.650
 127372257.593 8                  24238134.740
      1560.172                          51.650                    95115660.011 8
  24238138.240        1165.081          52.350    97596926.316 8  24238135.780
      1195.459          53.100    96356292.817 9  24238136.660        1180.263
        55.450
 142663801.942 7                  27148029.760
     -2160.823                          44.950                   106534652.974 7
  27148038.380       -1613.388          44.950   109313804.152 7  27148035.140
     -1655.622          44.700   107924228.221 7  27148036.940       -1634.494
        47.550
 151282192.871 6                  28788045.600
     -2997.363                          38.750                   112970511.394 6
  28788058.380       -2238.227          41.550   115917558.604 6  28788052.620
     -2296.667          40.950   114444035.657 7  28788055.580       -2267.521
        43.950
 140935098.835 7                  26819058.100
     -2218.726                          45.750                   105243760.704 7
  26819063.540       -1656.783          43.550   107989237.530 7  26819060.140
     -1700.085          44.950   106616491.274 7  26819062.880       -1678.426
        46.850
 127077661.658 8                  24182067.280
       439.967                          52.250                    94895710.913 8
  24182072.580         328.585          52.650    97371227.736 8  24182069.860
       337.154          53.550    96133466.978 9  24182071.120         332.867
        55.750
 144085332.611 7                  27418534.120
       191.324                          43.150                   107596196.306 7
  27418538.180         143.072          42.650   110403038.918 7  27418536.340
       146.721          43.850   108999616.269 7  27418538.180         144.901
        46.050
 23 12 19 10 10  0.0000000  0 21G05G07G08G13G14G15G18G20G22G23G24G30
                                E02E03E05E07E08E13E24E25E26
 110888846.850 8  86406885.74448  21101451.880                    21101450.740
     -1815.112       -1414.374          49.950          50.150



 127299376.405 7  99194295.36347  24224277.960                    24224279.800
     -2928.562       -2282.001          43.500          43.400



 131080536.067 6 102140710.41246  24943793.480                    24943797.760
      -435.529        -339.370          38.650          38.650    97884850.129 6
  24943797.160        -325.108          40.950


 104943192.563 8  81773913.55448  19970025.060                    19970022.760
       564.337         439.744          49.900          50.050



 111612057.115 8  86970456.36747  21239058.100                    21239057.300
       661.998         515.844          49.400          47.700    83346720.443 8
  21239062.580         494.335          53.850


 113057683.588 8  88096873.22447  21514165.260                    21514164.820
      2722.094        2121.112          49.650          47.900



 127606188.498 7  99433368.05846  24282659.520                    24282660.380
      -639.001        -497.927          42.250          40.000    95290327.581 7
  24282665.160        -477.050          46.200


 120486933.824 7  93885896.63446  22927913.480                    22927913.480
     -3537.186       -2756.253          45.350          40.150



 113189102.395 8  88199321.94747  21539156.040                    21539154.540
      1736.665        1353.246          49.950          44.900



 131893087.886 6 102773835.48246  25098425.340                    25098426.820
      3526.774        2748.128          39.000          36.600    98491605.167 7
  25098431.400        2633.759          43.250


 127185624.775 6  99105699.64346  24202620.020                    24202623.700
      3607.195        2810.805          41.850          37.750    94976304.586 7
  24202627.320        2693.576          46.400


 114591642.233 8  89292182.82048  21806066.860                    21806067.460
     -2242.047       -1747.050          50.300          50.250    85571672.184 8
  21806069.100       -1674.297          52.750


 134064515.624 8                  25511618.820
      2820.895                          49.100                   100113174.670 8
  25511624.820        2106.563          49.250   102724799.858 8  25511621.000
      2161.537          48.600   101418969.419 8  25511623.480        2134.066
        52.000
 123877560.976 8                  23573116.140
      -873.319                          51.850                    92505985.428 8
  23573120.420        -652.189          53.550    94919176.362 9  23573117.480
      -669.201          54.400    93712576.044 9  23573119.380        -660.659
        56.900
 134690023.000 7                  25630670.120
     -2498.486                          44.950                   100580206.226 7
  25630678.340       -1865.685          44.750   103204026.019 7  25630674.880
     -1914.259          44.100   101892113.776 7  25630677.060       -1889.976
        47.500
 149652244.711 6                  28477875.640
      2643.166                          38.900                   111753324.032 6
  28477881.200        1973.685          39.650   114668620.438 6  28477879.900
      2025.304          40.300   113210971.877 7  28477881.000        1999.675
        42.950
 127325536.376 8                  24229244.020
      1554.930                          51.600                    95080770.778 8
  24229247.080        1161.218          52.250    97561126.930 8  24229244.780
      1191.448          53.000    96320948.506 9  24229245.900        1176.341
        55.650
 142728762.502 7                  27160391.420
     -2169.528                          44.700                   106583162.353 7
  27160400.260       -1620.219          45.350   109363579.020 7  27160396.720
     -1662.437          44.200   107973370.341 7  27160398.660       -1641.314
        47.800
 141001799.891 7                  26831751.120
     -2227.620                          45.800                   105293569.905 7
  26831756.000       -1663.571          43.650   108040346.079 7  26831753.200
     -1706.789          44.750   106666950.148 7  26831755.580       -1685.225
        47.150
 127064678.562 8                  24179596.740
       425.948                          51.900                    94886015.755 8
  24179601.840         318.082          52.750    97361279.660 8  24179599.340
       326.358          53.400    96123645.358 9  24179600.500         322.252
        56.050
 144079812.796 7                  27417484.020
       176.907                          43.700                   107592074.317 7
  27417488.100         132.155          43.100   110398809.405 7  27417485.940
       135.551          43.800   108995440.517 7  27417487.800         133.849
        46.550
 23 12 19 10 10 30.0000000  0 21G05G07G08G13G14G15G18G20G22G23G24G30
                                E02E03E05E07E08E13E24E25E26
 110943593.408 8  86449545.35048  21111869.860                    21111868.440
     -1834.556       -1429.524          50.800          50.900



 127387286.829 7  99262796.82847  24241006.900                    24241009.120
     -2931.860       -2284.572          43.700          43.700



 131093890.260 6 102151116.29746  24946334.600                    24946339.080
      -455.169        -354.675          39.700          39.550    97894822.451 6
  24946338.280        -339.755          41.450


 104926481.285 8  81760891.78948  19966844.960                    19966842.780
       550.027         428.593          50.250          50.050



 111592507.369 8  86955222.80948  21235337.880                    21235337.240
       641.500         499.870          49.600          48.000    83332121.624 8
  21235342.080         479.078          53.650


 112976190.111 8  88033371.83847  21498657.520                    21498657.120
      2710.967        2112.442          49.750          47.700



 127625648.464 7  99448531.59546  24286362.600                    24286363.160
      -658.381        -513.026          43.250          39.950    95304859.301 7
  24286368.260        -491.590          46.300


 120593170.096 7  93968678.02646  22948129.700                    22948129.560
     -3545.278       -2762.559          45.700          38.800



 113137275.803 8  88158937.62647  21529293.680                    21529292.100
      1718.568        1339.146          50.050          45.600



 131787389.253 6 102691472.80346  25078311.720                    25078313.060
      3519.688        2742.611          40.700          36.800    98412674.223 7
  25078317.660        2628.392          44.150


 127077495.486 7  99021443.17846  24182043.500                    24182047.100
      3601.582        2806.432          42.150          40.100    94895558.840 7
  24182051.340        2689.612          46.550


 114659054.963 8  89344712.18348  21818895.100                    21818895.600
     -2251.869       -1754.705          50.450          50.400    85622012.812 8
  21818897.380       -1681.589          52.900


 133980011.064 8                  25495538.140
      2812.879                          49.000                   100050070.702 8
  25495544.140        2100.521          49.000   102660049.682 8  25495539.960
      2155.338          48.750   101355042.348 8  25495542.680        2127.934
        51.900
 123903901.216 8                  23578128.460
      -882.406                          52.200                    92525655.042 8
  23578132.740        -658.914          53.300    94939359.097 9  23578130.200
      -676.117          54.500    93732502.219 9  23578131.760        -667.470
        56.750
 134765042.053 7                  25644946.000
     -2502.769                          45.250                   100636226.817 7
  25644953.880       -1868.902          44.600   103261508.032 7  25644950.440
     -1917.628          44.050   101948865.081 7  25644952.820       -1893.268
        47.350
 149572956.347 6                  28462788.040
      2642.906                          39.250                   111694115.034 6
  28462793.600        1973.677          40.650   114607866.916 6  28462791.920
      2024.864          40.350   113150990.631 7  28462793.480        1999.261
        43.400
 127278990.948 8                  24220386.820
      1548.360                          51.700                    95046012.829 8
  24220389.420        1156.231          52.000    97525462.251 8  24220387.200
      1186.353          53.100    96285737.191 9  24220388.620        1171.277
        55.400
 142794010.888 7                  27172807.880
     -2180.005                          44.700                   106631886.660 7
  27172817.040       -1627.959          45.900   109413574.407 7  27172813.180
     -1670.389          44.550   108022730.184 8  27172815.180       -1649.133
        48.200
 141068785.500 7                  26844498.220
     -2237.853                          46.350                   105343591.586 7
  26844502.780       -1671.121          43.250   108091672.682 7  26844500.320
     -1714.721          44.550   106717624.292 7  26844502.440       -1692.989
        46.800
 127052137.995 8                  24177210.420
       410.262                          52.300                    94876651.056 8
  24177215.220         306.439          52.600    97351670.666 8  24177213.000
       314.397          53.350    96114158.513 9  24177214.100         310.431
        55.850
 144074749.627 7                  27416520.980
       160.967                          44.300                   107588293.342 7
  27416524.980         120.179          42.900   110394929.789 7  27416522.360
       123.252          43.900   108991610.219 7  27416524.280         121.689
        46.350
 23 12 19 10 11  0.0000000  0 21G05G07G08G13G14G15G18G20G22G23G24G30
                                E02E03E05E07E08E13E24E25E26
 110998883.543 8  86492628.51248  21122391.260                    21122389.720
     -1852.379       -1443.414          50.800          50.700



 127475259.281 7  99331346.63947  24257747.760                    24257750.100
     -2933.767       -2286.057          44.050          44.250



 131107800.730 6 102161955.68046  24948981.800                    24948986.160
      -473.175        -368.708          39.850          40.050    97905210.205 7
  24948985.960        -353.587          42.050


 104910163.601 8  81748176.72748  19963739.760                    19963737.700
       537.020         418.457          50.250          50.100



 111573533.603 8  86940438.06548  21231727.160                    21231726.740
       622.392         484.980          49.150          48.300    83317952.921 8
  21231731.220         464.810          53.550


 112894993.686 8  87970101.91247  21483206.340                    21483205.960
      2701.169        2104.808          49.900          47.550



 127645655.228 6  99464121.18646  24290169.800                    24290169.880
      -676.697        -527.300          41.700          39.750    95319799.321 7
  24290175.680        -505.108          46.400


 120699613.152 7  94051620.53246  22968385.340                    22968385.360
     -3552.017       -2767.811          45.800          41.050



 113085954.170 8  88118946.77447  21519527.340                    21519525.920
      1701.853        1326.119          49.650          45.750



 131681866.546 6 102609247.16746  25058231.540                    25058232.980
      3513.936        2738.129          40.650          38.600    98333874.614 7
  25058237.720        2624.197          43.950


 126969489.830 6  98937282.99846  24161490.640                    24161494.100
      3597.587        2803.316          41.400          40.400    94814905.359 7
  24161498.780        2686.650          46.200


 114726723.017 8  89397440.48748  21831771.920                    21831772.340
     -2260.235       -1761.224          50.250          50.250    85672544.088 8
  21831774.120       -1687.839          52.850


 133895712.686 8                  25479496.820
      2806.110                          49.250                    99987120.707 8
  25479502.700        2095.439          49.350   102595457.513 8  25479498.560
      2150.065          48.850   101291271.262 8  25479501.140        2122.750
        52.150
 123930474.299 8                  23583185.160
      -890.129                          51.900                    92545498.543 8
  23583189.260        -664.677          53.150    94959720.254 9  23583187.020
      -682.008          54.350    93752604.550 9  23583188.440        -673.325
        56.650
 134840152.033 7                  25659239.060
     -2505.489                          44.700                   100692315.292 7
  25659247.120       -1871.009          44.900   103319059.704 7  25659243.420
     -1919.797          43.150   102005685.156 7  25659245.820       -1895.419
        47.150
 149493640.341 6                  28447694.860
      2644.050                          40.500                   111634885.414 6
  28447700.200        1974.418          40.600   114547092.178 6  28447698.480
      2025.837          40.100   113090988.457 7  28447700.220        2000.179
        43.400
 127232609.161 8                  24211560.700
      1542.929                          51.750                    95011377.071 8
  24211563.080        1152.180          52.000    97489922.952 8  24211560.880
      1182.251          53.050    96250649.663 9  24211562.480        1167.198
        55.450
 142859532.079 7                  27185276.200
     -2188.903                          44.350                   106680814.692 7
  27185285.840       -1634.623          46.050   109463778.855 7  27185281.740
     -1677.264          44.650   108072296.424 8  27185283.640       -1655.896
        48.400
 141136041.097 7                  26857296.600
     -2246.728                          46.150                   105393814.862 7
  26857301.060       -1677.640          43.250   108143206.139 7  26857298.700
     -1721.510          44.200   106768502.655 7  26857300.720       -1699.619
        46.650
 127040027.038 8                  24174905.840
       396.180                          52.200                    94867607.181 8
  24174910.340         295.850          52.450    97342390.858 8  24174908.280
       303.560          53.150    96104996.672 9  24174909.440         299.703
        55.750
 144070130.196 7                  27415642.420
       146.100                          44.000                   107584843.694 7
  27415646.540         109.164          42.900   110391390.151 7  27415643.340
       112.030          43.800   108988115.574 7  27415645.180         110.636
        46.200
 23 12 19 10 11 30.0000000  0 21G05G07G08G13G14G15G18G20G22G23G24G30
                                E02E03E05E07E08E13E24E25E26
 111054731.935 8  86536146.67548  21133018.900                    21133017.420
     -1870.442       -1457.490          50.700          50.700



 127563309.723 7  99399957.20947  24274503.400                    24274505.740
     -2935.999       -2287.798          44.300          44.250



 131122284.244 6 102173241.57246  24951738.160                    24951742.560
      -491.534        -383.013          40.200          39.950    97916025.867 7
  24951742.720        -367.395          42.300


 104894256.814 8  81735781.83848  19960712.800                    19960710.660
       523.804         408.159          50.450          50.350



 111555153.187 8  86926115.68048  21228229.380                    21228229.060
       603.114         469.959          49.150          48.450    83304227.306 8
  21228233.380         450.438          53.650


 112814113.067 8  87907078.06448  21467815.200                    21467814.800
      2691.088        2096.951          49.300          48.300



 127666224.151 6  99480148.88046  24294083.740                    24294083.820
      -694.758        -541.372          39.950          39.900    95335159.190 7
  24294090.200        -518.670          46.750


 120806276.806 7  94134734.93446  22988682.880                    22988683.020
     -3558.582       -2772.925          44.850          41.150



 113035155.766 8  88079363.63547  21509860.580                    21509859.340
      1684.998        1312.987          49.000          46.250



 131576539.108 6 102527173.67346  25038188.500                    25038189.920
      3508.047        2733.541          41.150          38.750    98255220.812 7
  25038194.800        2619.671          43.200


 126861625.786 6  98853233.16346  24140964.500                    24140967.860
      3593.592        2800.205          41.700          40.550    94734357.621 7
  24140973.020        2683.457          46.050


 114794661.595 8  89450379.60048  21844700.220                    21844700.560
     -2268.752       -1767.859          50.050          50.150    85723277.401 8
  21844702.280       -1694.161          52.950


 133811638.853 8                  25463497.960
      2799.051                          49.000                    99924338.425 8
  25463504.120        2090.171          49.400   102531037.406 8  25463499.500
      2144.786          48.400   101227670.070 8  25463502.320        2117.449
        51.650
 123957297.114 8                  23588289.480
      -897.775                          52.150                    92565528.526 8
  23588293.300        -670.476          53.150    94980272.756 9  23588291.180
      -687.915          54.150    93772895.794 9  23588292.680        -679.220
        56.300
 134915369.442 7                  25673552.460
     -2508.657                          44.800                   100748483.983 7
  25673560.480       -1873.286          44.700   103376693.690 7  25673556.580
     -1922.188          43.050   102062586.488 7  25673559.460       -1897.719
        46.800
 149414313.839 6                  28432599.900
      2644.707                          40.650                   111575647.949 6
  28432605.240        1974.916          39.650   114486309.428 6  28432603.360
      2026.420          39.100   113030978.332 7  28432605.020        2000.728
        42.100
 127186408.505 8                  24202769.040
      1537.422                          51.850                    94976876.583 8
  24202771.440        1148.051          52.050    97454522.454 8  24202769.000
      1178.044          52.900    96215699.171 9  24202770.840        1163.054
        55.150
 142925340.927 7                  27197799.240
     -2197.977                          44.550                   106729957.526 7
  27197809.320       -1641.389          46.150   109514203.702 7  27197805.000
     -1684.240          44.700   108122080.271 8  27197806.860       -1662.847
        48.250
 141203581.713 7                  26870149.000
     -2255.562                          45.750                   105444251.021 7
  26870153.800       -1684.429          43.400   108194958.016 7  26870151.360
     -1728.372          44.200   106819596.667 7  26870153.240       -1706.341
        46.350
 127028362.515 8                  24172686.180
       381.739                          52.250                    94858896.676 8
  24172690.460         285.107          52.450    97333453.115 8  24172688.440
       292.561          52.900    96096172.548 9  24172689.720         288.816
        55.350
 144065971.227 7                  27414851.160
       131.339                          44.000                   107581737.904 7
  27414855.580          98.159          43.150   110388203.350 7  27414851.940
       100.656          44.050   108984969.273 7  27414853.760          99.398
        46.250
 23 12 19 10 12  0.0000000  0 21G05G07G08G13G14G15G18G20G22G23G24G30
                                E02E03E05E07E08E13E24E25E26
 111111121.592 8  86580086.62148  21143749.540                    21143748.180
     -1889.107       -1472.032          50.850          51.000



 127651421.623 7  99468615.67747  24291270.720                    24291272.880
     -2938.527       -2289.767          44.850          44.500



 131137325.235 6 102184961.83546  24954600.260                    24954605.140
      -510.934        -398.131          39.700          39.050    97927257.782 7
  24954605.480        -381.482          42.850


 104878746.164 8  81723695.63148  19957761.200                    19957758.960
       510.044         397.438          50.750          49.950



 111537351.237 8  86912244.04747  21224841.720                    21224841.400
       583.299         454.520          49.450          47.550    83290933.666 8
  21224845.740         435.682          53.650


 112733534.886 8  87844289.88147  21452481.540                    21452481.060
      2680.667        2088.832          49.350          47.100



 127687338.655 6  99496601.70546  24298101.580                    24298101.880
      -713.396        -555.894          40.700          39.900    95350926.469 7
  24298108.580        -532.626          47.000


 120913143.015 7  94218007.16446  23009019.020                    23009019.240
     -3565.959       -2778.673          45.750          40.100



 112984866.690 8  88040177.36847  21500290.780                    21500289.500
      1667.468        1299.325          49.050          45.350



 131471394.159 6 102445242.34546  25018180.200                    25018181.580
      3501.774        2728.646          41.650          38.100    98176703.270 7
  25018186.660        2614.638          44.500


 126753889.201 7  98769282.56346  24120462.800                    24120466.100
      3588.737        2796.419          42.050          40.300    94653904.970 7
  24120471.280        2679.914          45.900


 114862853.749 8  89503516.30148  21857676.660                    21857677.080
     -2277.690       -1774.825          49.800          49.900    85774200.055 8
  21857679.000       -1700.792          53.250


 133727775.741 8                  25447539.340
      2791.468                          49.050                    99861713.509 8
  25447545.400        2084.542          49.300   102466778.779 8  25447540.780
      2138.963          49.200   101164228.296 8  25447543.520        2111.759
        51.750
 123984354.388 8                  23593438.400
      -906.243                          52.350                    92585733.586 8
  23593442.020        -676.669          53.150    95001004.919 9  23593439.920
      -694.354          54.550    93793364.404 9  23593441.540        -685.520
        56.300
 134990678.420 7                  25687883.160
     -2512.151                          44.550                   100804721.046 7
  25687891.680       -1875.958          45.450   103434397.830 7  25687887.520
     -1924.849          43.250   102119557.094 7  25687890.440       -1900.400
        47.100
 149334961.910 6                  28417499.960
      2645.165                          41.650                   111516391.478 6
  28417505.360        1975.372          38.100   114425507.134 6  28417502.800
      2026.757          37.850   112970948.961 6  28417505.060        2001.067
        40.550
 127140374.334 8                  24194009.220
      1531.349                          52.600                    94942500.409 8
  24194011.540        1143.574          52.000    97419249.513 8  24194008.660
      1173.379          53.150    96180874.615 9  24194010.860        1158.456
        55.050
 142991420.000 7                  27210373.820
     -2207.440                          44.850                   106779302.148 7
  27210383.940       -1648.518          45.850   109564835.576 7  27210379.460
     -1691.370          45.600   108172068.518 8  27210381.440       -1669.919
        48.200
 141271390.258 7                  26883052.340
     -2265.178                          45.800                   105494887.227 7
  26883057.660       -1691.513          43.600   108246915.166 7  26883055.040
     -1735.581          44.200   106870893.349 7  26883056.760       -1713.595
        46.300
 127017129.023 8                  24170548.540
       366.927                          52.650                    94850508.049 8
  24170552.760         274.017          52.550    97324845.652 8  24170550.480
       281.160          53.050    96087674.502 9  24170552.020         277.582
        55.300
 144062257.267 7                  27414144.460
       116.152                          43.050                   107578964.449 7
  27414149.280          86.733          42.850   110385357.526 7  27414145.200
        89.011          44.050   108982159.637 7  27414147.020          87.869
        46.000
 23 12 19 10 12 30.0000000  0 21G05G07G08G13G14G15G18G20G22G23G24G30
                                E02E03E05E07E08E13E24E25E26
 111168058.892 8  86624453.29348  21154584.400                    21154583.280
     -1907.432       -1486.312          50.550          50.350



 127739602.379 7  99537327.78147  24308051.160                    24308053.040
     -2940.697       -2291.458          44.000          44.350



 131152931.942 6 102197122.89146  24957569.660                    24957575.340
      -529.696        -412.753          36.400          37.350    97938912.101 7
  24957576.100        -395.727          43.200


 104863640.901 8  81711925.30748  19954886.760                    19954884.520
       496.303         386.729          50.050          49.850



 111520136.736 8  86898830.16548  21221565.900                    21221565.480
       563.610         439.178          49.400          48.300    83278078.705 8
  21221570.040         420.944          53.200


 112653269.251 8  87781745.24147  21437207.440                    21437206.800
      2669.918        2080.456          49.250          47.650



 127709005.828 6  99513485.14346  24302224.740                    24302225.640
      -731.836        -570.264          41.900          40.850    95367106.436 7
  24302232.000        -546.396          46.650


 121020217.203 7  94301441.43946  23029394.740                    23029395.040
     -3572.874       -2784.064          45.250          41.550



 112935096.969 8  88001395.80247  21490819.860                    21490818.560
      1650.038        1285.745          49.200          45.900



 131366442.830 6 102363461.93146  24998208.780                    24998210.080
      3494.508        2722.986          41.350          38.850    98098330.343 7
  24998215.620        2609.772          43.100


 126646289.693 6  98685438.77246  24099987.020                    24099990.840
      3583.934        2792.675          41.700          41.000    94573554.649 7
  24099995.780        2676.459          44.800


 114931306.382 8  89556855.97448  21870702.640                    21870703.240
     -2286.557       -1781.733          49.300          49.350    85825317.226 8
  21870705.340       -1707.429          52.850


 133644133.313 8                  25431622.460
      2783.992                          48.700                    99799253.431 8
  25431628.760        2078.997          49.050   102402689.288 8  25431624.200
      2133.194          49.100   101100953.515 8  25431626.760        2106.101
        51.850
 124011654.670 8                  23598633.580
      -914.482                          52.400                    92606120.123 8
  23598637.000        -682.868          52.700    95021923.285 9  23598634.940
      -700.651          54.450    93814016.856 9  23598636.680        -691.751
        56.350
 135066087.138 7                  25702232.840
     -2515.613                          44.200                   100861032.586 7
  25702241.800       -1878.549          44.600   103492178.430 7  25702237.180
     -1927.678          43.300   102176603.156 7  25702240.580       -1903.021
        47.050
 149255593.370 7                  28402396.700
      2645.545                          42.850                   111457122.629 6
  28402402.100        1975.662          36.850   114364692.153 6  28402399.440
      2027.140          36.650   112910907.047 6  28402401.860        2001.453
        39.750
 127094515.918 8                  24185282.840
      1525.336                          52.350                    94908255.468 8
  24185285.040        1139.098          51.550    97384111.230 8  24185281.840
      1168.803          53.150    96146183.003 9  24185284.320        1153.945
        55.150
 143057775.648 7                  27223000.920
     -2216.909                          43.900                   106828853.300 7
  27223011.160       -1655.344          45.050   109615679.392 7  27223006.780
     -1698.597          45.950   108222265.998 8  27223008.600       -1676.927
        48.250
 141339473.439 7                  26896008.080
     -2274.234                          46.050                   105545728.504 7
  26896013.780       -1698.323          43.350   108299082.752 7  26896011.000
     -1742.656          44.000   106922397.775 7  26896012.560       -1720.375
        46.400
 127006335.019 8                  24168494.540
       352.126                          52.350                    94842447.612 8
  24168498.780         262.938          52.150    97316574.940 8  24168496.120
       269.793          52.850    96079508.929 9  24168497.960         266.367
        55.350
 144058996.804 7                  27413523.540
       100.891                          42.000                   107576529.635 7
  27413528.680          75.170          42.050   110382859.187 7  27413524.680
        77.199          44.250   108979693.064 7  27413526.500          76.146
        45.950
 23 12 19 10 13  0.0000000  0 21G05G07G08G13G14G15G18G20G22G23G24G30
                                E02E03E05E07E08E13E24E25E26
 111225541.915 8  86669245.21448  21165523.100                    21165522.080
     -1924.525       -1499.631          50.250          50.350



 127827850.783 7  99606092.59347  24324844.260                    24324846.340
     -2941.980       -2292.459          42.250          42.700



 131169103.872 6 102209724.36446  24960646.740                    24960653.020
      -547.430        -426.569          37.850          37.550    97950988.509 7
  24960653.900        -408.885          42.950


 104848941.381 8  81700471.14848  19952089.560                    19952087.340
       483.916         377.077          50.500          50.250



 111503510.169 8  86885874.41348  21218402.020                    21218401.400
       545.137         424.782          49.450          48.600    83265662.788 8
  21218406.320         407.098          53.650


 112573318.395 8  87719445.88747  21421993.260                    21421992.560
      2660.507        2073.122          49.000          47.750



 127731224.310 7  99530798.20146  24306453.000                    24306454.160
      -748.918        -583.572          42.350          40.350    95383698.107 7
  24306460.080        -559.448          46.850


 121127496.304 7  94385035.40846  23049809.460                    23049809.820
     -3578.727       -2788.622          45.550          40.300



 112885848.340 8  87963020.27447  21481448.240                    21481446.700
      1633.571        1272.913          49.700          45.600



 131261687.799 6 102281834.50546  24978274.660                    24978275.980
      3489.397        2719.009          41.150          38.400    98020104.009 7
  24978281.780        2605.683          44.700


 126538828.501 6  98601702.68646  24079537.660                    24079541.560
      3580.265        2789.814          40.500          40.100    94493307.551 7
  24079546.040        2673.732          44.700


 115000017.871 8  89610397.36748  21883778.060                    21883778.720
     -2293.988       -1787.524          49.450          49.400    85876627.720 8
  21883780.800       -1712.997          53.050


 133560713.153 8                  25415748.060
      2777.611                          48.400                    99736959.332 8
  25415754.340        2074.203          49.050   102338770.099 8  25415749.620
      2128.309          49.000   101037846.867 8  25415752.240        2101.262
        51.950
 124039198.030 8                  23603875.000
      -921.421                          52.050                    92626688.175 8
  23603878.340        -688.032          52.900    95043027.901 9  23603876.260
      -706.001          54.350    93834853.189 9  23603878.080        -697.033
        56.550
 135141595.198 7                  25716601.340
     -2517.865                          43.800                   100917418.308 7
  25716610.760       -1880.226          45.100   103550035.088 7  25716606.340
     -1929.287          44.100   102233724.350 7  25716609.580       -1904.697
        47.750
 149176208.683 7                  28387290.240
      2647.213                          42.600                   111397841.763 6
  28387295.760        1976.676          36.900   114303864.820 6  28387292.500
      2028.438          36.050   112850852.944 6  28387295.460        2002.614
        39.400
 127048833.971 8                  24176589.980
      1520.483                          52.200                    94874142.320 8
  24176592.180        1135.455          51.950    97349108.174 8  24176588.860
      1165.074          53.150    96111624.901 9  24176591.340        1150.251
        55.450
 143124405.859 7                  27235680.360
     -2224.762                          43.700                   106878609.508 7
  27235690.560       -1661.350          44.850   109666733.588 7  27235686.200
     -1704.736          45.850   108272671.200 8  27235687.980       -1682.976
        48.050
 141407829.568 7                  26909015.800
     -2282.413                          45.700                   105596773.606 7
  26909021.900       -1704.288          44.000   108351459.474 7  26909018.960
     -1748.785          44.000   106974108.694 7  26909020.380       -1726.659
        46.800
 126995980.476 8                  24166524.180
       338.614                          52.300                    94834715.341 8
  24166528.540         252.854          52.550    97308640.954 8  24166525.360
       259.416          52.650    96071675.802 9  24166527.520         256.142
        55.550
 144056189.717 6                  27412988.760
        86.608                          40.950                   107574433.370 7
  27412993.920          64.755          42.300   110380708.251 7  27412990.640
        66.468          44.000   108977569.459 7  27412992.400          65.621
        46.050
 23 12 19 10 13 30.0000000  0 21G05G07G08G13G14G15G18G20G22G23G24G30
                                E02E03E05E07E08E13E24E25E26
 111283564.606 8  86714457.65148  21176564.500                    21176563.600
     -1942.592       -1513.709          50.600          50.750



 127916161.515 7  99674905.96647  24341649.260                    24341651.660
     -2944.035       -2294.059          43.750          44.000



 131185836.297 6 102222762.49046  24963830.700                    24963837.260
      -566.861        -441.715          37.900          37.850    97963483.351 6
  24963838.000        -423.003          41.950


 104834644.159 8  81689330.45748  19949369.020                    19949366.680
       470.524         366.642          50.950          50.150



 111487467.731 8  86873373.83447  21215349.340                    21215348.540
       525.505         409.485          50.150          47.650    83253683.067 9
  21215353.820         392.388          54.000


 112493679.885 8  87657389.93047  21406838.460                    21406837.740
      2649.836        2064.809          49.650          47.150



 127753988.498 7  99548536.45646  24310785.200                    24310786.460
      -767.233        -597.847          43.800          39.150    95400697.238 7
  24310791.800        -573.015          46.900


 121234973.401 7  94468783.66046  23070261.900                    23070262.220
     -3585.274       -2793.724          45.600          40.350



 112837117.786 8  87925048.45747  21472175.240                    21472173.560
      1616.206        1259.382          50.650          45.050



 131157127.431 6 102200358.75446  24958377.440                    24958379.180
      3482.727        2713.813          40.250          39.050    97942023.034 7
  24958384.880        2600.608          45.250


 126431502.526 6  98518071.99546  24059113.900                    24059118.340
      3575.729        2786.278          40.700          40.850    94413161.468 7
  24059122.260        2670.176          44.850


 115068982.460 8  89664135.97548  21896901.720                    21896902.380
     -2302.520       -1794.172          49.700          49.750    85928127.213 8
  21896904.200       -1719.424          53.200


 133477512.528 8                  25399915.240
      2770.199                          48.900                    99674829.196 8
  25399921.540        2068.618          49.200   102275019.160 8  25399917.140
      2122.566          49.400   100974906.329 8  25399919.500        2095.610
        52.100
 124066980.351 8                  23609161.820
      -929.615                          52.550                    92647434.674 8
  23609165.180        -694.177          53.200    95064315.619 9  23609163.080
      -712.268          54.250    93855870.297 9  23609164.940        -703.204
        56.550
 135217197.924 7                  25730988.080
     -2521.117                          44.650                   100973874.743 7
  25730997.840       -1882.704          45.450   103607964.333 7  25730993.380
     -1931.789          44.000   102290917.191 7  25730996.520       -1907.171
        47.800
 149096803.926 7                  28372179.880
      2647.663                          44.050                   111338545.940 5
  28372185.500        1976.977          35.600   114243022.169 5  28372181.500
      2028.426          34.850   112790783.719 6  28372185.240        2002.604
        38.200
 127003325.022 8                  24167929.960
      1514.561                          52.450                    94840158.368 8
  24167932.280        1130.980          52.350    97314237.684 8  24167928.980
      1160.505          53.350    96077197.679 9  24167931.280        1145.716
        55.650
 143191304.402 7                  27248410.880
     -2233.757                          43.150                   106928566.083 7
  27248420.960       -1668.244          44.350   109717993.380 7  27248416.700
     -1711.607          45.300   108323279.381 7  27248418.320       -1689.894
        47.550
 141476452.662 7                  26922074.400
     -2291.312                          46.250                   105648018.061 7
  26922080.720       -1711.146          44.250   108404040.751 7  26922077.720
     -1755.725          43.850   107026021.555 7  26922079.000       -1733.424
        46.750
 126986061.119 8                  24164636.620
       323.841                          52.600                    94827308.046 8
  24164641.080         241.779          52.850    97301040.419 8  24164637.460
       248.158          52.500    96064171.886 9  24164639.920         244.983
        55.550
 144053831.656 7                  27412539.980
        71.628                          43.100                   107572672.418 7
  27412544.680          53.442          42.600   110378901.375 7  27412541.980
        54.885          43.850   108975785.544 7  27412543.760          54.181
        46.000
 23 12 19 10 14  0.0000000  0 21G05G07G08G13G14G15G18G20G22G23G24G30
                                E02E03E05E07E08E13E24E25E26
 111342122.856 8  86760087.40948  21187707.780                    21187706.880
     -1960.709       -1527.827          50.350          50.400



 128004531.534 7  99743765.54547  24358465.600                    24358468.360
     -2946.272       -2295.804          42.950          43.200



 131203126.522 6 102236235.29546  24967121.160                    24967127.200
      -585.266        -456.057          38.800          38.500    97976394.792 6
  24967127.780        -437.256          41.350


 104820747.480 8  81678501.88148  19946724.620                    19946722.340
       456.616         355.805          50.500          50.350



 111472007.876 8  86861327.21947  21212407.540                    21212406.580
       505.762         394.101          50.300          47.900    83242138.395 8
  21212412.180         377.617          53.850


 112414353.814 8  87595577.42347  21391743.340                    21391742.500
      2639.106        2056.447          50.100          47.700



 127777294.928 7  99566697.25946  24315220.440                    24315221.740
      -785.899        -612.392          43.650          39.050    95418101.317 7
  24315226.700        -586.808          46.650


 121342643.783 7  94552682.51646  23090751.060                    23090751.800
     -3592.022       -2798.983          45.400          39.250



 112788905.048 8  87887480.12647  21463000.800                    21462999.040
      1598.431        1245.532          50.600          45.350



 131052762.319 6 102119035.18646  24938517.480                    24938519.100
      3475.729        2708.363          41.050          39.000    97864087.928 7
  24938525.340        2595.416          45.200


 126324311.132 6  98434546.16246  24038715.980                    24038720.660
      3570.788        2782.433          39.850          38.950    94333115.825 7
  24038723.760        2666.601          44.100


 115138196.537 8  89718069.00448  21910072.860                    21910073.340
     -2311.194       -1800.932          50.100          50.200    85979813.019 8
  21910075.020       -1725.857          53.000


 133394530.970 8                  25384124.240
      2762.477                          48.900                    99612862.636 8
  25384130.440        2062.912          49.000   102211436.059 8  25384126.320
      2116.695          49.350   100912131.500 8  25384128.500        2089.811
        52.100
 124094999.683 8                  23614493.800
      -937.884                          52.650                    92668358.166 8
  23614497.200        -700.355          53.100    95085784.949 9  23614495.040
      -718.611          54.300    93877066.710 9  23614496.920        -709.458
        56.700
 135292892.969 7                  25745392.300
     -2524.519                          44.550                   101030400.098 7
  25745402.140       -1885.222          44.550   103665964.287 7  25745398.040
     -1934.445          44.650   102348179.847 7  25745401.100       -1909.781
        47.700
 149017377.512 7                  28357065.360
      2648.028                          44.750                   111279233.907 6
  28357070.880        1977.587          36.450   114182162.872 6  28357066.600
      2029.113          36.150   112730698.029 6  28357070.940        2003.520
        39.250
 126957987.784 8                  24159302.520
      1508.464                          52.050                    94806302.645 8
  24159305.020        1126.413          52.100    97279498.764 8  24159301.800
      1155.838          53.500    96042900.357 9  24159303.880        1141.106
        55.700
 143258467.166 7                  27261191.720
     -2242.954                          42.800                   106978719.966 7
  27261201.520       -1675.082          43.600   109769455.627 7  27261197.260
     -1718.640          44.750   108374087.446 7  27261198.940       -1696.873
        47.050
 141545338.985 7                  26935183.120
     -2300.490                          46.250                   105699459.070 7
  26935189.500       -1717.904          44.350   108456823.712 7  26935186.620
     -1762.703          43.700   107078133.536 7  26935187.720       -1740.209
        47.000
 126976574.871 8                  24162831.400
       309.094                          52.300                    94820224.173 8
  24162836.000         230.780          52.700    97293771.754 8  24162832.100
       236.830          52.550    96056995.617 9  24162834.740         233.799
        55.600
 144051920.563 7                  27412176.560
        56.454                          43.650                   107571245.220 7
  27412180.540          42.077          42.800   110377436.969 7  27412178.480
        43.093          43.950   108974339.743 7  27412180.180          42.609
        46.250
 23 12 19 10 14 30.0000000  0 21G05G07G08G13G14G15G18G20G22G23G24G30
                                E02E03E05E07E08E13E24E25E26
 111401226.080 8  86806141.83948  21198954.740                    21198953.860
     -1978.971       -1542.057          50.300          50.050



 128092970.775 7  99812679.05747  24375295.140                    24375298.340
     -2949.019       -2297.942          42.900          43.050



 131220985.671 6 102250151.41246  24970519.640                    24970525.380
      -604.617        -471.136          39.300          38.750    97989731.042 7
  24970526.280        -451.437          42.450


 104807263.288 8  81667994.72248  19944158.580                    19944156.420
       442.812         345.048          50.450          50.000



 111457142.353 8  86849743.71948  21209578.800                    21209577.760
       485.718         378.482          50.300          48.000    83231037.535 8
  21209583.560         362.784          53.800


 112335353.439 8  87534018.69947  21376710.260                    21376709.300
      2628.045        2047.828          50.250          47.600



 127801153.503 7  99585288.29146  24319760.680                    24319761.820
      -804.228        -626.673          42.850          39.850    95435917.712 7
  24319766.860        -600.604          46.350


 121450515.811 7  94636738.50046  23111278.540                    23111279.520
     -3598.787       -2804.255          44.400          39.450



 112741222.963 8  87850325.29247  21453927.300                    21453925.480
      1580.769        1231.770          50.400          45.400



 130948606.475 6 102037874.68246  24918697.300                    24918699.080
      3468.378        2702.630          40.600          38.200    97786309.098 7
  24918705.600        2590.168          45.100


 126217266.792 6  98351134.98046  24018345.860                    24018350.960
      3565.909        2778.628          40.150          37.750    94253180.117 7
  24018353.320        2662.854          44.700


 115207669.880 8  89772204.06248  21923293.380                    21923293.640
     -2319.972       -1807.770          50.400          50.400    86031692.441 8
  21923295.280       -1732.441          52.900


 133311781.332 8                  25368377.340
      2754.659                          49.000                    99551069.285 8
  25368383.420        2056.994          48.650   102148030.677 8  25368379.480
      2110.693          49.550   100849532.135 8  25368381.580        2083.844
        52.000
 124123267.467 8                  23619872.980
      -946.149                          52.600                    92689467.190 8
  23619876.600        -706.568          52.950    95107444.652 9  23619874.300
      -724.979          54.400    93898451.075 9  23619876.160        -715.796
        56.600
 135368691.266 7                  25759816.340
     -2528.012                          43.950                   101087002.591 7
  25759826.200       -1888.045          44.550   103724043.359 7  25759822.380
     -1937.173          44.900   102405520.634 7  25759825.080       -1912.630
        47.750
 148937941.127 7                  28341948.880
      2648.297                          44.900                   111219914.505 6
  28341954.320        1977.773          36.250   114121296.041 6  28341950.140
      2029.272          37.600   112670604.929 6  28341954.760        2003.407
        40.000
 126912834.378 8                  24150709.860
      1502.271                          51.850                    94772584.204 8
  24150712.500        1121.788          51.750    97244900.712 8  24150709.540
      1151.051          53.550    96008742.110 9  24150711.480        1136.420
        55.600
 143325903.483 7                  27274024.620
     -2252.215                          42.350                   107029078.123 7
  27274033.900       -1681.814          43.350   109821127.481 7  27274029.880
     -1725.829          44.250   108425102.449 7  27274031.620       -1703.767
        46.650
 141614498.140 7                  26948343.820
     -2309.689                          46.150                   105751103.822 7
  26948350.120       -1724.801          44.500   108509815.735 7  26948347.460
     -1769.800          43.800   107130451.925 7  26948348.420       -1747.246
        47.200
 126967533.036 8                  24161110.680
       294.136                          52.250                    94813472.167 8
  24161115.360         219.667          52.450    97286843.608 8  24161111.440
       225.390          52.550    96050155.546 9  24161114.160         222.492
        55.550
 144050467.627 7                  27411900.460
        40.930                          43.850                   107570160.173 7
  27411904.220          30.589          43.000   110376323.628 7  27411902.220
        31.369          43.950   108973240.546 7  27411903.800          31.033
        46.350
 23 12 19 10 15  0.0000000  0 21G05G07G08G13G14G15G18G20G22G23G24G30
                                E02E03E05E07E08E13E24E25E26
 111460861.457 8  86852610.92548  21210302.940                    21210302.040
     -1996.542       -1555.749          50.050          50.200



 128181467.790 7  99881637.54547  24392135.720                    24392139.220
     -2950.651       -2299.216          43.000          43.600



 131239402.415 6 102264502.01446  24974024.540                    24974029.660
      -623.346        -485.728          38.300          38.350    98003483.698 7
  24974031.380        -465.158          42.700


 104794181.705 8  81657801.28148  19941669.080                    19941667.000
       429.494         334.671          49.550          49.650



 111442860.896 8  86838615.33748  21206861.100                    21206860.080
       466.472         363.486          50.100          48.200    83220372.846 9
  21206866.020         348.328          54.000


 112256669.880 8  87472706.84948  21361737.440                    21361736.420
      2617.719        2039.782          50.200          48.350



 127825552.097 7  99604300.13746  24324403.560                    24324404.640
      -821.995        -640.517          42.900          39.700    95454137.378 7
  24324409.880        -613.937          46.550


 121558575.857 7  94720941.00546  23131841.680                    23131842.920
     -3605.126       -2809.194          44.800          40.800



 112694062.084 8  87813576.59447  21444952.880                    21444951.320
      1563.487        1218.303          50.250          45.750



 130844651.795 6 101956870.96346  24898915.300                    24898917.420
      3462.091        2697.728          41.050          37.750    97708680.538 7
  24898923.860        2585.190          45.100


 126110360.182 6  98267831.16546  23998002.160                    23998007.540
      3561.249        2775.002          38.900          38.500    94173347.268 7
  23998009.120        2659.547          44.200


 115277390.298 8  89826531.63648  21936560.780                    21936561.140
     -2328.034       -1814.054          49.650          49.400    86083756.353 8
  21936562.500       -1738.421          53.000


 133229254.463 8                  25352672.920
      2747.280                          49.050                    99489442.247 8
  25352678.640        2051.525          48.600   102084795.973 8  25352675.380
      2105.031          49.700   100787101.261 8  25352677.100        2078.304
        52.350
 124151773.094 8                  23625297.380
      -954.029                          52.250                    92710753.834 8
  23625301.160        -712.465          53.050    95129286.604 9  23625298.940
      -731.037          54.300    93920015.373 9  23625300.640        -721.776
        56.850
 135444581.819 7                  25774257.720
     -2531.088                          43.700                   101143673.933 7
  25774267.780       -1890.108          44.200   103782193.128 7  25774264.140
     -1939.444          44.750   102462931.187 7  25774266.680       -1914.781
        47.800
 148858484.517 7                  28326828.540
      2648.915                          43.400                   111160580.063 6
  28326834.300        1978.165          37.800   114060413.702 6  28326830.040
      2029.848          37.050   112610496.542 6  28326834.780        2003.934
        40.700
 126867854.898 8                  24142150.340
      1496.527                          51.600                    94738995.625 8
  24142152.880        1117.500          51.750    97210435.913 8  24142150.340
      1146.702          53.350    95974715.417 9  24142152.200        1132.142
        55.750
 143393600.550 7                  27286907.080
     -2260.670                          43.050                   107079630.979 7
  27286916.040       -1688.297          43.950   109872999.119 7  27286912.120
     -1732.213          43.550   108476314.697 7  27286913.980       -1710.212
        46.950
 141683917.728 7                  26961554.080
     -2318.362                          45.950                   105802943.033 7
  26961560.120       -1731.188          44.400   108563007.293 7  26961557.840
     -1776.291          43.650   107182967.318 7  26961558.700       -1753.795
        47.300
 126958924.822 8                  24159472.440
       279.876                          51.950                    94807043.978 8
  24159477.140         208.986          52.650    97280247.729 8  24159473.420
       214.395          52.350    96043643.508 9  24159476.100         211.701
        55.800
 144049462.034 7                  27411709.340
        26.162                          43.950                   107569409.216 7
  27411713.140          19.499          43.600   110375553.074 7  27411711.360
        20.070          43.950   108972479.792 7  27411712.480          19.808
        46.850
 23 12 19 10 15 30.0000000  0 21G05G07G08G13G14G15G18G20G22G23G24G30
                                E02E03E05E07E08E13E24E25E26
 111521033.963 8  86899498.55048  21221753.380                    21221752.520
     -2014.324       -1569.604          49.750          49.900



 128270027.750 7  99950645.13247  24408988.400                    24408991.980
     -2952.777       -2300.871          42.950          42.800



 131258383.572 6 102279292.43346  24977636.520                    24977641.600
      -641.779        -500.093          37.350          37.200    98017657.858 7
  24977643.880        -479.312          43.600


 104781510.248 8  81647927.41848  19939257.560                    19939255.620
       415.793         323.995          49.500          49.250



 111429170.527 8  86827947.53448  21204255.820                    21204254.940
       446.669         348.055          49.750          49.300    83210149.540 9
  21204260.820         333.576          54.100


 112178312.054 8  87411648.80948  21346826.520                    21346825.500
      2606.776        2031.255          49.950          49.100



 127850495.914 7  99623736.81246  24329150.240                    24329151.280
      -840.472        -654.916          42.300          40.550    95472764.172 7
  24329156.720        -627.518          46.600


 121666827.822 7  94805293.04646  23152441.380                    23152442.980
     -3611.648       -2814.275          44.250          41.500



 112647431.224 8  87777240.90047  21436079.240                    21436077.940
      1545.718        1204.457          49.950          46.900



 130740907.659 6 101876031.33046  24879173.540                    24879175.600
      3454.985        2692.193          40.900          39.700    97631209.231 7
  24879182.260        2579.896          46.100


 126003599.045 6  98184640.76446  23977686.120                    23977691.400
      3556.734        2771.484          40.950          39.900    94093623.195 7
  23977692.640        2655.823          44.750


 115347362.875 8  89881055.68048  21949876.080                    21949876.760
     -2336.271       -1820.473          49.300          49.350    86136008.564 8
  21949877.800       -1744.714          53.300


 133146958.529 8                  25337012.460
      2739.537                          48.950                    99427987.658 8
  25337017.940        2045.798          48.900   102021738.199 8  25337015.000
      2099.201          49.750   100724845.081 8  25337016.640        2072.493
        52.150
 124180523.304 8                  23630768.280
      -962.194                          52.350                    92732223.117 8
  23630772.140        -718.557          53.100    95151315.959 9  23630770.100
      -737.281          54.500    93941764.690 9  23630771.640        -727.922
        56.650
 135520570.843 7                  25788717.880
     -2534.463                          43.300                   101200418.851 7
  25788727.880       -1892.567          44.050   103840418.323 7  25788724.660
     -1941.878          45.350   102520416.242 7  25788726.940       -1917.203
        47.550
 148779014.763 7                  28311705.640
      2649.357                          43.050                   111101235.737 6
  28311711.980        1978.398          37.600   113999521.297 6  28311707.660
      2030.032          37.300   112550378.173 6  28311712.080        2004.179
        40.600
 126823056.716 8                  24133625.320
      1490.479                          51.050                    94705542.428 8
  24133627.760        1113.047          51.850    97176110.036 8  24133625.660
      1142.063          53.600    95940825.884 9  24133627.440        1127.557
        55.600
 143461562.989 7                  27299840.060
     -2269.516                          43.850                   107130382.017 7
  27299848.640       -1694.776          44.150   109925074.121 7  27299844.860
     -1738.988          43.650   108527727.715 7  27299847.000       -1716.828
        46.850
 141753602.668 7                  26974814.860
     -2327.014                          45.800                   105854980.392 7
  26974820.580       -1737.634          44.250   108616402.174 7  26974818.660
     -1783.077          44.150   107235683.430 7  26974819.480       -1760.321
        47.050
 126950756.816 8                  24157917.980
       265.185                          51.800                    94800944.504 8
  24157922.660         198.031          52.650    97273989.143 8  24157919.220
       203.144          52.600    96037464.476 9  24157921.780         200.596
        55.450
 144048910.381 7                  27411604.440
        11.019                          43.550                   107568997.202 7
  27411608.500           8.263          44.200   110375130.321 7  27411606.760
         8.474          44.050   108972062.413 7  27411607.560           8.390
        46.950
 23 12 19 10 16  0.0000000  0 21G05G07G08G13G14G15G18G20G22G23G24G30
                                E02E03E05E07E08E13E24E25E26
 111581736.241 8  86946798.99648  21233304.620                    21233303.860
     -2031.320       -1582.849          49.800          49.950



 128358644.924 7 100019697.27247  24425851.840                    24425855.460
     -2954.056       -2301.867          42.900          43.350



 131277922.834 6 102294517.77746  24981354.740                    24981359.300
      -659.666        -514.024          39.200          38.100    98032248.793 7
  24981362.440        -492.654          43.900


 104769243.863 8  81638369.19248  19936923.200                    19936921.240
       402.992         314.021          49.600          49.550



 111416066.534 8  86817736.64748  21201762.080                    21201761.440
       427.843         333.385          49.750          49.150    83200364.115 9
  21201767.140         319.545          54.000


 112100276.895 8  87350842.22348  21331976.840                    21331976.000
      2596.616        2023.338          49.900          48.550



 127875978.353 7  99643593.20146  24333999.400                    24334000.320
      -857.579        -668.244          42.650          41.300    95491793.211 7
  24334005.980        -640.362          46.250


 121775263.716 7  94889788.39846  23173075.980                    23173077.920
     -3616.907       -2818.373          44.500          40.800



 112601326.097 8  87741314.86447  21427305.640                    21427304.520
      1528.936        1191.380          50.100          46.050



 130637371.569 6 101795353.84946  24859471.200                    24859473.460
      3448.649        2687.259          40.800          38.850    97553893.276 7
  24859480.080        2575.250          46.150


 125896979.517 6  98101560.75446  23957397.280                    23957402.480
      3552.916        2768.510          40.650          40.650    94014004.880 7
  23957403.320        2652.803          44.950


 115417580.969 8  89935771.03148  21963238.080                    21963239.080
     -2343.725       -1826.280          49.250          49.100    86188444.095 8
  21963239.900       -1750.223          53.600


 133064889.965 8                  25321395.240
      2732.652                          49.500                    99366702.844 8
  25321400.500        2040.627          48.550   101958854.640 8  25321397.920
      2093.877          49.900   100662760.892 8  25321399.380        2067.262
        52.200
 124209513.077 8                  23636284.820
      -969.366                          52.600                    92753871.305 8
  23636288.700        -723.917          53.100    95173528.884 9  23636286.760
      -742.819          54.450    93963695.246 9  23636288.200        -733.370
        56.750
 135596652.845 7                  25803195.600
     -2536.649                          42.900                   101257233.181 7
  25803205.800       -1894.206          44.650   103898714.791 7  25803202.760
     -1943.657          44.600   102577971.641 7  25803204.780       -1918.991
        47.750
 148699527.183 7                  28296579.400
      2650.778                          43.650                   111041878.130 6
  28296586.340        1979.247          38.150   113938615.207 6  28296581.700
      2031.241          36.950   112490246.315 6  28296586.160        2005.281
        40.900
 126778435.571 8                  24125133.960
      1485.273                          51.400                    94672221.441 8
  24125136.500        1109.176          52.050    97141919.810 8  24125134.660
      1138.090          53.550    95907070.278 9  24125136.380        1123.616
        55.800
 143529783.638 7                  27312822.180
     -2277.386                          44.150                   107181325.879 7
  27312830.540       -1700.703          44.650   109977346.992 7  27312826.960
     -1745.135          43.800   108579336.091 7  27312829.200       -1722.924
        47.250
 141823546.170 7                  26988124.800
     -2334.836                          46.050                   105907210.851 7
  26988130.260       -1743.686          44.250   108669995.157 7  26988128.720
     -1789.029          44.150   107288595.162 7  26988129.400       -1766.434
        47.250
 126943023.831 8                  24156446.360
       251.450                          52.050                    94795169.889 8
  24156450.940         187.777          52.550    97268063.881 8  24156447.840
       192.648          52.550    96031614.537 9  24156450.240         190.208
        55.600
 144048807.351 7                  27411584.920
        -3.149                          44.100                   107568920.209 7
  27411589.260          -2.345          44.100   110375051.331 7  27411587.240
        -2.397          43.500   108971984.425 7  27411588.000          -2.401
        46.900
 23 12 19 10 16 30.0000000  0 21G05G07G08G13G14G15G18G20G22G23G24G30
                                E02E03E05E07E08E13E24E25E26
 111642966.448 8  86994510.80548  21244956.360                    21244955.700
     -2050.137       -1597.510          50.200          50.050



 128447318.172 7 100088793.11347  24442725.980                    24442729.480
     -2957.279       -2304.380          42.900          42.450



 131298020.394 6 102310178.18946  24985179.320                    24985183.980
      -679.578        -529.542          39.450          38.850    98047256.695 7
  24985186.960        -507.604          44.200


 104757383.287 8  81629127.18148  19934666.260                    19934664.000
       388.139         302.446          49.700          49.450



 111403549.308 8  86807982.97448  21199380.020                    21199379.620
       406.944         317.101          49.550          49.100    83191016.851 9
  21199385.020         303.961          54.150


 112022566.373 8  87290288.59448  21317188.880                    21317188.240
      2584.472        2013.875          49.750          48.450



 127901997.981 7  99663868.18646  24338950.900                    24338951.860
      -876.588        -683.059          42.500          41.700    95511223.397 7
  24338957.280        -654.586          46.150


 121883880.772 7  94974424.91346  23193745.100                    23193747.360
     -3623.974       -2823.882          44.300          40.750



 112555748.302 8  87705799.72747  21418632.360                    21418631.400
      1509.996        1176.621          49.950          46.850



 130534046.268 6 101714840.59246  24839809.020                    24839811.380
      3440.282        2680.740          40.600          39.350    97476734.733 7
  24839817.920        2569.007          46.550


 125790502.900 6  98018592.12946  23937135.640                    23937140.420
      3546.450        2763.474          41.900          40.800    93934493.283 7
  23937141.160        2648.313          45.200


 115488043.088 8  89990676.55448  21976646.580                    21976647.760
     -2353.108       -1833.592          49.600          49.550    86241061.880 9
  21976648.640       -1757.242          54.000


 132983050.371 8                  25305821.600
      2723.758                          49.500                    99305589.000 8
  25305826.600        2033.923          48.950   101896146.521 8  25305824.560
      2086.990          50.000   100600849.910 8  25305825.780        2060.487
        52.300
 124238742.623 8                  23641847.060
      -978.785                          52.700                    92775698.549 8
  23641850.940        -730.916          53.300    95195925.533 9  23641849.100
      -750.029          54.600    93985807.193 9  23641850.420        -740.450
        56.750
 135672827.556 7                  25817691.140
     -2541.320                          42.600                   101314116.766 7
  25817701.340       -1897.560          44.600   103957082.312 7  25817698.240
     -1947.088          45.100   102635597.198 7  25817700.520       -1922.337
        47.700
 148620022.332 7                  28281449.920
      2649.885                          44.100                   110982507.568 6
  28281457.380        1978.803          39.050   113877695.850 6  28281452.340
      2030.626          37.200   112430101.366 6  28281456.860        2004.688
        41.200
 126733992.286 8                  24116676.720
      1478.050                          52.000                    94639033.277 8
  24116679.320        1103.762          52.450    97107865.868 8  24116677.420
      1132.530          53.500    95873449.227 9  24116679.160        1118.124
        55.850
 143598260.518 7                  27325852.900
     -2287.140                          43.800                   107232461.088 7
  27325861.280       -1707.986          44.650   110029816.197 7  27325857.820
     -1752.615          44.200   108631138.292 7  27325860.240       -1730.248
        47.300
 141893746.568 7                  27001483.580
     -2344.682                          45.750                   105959633.116 7
  27001488.860       -1750.958          44.550   108723784.974 7  27001487.640
     -1796.530          44.250   107341701.194 7  27001488.160       -1773.768
        47.300
 126935725.843 8                  24155057.580
       235.643                          51.850                    94789720.114 8
  24155062.080         175.939          52.650    97262471.932 8  24155059.160
       180.549          52.600    96026093.675 9  24155061.480         178.230
        55.600
 144049152.893 7                  27411650.640
       -19.541                          44.150                   107569178.176 7
  27411655.320         -14.479          44.350   110375316.035 7  27411652.800
       -14.811          43.650   108972245.760 7  27411653.840         -14.707
        46.850
 23 12 19 10 17  0.0000000  0 21G05G07G08G13G14G15G18G20G22G23G24G30
                                E02E03E05E07E08E13E24E25E26
 111704729.405 8  87042637.74448  21256709.580                    21256708.920
     -2067.423       -1610.980          50.100          49.950



 128536053.150 7 100157937.08447  24459611.840                    24459615.300
     -2958.951       -2305.682          42.600          42.600



 131318682.542 6 102326278.56846  24989111.320                    24989115.940
      -698.009        -543.904          38.000          38.600    98062686.170 7
  24989118.960        -521.060          43.050


 104745936.049 8  81620207.24348  19932488.080                    19932485.600
       374.940         292.161          50.250          50.050



 111391625.879 8  86798692.00348  21197111.020                    21197110.760
       387.789         302.174          49.700          48.950    83182113.015 9
  21197115.900         289.529          54.100


 111945189.300 8  87229994.79348  21302464.320                    21302463.880
      2573.858        2005.604          49.300          48.050



 127928559.973 7  99684565.82846  24344005.700                    24344006.520
      -894.219        -696.794          43.050          41.000    95531058.618 7
  24344011.660        -667.819          46.050


 121992682.936 7  95059205.67647  23214449.440                    23214451.780
     -3630.013       -2828.585          43.950          42.200



 112510706.290 8  87670702.07647  21410061.060                    21410060.240
      1492.612        1163.074          49.800          46.800



 130430941.137 6 101634498.91246  24820188.680                    24820191.040
      3433.307        2675.302          40.750          39.350    97399740.620 7
  24820197.540        2563.796          46.600


 125684177.076 6  97935741.03146  23916902.860                    23916906.980
      3541.914        2759.940          41.900          40.500    93855094.347 7
  23916907.800        2644.946          45.550


 115558754.519 8  90045776.34048  21990102.520                    21990103.900
     -2360.885       -1839.651          48.800          48.800    86293865.824 9
  21990104.920       -1763.069          54.150


 132901448.023 8                  25290293.140
      2716.354                          49.650                    99244652.318 8
  25290298.160        2028.360          49.000   101833620.163 8  25290296.020
      2081.273          50.050   100539118.388 8  25290297.300        2054.859
        52.300
 124268218.737 8                  23647456.300
      -986.461                          52.600                    92797709.910 8
  23647460.200        -736.656          53.300    95218511.104 9  23647458.400
      -755.837          54.900    94008105.662 9  23647459.520        -746.291
        56.800
 135749101.358 7                  25832205.500
     -2543.912                          43.150                   101371074.338 7
  25832215.780       -1899.577          45.550   104015525.730 7  25832212.780
     -1949.176          45.250   102693297.693 8  25832214.920       -1924.444
        48.200
 148540507.274 7                  28266318.600
      2650.972                          43.750                   110923129.362 6
  28266326.600        1979.693          39.400   113816768.673 6  28266321.480
      2031.380          38.850   112369948.674 6  28266325.520        2005.479
        41.900
 126689734.422 8                  24108254.960
      1472.336                          52.400                    94605983.576 8
  24108257.540        1099.474          52.750    97073953.998 8  24108255.300
      1128.174          53.700    95839968.442 9  24108257.180        1113.823
        55.950
 143666998.345 7                  27338933.140
     -2295.585                          43.800                   107283791.140 7
  27338941.600       -1714.124          44.800   110082485.306 7  27338938.380
     -1758.763          45.400   108683137.877 7  27338940.860       -1736.496
        47.800
 141964208.887 7                  27014892.120
     -2352.902                          45.300                   106012250.960 7
  27014897.380       -1757.076          44.700   108777775.467 7  27014896.360
     -1802.829          44.800   107395005.366 7  27014896.760       -1779.965
        47.550
 126928869.475 8                  24153752.860
       221.312                          51.950                    94784600.104 8
  24153757.340         165.304          52.700    97257218.357 8  24153754.480
       169.605          52.900    96020906.882 9  24153756.720         167.465
        55.600
 144049953.537 7                  27411803.080
       -34.098                          43.400                   107569776.000 7
  27411808.200         -25.470          44.600   110375929.475 7  27411804.800
       -26.176          43.400   108972851.392 7  27411806.340         -25.815
        46.900
 23 12 19 10 17 30.0000000  0 21G05G07G08G13G14G15G18G20G22G23G24G30
                                E02E03E05E07E08E13E24E25E26
 111767017.057 8  87091173.54648  21268562.640                    21268561.980
     -2085.468       -1625.041          50.350          50.500



 128624842.847 7 100227123.68347  24476508.000                    24476511.620
     -2960.978       -2307.262          43.050          42.900



 131339902.268 6 102342813.40546  24993149.260                    24993154.520
      -716.884        -558.608          38.750          39.000    98078532.093 7
  24993156.820        -535.484          42.950


 104734896.654 8  81611605.10548  19930387.440                    19930384.900
       360.621         281.003          50.000          50.100



 111380290.715 8  86789859.42448  21194954.020                    21194953.780
       367.631         286.466          50.000          49.100    83173648.464 9
  21194958.800         274.491          54.050


 111868141.612 8  87169957.66748  21287802.440                    21287802.200
      2562.305        1996.602          48.800          48.400



 127955656.961 7  99705680.31146  24349162.180                    24349163.180
      -912.442        -710.997          42.950          40.750    95551293.327 7
  24349167.660        -681.519          45.700


 122101661.289 7  95144123.71346  23235187.540                    23235189.820
     -3635.859       -2833.143          44.400          41.300



 112466195.267 8  87636018.18247  21401590.820                    21401589.980
      1474.306        1148.812          50.000          46.350



 130328052.976 6 101554326.30046  24800609.760                    24800612.280
      3425.656        2669.341          40.950          37.900    97322908.552 7
  24800618.540        2558.101          46.000


 125577997.390 7  97853003.80346  23896697.800                    23896701.500
      3536.352        2755.604          42.850          41.150    93775804.561 7
  23896702.420        2640.847          45.700


 115629707.814 8  90101064.58348  22003604.460                    22003605.840
     -2369.626       -1846.463          48.050          48.000    86346850.370 9
  22003607.280       -1769.469          54.100


 132820078.552 8                  25274808.980
      2707.974                          49.300                    99183889.501 8
  25274813.820        2022.231          48.900   101771272.224 8  25274811.900
      2074.954          50.150   100477563.015 8  25274813.080        2048.581
        52.200
 124297935.636 8                  23653111.320
      -994.977                          52.600                    92819901.079 8
  23653115.280        -743.012          53.250    95241281.174 9  23653113.400
      -762.394          54.700    94030586.278 9  23653114.440        -752.678
        56.600
 135825467.917 7                  25846737.940
     -2547.517                          43.100                   101428101.197 7
  25846748.020       -1902.367          45.750   104074040.292 7  25846744.740
     -1951.906          45.050   102751068.397 8  25846747.160       -1927.210
        48.250
 148460976.645 7                  28251184.340
      2650.675                          43.500                   110863739.498 6
  28251192.620        1979.583          40.050   113755829.509 6  28251187.760
      2031.139          39.350   112309784.164 7  28251191.460        2005.310
        42.450
 126645656.879 8                  24099867.520
      1465.760                          52.250                    94573068.529 8
  24099870.140        1094.573          52.850    97040180.297 8  24099867.420
      1123.123          53.400    95806624.065 9  24099869.460        1108.848
        55.800
 143735989.091 7                  27352061.500
     -2304.505                          43.100                   107335310.072 7
  27352070.160       -1720.847          44.600   110135348.227 7  27352067.220
     -1765.638          45.600   108735328.799 7  27352069.540       -1743.220
        47.700
 142034925.576 7                  27028349.160
     -2361.789                          45.250                   106065058.751 7
  27028354.420       -1763.731          44.650   108831960.873 7  27028353.420
     -1809.790          45.200   107448501.963 7  27028353.800       -1786.779
        47.550
 126922448.728 8                  24152531.060
       206.327                          52.000                    94779805.401 8
  24152535.580         154.102          52.650    97252298.572 8  24152532.640
       158.064          52.700    96016049.637 9  24152534.880         156.090
        55.400
 144051203.292 7                  27412040.840
       -49.614                          43.100                   107570709.194 7
  27412046.520         -37.076          44.350   110376887.022 7  27412042.160
       -37.925          43.200   108973796.763 7  27412044.280         -37.521
        46.550
 23 12 19 10 18  0.0000000  0 21G05G07G08G13G14G15G18G20G22G23G24G30
                                E02E03E05E07E08E13E24E25E26
 111829828.686 8  87140117.63548  21280515.380                    21280514.660
     -2102.621       -1638.408          50.450          50.400



 128713686.962 7 100296352.66947  24493414.620                    24493418.500
     -2962.731       -2308.629          42.850          42.650



 131361679.618 6 102359782.80146  24997293.220                    24997298.500
      -734.951        -572.688          37.900          37.900    98094794.441 6
  24997300.600        -549.125          41.500


 104724266.282 8  81603321.69048  19928364.520                    19928362.000
       347.372         270.680          49.750          49.700



 111369544.696 8  86781485.92148  21192909.180                    21192908.840
       348.105         271.252          50.150          48.750    83165623.857 8
  21192913.860         260.006          53.950


 111791425.974 8  87110179.28447  21273203.840                    21273203.620
      2551.498        1988.182          49.800          47.500



 127983288.009 7  99727210.94546  24354420.280                    24354421.440
      -930.085        -724.744          42.650          40.550    95571926.833 7
  24354425.240        -694.620          45.450


 122210814.051 7  95229177.65846  23255958.780                    23255960.900
     -3641.577       -2837.598          44.500          39.400



 112422217.257 8  87601749.61847  21393222.060                    21393221.200
      1456.764        1135.143          49.950          46.500



 130225385.167 6 101474325.37746  24781072.800                    24781075.340
      3418.351        2663.643          40.600          40.250    97246241.001 7
  24781081.240        2552.625          45.750


 125471965.625 7  97770381.86246  23876520.800                    23876523.940
      3531.559        2751.870          43.300          40.800    93696625.235 7
  23876525.080        2637.328          45.600


 115700902.107 8  90156540.61248  22017152.180                    22017153.280
     -2377.265       -1852.416          48.900          48.800    86400014.886 8
  22017155.560       -1775.314          53.950


 132738944.167 8                  25259369.560
      2700.314                          50.150                    99123302.246 8
  25259374.520        2016.437          49.100   101709104.415 8  25259372.460
      2069.063          49.700   100416185.484 8  25259373.680        2042.761
        52.550
 124327894.129 8                  23658812.200
     -1002.922                          52.700                    92842272.657 8
  23658816.360        -748.978          53.250    95264236.360 9  23658814.160
      -768.477          54.400    94053249.661 9  23658815.360        -758.729
        56.850
 135901927.632 7                  25861287.940
     -2550.483                          43.600                   101485197.600 7
  25861297.940       -1904.575          45.650   104132626.174 7  25861294.560
     -1954.217          45.750   102808909.538 8  25861297.220       -1929.369
        48.800
 148381431.536 7                  28236047.460
      2651.364                          43.100                   110804338.820 6
  28236055.980        1980.007          41.050   113694879.269 6  28236051.240
      2031.614          40.200   112249608.702 7  28236054.660        2005.824
        43.800
 126601761.116 8                  24091514.560
      1459.900                          52.450                    94540289.237 8
  24091517.360        1090.163          52.950    97006545.885 8  24091514.280
      1118.647          53.350    95773417.215 9  24091516.300        1104.398
        56.200
 143805231.386 7                  27365237.740
     -2312.556                          43.650                   107387016.847 7
  27365246.760       -1726.905          44.400   110188403.894 7  27365243.980
     -1771.853          45.650   108787710.026 8  27365246.060       -1749.424
        48.050
 142105895.490 7                  27041854.460
     -2370.169                          45.600                   106118055.627 7
  27041859.800       -1769.871          44.650   108886340.291 7  27041858.620
     -1816.041          45.250   107502190.112 7  27041859.040       -1792.959
        47.950
 126916464.115 8                  24151392.260
       192.007                          52.250                    94775336.379 8
  24151396.920         143.360          52.700    97247712.963 8  24151393.760
       147.092          52.700    96011522.324 9  24151396.020         145.228
        55.800
 144052902.597 7                  27412364.000
       -64.371                          43.600                   107571978.093 7
  27412370.500         -48.065          44.200   110378189.038 7  27412364.940
       -49.339          42.700   108975082.222 7  27412367.780         -48.717
        46.700
 23 12 19 10 18 30.0000000  0 21G05G07G08G13G14G15G18G20G22G23G24G30
                                E02E03E05E07E08E13E24E25E26
 111893159.940 8  87189466.63648  21292566.960                    21292566.200
     -2119.334       -1651.430          50.200          50.400



 128802583.121 7 100365622.19247  24510331.100                    24510335.120
     -2963.706       -2309.389          42.700          42.800



 131384012.568 6 102377185.15546  25001543.000                    25001549.180
      -753.354        -587.028          38.350          38.300    98111471.738 6
  25001549.720        -562.551          41.650


 104714044.190 8  81595356.41348  19926419.240                    19926416.800
       334.138         260.366          49.800          49.750



 111359386.591 8  86773570.52948  21190976.220                    21190975.760
       329.035         256.392          49.850          48.700    83158038.271 9
  21190980.880         245.774          54.100


 111715042.817 8  87050659.96247  21258668.720                    21258668.060
      2540.840        1979.875          50.400          47.000



 128011450.022 7  99749155.31146  24359779.200                    24359780.740
      -947.433        -738.259          42.250          40.550    95592956.826 7
  24359784.180        -707.363          45.750


 122320136.212 7  95314363.59746  23276762.240                    23276764.520
     -3646.618       -2841.526          44.350          40.350



 112378772.097 8  87567896.27147  21384954.700                    21384953.860
      1439.576        1121.749          50.000          46.200



 130122938.739 6 101394497.01046  24761577.920                    24761580.420
      3411.604        2658.391          41.300          38.300    97169738.798 7
  24761586.180        2547.528          45.700


 125366081.434 7  97687874.88646  23856371.680                    23856374.680
      3527.420        2748.644          42.750          41.400    93617556.092 7
  23856375.960        2634.038          46.100


 115772334.353 8  90212202.06648  22030745.160                    22030746.060
     -2384.739       -1858.239          48.200          48.100    86453357.085 8
  22030748.920       -1780.776          53.850


 132658044.807 8                  25243974.780
      2693.026                          49.650                    99062890.478 8
  25243979.820        2011.002          48.950   101647116.668 8  25243977.460
      2063.478          49.750   100354985.726 8  25243978.880        2037.226
        52.150
 124358092.686 8                  23664558.680
     -1010.306                          52.200                    92864823.513 8
  23664563.100        -754.438          53.250    95287375.497 9  23664560.460
      -774.101          54.350    94076094.656 9  23664561.960        -764.274
        56.500
 135978478.472 7                  25875855.620
     -2552.819                          42.550                   101542362.080 7
  25875865.200       -1906.338          46.200   104191281.928 7  25875861.880
     -1956.201          45.700   102866819.654 8  25875864.460       -1931.220
        48.800
 148301870.858 7                  28220907.700
      2652.775                          43.200                   110744926.520 7
  28220916.440        1980.740          42.000   113633917.093 6  28220911.960
      2032.566          41.500   112189421.455 7  28220914.920        2006.672
        44.500
 126558046.389 8                  24083196.040
      1454.404                          52.550                    94507645.129 8
  24083199.060        1086.045          53.150    96973050.185 8  24083195.780
      1114.422          53.650    95740347.308 9  24083197.580        1100.242
        56.050
 143874721.613 7                  27378461.280
     -2320.179                          43.250                   107438908.774 7
  27378470.380       -1732.615          44.000   110241649.529 7  27378467.920
     -1777.738          45.600   108840278.808 7  27378469.700       -1755.205
        47.500
 142177115.369 7                  27055407.320
     -2377.892                          45.700                   106171239.159 7
  27055412.820       -1775.605          44.750   108940911.244 7  27055411.420
     -1822.003          45.500   107556067.355 7  27055411.880       -1798.837
        47.850
 126910913.946 8                  24150336.180
       178.055                          52.300                    94771191.769 8
  24150341.000         132.949          52.800    97243460.233 8  24150337.620
       136.428          52.850    96007323.654 9  24150339.840         134.688
        55.550
 144055049.702 7                  27412772.440
       -78.463                          43.150                   107573581.392 7
  27412779.220         -58.762          43.850   110379834.168 7  27412773.020
       -60.260          42.700   108976706.433 7  27412776.460         -59.407
        46.250
 23 12 19 10 19  0.0000000  0 21G05G07G08G13G14G15G18G20G22G23G24G30
                                E02E03E05E07E08E13E24E25E26
 111957016.414 8  87239224.88848  21304718.400                    21304717.560
     -2137.142       -1665.306          50.100          50.050



 128891537.918 7 100434937.41347  24527258.820                    24527263.020
     -2965.713       -2310.951          43.400          43.200



 131406908.991 6 102395026.60846  25005900.140                    25005906.220
      -772.273        -601.770          37.900          38.000    98128569.781 7
  25005906.100        -576.771          42.800


 104704238.733 8  81587715.78048  19924553.360                    19924550.820
       320.062         249.397          49.600          49.500



 111349824.594 8  86766119.63148  21189156.620                    21189156.120
       308.986         240.769          49.800          48.950    83150897.835 9
  21189161.360         230.742          54.250


 111639002.228 8  86991407.57147  21244198.800                    21244197.760
      2529.070        1970.704          50.200          47.900



 128040149.403 6  99771518.39346  24365240.240                    24365242.280
      -965.608        -752.422          40.900          39.750    95614388.097 7
  24365245.660        -720.858          45.950


 122429633.261 7  95399685.80546  23297598.900                    23297601.180
     -3652.580       -2846.172          44.150          40.050



 112335869.455 8  87534465.65947  21376790.660                    21376789.700
      1421.182        1107.414          50.200          47.000



 130020724.510 6 101314849.54546  24742127.220                    24742129.900
      3403.429        2652.022          40.500          40.500    97093409.968 7
  24742135.320        2541.515          46.250


 125260354.075 7  97605490.08546  23836252.300                    23836255.140
      3522.019        2744.436          42.550          40.550    93538604.039 7
  23836256.820        2629.915          46.350


 115844011.085 8  90268054.00548  22044384.660                    22044385.660
     -2393.124       -1864.774          48.100          48.200    86506881.845 8
  22044388.580       -1787.067          53.750


 132577390.065 8                  25228626.720
      2684.604                          49.950                    99002661.358 8
  25228631.480        2004.737          49.200   101585316.350 8  25228629.280
      2057.020          49.700   100293971.003 8  25228630.700        2030.902
        52.350
 124388539.445 8                  23670352.360
     -1018.824                          52.000                    92887559.713 8
  23670357.020        -760.805          53.350    95310704.821 9  23670354.040
      -780.659          54.250    94099127.419 9  23670355.800        -770.713
        56.700
 136055128.191 7                  25890441.900
     -2556.375                          42.550                   101599600.373 7
  25890451.440       -1908.993          46.100   104250013.416 7  25890447.920
     -1958.858          46.150   102924804.547 8  25890450.660       -1933.896
        49.150
 148222303.229 7                  28205766.680
      2652.477                          42.950                   110685508.989 7
  28205775.580        1980.838          42.300   113572949.558 6  28205771.280
      2032.486          41.150   112129228.928 7  28205773.860        2006.655
        44.750
 126514521.518 8                  24074913.540
      1447.820                          52.350                    94475142.798 8
  24074916.880        1081.199          53.350    96939699.969 8  24074913.480
      1109.390          53.650    95707421.036 9  24074915.020        1095.279
        56.350
 143944465.702 7                  27391733.220
     -2328.729                          43.100                   107490990.279 7
  27391742.440       -1739.104          43.850   110295089.697 7  27391740.080
     -1784.383          45.300   108893039.642 7  27391741.620       -1761.750
        47.500
 142248591.569 7                  27069008.940
     -2386.688                          45.100                   106224614.093 7
  27069014.600       -1782.187          44.750   108995678.583 7  27069013.020
     -1828.622          45.600   107610138.489 8  27069013.460       -1805.436
        48.100
 126905806.107 8                  24149364.300
       163.044                          52.550                    94767377.471 8
  24149369.240         121.754          53.000    97239546.434 8  24149365.680
       124.948          52.800    96003459.604 9  24149367.840         123.376
        55.850
 144057652.435 7                  27413267.700
       -94.122                          43.450                   107575524.916 7
  27413274.340         -70.343          43.450   110381828.409 7  27413267.860
       -72.199          42.450   108978675.308 7  27413271.880         -71.164
        46.000
 23 12 19 10 19 30.0000000  0 21G05G07G08G13G14G15G18G20G22G23G24G30
                                E02E03E05E07E08E13E24E25E26
 112021390.228 8  87289386.26148  21316968.200                    21316967.360
     -2154.184       -1678.587          49.850          49.950



 128980543.757 7 100504292.41647  24544196.240                    24544200.660
     -2967.338       -2312.219          42.000          42.750



 131430361.022 6 102413300.89746  25010362.700                    25010368.940
      -790.669        -616.106          37.550          37.300    98146082.649 7
  25010369.240        -590.413          43.850


 104694844.067 8  81580395.25148  19922765.640                    19922763.180
       306.552         238.871          50.000          49.900



 111340852.325 8  86759128.26748  21187449.260                    21187448.760
       289.451         225.547          49.850          48.750    83144197.764 9
  21187454.060         216.289          54.450


 111563299.666 8  86932418.57247  21229793.220                    21229791.940
      2518.119        1962.171          50.600          47.250



 128069377.897 6  99794293.76746  24370801.920                    24370804.140
      -982.932        -765.925          40.350          39.900    95636214.485 7
  24370808.280        -733.765          46.550


 122539295.814 7  95485136.97946  23318467.220                    23318468.960
     -3657.748       -2850.199          44.700          39.350



 112293503.871 8  87501453.53647  21368728.880                    21368727.760
      1403.534        1093.663          50.700          46.750



 129918738.503 6 101235379.90246  24722719.860                    24722722.700
      3395.654        2645.963          40.250          39.350    97017251.534 7
  24722727.820        2536.094          46.600


 125154778.114 7  97523223.23146  23816161.600                    23816164.320
      3516.767        2740.342          42.750          40.900    93459764.983 7
  23816166.480        2626.407          47.050


 115915924.138 8  90324090.08548  22058069.220                    22058070.460
     -2400.754       -1870.719          48.700          48.900    86560583.082 8
  22058073.200       -1792.752          53.900


 132496974.798 8                  25213324.180
      2676.826                          50.050                    98942611.065 8
  25213328.980        1998.924          49.450   101523699.505 8  25213326.360
      2051.043          49.250   100233137.436 8  25213328.080        2025.039
        52.400
 124419227.872 8                  23676192.080
     -1026.641                          51.850                    92910476.370 8
  23676196.980        -766.647          53.600    95334219.306 9  23676193.820
      -786.646          54.350    94122342.991 9  23676195.640        -776.648
        56.850
 136131869.705 6                  25905045.780
     -2559.265                          41.600                   101656907.226 7
  25905054.920       -1911.136          46.000   104308815.228 7  25905051.640
     -1960.985          46.500   102982858.879 8  25905054.220       -1936.015
        49.250
 148142722.419 7                  28190623.100
      2653.274                          43.150                   110626081.633 7
  28190632.220        1981.299          42.300   113511971.930 6  28190627.980
      2032.959          40.350   112069026.443 7  28190630.220        2007.081
        44.500
 126471180.668 8                  24066665.960
      1442.006                          52.400                    94442777.894 8
  24066669.600        1076.807          53.600    96906490.763 8  24066666.140
      1104.902          53.700    95674633.976 9  24066667.520        1090.899
        56.600
 144014454.963 7                  27405051.720
     -2336.711                          42.850                   107543254.846 7
  27405061.200       -1744.901          44.100   110348717.715 7  27405058.840
     -1790.451          45.350   108945985.934 7  27405060.220       -1767.711
        47.600
 142320315.745 7                  27082657.700
     -2394.505                          45.550                   106278174.194 7
  27082663.500       -1788.116          45.300   109050635.912 7  27082661.800
     -1834.748          45.700   107664397.206 8  27082662.220       -1811.439
        48.350
 126901133.800 8                  24148475.300
       148.779                          52.750                    94763888.407 8
  24148480.340         111.164          53.300    97235966.356 8  24148476.720
       114.042          52.900    95999925.036 9  24148478.740         112.588
        56.100
 144060703.879 7                  27413848.360
      -108.855                          43.050                   107577803.531 7
  27413854.480         -81.256          43.300   110384166.468 7  27413848.340
       -83.482          42.650   108980983.656 7  27413852.620         -82.339
        46.150
 23 12 19 10 20  0.0000000  0 21G05G07G08G13G14G15G18G20G22G23G24G30
                                E02E03E05E07E08E13E24E25E26
 112086279.414 8  87339949.23848  21329316.160                    21329315.160
     -2170.821       -1691.550          49.350          49.350



 129069599.855 6 100573686.55346  24561143.060                    24561147.860
     -2968.532       -2313.150          41.000          40.250



 131454368.570 6 102432008.12046  25014931.000                    25014936.600
      -809.036        -630.416          38.700          38.550    98164010.387 7
  25014937.700        -603.974          43.850


 104685860.951 8  81573395.40548  19921056.280                    19921053.840
       293.400         228.623          49.850          49.850



 111332470.079 8  86752596.65048  21185854.120                    21185853.680
       270.276         210.605          49.850          48.650    83137938.310 9
  21185858.940         201.815          54.500


 111487937.182 8  86873694.55447  21215452.480                    21215450.820
      2507.189        1953.653          51.300          47.150



 128099133.868 6  99817480.17146  24376464.200                    24376465.720
      -999.760        -779.033          41.350          40.500    95658434.802 7
  24376471.620        -746.715          46.700


 122649121.265 7  95570715.09746  23339366.500                    23339368.020
     -3662.795       -2854.134          43.650          40.000



 112251676.526 8  87468860.81247  21360769.540                    21360768.140
      1386.071        1080.057          50.750          46.650



 129816983.525 6 101156090.26046  24703356.580                    24703359.580
      3388.670        2640.521          40.400          39.900    96941265.623 7
  24703364.280        2530.548          46.600


 125049354.800 7  97441075.29546  23796099.940                    23796102.740
      3512.693        2737.167          42.150          40.350    93381039.917 7
  23796105.180        2622.750          46.950


 115988072.099 8  90380309.21648  22071798.540                    22071800.020
     -2407.981       -1876.352          48.300          48.350    86614459.745 8
  22071802.480       -1798.260          53.800


 132416800.593 8                  25198067.640
      2669.171                          50.250                    98882740.770 8
  25198071.900        1993.256          49.300   101462267.368 8  25198069.400
      2045.219          49.650   100172486.226 8  25198071.300        2019.169
        52.550
 124450158.128 8                  23682077.940
     -1034.303                          52.200                    92933573.629 8
  23682082.960        -772.365          53.700    95357919.103 9  23682079.840
      -792.477          54.550    94145741.519 9  23682081.480        -782.428
        57.000
 136208702.732 6                  25919666.880
     -2562.048                          41.700                   101714282.399 7
  25919675.980       -1913.148          46.450   104367687.161 7  25919672.680
     -1962.964          46.450   103040982.440 8  25919675.100       -1938.048
        49.400
 148063129.050 7                  28175477.220
      2653.957                          42.900                   110566644.868 7
  28175486.340        1981.851          42.250   113450984.662 6  28175482.140
      2033.667          40.800   112008814.420 7  28175484.100        2007.692
        44.750
 126428024.756 8                  24058453.580
      1436.130                          52.300                    94410551.082 8
  24058457.300        1072.460          53.550    96873423.252 8  24058453.900
      1100.438          53.700    95641986.819 9  24058455.200        1086.457
        56.600
 144084687.361 7                  27418416.600
     -2344.233                          43.500                   107595700.998 7
  27418426.140       -1750.593          44.300   110402532.047 7  27418424.080
     -1796.411          45.050   108999116.178 7  27418425.080       -1773.527
        47.700
 142392286.254 7                  27096353.300
     -2402.373                          45.000                   106331918.241 7
  27096359.240       -1793.914          45.700   109105781.997 7  27096357.380
     -1840.670          45.850   107718842.270 8  27096357.840       -1817.273
        48.750
 126896896.925 8                  24147669.200
       134.675                          52.650                    94760724.505 8
  24147674.220         100.536          53.400    97232719.916 8  24147670.640
       103.241          53.050    95996719.864 9  24147672.540         101.881
        56.250
 144064203.906 7                  27414514.420
      -123.341                          43.300                   107580417.133 7
  27414519.860         -92.093          43.100   110386848.263 7  27414514.660
       -94.580          43.150   108983631.346 7  27414518.640         -93.226
        46.200
 23 12 19 10 20 30.0000000  0 21G05G07G08G13G14G15G18G20G22G23G24G30
                                E02E03E05E07E08E13E24E25E26
 112151685.977 8  87390915.35648  21341762.540                    21341761.500
     -2189.168       -1705.845          49.350          49.600



 129158710.080 7 100643122.88146  24578100.200                    24578105.140
     -2971.575       -2315.520          42.000          41.750



 131478934.983 6 102451150.81946  25019605.920                    25019611.440
      -828.315        -645.441          36.500          36.100    98182355.505 7
  25019612.480        -618.701          43.150


 104677294.379 8  81566720.15148  19919426.140                    19919423.700
       278.229         216.803          49.750          49.750



 111324682.802 8  86746528.64648  21184372.220                    21184371.900
       249.254         194.224          49.850          48.650    83132123.134 9
  21184377.020         186.217          54.300


 111412921.653 8  86815240.88747  21201177.620                    21201175.780
      2494.465        1943.738          50.150          47.800



 128129420.571 7  99841080.11546  24382227.780                    24382228.480
     -1018.956        -793.995          42.150          40.650    95681051.398 7
  24382235.820        -760.708          46.750


 122759111.383 7  95656421.52146  23360297.100                    23360298.360
     -3669.499       -2859.354          44.150          40.850



 112210393.764 8  87436692.43047  21352913.800                    21352912.280
      1366.684        1064.949          50.550          46.950



 129715467.031 6 101076986.44546  24684038.640                    24684041.720
      3380.175        2633.900          40.150          39.950    96865457.814 7
  24684046.220        2523.670          46.050


 124944090.278 6  97359051.05146  23776068.580                    23776071.420
      3505.591        2731.630          41.850          41.100    93302433.342 7
  23776074.240        2617.995          47.550


 116060458.313 7  90436713.99247  22085573.260                    22085574.820
     -2417.004       -1883.382          47.850          47.800    86668514.307 8
  22085577.100       -1804.976          53.700


 132336873.789 8                  25182858.120
      2659.723                          49.900                    98823055.219 8
  25182862.100        1986.196          49.350   101401024.797 8  25182859.600
      2038.009          49.450   100112022.161 8  25182861.680        2012.084
        51.950
 124481335.124 8                  23688010.800
     -1043.599                          52.050                    92956855.136 8
  23688015.780        -779.350          53.550    95381807.951 9  23688012.860
      -799.650          54.650    94169326.696 9  23688014.260        -789.499
        56.550
 136285631.696 7                  25934306.220
     -2566.186                          42.050                   101771729.200 7
  25934315.340       -1916.335          45.600   104426632.598 7  25934312.020
     -1966.293          46.900   103099178.552 8  25934314.340       -1941.295
        48.800
 147983528.369 7                  28160329.840
      2653.470                          42.750                   110507202.671 7
  28160339.000        1981.273          42.500   113389991.813 6  28160334.720
      2032.928          41.550   111948596.894 7  28160336.680        2007.053
        44.650
 126385059.415 8                  24050277.480
      1428.685                          52.050                    94378466.574 8
  24050281.060        1066.840          53.350    96840501.755 8  24050277.800
      1094.706          53.600    95609483.820 9  24050279.200        1080.760
        56.050
 144155165.698 7                  27431828.240
     -2353.667                          42.850                   107648330.791 7
  27431838.140       -1757.611          44.500   110456534.802 7  27431835.920
     -1803.466          45.300   109052432.449 7  27431836.820       -1780.501
        47.300
 142464506.146 7                  27110096.360
     -2411.760                          45.200                   106385848.525 7
  27110102.440       -1801.003          45.800   109161119.176 7  27110100.360
     -1848.014          45.900   107773476.000 8  27110100.980       -1824.489
        48.400
 126893100.101 8                  24146946.800
       118.883                          52.550                    94757889.197 8
  24146951.720          88.819          53.350    97229810.657 8  24146948.300
        91.123          53.150    95993847.580 9  24146950.080          89.986
        55.850
 144068157.064 7                  27415266.520
      -139.512                          43.000                   107583369.157 7
  27415271.260        -104.373          42.650   110389877.270 7  27415267.460
      -106.974          43.550   108986621.867 7  27415270.900        -105.687
        45.700
 23 12 19 10 21  0.0000000  0 21G05G07G08G13G14G15G18G20G22G23G24G30
                                E02E03E05E07E08E13E24E25E26
 112217597.742 8  87442275.13748  21354305.100                    21354304.020
     -2205.958       -1718.930          49.450          49.650



 129247862.802 6 100712592.33046  24595065.520                    24595070.460
     -2972.808       -2316.481          41.200          41.000



 131504050.153 6 102470721.10846  25024385.340                    25024390.580
      -847.087        -660.065          39.050          39.250    98201110.332 7
  25024392.340        -632.403          43.750


 104669134.694 8  81560361.94948  19917873.380                    19917871.120
       264.649         206.220          49.700          49.750



 111317480.195 8  86740916.22548  21183001.620                    21183001.340
       229.760         179.033          50.250          48.200    83126744.572 9
  21183006.300         171.523          54.250


 111338244.383 8  86757050.80647  21186966.820                    21186965.300
      2482.948        1934.765          50.050          47.350



 128160225.776 7  99865084.10546  24388090.100                    24388090.240
     -1035.953        -807.239          43.550          39.000    95704055.235 7
  24388098.520        -773.735          46.500


 122869252.746 7  95742245.80446  23381256.500                    23381257.560
     -3674.330       -2863.118          44.550          39.250



 112169646.340 8  87404941.18847  21345159.880                    21345158.320
      1348.664        1050.908          50.950          46.750



 129614181.393 6 100998062.53046  24664764.600                    24664767.700
      3371.563        2627.190          41.200          40.150    96789822.347 7
  24664772.180        2517.915          46.750


 124838975.228 7  97277143.26546  23756065.640                    23756068.440
      3500.828        2727.920          42.400          41.650    93223938.400 7
  23756071.660        2614.252          47.200


 116133070.832 8  90493295.11747  22099391.100                    22099392.700
     -2424.669       -1889.354          48.000          47.900    86722737.875 8
  22099394.860       -1810.737          53.650


 132257185.454 8                  25167694.020
      2651.662                          50.300                    98763547.741 8
  25167697.660        1980.189          49.200   101339964.934 8  25167695.000
      2031.850          49.450   100051738.493 8  25167697.420        2005.956
        52.000
 124512748.501 8                  23693988.660
     -1051.694                          52.550                    92980313.160 8
  23693993.440        -785.368          53.400    95405877.930 9  23693990.780
      -805.864          54.500    94193090.696 9  23693992.020        -795.616
        56.550
 136362645.780 7                  25948961.620
     -2569.187                          42.600                   101829239.590 7
  25948970.620       -1918.587          45.350   104485643.241 7  25948967.640
     -1968.557          46.600   103157439.072 8  25948969.620       -1943.581
        48.550
 147903910.483 7                  28145179.320
      2653.569                          43.350                   110447747.605 7
  28145188.300        1981.532          43.050   113328985.764 6  28145184.100
      2033.203          41.950   111888366.335 7  28145186.040        2007.378
        45.300
 126342275.013 8                  24042135.720
      1422.577                          52.100                    94346517.187 8
  24042139.180        1062.230          53.300    96807718.903 8  24042136.060
      1089.996          53.350    95577117.698 9  24042137.620        1076.123
        56.000
 144225877.439 7                  27445284.420
     -2361.421                          42.450                   107701134.872 7
  27445294.200       -1763.497          44.500   110510716.401 7  27445292.160
     -1809.454          45.350   109105925.293 7  27445292.960       -1786.513
        47.550
 142536963.337 7                  27123884.440
     -2419.646                          45.000                   106439955.999 7
  27123890.720       -1807.040          45.650   109216638.167 7  27123888.400
     -1854.070          45.950   107828289.241 8  27123889.320       -1830.631
        48.300
 126889732.677 8                  24146306.080
       104.552                          52.500                    94755374.554 8
  24146310.880          78.026          53.250    97227230.419 8  24146307.620
        80.057          53.050    95991300.139 9  24146309.340          79.045
        55.850
 144072552.725 7                  27416103.000
      -154.487                          42.900                   107586651.554 7
  27416106.800        -115.395          42.400   110393245.318 7  27416104.580
      -118.524          43.850   108989947.086 7  27416107.300        -116.916
        45.800
 23 12 19 10 21 30.0000000  0 21G05G07G08G13G14G15G18G20G22G23G24G30
                                E02E03E05E07E08E13E24E25E26
 112284024.494 8  87494036.20548  21366945.740                    21366944.700
     -2222.527       -1731.842          49.300          49.100



 129337069.636 6 100782103.91346  24612041.340                    24612045.940
     -2974.277       -2317.627          41.750          41.600



 131529724.853 6 102490727.44146  25029271.260                    25029276.200
      -864.841        -673.898          38.650          38.750    98220283.045 7
  25029277.920        -645.790          42.300


 104661394.620 8  81554330.71348  19916400.380                    19916398.460
       251.146         195.698          49.200          48.950



 111310874.847 8  86735769.20348  21181744.660                    21181744.460
       210.334         163.896          50.200          48.600    83121812.000 8
  21181749.300         157.132          53.900


 111263920.238 8  86699135.89447  21172823.220                    21172822.040
      2471.782        1926.064          50.200          47.700



 128191560.299 7  99889500.54946  24394053.200                    24394052.980
     -1052.992        -820.517          44.500          39.700    95727454.322 7
  24394061.520        -786.315          45.950


 122979555.139 7  95828195.54946  23402246.480                    23402247.260
     -3679.278       -2866.975          44.100          39.000



 112129447.838 8  87373617.67747  21337510.380                    21337508.880
      1330.901        1037.066          51.050          46.600



 129513141.696 6 100919330.23246  24645537.600                    24645540.660
      3364.080        2621.359          41.100          40.250    96714370.541 7
  24645544.800        2512.156          46.250


 124734023.407 6  97195362.65846  23736093.840                    23736096.680
      3496.061        2724.205          41.500          41.100    93145565.318 7
  23736099.980        2610.618          47.000


 116205920.648 8  90550061.14848  22113254.040                    22113255.740
     -2432.219       -1895.237          48.650          48.600    86777138.627 8
  22113257.840       -1816.133          53.250


 132177749.544 8                  25152577.880
      2643.897                          49.650                    98704228.759 8
  25152581.140        1974.290          48.850   101279098.498 8  25152578.700
      2025.812          49.400    99991645.779 8  25152581.220        2000.036
        52.150
 124544410.783 8                  23700013.920
     -1059.340                          52.200                    93003957.054 8
  23700018.380        -791.081          53.150    95430138.622 9  23700015.940
      -811.681          54.100    94217042.989 9  23700017.160        -801.383
        56.600
 136439757.072 7                  25963635.600
     -2571.851                          43.750                   101886822.554 7
  25963644.720       -1920.435          45.050   104544728.400 7  25963641.560
     -1970.644          45.800   103215773.131 8  25963643.420       -1945.491
        48.350
 147824288.311 7                  28130027.980
      2654.377                          43.000                   110388289.335 7
  28130036.740        1982.047          42.650   113267976.414 6  28130032.580
      2033.900          41.700   111828132.522 7  28130034.580        2007.996
        45.250
 126299684.845 8                  24034030.960
      1416.625                          52.200                    94314712.833 8
  24034034.280        1057.871          53.150    96775084.876 8  24034031.300
      1085.434          53.100    95544898.506 9  24034032.980        1071.649
        56.150
 144296832.957 7                  27458786.940
     -2369.092                          42.250                   107754120.947 7
  27458796.980       -1768.985          44.650   110565084.743 7  27458794.840
     -1815.263          45.550   109159602.494 8  27458795.500       -1792.022
        48.000
 142609668.548 7                  27137719.780
     -2427.559                          44.850                   106494248.656 7
  27137726.140       -1812.716          45.300   109272347.179 7  27137723.580
     -1860.045          45.700   107883290.070 8  27137724.800       -1836.366
        48.550
 126886806.939 8                  24145749.320
        90.323                          52.050                    94753189.724 8
  24145754.060          67.501          53.000    97224988.599 8  24145750.880
        69.208          52.800    95989086.813 9  24145752.640          68.381
        55.950
 144077402.947 7                  27417025.980
      -169.049                          43.400                   107590273.440 7
  27417029.400        -126.366          42.200   110396961.665 7  27417028.000
      -129.500          43.650   108993616.210 7  27417030.220        -128.007
        45.850
 23 12 19 10 22  0.0000000  0 21G05G07G08G13G14G15G18G20G22G23G24G30
                                E02E03E05E07E08E13E24E25E26
 112350955.182 8  87546189.94748  21379682.280                    21379681.340
     -2239.500       -1745.067          49.550          49.400



 129426320.281 7 100851649.66947  24629025.460                    24629029.640
     -2975.668       -2318.708          43.550          43.450



 131555949.490 6 102511162.23046  25034261.800                    25034266.400
      -883.363        -688.334          39.000          38.750    98239866.431 6
  25034267.900        -659.770          41.200


 104654065.698 8  81548619.84648  19915005.600                    19915003.900
       237.568         185.117          48.650          48.400



 111304857.681 8  86731080.49648  21180599.740                    21180599.480
       190.766         148.648          50.350          48.400    83117318.661 9
  21180604.300         142.375          54.000


 111189941.822 8  86641490.37347  21158745.620                    21158744.620
      2460.150        1917.000          50.600          47.900



 128223413.331 7  99914321.01646  24400114.980                    24400114.500
     -1070.493        -834.153          43.850          39.200    95751240.591 7
  24400122.740        -799.401          46.100


 123090006.536 7  95914261.39846  23423264.840                    23423265.700
     -3684.007       -2870.658          44.400          38.550



 112089790.482 8  87342715.84747  21329963.860                    21329962.440
      1312.864        1023.012          51.300          46.650



 129412341.537 7 100840784.59446  24626356.040                    24626358.800
      3355.753        2614.870          42.350          38.650    96639097.636 7
  24626363.160        2505.990          46.050


 124629226.883 6  97113703.07146  23716151.540                    23716154.500
      3490.447        2719.833          41.350          39.650    93067308.216 7
  23716158.000        2606.495          47.150


 116278997.092 8  90607003.77248  22127160.120                    22127161.900
     -2439.646       -1901.025          48.250          48.000    86831708.644 8
  22127163.840       -1821.871          53.000


 132098558.391 8                  25137508.300
      2635.597                          50.100                    98645092.549 8
  25137511.540        1968.071          49.150   101218419.606 8  25137508.880
      2019.326          49.550    99931738.229 8  25137511.660        1993.709
        52.150
 124576312.906 8                  23706084.780
     -1067.451                          52.650                    93027780.060 8
  23706088.960        -797.177          53.300    95454583.093 9  23706086.640
      -817.964          54.300    94241176.727 9  23706087.940        -807.562
        56.550
 136516956.018 7                  25978326.280
     -2574.769                          43.650                   101944470.961 7
  25978335.400       -1922.743          44.500   104603880.694 7  25978332.220
     -1973.011          46.250   103274173.481 8  25978334.000       -1947.838
        48.000
 147744653.199 7                  28114874.100
      2654.612                          42.000                   110328821.385 7
  28114882.740        1982.328          42.200   113206957.151 6  28114878.580
      2034.155          41.300   111767888.920 7  28114880.620        2008.261
        44.650
 126257280.579 8                  24025961.740
      1410.289                          52.200                    94283047.302 8
  24025964.880        1053.157          53.400    96742593.286 8  24025962.120
      1080.591          53.500    95512819.948 9  24025963.680        1066.866
        56.200
 144368020.928 7                  27472333.720
     -2376.826                          42.000                   107807280.628 7
  27472343.840       -1775.011          44.700   110619631.211 7  27472341.600
     -1821.246          45.550   109213455.569 7  27472342.300       -1798.099
        47.800
 142682610.844 7                  27151600.280
     -2435.339                          44.950                   106548718.400 7
  27151606.640       -1818.633          45.700   109328237.887 7  27151603.940
     -1866.099          45.750   107938470.303 8  27151605.380       -1842.434
        48.450
 126884313.485 8                  24145274.740
        75.908                          52.000                    94751327.715 8
  24145279.500          56.586          53.100    97223078.019 8  24145276.340
        58.081          53.000    95987200.522 9  24145278.200          57.346
        55.900
 144082698.323 7                  27418033.660
      -184.021                          42.800                   107594227.720 7
  27418036.900        -137.445          42.400   110401019.098 7  27418036.140
      -141.007          43.900   108997622.057 7  27418037.820        -139.195
        45.850
 23 12 19 10 22 30.0000000  0 21G05G07G08G13G14G15G18G20G22G23G24G30
                                E02E03E05E07E08E13E24E25E26
 112418392.256 8  87598738.27648  21392515.220                    21392514.440
     -2256.081       -1757.986          50.000          50.000



 129515618.536 7 100921232.53147  24646018.820                    24646022.180
     -2977.162       -2319.874          43.800          43.750



 131582727.667 6 102532028.36846  25039357.620                    25039361.860
      -901.776        -702.682          39.750          39.700    98259863.156 6
  25039363.200        -673.296          41.600


 104647153.062 8  81543233.36548  19913690.180                    19913688.460
       223.587         174.224          49.400          49.650



 111299433.334 8  86726853.72448  21179567.700                    21179567.300
       170.979         133.229          50.650          48.850    83113267.994 9
  21179572.180         127.790          54.000


 111116315.906 8  86584119.53648  21144735.040                    21144734.320
      2448.433        1907.871          50.000          48.600



 128255787.500 7  99939547.57646  24406275.760                    24406275.500
     -1087.543        -847.438          43.050          39.750    95775416.042 7
  24406282.980        -812.227          46.000


 123200608.542 7  96000444.60246  23444311.840                    23444312.760
     -3688.988       -2874.543          43.650          39.200



 112050679.967 8  87312240.11947  21322521.380                    21322520.040
      1294.717        1008.870          51.450          46.900



 129311788.152 7 100762431.26146  24607221.560                    24607224.200
      3348.019        2608.846          42.250          38.300    96564009.036 7
  24607228.360        2499.911          45.900


 124524591.378 6  97032168.90446  23696239.960                    23696242.960
      3485.653        2716.093          39.700          39.500    92989171.323 7
  23696246.380        2602.724          46.600


 116352303.253 8  90664125.38048  22141109.820                    22141111.660
     -2447.129       -1906.856          48.800          48.700    86886450.173 8
  22141113.540       -1827.455          52.650


 132019617.986 8                  25122486.340
      2627.375                          49.900                    98586143.587 8
  25122489.700        1961.914          49.000   101157932.833 8  25122486.860
      2013.131          49.550    99872020.362 8  25122489.760        1987.538
        52.250
 124608459.482 8                  23712202.040
     -1075.486                          52.350                    93051785.600 8
  23712206.140        -803.099          53.200    95479214.864 9  23712203.860
      -824.074          54.050    94265495.387 9  23712205.240        -813.601
        56.550
 136594246.744 7                  25993034.460
     -2577.708                          44.300                   102002187.920 7
  25993043.520       -1924.929          44.600   104663103.305 7  25993040.400
     -1975.048          45.650   103332643.264 7  25993041.920       -1950.007
        47.850
 147665010.164 6                  28099718.640
      2655.064                          41.950                   110269347.501 7
  28099727.240        1982.662          42.050   113145931.794 6  28099723.020
      2034.369          41.700   111707639.300 7  28099725.160        2008.550
        44.800
 126215067.544 8                  24017928.900
      1404.131                          52.250                    94251524.589 8
  24017932.040        1048.485          53.500    96710248.235 8  24017929.460
      1075.848          53.400    95480886.063 9  24017930.800        1062.169
        56.350
 144439443.852 6                  27485925.180
     -2384.198                          41.850                   107860615.719 7
  27485935.360       -1780.567          44.200   110674357.688 7  27485933.200
     -1826.984          45.850   109267486.354 7  27485933.820       -1803.809
        47.800
 142755793.120 7                  27165526.480
     -2443.176                          44.950                   106603367.319 7
  27165532.840       -1824.410          45.500   109384312.449 7  27165529.840
     -1872.035          45.450   107993832.030 8  27165531.640       -1848.105
        48.450
 126882256.561 8                  24144883.220
        61.498                          52.150                    94749791.685 8
  24144888.040          45.909          53.050    97221501.914 8  24144884.820
        47.126          52.900    95985644.454 9  24144886.800          46.504
        55.950
 144088443.072 7                  27419126.940
      -198.669                          44.000                   107598517.546 7
  27419130.180        -148.501          42.750   110405420.845 7  27419129.500
      -152.298          44.000   109001967.850 7  27419131.000        -150.459
        46.250
 23 12 19 10 23  0.0000000  0 21G05G07G08G13G14G15G18G20G22G23G24G30
                                E02E03E05E07E08E13E24E25E26
 112486332.841 8  87651678.95248  21405444.020                    21405443.420
     -2272.723       -1770.954          50.150          50.300



 129604962.045 7 100990850.62947  24663020.800                    24663023.520
     -2978.560       -2320.964          44.700          44.600



 131610057.737 6 102553324.55946  25044558.280                    25044562.260
      -919.764        -716.697          38.850          38.250    98280272.014 6
  25044563.040        -686.895          40.900


 104640655.696 8  81538170.47748  19912453.760                    19912452.080
       209.854         163.523          49.150          49.100



 111294600.449 8  86723087.83348  21178648.180                    21178647.700
       151.520         118.067          50.850          48.550    83109659.011 9
  21178652.660         113.115          54.050


 111043042.713 8  86527023.53348  21130791.560                    21130791.060
      2436.822        1898.822          50.150          48.550



 128288679.755 7  99965177.85546  24412534.900                    24412535.160
     -1104.638        -860.758          42.000          39.550    95799978.357 7
  24412541.580        -824.992          45.700


 123311357.154 7  96086742.04946  23465386.700                    23465387.680
     -3693.633       -2878.162          43.250          40.150



 112012116.160 8  87282190.40347  21315183.000                    21315181.580
      1276.560         994.722          51.650          46.400



 129211482.985 7 100684271.32246  24588134.360                    24588136.520
      3339.473        2602.186          43.150          37.900    96489105.735 7
  24588140.800        2493.873          46.000


 124420116.753 6  96950760.16346  23676358.740                    23676362.020
      3480.313        2711.932          40.650          40.150    92911154.625 7
  23676365.520        2598.729          46.850


 116425836.262 8  90721423.76648  22155102.780                    22155104.660
     -2454.510       -1912.606          49.650          49.550    86941361.118 8
  22155106.320       -1832.985          52.250


 131940928.481 8                  25107512.140
      2619.092                          50.200                    98527381.970 8
  25107515.580        1955.787          49.250   101097638.317 8  25107512.760
      2006.793          49.800    99812492.295 8  25107515.680        1981.308
        52.550
 124640849.200 8                  23718365.460
     -1083.340                          52.150                    93075972.720 8
  23718369.700        -809.051          53.200    95504032.954 9  23718367.360
      -830.132          54.050    94289997.987 9  23718368.800        -819.564
        56.550
 136671627.517 7                  26007759.720
     -2580.559                          44.000                   102059972.104 7
  26007768.880       -1927.115          44.800   104722394.931 7  26007765.480
     -1977.396          45.500   103391181.171 7  26007767.080       -1952.275
        47.950
 147585358.370 6                  28084561.400
      2655.422                          41.650                   110209867.100 7
  28084570.160        1982.987          42.650   113084899.760 7  28084565.880
      2034.666          42.650   111647383.082 7  28084568.080        2008.844
        45.550
 126173045.162 8                  24009932.360
      1397.822                          52.250                    94220144.250 8
  24009935.500        1043.814          53.500    96678049.281 8  24009932.980
      1071.030          53.500    95449096.416 9  24009934.180        1057.426
        56.350
 144511098.249 7                  27499560.740
     -2391.918                          42.500                   107914123.649 7
  27499570.980       -1786.221          43.800   110729261.490 7  27499568.640
     -1832.816          45.550   109321692.216 7  27499569.300       -1809.433
        47.550
 142829212.190 7                  27179497.800
     -2450.889                          44.950                   106658193.078 7
  27179504.260       -1830.298          45.750   109440568.472 7  27179500.740
     -1878.046          45.550   108049372.929 8  27179503.020       -1854.148
        48.700
 126880634.587 8                  24144574.500
        47.126                          52.100                    94748580.455 8
  24144579.420          35.157          53.100    97220259.091 8  24144576.120
        36.090          53.000    95984417.425 9  24144578.140          35.636
        56.000
 144094635.477 7                  27420305.660
      -213.618                          43.650                   107603141.686 7
  27420309.180        -159.434          43.250   110410165.618 7  27420307.840
      -163.615          43.650   109006652.308 7  27420309.320        -161.576
        46.400
 23 12 19 10 23 30.0000000  0 22G05G07G08G13G14G15G17G18G20G22G23G24
                                G30E02E03E05E07E08E13E24E25E26
 112554778.049 8  87705012.84448  21418468.840                    21418468.360
     -2289.887       -1784.329          50.050          49.950



 129694353.985 7 101060506.46247  24680031.900                    24680034.280
     -2980.432       -2322.422          44.250          44.350



 131637942.823 6 102575053.17946  25049864.520                    25049868.740
      -938.668        -731.430          38.600          38.050    98301095.336 6
  25049868.980        -700.986          41.050


 104634578.508 8  81533435.00048  19911297.320                    19911295.680
       195.506         152.342          49.100          49.000



 111290363.540 8  86719786.33548  21177841.980                    21177841.520
       131.401         102.390          50.550          49.100    83106495.076 9
  21177846.540          98.099          54.150


 110970129.119 8  86470207.74848  21116916.460                    21116916.140
      2424.437        1889.171          50.000          48.450



 133520599.902 6 104042046.05246  25408126.720                    25408130.840
      2821.806        2198.801          40.700          40.150



 128322092.813 6  99991213.94746  24418892.840                    24418893.840
     -1122.250        -874.482          41.150          39.900    95824929.573 7
  24418899.380        -838.168          45.950


 123422254.025 7  96173155.00946  23486489.700                    23486491.100
     -3698.941       -2882.296          43.350          40.300



 111974104.463 8  87252570.90947  21307949.620                    21307947.920
      1257.808         980.110          51.800          46.300



 129111433.088 7 100606310.30946  24569095.780                    24569097.580
      3330.792        2595.421          43.700          37.750    96414393.088 7
  24569101.600        2487.247          45.400


 124315808.727 6  96869481.25746  23656509.340                    23656512.800
      3474.081        2707.079          39.700          39.900    92833262.332 7
  23656516.320        2594.363          46.500


 116499599.096 8  90778901.23348  22169139.600                    22169141.440
     -2462.492       -1918.827          49.300          49.150    86996443.679 8
  22169142.860       -1838.903          51.750


 131862495.812 8                  25092586.780
      2610.169                          50.400                    98468812.174 8
  25092590.760        1949.177          49.550   101037540.603 8  25092587.540
      1999.997          49.700    99753158.537 8  25092590.440        1974.629
        52.550
 124673486.615 8                  23724576.080
     -1092.037                          52.250                    93100344.796 8
  23724580.420        -815.499          53.250    95529040.827 8  23724577.960
      -836.755          53.900    94314687.962 9  23724579.500        -826.104
        56.400
 136749102.407 7                  26022502.960
     -2584.039                          44.150                   102117826.562 7
  26022512.160       -1929.577          44.650   104781758.661 7  26022508.560
     -1980.009          45.550   103449790.256 7  26022510.240       -1954.687
        47.950
 147505702.892 6                  28069403.420
      2655.392                          41.550                   110150384.001 7
  28069412.460        1982.794          43.400   113023864.925 7  28069408.080
      2034.582          42.750   111587124.119 7  28069410.360        2008.695
        46.100
 126131218.803 8                  24001973.220
      1390.952                          52.400                    94188910.292 8
  24001976.160        1038.675          53.200    96646000.516 8  24001973.560
      1065.799          53.200    95417455.055 9  24001974.880        1052.243
        56.150
 144582986.509 6                  27513240.980
     -2400.266                          41.950                   107967806.233 7
  27513250.820       -1792.269          43.200   110784344.511 7  27513248.680
     -1839.030          45.550   109376075.021 7  27513249.340       -1815.633
        47.100
 142902870.863 7                  27193514.720
     -2459.258                          45.600                   106713197.751 7
  27193521.260       -1836.452          45.850   109497008.076 7  27193517.320
     -1884.275          45.200   108105095.072 8  27193520.020       -1860.463
        48.600
 126879451.775 8                  24144349.440
        32.131                          52.250                    94747697.179 8
  24144354.440          23.970          53.100    97219352.769 8  24144351.020
        24.624          53.100    95983522.626 9  24144353.040          24.299
        56.000
 144101279.660 7                  27421570.180
      -228.999                          42.850                   107608103.225 7
  27421574.460        -170.982          44.050   110415256.590 7  27421571.920
      -175.345          42.950   109011678.560 7  27421573.700        -173.119
        46.400
 23 12 19 10 24  0.0000000  0 22G05G07G08G13G14G15G17G18G20G22G23G24
                                G30E02E03E05E07E08E13E24E25E26
 112623716.369 8  87758730.97048  21431587.500                    21431587.180
     -2306.043       -1796.918          50.000          50.050



 129783784.055 7 101130192.00447  24697050.200                    24697052.280
     -2981.495       -2323.251          42.750          42.550



 131666372.899 6 102597206.56746  25055274.560                    25055279.000
      -956.834        -745.581          39.150          39.550    98322325.644 7
  25055279.340        -714.357          42.200


 104628913.251 8  81529020.50448  19910219.260                    19910217.600
       181.952         141.780          48.950          48.750



 111286713.258 8  86716941.95648  21177147.320                    21177146.940
       112.048          87.310          50.100          48.750    83103769.204 8
  21177151.980          83.624          53.900


 110897567.684 8  86413666.36848  21103108.360                    21103108.120
      2412.866        1880.155          49.750          48.050



 133435949.638 6 103976084.90446  25392017.020                    25392021.440
      2821.683        2198.706          40.150          39.950



 128356015.394 6 100017647.08246  24425347.800                    24425349.420
     -1139.364        -887.817          41.300          38.750    95850261.282 7
  24425354.340        -850.624          45.350


 123533287.034 7  96259674.03846  23507618.520                    23507620.320
     -3703.291       -2885.686          43.100          39.000



 111936636.714 8  87223375.27747  21300819.700                    21300817.740
      1239.857         966.123          51.350          46.400



 129011631.919 7 100528543.09146  24550104.460                    24550105.720
      3322.534        2588.984          43.700          38.150    96339866.176 7
  24550109.940        2481.187          44.800


 124211659.108 6  96788325.80446  23636690.140                    23636693.660
      3468.648        2702.850          39.750          39.850    92755488.358 7
  23636697.260        2590.581          46.700


 116573580.915 8  90836549.34248  22183218.060                    22183219.740
     -2469.655       -1924.408          49.000          48.950    87051689.776 8
  22183221.040       -1844.220          50.950


 131784312.067 8                  25077708.860
      2602.091                          50.200                    98410428.248 8
  25077712.940        1943.090          49.150   100977633.613 8  25077709.740
      1993.756          50.050    99694013.081 8  25077712.520        1968.453
        52.250
 124706362.395 8                  23730832.180
     -1099.801                          52.000                    93124894.878 8
  23730836.520        -821.229          52.850    95554231.350 8  23730833.840
      -842.713          53.800    94339558.266 9  23730835.580        -831.977
        55.950
 136826661.660 7                  26037262.160
     -2586.614                          43.550                   102175744.015 7
  26037271.340       -1931.574          44.150   104841187.014 7  26037267.700
     -1981.963          45.250   103508463.162 7  26037269.360       -1956.730
        47.300
 147426034.888 7                  28054243.100
      2655.926                          42.050                   110090891.578 7
  28054252.280        1983.229          42.850   112962820.538 7  28054248.040
      2035.047          42.850   111526855.716 7  28054250.080        2009.099
        45.500
 126089579.875 8                  23994049.700
      1384.937                          52.000                    94157816.282 8
  23994052.300        1034.183          52.700    96614095.360 8  23994049.720
      1061.171          53.100    95385955.470 9  23994051.240        1047.688
        55.600
 144655097.094 7                  27526963.620
     -2407.354                          42.300                   108021654.854 7
  27526973.280       -1797.771          42.450   110839597.888 7  27526971.040
     -1844.551          44.800   109430626.025 7  27526971.640       -1821.174
        46.250
 142976758.028 7                  27207575.180
     -2466.576                          45.350                   106768373.060 7
  27207581.680       -1841.838          45.350   109553622.770 7  27207577.500
     -1890.038          45.350   108160990.065 7  27207580.500       -1865.887
        47.950
 126878698.450 8                  24144206.180
        18.001                          52.200                    94747134.627 8
  24144211.220          13.480          52.900    97218775.542 8  24144207.760
        13.845          53.200    95982952.737 9  24144209.660          13.673
        55.750
 144108365.889 7                  27422918.560
      -243.517                          42.750                   107613394.888 7
  27422924.040        -181.766          44.050   110420686.317 7  27422919.920
      -186.606          42.850   109017039.254 7  27422922.220        -184.166
        46.150
 23 12 19 10 24 30.0000000  0 22G05G07G08G13G14G15G17G18G20G22G23G24
                                G30E02E03E05E07E08E13E24E25E26
 112693153.013 8  87812837.40348  21444800.940                    21444800.620
     -2322.863       -1810.024          50.300          50.300



 129873258.659 6 101199912.24146  24714076.780                    24714078.880
     -2983.332       -2324.682          41.900          41.850



 131695353.886 6 102619789.22046  25060789.320                    25060794.080
      -975.268        -759.944          39.300          39.400    98343967.342 7
  25060794.580        -728.135          42.400


 104623666.871 8  81524932.41148  19909220.880                    19909219.240
       167.852         130.793          49.250          49.650



 111283656.640 8  86714560.16348  21176565.520                    21176565.240
        91.941          71.642          49.900          48.450    83101486.655 9
  21176570.320          68.663          54.050


 110825367.396 8  86357406.40148  21089369.020                    21089368.780
      2400.592        1870.591          49.800          48.550



 133351304.680 6 103910127.59946  25375909.700                    25375914.500
      2821.481        2198.565          41.150          41.150



 128390452.776 6 100044481.35646  24431900.900                    24431902.740
     -1156.375        -901.073          41.100          40.800    95875977.444 7
  24431907.320        -863.586          44.650


 123644460.199 7  96346302.29046  23528774.180                    23528776.160
     -3707.871       -2889.254          43.300          38.550



 111899721.272 8  87194610.01647  21293794.840                    21293792.560
      1221.271         951.640          51.400          45.950



 128912089.197 7 100450977.30646  24531162.300                    24531163.240
      3313.475        2581.930          43.800          38.550    96265532.283 7
  24531167.320        2474.449          44.400


 124107676.134 6  96707300.20646  23616902.620                    23616906.320
      3463.447        2698.794          40.250          39.900    92677838.870 7
  23616910.000        2586.201          46.250


 116647787.326 8  90894372.45248  22197339.120                    22197340.940
     -2477.345       -1930.400          48.650          48.450    87107103.583 8
  22197341.900       -1849.927          50.600


 131706385.756 8                  25062879.900
      2593.181                          50.550                    98352236.569 8
  25062884.360        1936.476          49.850   100917923.887 8  25062881.100
      1987.007          50.000    99635062.382 8  25062883.660        1961.715
        52.850
 124739483.657 8                  23737134.980
     -1108.088                          51.950                    93149628.271 8
  23737139.360        -827.483          53.000    95579609.965 8  23737136.520
      -849.075          53.800    94364614.269 9  23737138.360        -838.290
        56.300
 136904311.935 7                  26052038.660
     -2590.018                          44.550                   102233729.433 7
  26052047.840       -1933.984          44.300   104900685.120 7  26052043.960
     -1984.460          45.000   103567204.925 7  26052045.860       -1959.198
        47.400
 147346361.950 7                  28039081.900
      2655.805                          42.750                   110031395.563 7
  28039091.080        1983.174          43.050   112901772.442 7  28039087.080
      2034.975          42.800   111466583.664 7  28039088.840        2009.029
        45.800
 126048136.290 8                  23986163.160
      1378.075                          51.650                    94126868.142 8
  23986165.540        1029.130          52.600    96582339.875 8  23986163.060
      1055.982          52.900    95354603.661 9  23986164.820        1042.551
        55.750
 144727435.003 7                  27540729.340
     -2415.011                          42.000                   108075673.230 6
  27540738.520       -1803.464          41.300   110895025.456 7  27540736.580
     -1850.595          44.700   109485348.997 7  27540737.240       -1827.095
        45.900
 143050879.003 7                  27221680.060
     -2474.545                          45.100                   106823722.984 7
  27221686.640       -1847.972          45.350   109610416.610 7  27221682.300
     -1896.104          45.400   108217061.946 8  27221685.420       -1872.027
        48.400
 126878381.375 8                  24144145.980
         3.236                          52.700                    94746897.852 8
  24144150.960           2.423          53.050    97218532.589 8  24144147.560
         2.479          53.350    95982712.875 9  24144149.300           2.442
        56.100
 144115900.848 7                  27424352.140
      -258.453                          42.250                   107619021.643 7
  27424358.940        -193.203          44.600   110426459.851 7  27424353.500
      -198.170          42.900   109022739.399 7  27424356.160        -195.627
        46.800
 23 12 19 10 25  0.0000000  0 22G05G07G08G13G14G15G17G18G20G22G23G24
                                G30E02E03E05E07E08E13E24E25E26
 112763091.444 8  87867334.83348  21458109.880                    21458109.580
     -2339.332       -1822.858          50.500          50.400



 129962782.311 7 101269670.68547  24731112.640                    24731114.820
     -2984.536       -2325.620          43.200          43.600



 131724891.334 6 102642805.47346  25066410.060                    25066415.220
      -993.137        -773.875          39.600          40.150    98366024.586 7
  25066415.700        -741.854          42.600


 104618845.691 8  81521175.64848  19908303.460                    19908301.800
       153.928         119.943          49.550          49.600



 111281199.420 8  86712645.43448  21176097.700                    21176097.580
        72.337          56.366          49.800          48.100    83099651.700 9
  21176102.640          54.050          54.350


 110753536.080 8  86301433.93048  21075700.020                    21075699.680
      2388.476        1861.149          50.300          48.300



 133266679.507 6 103844185.51746  25359806.080                    25359811.100
      2820.782        2198.009          41.500          41.350



 128425408.909 7 100071719.85546  24438552.980                    24438554.560
     -1173.553        -914.458          42.950          38.800    95902080.968 7
  24438559.180        -876.330          43.850


 123755776.701 7  96433042.21546  23549956.980                    23549959.120
     -3712.622       -2892.960          42.600          40.350



 111863364.698 8  87166280.24747  21286876.260                    21286873.820
      1202.989         937.395          51.400          45.650



 128812813.456 7 100373619.51746  24512270.880                    24512271.520
      3305.116        2575.412          44.050          39.200    96191397.754 7
  24512275.500        2468.078          44.450


 124003866.836 6  96626409.96746  23597148.240                    23597151.980
      3457.862        2694.442          40.500          40.300    92600319.115 7
  23597155.760        2582.075          46.850


 116722222.664 8  90952373.95148  22211503.720                    22211505.600
     -2484.607       -1936.060          48.700          48.900    87162688.354 8
  22211506.280       -1855.401          50.700


 131628724.162 8                  25048101.320
      2584.671                          50.650                    98294242.568 8
  25048106.120        1930.120          49.950   100858416.989 8  25048102.640
      1980.462          50.300    99576311.930 8  25048105.060        1955.305
        52.800
 124772856.311 8                  23743485.500
     -1116.289                          52.250                    93174549.374 8
  23743490.100        -833.539          53.300    95605181.190 8  23743487.120
      -855.312          53.900    94389860.434 9  23743489.000        -844.423
        56.150
 136982058.611 7                  26066833.320
     -2592.872                          44.500                   102291786.847 7
  26066842.680       -1936.079          43.850   104960257.089 7  26066838.660
     -1986.723          44.950   103626019.622 7  26066840.740       -1961.409
        47.000
 147266690.489 7                  28023921.000
      2656.122                          43.500                   109971900.725 7
  28023929.960        1983.429          43.250   112840725.567 7  28023926.440
      2035.159          43.450   111406312.806 7  28023927.800        2009.265
        45.950
 126006894.669 8                  23978314.980
      1371.733                          51.900                    94096070.832 8
  23978317.340        1024.331          52.800    96550739.161 8  23978314.920
      1051.072          52.950    95323404.649 9  23978316.820        1037.708
        55.600
 144800003.922 6                  27554539.080
     -2422.323                          41.800                   108129864.111 6
  27554548.000       -1808.971          41.900   110950630.018 7  27554546.140
     -1856.019          44.050   109540246.710 7  27554546.620       -1832.427
        45.400
 143125237.881 7                  27235830.080
     -2482.328                          44.700                   106879250.548 7
  27235836.940       -1853.479          45.850   109667392.752 7  27235832.420
     -1901.993          45.100   108273313.802 8  27235835.540       -1877.723
        48.100
 126878506.071 8                  24144169.820
       -11.075                          52.850                    94746990.975 8
  24144174.720          -8.258          53.300    97218628.142 8  24144171.500
        -8.492          53.550    95982807.211 9  24144173.000          -8.364
        56.000
 144123890.007 7                  27425872.140
      -273.475                          42.400                   107624987.562 7
  27425879.720        -204.214          45.350   110432581.415 7  27425874.060
      -209.593          43.400   109028783.145 7  27425876.480        -206.871
        47.100
 23 12 19 10 25 30.0000000  0 22G05G07G08G13G14G15G17G18G20G22G23G24
                                G30E02E03E05E07E08E13E24E25E26
 112833509.968 8  87922206.36848  21471510.140                    21471509.620
     -2355.838       -1835.720          50.150          50.050



 130052335.039 7 101339451.83147  24748154.140                    24748156.120
     -2986.282       -2326.979          43.100          43.300



 131754965.104 6 102666239.63446  25072133.100                    25072138.100
     -1012.307        -788.807          38.850          38.700    98388482.302 7
  25072139.220        -755.640          43.650


 104614431.362 8  81517735.91048  19907463.520                    19907461.860
       139.754         108.899          49.400          49.400



 111279322.502 8  86711182.89348  21175740.340                    21175740.300
        52.403          40.834          49.250          48.100    83098250.104 9
  21175745.340          39.038          54.100


 110682056.830 8  86245735.80547  21062098.040                    21062097.540
      2376.125        1851.525          50.600          47.700



 133182069.784 6 103778251.20946  25343703.860                    25343708.800
      2820.344        2197.656          37.350          36.750



 128460862.863 7 100099346.27746  24445299.900                    24445300.980
     -1190.693        -927.812          42.100          41.200    95928556.274 7
  24445306.080        -889.071          43.350


 123867214.432 7  96519876.61446  23571162.880                    23571165.120
     -3717.363       -2896.653          42.650          39.400



 111827549.377 8  87138372.24147  21280060.680                    21280058.340
      1184.153         922.718          51.000          46.100



 128713788.406 7 100296457.10246  24493427.060                    24493427.580
      3295.978        2568.294          43.550          37.650    96117450.427 7
  24493431.520        2461.343          44.350


 123900213.469 6  96545641.24646  23577423.680                    23577427.320
      3451.554        2689.527          41.100          40.900    92522915.766 7
  23577431.160        2577.774          46.500


 116796866.447 8  91010537.87648  22225708.040                    22225710.120
     -2492.107       -1941.903          49.000          49.000    87218428.782 8
  22225710.260       -1861.044          50.300


 131551309.683 8                  25033369.680
      2575.675                          50.300                    98236433.110 8
  25033374.580        1923.433          49.900   100799099.460 8  25033371.540
      1973.632          50.600    99517748.436 8  25033373.540        1948.536
        53.100
 124806461.383 8                  23749880.300
     -1124.656                          52.150                    93199644.051 8
  23749885.040        -839.875          53.100    95630930.506 8  23749882.080
      -861.754          53.950    94415282.431 9  23749883.840        -850.816
        56.400
 137059882.278 7                  26081642.580
     -2595.986                          44.650                   102349901.782 7
  26081652.060       -1938.571          43.150   105019888.060 7  26081647.960
     -1989.092          44.600   103684892.572 7  26081650.160       -1963.815
        46.750
 147187001.941 7                  28008756.760
      2656.003                          44.050                   109912393.217 7
  28008765.400        1983.420          42.950   112779665.704 7  28008762.380
      2034.920          43.600   111346029.114 7  28008763.540        2009.185
        46.200
 125965836.843 8                  23970501.900
      1364.927                          51.600                    94065410.761 8
  23970504.220        1019.228          52.600    96519279.260 8  23970501.720
      1045.854          52.850    95292344.664 9  23970503.820        1032.537
        55.700
 144872782.684 6                  27568388.580
     -2429.929                          41.550                   108184211.692 6
  27568397.260       -1814.595          40.750   111006395.394 7  27568395.620
     -1861.972          44.000   109595303.196 7  27568396.200       -1838.328
        45.000
 143199813.913 7                  27250021.340
     -2490.099                          44.850                   106934940.270 7
  27250028.560       -1859.425          45.650   109724535.271 7  27250023.860
     -1907.972          45.000   108329729.923 8  27250027.060       -1883.692
        48.250
 126879053.192 8                  24144273.980
       -25.863                          52.400                    94747399.553 8
  24144278.760         -19.337          53.000    97219047.368 8  24144275.780
       -19.789          53.650    95983221.114 9  24144277.100         -19.590
        56.100
 144132313.900 6                  27427474.640
      -288.637                          41.550                   107631278.104 7
  27427483.120        -215.551          45.200   110439036.060 7  27427477.240
      -221.066          43.500   109035155.743 7  27427479.560        -218.371
        47.300
 23 12 19 10 26  0.0000000  0 22G05G07G08G13G14G15G17G18G20G22G23G24
                                G30E02E03E05E07E08E13E24E25E26
 112904421.863 8  87977462.34848  21485004.260                    21485003.580
     -2371.752       -1848.120          49.850          49.900



 130141931.712 7 101409267.21447  24765204.100                    24765205.560
     -2986.937       -2327.489          42.450          43.050



 131785588.983 6 102690102.37946  25077960.500                    25077966.060
     -1029.399        -802.129          38.500          38.000    98411350.858 7
  25077967.040        -769.072          43.200


 104610439.868 8  81514625.64548  19906704.080                    19906702.380
       126.074          98.239          50.000          49.900



 111278041.335 8  86710184.57248  21175496.420                    21175496.340
        32.815          25.569          49.300          48.800    83097293.365 9
  21175501.400          24.596          54.100


 110610946.880 8  86190325.46748  21048566.320                    21048565.740
      2364.325        1842.332          50.850          48.300



 133097470.213 5 103712329.36945  25327604.840                    25327609.760
      2819.984        2197.396          34.150          35.600



 128496828.281 7 100127371.20246  24452144.220                    24452144.820
     -1207.229        -940.701          42.950          41.550    95955413.519 7
  24452150.400        -901.492          43.300


 123978786.194 7  96606815.46746  23592394.500                    23592396.860
     -3720.921       -2899.426          42.600          36.850



 111792291.736 8  87110898.79247  21273351.220                    21273349.120
      1166.026         908.594          51.050          46.350



 128615032.271 7 100219504.22146  24474634.400                    24474634.900
      3287.451        2561.648          43.050          39.250    96043703.904 7
  24474638.600        2454.794          44.300


 123796732.527 6  96465006.91246  23557731.980                    23557735.800
      3446.644        2685.702          40.900          41.400    92445641.248 7
  23557739.200        2573.741          46.800


 116871732.683 8  91068875.15348  22239954.720                    22239956.700
     -2499.126       -1947.373          48.850          48.950    87274335.329 8
  22239956.840       -1866.239          50.850


 131474159.272 8                  25018688.280
      2567.373                          50.150                    98178820.845 8
  25018693.500        1917.235          50.050   100739984.260 8  25018690.400
      1967.166          50.550    99459384.705 8  25018692.240        1942.201
        53.400
 124840314.376 8                  23756322.300
     -1132.386                          51.950                    93224923.858 8
  23756327.080        -845.613          53.100    95656869.793 8  23756324.260
      -867.673          53.850    94440891.979 9  23756325.880        -856.623
        56.600
 137137797.990 7                  26096469.200
     -2598.561                          44.050                   102408085.451 7
  26096479.020       -1940.531          42.950   105079589.576 7  26096474.800
     -1991.062          44.100   103743835.163 7  26096477.160       -1965.761
        46.650
 147107312.321 7                  27993592.260
      2656.531                          44.750                   109852884.970 7
  27993600.580        1983.753          42.900   112718605.007 7  27993597.780
      2035.458          42.900   111285744.640 7  27993598.940        2009.671
        46.000
 125924979.118 8                  23962726.960
      1358.716                          51.950                    94034900.115 8
  23962729.300        1014.605          52.850    96487972.690 8  23962726.660
      1041.039          52.650    95261436.057 9  23962728.860        1027.826
        56.000
 144945784.636 6                  27582280.520
     -2436.939                          41.650                   108238725.944 6
  27582288.980       -1819.686          41.150   111062331.765 7  27582287.600
     -1867.204          43.500   109650528.516 7  27582288.040       -1843.581
        45.300
 143274620.806 7                  27264256.500
     -2497.356                          44.700                   106990802.382 7
  27264264.080       -1864.848          45.650   109781854.678 7  27264259.340
     -1913.488          44.800   108386320.685 8  27264262.580       -1889.128
        48.550
 126880037.883 8                  24144461.240
       -39.984                          52.250                    94748134.886 8
  24144466.040         -29.853          52.950    97219801.886 8  24144463.280
       -30.630          53.400    95983966.039 9  24144464.440         -30.246
        56.300
 144141187.566 6                  27429162.840
      -303.045                          41.200                   107637904.525 7
  27429171.900        -226.333          44.850   110445835.361 7  27429165.940
      -232.294          43.400   109041868.600 7  27429168.240        -229.363
        47.300
 23 12 19 10 26 30.0000000  0 22G05G07G08G13G14G15G17G18G20G22G23G24
                                G30E02E03E05E07E08E13E24E25E26
 112975824.035 8  88033100.37148  21498591.640                    21498590.640
     -2387.874       -1860.682          49.900          49.850



 130231569.926 7 101479114.96847  24782261.820                    24782262.960
     -2988.658       -2328.831          42.350          42.200



 131816761.696 6 102714392.80646  25083892.040                    25083897.940
     -1047.967        -816.597          36.900          37.150    98434629.175 7
  25083899.120        -782.632          43.350


 104606870.238 8  81511844.09348  19906024.880                    19906023.000
       112.190          87.420          49.750          49.750



 111277354.350 8  86709649.25948  21175365.740                    21175365.480
        13.227          10.307          49.800          48.650    83096780.366 9
  21175370.560           9.885          54.000


 110540207.326 8  86135203.74948  21035105.080                    21035104.500
      2352.064        1832.778          50.600          48.200



 133012893.901 6 103646425.52046  25311510.400                    25311515.500
      2818.845        2196.486          38.550          38.200



 128533301.877 7 100155792.11246  24459085.020                    24459085.340
     -1224.173        -953.905          42.600          39.550    95982650.230 7
  24459091.600        -914.067          43.250


 124090487.759 7  96693855.43046  23613650.620                    23613653.020
     -3725.262       -2902.809          42.400          39.100



 111757591.547 8  87083859.73247  21266747.920                    21266746.140
      1147.607         894.241          51.050          46.850



 128516546.377 7 100142761.92246  24455893.200                    24455893.940
      3278.516        2554.686          42.800          39.750    95970159.182 7
  24455897.460        2448.266          44.300


 123693424.019 6  96384506.91146  23538073.040                    23538076.940
      3440.909        2681.231          41.650          40.800    92368495.443 7
  23538079.980        2569.521          46.300


 116946818.590 8  91127383.58748  22254243.060                    22254245.120
     -2506.106       -1952.812          48.400          48.050    87330405.907 8
  22254245.300       -1871.561          50.600


 131397272.980 8                  25004057.140
      2558.676                          49.850                    98121405.825 8
  25004062.360        1910.713          49.850   100681071.451 8  25004059.720
      1960.551          51.100    99401220.789 8  25004061.220        1935.649
        53.450
 124874413.997 8                  23762811.260
     -1140.589                          52.050                    93250387.831 8
  23762815.960        -851.699          52.900    95682998.043 9  23762813.400
      -873.891          54.000    94466688.088 9  23762814.820        -862.786
        56.400
 137215804.007 7                  26111312.860
     -2601.418                          43.300                   102466336.537 7
  26111323.280       -1942.634          42.100   105139360.274 7  26111318.940
     -1993.242          43.950   103802846.061 7  26111321.300       -1968.035
        46.000
 147027620.759 7                  27978427.380
      2656.638                          44.300                   109793375.271 7
  27978435.140        1983.939          42.400   112657542.857 7  27978432.760
      2035.611          43.600   111225458.720 7  27978433.860        2009.750
        46.000
 125884320.975 8                  23954990.060
      1352.174                          52.150                    94004538.508 8
  23954992.520        1009.778          52.950    96456819.037 8  23954989.760
      1036.098          53.000    95230678.427 9  23954991.840        1022.928
        56.050
 145019006.324 6                  27596214.340
     -2444.371                          41.650                   108293404.284 6
  27596222.780       -1825.275          41.000   111118436.532 7  27596221.280
     -1872.826          42.850   109705920.055 7  27596221.800       -1849.031
        44.700
 143349655.466 7                  27278534.960
     -2504.776                          44.200                   107046834.577 7
  27278542.880       -1870.364          45.400   109839348.609 7  27278538.340
     -1919.119          45.350   108443083.747 8  27278541.440       -1894.716
        48.400
 126881458.421 8                  24144731.280
       -54.373                          51.700                    94749195.693 8
  24144736.200         -40.579          52.700    97220890.363 8  24144733.620
       -41.668          53.550    95985040.681 9  24144734.720         -41.137
        56.050
 144150509.277 7                  27430936.600
      -317.904                          42.400                   107644865.499 7
  27430945.600        -237.395          44.700   110452977.932 7  27430939.780
      -243.619          43.900   109048920.367 7  27430942.220        -240.477
        47.250
 23 12 19 10 27  0.0000000  0 22G05G07G08G13G14G15G17G18G20G22G23G24
                                G30E02E03E05E07E08E13E24E25E26
 113047710.132 8  88089115.46748  21512271.020                    21512269.980
     -2404.163       -1873.375          49.600          49.400



 130321245.041 6 101548991.49546  24799326.320                    24799327.520
     -2989.563       -2329.536          41.650          41.850



 131848477.837 6 102739106.67646  25089927.220                    25089933.200
     -1066.502        -831.040          38.300          37.950    98458313.249 7
  25089934.520        -796.153          42.650


 104603719.581 8  81509389.01948  19905425.280                    19905423.360
        98.181          76.505          49.200          49.050



 111277258.033 8  86709574.21148  21175347.420                    21175347.100
        -6.635          -5.169          50.100          48.800    83096708.449 8
  21175352.200          -4.995          53.950


 110469836.353 8  86080369.22948  21021713.940                    21021713.260
      2339.635        1823.092          50.650          48.200



 132928340.278 6 103580539.47846  25295420.640                    25295425.720
      2818.079        2195.908          39.250          38.800



 128570278.198 7 100184604.75946  24466121.340                    24466121.340
     -1240.803        -966.860          42.150          38.850    96010262.350 7
  24466128.580        -926.550          43.600


 124202312.759 6  96780991.59646  23634930.360                    23634932.880
     -3729.393       -2906.026          41.850          40.900



 111723446.160 8  87057252.98047  21260250.280                    21260248.800
      1129.036         879.770          51.350          46.950



 128418330.011 7 100066229.65646  24437203.220                    24437204.040
      3269.285        2547.494          42.550          38.250    95896815.727 7
  24437207.640        2441.415          44.650


 123590285.524 7  96304139.41846  23518446.540                    23518450.600
      3435.107        2676.712          42.800          41.950    92291476.620 7
  23518452.880        2565.218          46.350


 117022119.228 7  91186059.34747  22268572.160                    22268574.140
     -2513.427       -1958.517          47.750          47.800    87386636.827 8
  22268574.620       -1877.071          50.650


 131320648.808 8                  24989475.900
      2549.737                          49.800                    98064186.531 8
  24989481.220        1904.110          49.950   100622359.476 8  24989478.820
      1953.713          50.900    99343255.157 8  24989480.080        1928.920
        53.400
 124908756.831 8                  23769346.620
     -1148.793                          52.200                    93276033.438 8
  23769351.100        -857.865          52.900    95709312.668 8  23769348.800
      -880.240          53.800    94492668.205 9  23769350.040        -869.054
        56.350
 137293896.435 7                  26126172.980
     -2604.592                          42.900                   102524652.186 6
  26126183.800       -1944.963          41.600   105199197.204 7  26126179.480
     -1995.607          43.400   103861922.347 7  26126181.860       -1970.273
        45.550
 146947924.260 7                  27963261.460
      2656.752                          44.650                   109733861.913 7
  27963269.000        1983.884          42.950   112596476.962 7  27963266.640
      2035.540          43.650   111165169.094 7  27963267.960        2009.705
        46.350
 125843859.816 8                  23947290.620
      1345.383                          52.000                    93974324.010 8
  23947293.340        1004.660          53.200    96425816.329 8  23947290.440
      1030.903          53.050    95200069.821 9  23947292.280        1017.798
        56.200
 145092442.145 7                  27610188.760
     -2451.235                          42.200                   108348242.574 6
  27610197.140       -1830.733          40.950   111174705.385 7  27610195.860
     -1878.332          43.000   109761473.635 7  27610196.400       -1854.603
        44.900
 143424912.740 7                  27292855.840
     -2512.238                          43.650                   107103033.002 7
  27292863.940       -1876.084          44.850   109897013.106 7  27292859.800
     -1924.995          44.950   108500015.209 8  27292862.640       -1900.580
        48.000
 126883311.029 8                  24145083.400
       -68.945                          51.150                    94750579.152 8
  24145088.600         -51.489          52.600    97222309.903 8  24145086.080
       -52.817          53.250    95986442.178 9  24145087.220         -52.147
        55.950
 144160275.051 7                  27432795.240
      -333.038                          42.050                   107652158.079 7
  27432803.680        -248.666          44.400   110460460.763 7  27432798.500
      -255.149          44.150   109056308.070 7  27432800.640        -251.839
        47.350
 23 12 19 10 27 30.0000000  0 22G05G07G08G13G14G15G17G18G20G22G23G24
                                G30E02E03E05E07E08E13E24E25E26
 113120078.066 8  88145506.03248  21526042.060                    21526040.980
     -2420.314       -1885.960          49.000          49.100



 130410956.442 7 101618896.28047  24816397.720                    24816399.300
     -2991.441       -2330.999          42.400          42.350



 131880737.399 6 102764243.93846  25096065.960                    25096071.780
     -1084.484        -845.054          38.800          38.100    98482403.152 7
  25096073.040        -809.816          43.650


 104600988.416 8  81507260.82448  19904905.500                    19904903.720
        83.896          65.373          48.900          49.050



 111277752.342 8  86709959.39848  21175441.660                    21175441.200
       -26.456         -20.615          50.200          48.950    83097077.590 9
  21175446.340         -19.794          54.100


 110399836.293 8  86025823.74648  21008393.320                    21008392.460
      2326.974        1813.228          50.200          48.600



 132843812.307 6 103514673.38146  25279335.880                    25279340.660
      2816.735        2194.859          36.550          36.300



 128607755.582 6 100213807.85446  24473252.960                    24473252.880
     -1257.916        -980.193          41.000          39.100    96038248.637 7
  24473260.640        -939.166          43.950


 124314258.867 6  96868222.11646  23656233.140                    23656235.460
     -3733.780       -2909.446          41.100          39.350



 111689856.830 8  87031079.52647  21253858.540                    21253857.140
      1110.205         865.097          51.500          47.300



 128320386.067 7  99989909.66746  24418565.100                    24418566.180
      3260.257        2540.458          42.750          39.800    95823675.747 7
  24418569.980        2434.368          44.400


 123487318.490 7  96223905.51447  23498852.520                    23498856.740
      3429.037        2671.982          42.300          42.050    92214585.826 7
  23498858.380        2560.686          46.150


 117097633.365 7  91244901.45247  22282941.880                    22282943.800
     -2520.856       -1964.307          47.850          47.800    87443027.154 8
  22282944.540       -1882.430          50.550


 131244288.329 8                  24974944.940
      2540.727                          49.900                    98007164.174 8
  24974950.220        1897.288          50.000   100563849.571 8  24974948.100
      1946.797          51.300    99285489.024 8  24974949.120        1922.060
        53.650
 124943343.112 8                  23775928.380
     -1157.056                          52.450                    93301860.840 8
  23775932.600        -864.040          52.950    95735813.829 8  23775930.400
      -886.592          53.700    94518832.487 9  23775931.600        -875.303
        56.350
 137372075.086 7                  26141049.380
     -2607.235                          42.250                   102583032.184 6
  26141060.660       -1947.101          41.600   105259100.201 7  26141056.460
     -1997.960          43.200   103921063.847 7  26141058.840       -1972.567
        45.400
 146868223.549 7                  27948094.680
      2656.674                          43.650                   109674345.395 7
  27948102.020        1983.683          42.800   112535407.806 7  27948099.620
      2035.570          43.200   111104876.256 7  27948101.260        2009.592
        45.950
 125803596.628 8                  23939628.820
      1338.605                          51.950                    93944257.354 8
  23939631.880         999.614          53.350    96394965.327 8  23939628.720
      1025.652          53.200    95169610.993 9  23939630.400        1012.638
        56.300
 145166090.148 7                  27624203.720
     -2458.622                          42.950                   108403239.249 6
  27624212.260       -1835.990          40.900   111231136.804 7  27624210.720
     -1883.884          43.000   109817187.674 7  27624211.320       -1859.887
        44.800
 143500391.061 7                  27307218.900
     -2519.755                          44.250                   107159396.503 7
  27307226.940       -1881.671          44.750   109954846.973 7  27307223.200
     -1930.702          44.950   108557113.894 7  27307225.840       -1906.202
        47.950
 126885595.482 8                  24145517.720
       -83.520                          50.650                    94752285.094 8
  24145523.200         -62.411          52.600    97224060.345 8  24145520.640
       -64.015          53.200    95988170.370 9  24145521.900         -63.213
        55.900
 144170484.641 6                  27434738.160
      -347.866                          41.500                   107659782.073 7
  27434746.200        -259.711          44.100   110468283.652 7  27434741.720
      -266.621          44.300   109064031.519 7  27434743.520        -263.136
        47.150
 23 12 19 10 28  0.0000000  0 22G05G07G08G13G14G15G17G18G20G22G23G24
                                G30E02E03E05E07E08E13E24E25E26
 113192927.160 8  88202271.51448  21539904.700                    21539903.960
     -2436.108       -1898.268          49.150          49.150



 130500704.844 6 101688829.89146  24833476.300                    24833478.260
     -2991.999       -2331.436          41.500          41.250



 131913540.699 6 102789804.95346  25102308.560                    25102313.680
     -1102.243        -858.893          38.500          38.650    98506899.133 7
  25102314.800        -823.244          42.250


 104598679.104 8  81505461.33848  19904466.000                    19904464.240
        70.051          54.584          49.000          48.800



 111278838.929 8  86710806.10048  21175648.500                    21175648.060
       -45.943         -35.800          49.850          49.000    83097889.014 9
  21175653.300         -34.349          54.400


 110330210.786 8  85971570.11448  20995144.000                    20995142.960
      2314.684        1803.650          50.200          48.150



 132759315.010 6 103448831.32746  25263256.660                    25263261.820
      2816.174        2194.426          40.950          41.000



 128645733.768 6 100243401.18646  24480479.920                    24480479.980
     -1274.291        -992.954          41.400          38.800    96066608.930 7
  24480487.980        -951.540          44.300


 124426324.976 6  96955546.12846  23677558.700                    23677560.660
     -3737.208       -2912.119          41.250          39.250



 111656826.168 8  87005341.38847  21247573.120                    21247571.700
      1091.835         850.782          51.600          47.200



 128222719.159 7  99913805.54446  24399979.640                    24399980.760
      3251.034        2533.272          42.550          39.250    95750742.623 7
  24399984.980        2427.663          45.300


 123384525.939 7  96143807.58047  23479291.760                    23479296.040
      3423.701        2667.824          42.750          42.100    92137825.319 7
  23479297.100        2556.673          46.800


 117173361.324 8  91303910.20248  22297352.540                    22297353.980
     -2527.586       -1969.549          48.700          48.800    87499577.193 8
  22297355.200       -1887.549          50.700


 131168194.809 8                  24960464.860
      2532.185                          49.950                    97950341.155 8
  24960469.960        1890.822          50.100   100505544.207 8  24960468.100
      1940.163          51.400    99227924.833 8  24960468.960        1915.500
        53.550
 124978174.735 8                  23782556.740
     -1165.117                          52.400                    93327871.444 8
  23782560.820        -870.029          53.100    95762502.974 8  23782558.540
      -892.704          53.750    94545182.363 9  23782559.860        -881.389
        56.250
 137450341.327 6                  26155942.620
     -2610.078                          41.600                   102641477.620 6
  26155954.180       -1949.113          41.600   105319070.305 7  26155950.420
     -2000.040          42.550   103980271.613 7  26155952.460       -1974.579
        44.800
 146788520.970 7                  27932927.660
      2656.927                          43.250                   109614827.426 7
  27932934.680        1984.036          42.700   112474337.164 7  27932932.200
      2035.794          43.100   111044581.946 7  27932934.140        2009.982
        45.850
 125763534.082 8                  23932005.200
      1332.170                          52.050                    93914340.523 8
  23932008.420         994.800          53.350    96364268.045 8  23932005.120
      1020.796          53.550    95139303.939 9  23932006.680        1007.753
        56.200
 145239950.042 7                  27638258.960
     -2465.333                          43.600                   108458394.206 6
  27638267.460       -1841.063          41.500   111287730.598 7  27638265.880
     -1889.054          43.500   109873062.048 7  27638266.580       -1865.014
        45.050
 143576090.512 7                  27321624.320
     -2526.788                          44.450                   107215925.141 7
  27321632.020       -1887.018          44.650   110012850.287 7  27321628.720
     -1936.165          44.950   108614379.872 7  27321631.100       -1911.624
        47.750
 126888313.226 8                  24146034.560
       -97.762                          50.350                    94754314.588 8
  24146040.320         -72.970          52.700    97226142.778 8  24146037.560
       -74.867          53.200    95990226.336 9  24146039.040         -73.928
        55.750
 144181139.370 7                  27436765.760
      -362.398                          42.000                   107667738.472 7
  27436773.420        -270.576          43.850   110476447.619 7  27436769.860
      -277.691          44.750   109072091.697 7  27436771.080        -274.124
        47.050
 23 12 19 10 28 30.0000000  0 22G05G07G08G13G14G15G17G18G20G22G23G24
                                G30E02E03E05E07E08E13E24E25E26
 113266254.309 8  88259409.51148  21553858.360                    21553857.780
     -2452.395       -1910.958          49.700          49.650



 130590488.830 7 101758791.24847  24850561.660                    24850564.140
     -2993.390       -2332.518          42.400          42.700



 131946886.001 6 102815788.27546  25108654.180                    25108658.840
     -1120.877        -873.414          40.200          40.200    98531799.802 7
  25108660.140        -836.944          42.550


 104596791.148 8  81503990.18748  19904106.720                    19904104.760
        55.626          43.344          49.450          49.450



 111280516.764 8  86712113.51148  21175967.760                    21175967.440
       -65.996         -51.425          49.800          48.800    83099141.961 9
  21175972.860         -49.321          54.350


 110260961.153 8  85917609.37548  20981966.240                    20981965.140
      2301.850        1793.649          50.250          48.400



 132674850.116 6 103383014.58646  25247183.480                    25247188.660
      2814.322        2192.981          40.000          39.700



 128684210.013 6 100273382.60446  24487801.720                    24487801.780
     -1291.089       -1006.048          41.700          39.400    96095341.116 7
  24487809.740        -964.249          44.600


 124538507.174 6  97042960.63946  23698906.560                    23698908.340
     -3741.902       -2915.775          41.750          40.200



 111624354.550 8  86980038.86747  21241394.100                    21241392.560
      1072.844         835.983          52.000          46.900



 128125331.139 7  99837918.72846  24381447.420                    24381448.480
      3241.247        2525.645          43.100          39.650    95678017.727 7
  24381453.240        2420.448          45.200


 123281908.229 7  96063845.87747  23459764.320                    23459768.680
      3417.618        2663.085          42.300          42.200    92061195.409 7
  23459769.120        2552.013          46.650


 117249300.864 8  91363083.81948  22311803.640                    22311804.780
     -2534.918       -1975.262          49.600          49.600    87556285.230 8
  22311806.020       -1893.072          50.550


 131092368.830 8                  24946035.720
      2522.825                          50.450                    97893717.932 8
  24946040.640        1883.898          50.000   100447443.844 8  24946038.940
      1933.079          51.250    99170563.040 8  24946039.700        1908.487
        53.600
 125013250.865 8                  23789231.520
     -1173.470                          52.400                    93354064.636 8
  23789235.580        -876.331          52.950    95789379.467 8  23789233.180
      -899.177          53.500    94571717.202 9  23789234.640        -887.738
        56.200
 137528693.937 6                  26170852.260
     -2613.343                          41.600                   102699987.555 6
  26170864.100       -1951.604          41.050   105379106.606 7  26170860.580
     -2002.604          42.000   104039544.731 7  26170862.660       -1977.065
        44.550
 146708816.221 7                  27917760.240
      2656.671                          43.700                   109555307.789 7
  27917766.980        1983.793          42.700   112413264.834 7  27917764.460
      2035.578          43.150   110984285.964 7  27917766.700        2009.669
        45.950
 125723672.184 8                  23924419.820
      1325.124                          52.350                    93884573.521 8
  23924422.940         989.551          52.900    96333724.515 8  23924419.760
      1015.322          53.550    95109148.670 9  23924421.180        1002.435
        56.150
 145314018.821 7                  27652353.860
     -2472.509                          43.400                   108513705.154 6
  27652362.940       -1846.433          41.350   111344484.465 7  27652360.460
     -1894.636          42.400   109929094.467 7  27652361.560       -1870.560
        44.750
 143652008.532 7                  27336071.440
     -2534.473                          44.550                   107272616.971 7
  27336078.660       -1892.604          44.200   110071021.069 7  27336075.780
     -1941.923          44.750   108671811.174 7  27336078.020       -1917.235
        47.550
 126891463.039 8                  24146633.800
      -112.494                          50.800                    94756666.747 8
  24146639.760         -84.011          52.450    97228556.293 8  24146636.740
       -86.163          52.950    95992609.171 9  24146638.400         -85.079
        55.700
 144192237.942 7                  27438878.100
      -377.464                          42.850                   107676026.331 7
  27438884.820        -282.036          43.200   110484951.671 7  27438882.180
      -289.400          44.600   109080487.655 7  27438883.080        -285.715
        46.800
 23 12 19 10 29  0.0000000  0 22G05G07G08G13G14G15G17G18G20G22G23G24
                                G30E02E03E05E07E08E13E24E25E26
 113340055.851 8  88316917.14948  21567902.380                    21567902.180
     -2467.905       -1923.045          49.550          49.650



 130680305.579 7 101828778.12447  24867653.300                    24867656.100
     -2994.539       -2333.413          42.700          42.550



 131980770.262 6 102842191.61446  25115102.000                    25115106.640
     -1138.893        -887.451          36.950          36.900    98557102.990 7
  25115108.140        -850.148          43.500


 104595323.585 8  81502846.61548  19903827.460                    19903825.400
        41.901          32.649          49.000          49.100



 111282784.007 8  86713880.20048  21176399.040                    21176399.000
       -85.392         -66.539          49.250          48.900    83100835.041 9
  21176404.640         -63.832          54.750


 110192087.985 8  85863941.97048  20968860.140                    20968859.000
      2289.352        1783.911          50.100          48.600



 132590418.336 6 103317223.76346  25231116.500                    25231122.020
      2813.667        2192.479          37.750          36.650



 128723180.620 7 100303749.28246  24495217.640                    24495218.040
     -1307.250       -1018.638          42.800          36.750    96124442.477 7
  24495225.380        -976.209          44.800


 124650801.134 6  97130462.20046  23720275.600                    23720277.520
     -3744.797       -2918.032          41.300          38.050



 111592440.843 8  86955171.07547  21235321.180                    21235319.540
      1054.406         821.616          51.850          47.300



 128028223.110 7  99762250.08346  24362968.500                    24362969.460
      3232.371        2518.730          42.950          39.250    95605501.940 7
  24362974.600        2413.609          45.700


 123179464.994 7  95984020.15147  23440269.960                    23440274.360
      3411.990        2658.698          42.650          42.400    91984695.771 7
  23440274.460        2547.751          47.250


 117325448.935 8  91422419.91248  22326294.440                    22326295.500
     -2541.805       -1980.629          49.000          48.750    87613148.976 8
  22326296.680       -1898.087          51.100


 131016810.167 8                  24931657.420
      2513.982                          50.000                    97837294.326 8
  24931662.240        1877.320          50.350   100389548.305 8  24931660.460
      1926.313          51.400    99113403.468 8  24931661.260        1901.816
        53.750
 125048569.900 8                  23795952.500
     -1181.437                          52.250                    93380439.215 8
  23795956.600        -882.264          53.250    95816442.078 8  23795954.120
      -905.229          53.700    94598435.799 9  23795955.660        -893.744
        56.400
 137607130.791 6                  26185778.360
     -2615.933                          41.100                   102758560.426 6
  26185789.860       -1953.571          41.300   105439207.471 6  26185786.940
     -2004.468          41.950   104098881.604 7  26185788.860       -1979.061
        44.600
 146629108.181 7                  27902592.260
      2656.881                          42.200                   109495785.650 7
  27902598.780        1984.014          43.200   112352189.942 7  27902596.140
      2035.871          42.950   110923987.443 7  27902598.720        2010.035
        46.150
 125684010.166 8                  23916872.400
      1318.611                          52.250                    93854955.779 8
  23916875.380         984.699          52.950    96303334.140 8  23916872.500
      1010.359          53.900    95079144.611 9  23916873.760         997.527
        56.300
 145388292.696 7                  27666487.740
     -2479.324                          43.950                   108569169.243 6
  27666496.940       -1851.401          40.850   111401395.461 7  27666494.200
     -1899.607          42.900   109985282.004 7  27666495.640       -1875.572
        44.700
 143728141.731 7                  27350559.500
     -2541.356                          44.250                   107329469.496 7
  27350566.260       -1897.775          44.100   110129356.732 7  27350563.760
     -1947.344          44.800   108729405.268 7  27350565.880       -1922.584
        47.400
 126895042.867 8                  24147315.020
      -126.672                          50.550                    94759340.006 8
  24147321.060         -94.587          52.750    97231299.290 8  24147317.740
       -97.025          53.100    95995317.297 9  24147319.620         -95.784
        55.800
 144203778.252 7                  27441074.440
      -392.272                          42.850                   107684644.017 7
  27441080.140        -292.853          42.800   110493794.182 7  27441078.160
      -300.466          44.350   109089217.755 7  27441079.220        -296.657
        46.600
