     2.11           OBSERVATION DATA    M (MIXED)           RINEX VERSION / TYPE
teqc  2019Feb25                         20231230 15:38:19UTCPGM / RUN BY / DATE
Linux 2.6.32-573.12.1.x86_64|x86_64|gcc|Linux 64|=+         COMMENT
teqc  2019Feb25                         20231230 15:38:19UTCCOMMENT
teqc  2019Feb25     IGN-RGP             20231230 10:02:19UTCCOMMENT
teqc  2019Feb25     Administrateur RGP  20231230 10:02:18UTCCOMMENT
teqc  2019Feb25     IGN-RGP             20231230 10:02:16UTCCOMMENT
teqc  2019Feb25     IGN-RGP             20231230 10:02:14UTCCOMMENT
BIT 2 OF LLI FLAGS DATA COLLECTED UNDER A/S CONDITION       COMMENT
IGNF                                                        MARKER NAME
10001M009                                                   MARKER NUMBER
Automatic           IGN                                     OBSERVER / AGENCY
1834194             LEICA GR50          4.51                REC # / TYPE / VERS
5000113963          TRM57971.00     NONE                    ANT # / TYPE
  4201694.1440   177888.8370  4779371.7670                  APPROX POSITION XYZ
        0.0000        0.0000        0.0000                  ANTENNA: DELTA H/E/N
     1     1                                                WAVELENGTH FACT L1/2
    21    L1    L2    C1    P1    P2    D1    D2    S1    S2# / TYPES OF OBSERV
          L5    C5    D5    S5    L7    C7    D7    S7    L8# / TYPES OF OBSERV
          C8    D8    S8                                    # / TYPES OF OBSERV
    30.0000                                                 INTERVAL
DefaultJobName                                              COMMENT
DefaultUserDiscription                                      COMMENT
Project creator:                                            COMMENT
 SNR is mapped to RINEX snr flag value [0-9]                COMMENT
  L1 & L2: min(max(int(snr_dBHz/6), 0), 9)                  COMMENT
    18                                                      LEAP SECONDS
Forced Modulo Decimation to 30 seconds                      COMMENT
teqc_2019 edited: all GLONASS satellites excluded           COMMENT
teqc_2019 edited: all SBAS satellites excluded              COMMENT
  2023    12    30     9     0    0.0000000     GPS         TIME OF FIRST OBS
                                                            END OF HEADER
 23 12 30  9  0  0.0000000  0 20G05G07G08G13G14G15G18G20G22G24G30E04
                                E05E09E15E21E24E31E34E36
 108880183.066 8  84841695.58248  20719212.660                    20719210.340
      -791.787        -616.979          50.400          50.300



 123029908.939 7  95867452.93047  23411819.160                    23411818.840
     -2760.642       -2151.153          46.800          46.900



 131155730.508 6 102199300.74646  24958102.460                    24958107.900
       468.615         365.155          39.550          39.850    97941009.390 7
  24958107.700         349.737          42.700


 106253264.957 8  82794770.55248  20219320.480                    20219318.140
      1194.192         930.538          50.150          49.200



 113308019.662 8  88291968.84247  21561790.360                    21561790.040
      1592.626        1241.006          49.200          47.200    84613167.988 8
  21561794.480        1189.257          51.900


 117239116.834 7  91355145.18747  22309861.380                    22309859.660
      3126.364        2436.129          47.900          44.750



 127355107.916 7  99237717.25046  24234878.800                    24234877.740
       310.997         242.333          43.800          40.550    95102848.476 7
  24234881.620         232.079          44.900


 115506119.532 7  90004767.77347  21980088.500                    21980087.060
     -3057.088       -2382.148          47.950          43.500



 116454675.295 8  90743916.55347  22160576.420                    22160574.880
      2519.738        1963.434          48.600          42.500



 132561760.962 5 103294881.93546  25225664.000                    25225668.060
      3769.646        2937.382          35.750          36.400    98990940.194 7
  25225670.400        2814.774          43.800


 111543912.043 8  86917328.25948  21226100.280                    21226101.020
     -1728.766       -1347.092          50.900          50.950    83295775.458 9
  21226101.260       -1290.994          54.400


 130445183.289 8                  24822894.920
     -1773.324                          51.700                    97410371.540 8
  24822896.460       -1324.209          51.100    99951501.150 8  24822894.960
     -1358.748          52.150    98680934.495 9  24822896.180       -1341.482
        54.350
 131391114.535 7                  25002898.180
      2380.259                          44.800                    98116749.016 7
  25002903.460        1777.468          47.550   100676314.065 7  25002900.860
      1823.817          47.550    99396528.692 8  25002902.940        1800.656
        50.350
 123092572.362 8                  23423732.800
       500.649                          52.950                    91919808.848 9
  23423735.860         373.874          54.150    94317705.155 9  23423732.880
       383.634          55.400    93118747.156 9  23423734.780         378.750
        57.500
 149669574.809 6                  28481174.720
      1689.913                          39.850                   111766253.435 6
  28481178.800        1262.040          41.150   114681887.402 7  28481176.680
      1295.054          43.350   113224066.068 7  28481178.460        1278.499
        44.900
 149295846.957 6                  28410064.460
     -2644.669                          39.800                   111487162.148 6
  28410072.300       -1974.944          39.150   114395512.813 6  28410069.420
     -2026.558          39.400   112941332.135 7  28410071.000       -2000.744
        42.150
 147729421.915 7                  28111971.520
      3280.759                          42.300                   110317456.327 7
  28111978.560        2449.934          42.350   113195291.824 7  28111974.600
      2513.713          42.300   111756384.229 7  28111976.620        2481.811
        45.100
 130581472.361 8                  24848820.140
      2198.995                          49.750                    97512180.113 8
  24848824.780        1642.039          50.200   100055973.017 8  24848821.680
      1684.963          50.500    98784076.220 8  24848824.540        1663.491
        53.150
 140545671.357 7                  26744957.720
      -656.395                          46.150                   104952937.951 7
  26744962.180        -490.123          45.750   107690831.971 7  26744960.200
      -502.863          46.800   106321883.611 8  26744961.580        -496.479
        49.050
 142840651.990 7                  27181683.880
     -2700.551                          44.500                   106666721.833 7
  27181689.580       -2016.625          45.650   109449321.905 7  27181686.700
     -2069.219          44.750   108058020.527 8  27181687.940       -2042.944
        48.000
 23 12 30  9  0 30.0000000  0 20G05G07G08G13G14G15G18G20G22G24G30E04
                                E05E09E15E21E24E31E34E36
 108904253.149 8  84860451.46148  20723793.000                    20723790.680
      -812.686        -633.263          50.600          50.750



 123112801.014 7  95932044.01247  23427593.180                    23427592.800
     -2765.310       -2154.793          46.550          46.800



 131141953.237 6 102188565.26346  24955480.780                    24955486.020
       450.047         350.688          38.900          38.550    97930721.231 7
  24955485.940         336.118          42.800


 106217626.061 8  82766999.95548  20212538.660                    20212536.160
      1181.938         920.989          50.300          49.000



 113260507.281 8  88254946.19947  21552749.060                    21552748.740
      1574.916        1227.207          49.100          47.400    84577687.942 8
  21552753.100        1176.108          51.500


 117145434.938 7  91282146.30947  22292034.160                    22292032.380
      3119.088        2430.459          47.150          45.250



 127346077.240 7  99230680.32146  24233160.580                    24233159.880
       291.031         226.777          42.850          41.600    95096104.718 7
  24233163.020         217.476          44.600


 115598013.594 7  90076373.46147  21997575.360                    21997573.800
     -3069.008       -2391.438          47.800          43.500



 116379290.219 8  90685174.93447  22146231.120                    22146229.540
      2506.034        1952.753          48.700          42.800



 132448715.663 6 103206794.73545  25204152.520                    25204155.980
      3767.425        2935.658          36.200          35.800    98906523.293 6
  25204158.860        2813.010          40.600


 111595950.452 8  86957877.62448  21236003.040                    21236003.740
     -1740.286       -1356.069          51.450          51.350    83334635.256 9
  21236003.720       -1299.588          54.000


 130498470.889 8                  24833035.220
     -1779.225                          51.100                    97450164.136 8
  24833037.060       -1328.618          51.400    99992331.823 8  24833035.060
     -1363.247          51.850    98721246.129 9  24833036.500       -1345.911
        54.700
 131319738.013 7                  24989315.420
      2378.229                          44.650                    98063448.402 7
  24989321.280        1775.875          47.600   100621622.988 7  24989318.380
      1822.229          47.200    99342532.848 8  24989320.400        1799.041
        50.600
 123077664.962 8                  23420896.240
       493.225                          53.000                    91908676.681 8
  23420898.920         368.300          53.800    94306282.592 9  23420896.180
       377.934          55.450    93107469.788 9  23420898.040         373.112
        57.750
 149619060.638 6                  28471562.400
      1677.590                          39.650                   111728531.746 6
  28471566.440        1252.738          41.500   114643181.666 6  28471564.260
      1285.397          40.700   113185852.360 7  28471566.040        1269.109
        44.250
 149375290.287 6                  28425181.980
     -2651.379                          39.000                   111546486.660 6
  28425189.820       -1979.833          39.550   114456384.947 6  28425186.980
     -2031.554          40.100   113001430.458 7  28425188.760       -2005.746
        43.000
 147630999.288 6                  28093242.100
      3280.824                          40.950                   110243959.047 6
  28093249.040        2450.074          41.900   113119877.159 6  28093244.620
      2514.001          40.200   111681928.260 7  28093247.300        2482.059
        44.400
 130515665.357 8                  24836297.340
      2188.209                          50.200                    97463038.503 8
  24836302.160        1634.048          49.950   100005549.461 8  24836299.100
      1676.624          50.450    98734293.631 8  24836301.840        1655.389
        53.300
 140565587.774 7                  26748747.640
      -671.442                          46.200                   104967810.547 7
  26748752.140        -501.419          45.550   107706092.553 7  26748749.600
      -514.387          46.700   106336950.207 8  26748751.600        -507.931
        49.150
 142921757.597 7                  27197117.920
     -2706.465                          44.850                   106727287.583 7
  27197124.040       -2021.074          44.950   109511467.660 7  27197120.740
     -2073.862          44.550   108119376.280 7  27197121.980       -2047.535
        47.900
 23 12 30  9  1  0.0000000  0 20G05G07G08G13G14G15G18G20G22G24G30E04
                                E05E09E15E21E24E31E34E36
 108928936.255 8  84879685.00748  20728490.080                    20728487.760
      -833.297        -649.323          51.100          50.800



 123195822.421 7  95996735.89747  23443391.680                    23443391.160
     -2769.814       -2158.302          45.700          45.250



 131128720.703 6 102178254.25546  24952962.800                    24952967.720
       431.664         336.363          39.650          40.000    97920839.864 7
  24952968.100         322.281          42.900


 106182348.834 8  82739511.17848  20205825.720                    20205822.820
      1169.487         911.289          50.850          48.350



 113213517.660 8  88218330.89647  21543807.220                    21543806.820
      1557.212        1213.412          49.100          47.600    84542598.267 8
  21543811.220        1162.804          52.050


 117051963.736 7  91209311.60847  22274247.000                    22274245.220
      3111.935        2424.884          46.700          45.650



 127337630.378 6  99224098.29346  24231553.180                    24231553.100
       271.540         211.587          41.550          41.150    95089796.957 7
  24231555.640         202.618          45.050


 115690256.648 7  90148251.10447  22015128.600                    22015127.020
     -3080.726       -2400.566          47.850          43.600



 116304308.265 8  90626747.43547  22131962.480                    22131960.900
      2492.241        1942.007          48.700          42.900



 132335738.426 6 103118760.60145  25182653.720                    25182657.360
      3764.719        2933.549          37.400          35.400    98822157.180 7
  25182659.560        2811.010          43.900


 111648328.508 8  86998691.64448  21245970.480                    21245971.120
     -1751.894       -1365.113          51.550          51.600    83373748.680 9
  21245970.940       -1308.306          54.400


 130551930.916 8                  24843208.220
     -1785.155                          51.100                    97490085.489 8
  24843210.680       -1333.129          52.250   100033294.619 8  24843207.960
     -1367.859          51.700    98761688.207 9  24843209.700       -1350.529
        54.550
 131248414.024 7                  24975742.760
      2376.265                          44.750                    98010187.010 7
  24975749.020        1774.419          47.950   100566972.156 7  24975745.820
      1820.695          46.950    99288576.739 8  24975747.780        1797.531
        50.100
 123062974.838 8                  23418100.920
       485.647                          52.900                    91897706.764 9
  23418103.360         362.637          54.350    94295026.509 9  23418100.840
       372.099          55.550    93096356.792 9  23418102.660         367.385
        57.450
 149568912.702 6                  28462019.940
      1664.999                          40.300                   111691083.470 6
  28462023.540        1243.413          40.700   114604756.510 7  28462021.600
      1275.851          42.400   113147915.645 7  28462023.080        1259.560
        44.050
 149454927.780 6                  28440336.260
     -2657.890                          37.650                   111605956.134 6
  28440344.140       -1984.955          38.400   114517405.756 6  28440342.200
     -2036.965          40.800   113061675.599 7  28440343.340       -2010.893
        42.000
 147532568.790 6                  28074511.260
      3280.834                          41.500                   110170455.832 7
  28074518.280        2449.878          42.050   113044456.489 6  28074513.680
      2513.688          40.850   111607466.311 7  28074516.340        2481.861
        44.100
 130450175.494 8                  24823834.900
      2177.241                          49.850                    97414133.740 8
  24823840.040        1625.879          50.400    99955368.915 8  24823836.900
      1668.274          50.850    98684750.979 8  24823839.460        1647.090
        53.200
 140585947.820 7                  26752622.060
      -686.410                          46.350                   104983014.419 7
  26752626.480        -512.644          46.000   107721693.062 7  26752623.620
      -525.971          46.650   106352352.394 8  26752626.060        -519.304
        48.850
 143003036.151 7                  27212584.840
     -2712.576                          44.400                   106787982.481 7
  27212591.260       -2025.646          45.800   109573745.907 7  27212587.700
     -2078.488          44.850   108180862.851 7  27212588.880       -2052.092
        47.950
 23 12 30  9  1 30.0000000  0 20G05G07G08G13G14G15G18G20G22G24G30E04
                                E05E09E15E21E24E31E34E36
 108954233.954 8  84899397.46348  20733304.160                    20733301.840
      -853.732        -665.248          51.000          51.050



 123278974.361 7  96061529.45347  23459215.000                    23459214.560
     -2774.113       -2161.649          46.400          46.000



 131116036.419 6 102168370.46146  24950549.100                    24950553.700
       413.535         322.233          39.900          39.800    97911367.889 7
  24950554.680         308.771          43.700


 106147436.990 8  82712307.12648  20199182.220                    20199179.140
      1157.522         901.965          50.350          48.800



 113167054.854 8  88182126.10247  21534965.620                    21534965.180
      1539.735        1199.793          49.300          47.000    84507901.988 8
  21534969.620        1149.876          52.200


 116958707.771 7  91136644.63747  22256500.760                    22256498.900
      3104.869        2419.381          46.300          44.300



 127329769.756 6  99217973.09146  24230057.000                    24230057.900
       252.398         196.671          40.100          39.100    95083926.973 7
  24230060.340         188.347          45.250


 115782848.318 7  90220400.37447  22032748.300                    22032746.560
     -3092.275       -2409.567          47.700          43.750



 116229734.666 8  90568638.13347  22117771.520                    22117770.120
      2478.747        1931.491          48.000          43.150



 132222832.911 6 103030782.34846  25161168.340                    25161171.800
      3762.604        2931.900          38.800          37.100    98737844.703 7
  25161174.360        2809.333          44.650


 111701047.084 8  87039771.01748  21256002.680                    21256003.340
     -1763.063       -1373.817          51.150          51.200    83413116.403 9
  21256003.020       -1316.620          54.650


 130605565.635 8                  24853414.600
     -1790.917                          51.050                    97530137.288 8
  24853417.560       -1337.374          52.550   100074391.268 8  24853414.140
     -1372.229          51.300    98802262.430 9  24853416.220       -1354.782
        54.950
 131177145.540 7                  24962180.800
      2374.532                          44.850                    97956967.061 7
  24962187.240        1773.225          47.850   100512363.840 7  24962183.820
      1819.377          46.500    99234662.598 8  24962185.640        1796.367
        50.350
 123048504.878 8                  23415347.480
       478.483                          52.850                    91886901.246 9
  23415349.780         357.305          54.500    94283939.118 9  23415347.360
       366.621          55.300    93085410.336 9  23415349.180         361.969
        57.900
 149519134.830 6                  28452547.800
      1652.747                          39.650                   111653911.506 6
  28452551.220        1234.398          41.550   114566614.864 6  28452549.500
      1266.584          41.500   113110258.839 7  28452550.960        1250.522
        44.550
 149534760.029 6                  28455527.720
     -2664.272                          39.900                   111665571.047 6
  28455535.640       -1989.655          41.150   114578575.881 6  28455533.620
     -2041.630          39.750   113122068.114 7  28455534.820       -2015.666
        43.550
 147434134.451 7                  28055779.800
      3280.895                          43.500                   110096949.695 6
  28055786.700        2450.194          41.950   112969032.788 6  28055781.740
      2513.916          40.950   111533001.396 7  28055784.760        2482.084
        44.600
 130385006.683 8                  24811433.620
      2166.731                          49.700                    97365468.700 8
  24811439.000        1618.011          50.650    99905434.351 8  24811435.940
      1660.227          50.750    98635451.178 8  24811438.240        1639.141
        53.700
 140606753.162 7                  26756581.200
      -701.164                          45.600                   104998550.809 7
  26756585.620        -523.562          46.050   107737634.767 7  26756582.740
      -537.287          46.600   106368091.443 8  26756585.260        -530.404
        49.300
 143084487.905 7                  27228084.500
     -2718.267                          44.200                   106848806.694 7
  27228091.640       -2029.758          46.150   109636156.857 7  27228087.700
     -2082.756          44.300   108242480.433 8  27228088.720       -2056.285
        48.400
 23 12 30  9  2  0.0000000  0 20G05G07G08G13G14G15G18G20G22G24G30E04
                                E05E09E15E21E24E31E34E36
 108980145.751 8  84919588.43948  20738235.120                    20738232.860
      -873.771        -680.861          51.350          51.100



 123362256.337 7  96126424.36347  23475063.240                    23475062.520
     -2777.854       -2164.563          46.400          46.350



 131103902.553 6 102158915.54746  24948240.140                    24948244.280
       395.562         308.229          39.700          39.050    97902306.959 7
  24948245.540         295.232          44.000


 106112891.906 8  82685388.86248  20192608.520                    20192605.480
      1145.574         892.655          50.650          49.100



 113121121.262 8  88146333.68047  21526224.780                    21526224.280
      1522.496        1186.359          49.650          46.800    84473600.911 8
  21526228.840        1136.955          52.100


 116865669.357 7  91064147.15947  22238796.160                    22238793.880
      3097.687        2413.780          47.500          44.050



 127322496.073 6  99212305.24246  24228672.500                    24228674.060
       232.873         181.456          40.600          39.900    95078495.273 7
  24228676.800         173.944          45.300


 115875786.781 7  90292819.89047  22050433.980                    22050431.940
     -3103.493       -2418.310          47.650          43.000



 116155572.676 8  90510849.56547  22103658.860                    22103657.580
      2465.356        1921.058          48.150          43.800



 132110001.096 6 102942861.64145  25139697.060                    25139700.600
      3759.949        2929.845          37.550          35.950    98653587.371 7
  25139703.400        2807.805          44.200


 111754105.332 8  87081115.06248  21266099.560                    21266100.040
     -1774.070       -1382.394          51.300          51.300    83452737.761 9
  21266099.920       -1324.759          54.400


 130659375.587 8                  24863654.340
     -1796.326                          50.550                    97570319.945 8
  24863657.600       -1341.423          52.050   100115622.188 8  24863653.660
     -1376.393          51.450    98842969.220 9  24863656.140       -1358.900
        54.750
 131105933.742 7                  24948629.820
      2372.930                          45.200                    97903789.439 7
  24948636.060        1772.055          47.050   100457798.958 7  24948632.600
      1818.208          46.800    99180791.345 8  24948634.240        1795.188
        49.900
 123034256.303 8                  23412636.140
       471.464                          53.200                    91876261.054 9
  23412638.400         352.050          54.250    94273021.360 9  23412635.960
       361.255          55.550    93074631.359 9  23412637.840         356.651
        57.750
 149469729.102 6                  28443146.300
      1640.895                          38.350                   111617017.544 6
  28443150.100        1225.276          41.900   114528758.447 7  28443148.240
      1257.194          42.950   113072883.653 7  28443149.500        1241.201
        45.300
 149614786.014 6                  28470756.120
     -2670.448                          37.150                   111725330.599 6
  28470764.060       -1994.026          37.750   114639894.390 6  28470762.220
     -2046.341          40.200   113182607.146 6  28470763.460       -2020.333
        41.900
 147335698.540 7                  28037048.080
      3281.630                          42.300                   110023442.366 7
  28037055.240        2450.405          42.950   112893607.859 6  28037049.740
      2514.216          41.500   111458535.271 7  28037052.980        2482.203
        45.050
 130320161.003 8                  24799093.780
      2156.268                          50.000                    97317044.985 8
  24799099.440        1610.229          50.300    99855747.411 8  24799096.400
      1652.225          51.050    98586395.853 8  24799098.500        1631.220
        53.600
 140628003.701 7                  26760625.080
      -715.586                          45.500                   105014419.674 7
  26760629.660        -534.409          46.000   107753917.601 7  26760626.760
      -548.216          46.950   106384167.286 8  26760629.220        -541.227
        49.350
 143166111.368 7                  27243616.760
     -2723.436                          43.750                   106909759.164 7
  27243624.300       -2033.751          45.800   109698699.405 7  27243620.080
     -2086.737          44.800   108304227.939 8  27243621.320       -2060.253
        48.200
 23 12 30  9  2 30.0000000  0 20G05G07G08G13G14G15G18G20G22G24G30E04
                                E05E09E15E21E24E31E34E36
 109006665.476 8  84940253.11548  20743281.700                    20743279.440
      -894.155        -696.745          51.000          50.850



 123445661.065 7  96191414.90347  23490934.900                    23490933.920
     -2782.341       -2168.064          47.400          47.300



 131092313.781 6 102149885.33746  24946034.900                    24946039.160
       377.223         293.940          40.100          39.950    97893653.043 7
  24946040.420         281.610          43.500


 106078708.415 8  82658752.34948  20186103.700                    20186100.700
      1133.274         883.070          50.650          49.250



 113075712.642 8  88110950.32747  21517583.820                    21517583.340
      1504.719        1172.507          49.600          47.500    84439691.867 8
  21517587.940        1123.684          52.400


 116772844.361 8  90991815.97047  22221132.400                    22221129.640
      3090.518        2408.195          48.750          43.650



 127315803.380 6  99207090.09646  24227398.780                    24227400.280
       213.305         166.211          41.700          40.550    95073497.425 7
  24227403.840         159.238          45.700


 115969063.616 7  90365503.05447  22068184.040                    22068181.940
     -3114.996       -2427.272          47.700          42.900



 116081818.679 8  90453378.92047  22089623.900                    22089622.700
      2451.608        1910.344          48.600          43.650



 131997238.345 6 102854994.61846  25118238.880                    25118242.120
      3757.188        2927.681          38.300          37.700    98569381.507 7
  25118245.320        2805.844          43.900


 111807495.815 8  87122717.98048  21276259.580                    21276259.940
     -1785.278       -1391.128          51.300          51.350    83492607.219 9
  21276260.040       -1333.225          54.250


 130713354.823 8                  24873926.180
     -1802.204                          50.550                    97610629.016 8
  24873929.600       -1345.825          51.900   100156982.817 8  24873925.600
     -1380.935          51.400    98883804.072 9  24873928.240       -1363.394
        54.600
 131034773.331 7                  24935088.820
      2370.994                          46.300                    97850650.183 7
  24935094.360        1770.543          46.350   100403273.450 7  24935091.360
      1816.754          47.200    99126958.966 8  24935092.700        1793.687
        49.650
 123020223.727 8                  23409965.920
       464.014                          53.400                    91865782.154 9
  23409968.040         346.475          54.300    94262269.104 9  23409965.720
       355.509          55.250    93064015.784 9  23409967.600         350.998
        57.650
 149420690.935 6                  28433814.600
      1628.572                          38.650                   111580398.035 7
  28433818.920        1215.880          42.200   114491183.682 7  28433817.100
      1247.666          43.850   113035786.508 7  28433817.960        1231.771
        45.850
 149694998.047 6                  28486020.260
     -2676.687                          39.300                   111785229.164 6
  28486027.860       -1998.964          40.900   114701355.543 6  28486026.340
     -2051.155          41.000   113243286.999 7  28486027.280       -2024.997
        43.950
 147237256.822 6                  28018315.240
      3281.438                          41.700                   109949930.679 7
  28018322.640        2450.169          42.450   112818178.499 7  28018317.380
      2514.244          42.400   111384064.741 7  28018320.140        2482.227
        45.300
 130255634.065 8                  24786814.720
      2145.440                          49.550                    97268859.288 8
  24786820.600        1602.146          50.650    99806304.703 8  24786817.660
      1643.946          51.200    98537581.649 8  24786819.460        1623.040
        53.750
 140649692.832 7                  26764752.400
      -730.256                          45.250                   105030616.045 7
  26764757.220        -545.380          45.950   107770536.500 7  26764754.400
      -559.629          46.800   106400574.927 8  26764756.600        -552.461
        49.250
 143247898.536 7                  27259180.120
     -2729.170                          44.000                   106970833.862 7
  27259188.160       -2038.032          46.400   109761367.356 7  27259183.720
     -2091.022          44.400   108366099.263 8  27259184.940       -2064.580
        48.350
 23 12 30  9  3  0.0000000  0 20G05G07G08G13G14G15G18G20G22G24G30E04
                                E05E09E15E21E24E31E34E36
 109033797.038 8  84961394.54448  20748444.580                    20748442.380
      -914.788        -712.823          50.700          50.700



 123529191.398 7  96256503.35447  23506830.460                    23506829.320
     -2786.793       -2171.533          46.250          46.500



 131081274.654 6 102141283.48246  24943934.140                    24943938.660
       358.778         279.568          39.400          39.500    97885409.606 7
  24943939.440         267.720          43.900


 106044891.552 8  82632401.52848  20179668.620                    20179665.760
      1120.814         873.361          50.800          48.950



 113030834.910 8  88075980.64747  21509043.840                    21509043.440
      1486.748        1158.505          49.000          47.600    84406179.255 8
  21509048.080        1110.241          52.250


 116680238.830 8  90919655.79447  22203510.360                    22203507.320
      3082.892        2402.253          48.900          43.800



 127309695.820 7  99202330.90146  24226236.760                    24226237.820
       193.340         150.650          42.700          39.550    95068936.510 7
  24226241.940         144.465          45.300


 116062680.370 8  90438451.10047  22085998.820                    22085996.560
     -3126.511       -2436.245          48.050          42.950



 116008479.538 8  90396231.55047  22075667.900                    22075666.820
      2437.272        1899.175          48.450          44.650



 131884550.242 6 102767185.86645  25096794.700                    25096798.020
      3754.920        2925.918          38.400          34.850    98485231.485 7
  25096801.340        2803.921          43.100


 111861221.269 8  87164581.90548  21286483.180                    21286483.600
     -1796.708       -1400.034          51.350          51.350    83532726.805 8
  21286483.640       -1341.730          53.800


 130767507.464 8                  24884231.040
     -1808.260                          50.650                    97651067.575 8
  24884234.360       -1350.243          51.450   100198476.304 8  24884230.780
     -1385.524          51.650    98924770.094 9  24884233.260       -1367.893
        54.600
 130963669.073 7                  24921558.520
      2368.809                          46.650                    97797552.837 7
  24921563.300        1769.026          45.550   100348790.962 7  24921560.840
      1815.080          47.750    99073169.049 8  24921561.960        1792.063
        49.650
 123006411.904 8                  23407337.740
       456.398                          53.550                    91855468.105 9
  23407339.640         340.806          54.050    94251685.993 9  23407337.520
       349.698          55.150    93053567.204 9  23407339.320         345.246
        57.650
 149372026.051 6                  28424553.860
      1615.649                          40.000                   111544057.247 7
  28424558.880        1206.486          42.950   114453894.892 7  28424556.780
      1237.979          43.650   112998971.723 7  28424557.520        1222.231
        46.200
 149775398.753 6                  28501319.940
     -2683.599                          38.750                   111845268.503 6
  28501327.720       -2004.006          39.050   114762961.131 6  28501326.220
     -2056.169          41.000   113304109.467 7  28501327.260       -2030.060
        43.000
 147138815.163 6                  27999582.380
      3281.348                          41.800                   109876418.995 7
  27999589.820        2450.188          43.750   112742749.107 6  27999584.340
      2514.193          40.650   111309594.209 7  27999587.560        2482.188
        45.400
 130191431.497 8                  24774597.380
      2134.395                          50.300                    97220915.820 8
  24774603.420        1593.829          50.300    99757110.545 8  24774600.540
      1635.354          51.200    98489012.831 8  24774602.160        1614.616
        53.750
 140671823.981 7                  26768963.800
      -745.419                          45.450                   105047142.483 7
  26768968.960        -556.622          45.350   107787494.079 7  26768966.180
      -571.164          46.950   106417316.935 8  26768968.100        -563.905
        49.150
 143329851.458 7                  27274774.960
     -2734.766                          43.600                   107032032.317 7
  27274783.540       -2042.091          45.850   109824162.335 7  27274778.940
     -2095.480          43.950   108428095.985 8  27274780.180       -2068.873
        48.050
 23 12 30  9  3 30.0000000  0 20G05G07G08G13G14G15G18G20G22G24G30E04
                                E05E09E15E21E24E31E34E36
 109061540.966 8  84983013.16148  20753723.980                    20753721.760
      -934.887        -728.483          49.850          49.750



 123612847.819 7  96321690.07047  23522750.020                    23522748.420
     -2790.595       -2174.492          46.150          46.250



 131070788.961 6 102133112.85946  24941938.800                    24941943.140
       340.475         265.309          39.950          39.600    97877579.412 7
  24941943.300         254.182          42.850


 106011444.355 8  82606338.76148  20173303.900                    20173301.160
      1109.021         864.171          50.250          49.550



 112986491.586 8  88041427.38547  21500605.520                    21500605.300
      1469.211        1144.839          48.300          47.700    84373065.709 8
  21500609.960        1097.225          52.550


 116587856.862 8  90847669.82347  22185930.800                    22185927.840
      3075.756        2396.691          48.050          44.550



 127304175.148 7  99198029.04346  24225186.560                    24225186.860
       174.306         135.822          42.300          41.850    95064813.883 7
  24225191.520         130.204          45.700


 116156636.705 7  90511663.75147  22103878.180                    22103875.960
     -3137.396       -2444.727          47.750          43.600



 115935559.357 8  90339410.63847  22061791.700                    22061790.500
      2423.827        1888.696          48.050          44.050



 131771940.030 5 102679437.81045  25075365.120                    25075369.120
      3752.574        2924.087          34.700          33.850    98401139.645 7
  25075372.200        2802.148          43.750


 111915282.076 8  87206707.15148  21296770.560                    21296771.040
     -1807.490       -1408.437          51.000          51.050    83573096.820 8
  21296771.080       -1349.733          53.950


 130821835.305 8                  24894569.240
     -1813.760                          50.400                    97691636.973 8
  24894572.600       -1354.387          51.800   100240104.036 8  24894569.500
     -1389.741          52.150    98965868.658 9  24894571.480       -1372.072
        54.600
 130892623.447 7                  24908039.340
      2367.379                          46.800                    97744499.293 7
  24908043.140        1767.820          45.400   100294353.421 8  24908041.480
      1813.998          48.650    99019423.508 8  24908042.580        1790.915
        49.600
 122992823.273 8                  23404752.060
       449.391                          52.900                    91845320.723 9
  23404753.820         335.544          54.350    94241273.894 9  23404751.780
       344.313          55.450    93043287.461 9  23404753.480         339.932
        57.600
 149323737.679 6                  28415364.880
      1603.690                          37.600                   111507997.629 7
  28415370.440        1197.497          42.850   114416894.609 7  28415368.160
      1228.604          43.300   112962441.772 7  28415368.680        1213.021
        45.650
 149855988.179 6                  28516655.880
     -2689.218                          40.050                   111905448.913 6
  28516663.220       -2008.507          39.800   114824711.425 6  28516661.840
     -2060.438          39.650   113365074.813 7  28516662.800       -2034.486
        42.450
 147040377.208 6                  27980850.260
      3281.143                          41.550                   109802910.022 7
  27980858.000        2450.285          43.050   112667322.518 6  27980852.320
      2514.319          40.750   111235126.426 7  27980855.360        2482.203
        44.550
 130127556.686 8                  24762442.520
      2123.824                          50.050                    97173217.109 8
  24762448.620        1585.965          50.850    99708167.520 8  24762445.820
      1627.335          51.750    98440691.963 8  24762447.240        1606.658
        53.850
 140694398.262 7                  26773259.520
      -759.713                          45.250                   105063999.848 7
  26773264.860        -567.353          44.900   107804791.207 7  26773262.220
      -582.192          47.300   106434394.179 8  26773263.900        -574.773
        48.750
 143411969.979 7                  27290401.420
     -2740.004                          43.450                   107093354.456 7
  27290410.220       -2045.981          46.150   109887084.192 7  27290405.360
     -2099.356          44.550   108490217.976 8  27290406.980       -2072.682
        48.000
 23 12 30  9  4  0.0000000  0 20G05G07G08G13G14G15G18G20G22G24G30E04
                                E05E09E15E21E24E31E34E36
 109089894.442 8  85005106.73948  20759119.360                    20759117.260
      -955.871        -744.836          49.950          49.750



 123696626.566 7  96386972.06047  23538692.760                    23538691.200
     -2795.234       -2178.108          47.300          47.600



 131060854.577 6 102125371.80346  24940048.620                    24940052.200
       321.293         250.359          40.700          40.750    97870160.876 7
  24940052.080         239.970          42.100


 105978365.003 8  82580562.61548  20167009.200                    20167006.400
      1095.839         853.898          50.700          49.050



 112942681.806 8  88007289.87047  21492268.720                    21492268.700
      1450.867        1130.546          48.950          47.650    84340350.595 8
  21492273.420        1083.378          52.600


 116495697.424 8  90775857.25747  22168393.460                    22168390.900
      3067.664        2390.386          48.000          44.800



 127299238.810 7  99194182.53246  24224247.460                    24224247.060
       154.275         120.217          42.450          40.150    95061127.623 7
  24224251.900         115.179          45.550


 116250927.299 7  90585136.88047  22121821.220                    22121819.080
     -3149.187       -2453.915          47.100          44.350



 115863058.389 8  90282916.39347  22047995.260                    22047994.140
      2409.081        1877.206          48.750          43.650



 131659406.383 6 102591749.43946  25053950.220                    25053954.380
      3749.503        2921.690          37.500          36.400    98317105.012 7
  25053957.760        2799.793          44.350


 111969674.229 8  87249090.58848  21307121.100                    21307121.540
     -1819.157       -1417.527          51.700          51.650    83613714.272 8
  21307121.620       -1358.464          53.850


 130876335.720 8                  24904940.440
     -1820.200                          50.850                    97732335.244 8
  24904943.860       -1359.226          51.950   100281864.014 8  24904941.160
     -1394.702          51.950    99007097.776 9  24904942.580       -1376.967
        55.050
 130821634.568 7                  24894530.880
      2364.781                          47.550                    97691488.102 7
  24894533.880        1765.840          45.400   100239959.353 8  24894532.880
      1811.938          48.300    98965720.880 8  24894534.080        1788.883
        49.950
 122979455.900 8                  23402208.280
       441.280                          52.950                    91835338.561 9
  23402210.280         329.515          54.450    94231031.334 9  23402208.160
       338.110          55.000    93033175.102 9  23402209.740         333.802
        57.900
 149275824.794 6                  28406247.140
      1589.784                          39.250                   111472218.407 7
  28406253.160        1187.532          42.250   114380182.005 7  28406250.820
      1218.415          42.600   112926195.858 7  28406251.140        1202.984
        45.600
 149936762.192 6                  28532027.020
     -2696.163                          38.950                   111965767.055 6
  28532034.020       -2013.281          40.350   114886603.158 6  28532032.680
     -2066.062          39.700   113426179.754 7  28532033.680       -2039.506
        43.300
 146941942.075 7                  27962118.860
      3280.395                          43.550                   109729403.130 7
  27962126.520        2449.702          42.600   112591898.072 6  27962120.660
      2513.474          39.500   111160660.750 7  27962123.860        2481.711
        44.300
 130064008.585 8                  24750349.900
      2112.281                          50.750                    97125762.372 8
  24750356.060        1577.278          50.750    99659474.827 8  24750353.100
      1618.474          51.050    98392618.253 9  24750354.480        1597.875
        54.000
 140717412.409 7                  26777639.040
      -775.136                          46.400                   105081185.694 7
  26777644.280        -578.819          44.350   107822425.371 7  26777641.920
      -593.894          46.900   106451804.186 8  26777643.340        -586.329
        48.800
 143494249.454 7                  27306058.580
     -2745.902                          43.400                   107154796.809 7
  27306067.500       -2050.613          45.950   109950129.401 7  27306062.540
     -2104.167          43.950   108552461.751 8  27306064.380       -2077.340
        48.200
 23 12 30  9  4 30.0000000  0 20G05G07G08G13G14G15G18G20G22G24G30E04
                                E05E09E15E21E24E31E34E36
 109118854.955 8  85027673.33948  20764630.400                    20764628.320
      -975.717        -760.300          49.900          49.650



 123780524.818 7  96452347.18647  23554658.200                    23554656.460
     -2798.703       -2180.812          47.150          47.300



 131051470.381 6 102118059.46546  24938263.080                    24938266.300
       303.428         236.438          40.000          39.750    97863153.231 6
  24938265.660         226.483          41.800


 105945652.417 8  82555072.26948  20160784.220                    20160781.380
      1084.126         844.772          50.700          48.650



 112899405.401 8  87973567.97348  21484033.520                    21484033.600
      1433.393        1116.929          48.700          48.250    84308033.780 8
  21484038.400        1070.418          52.800


 116403760.352 7  90704217.96847  22150898.440                    22150896.240
      3060.535        2384.832          47.750          44.900



 127294884.908 7  99190789.86446  24223419.020                    24223418.300
       135.220         105.368          42.700          39.400    95057876.281 7
  24223423.040         101.038          45.450


 116345547.815 8  90658867.06047  22139827.000                    22139824.960
     -3159.650       -2462.067          48.400          42.600



 115790976.933 8  90226749.02947  22034278.660                    22034277.280
      2395.532        1866.649          48.700          43.600



 131546948.868 5 102504120.33945  25032550.240                    25032554.420
      3747.300        2919.977          35.600          35.850    98233127.159 7
  25032557.720        2798.129          42.400


 112024394.401 8  87291729.63448  21317534.040                    21317534.440
     -1829.701       -1425.743          51.250          51.050    83654576.675 8
  21317534.500       -1366.245          53.850


 130931006.867 8                  24915344.080
     -1825.358                          50.500                    97773161.011 8
  24915347.840       -1363.100          52.250   100323754.808 8  24915345.200
     -1398.640          52.250    99048456.063 9  24915346.180       -1380.897
        55.250
 130750701.198 7                  24881032.840
      2363.292                          46.900                    97638518.370 7
  24881035.300        1764.794          45.850   100185607.814 8  24881034.700
      1810.868          48.450    98912060.242 8  24881036.120        1787.845
        50.250
 122966308.506 8                  23399706.160
       434.305                          52.400                    91825520.668 9
  23399708.700         324.386          54.700    94220957.326 9  23399706.400
       332.870          55.250    93023229.152 9  23399707.880         328.599
        58.050
 149228286.873 6                  28397200.740
      1578.262                          37.750                   111436719.193 6
  28397206.840        1178.479          41.800   114343756.751 7  28397204.820
      1209.414          42.950   112890233.624 7  28397205.060        1193.932
        45.350
 150017717.267 6                  28547432.720
     -2701.812                          41.200                   112026220.447 6
  28547438.900       -2017.296          40.400   114948633.567 6  28547437.780
     -2070.167          39.300   113487421.660 7  28547438.940       -2043.782
        43.050
 146843509.661 7                  27943387.980
      3280.808                          43.000                   109655898.231 6
  27943395.760        2449.955          41.900   112516475.620 6  27943389.660
      2513.799          40.650   111086197.077 7  27943392.580        2481.887
        44.500
 130000786.801 8                  24738319.420
      2101.734                          50.950                    97078551.309 8
  24738325.500        1569.499          51.100    99611032.178 8  24738322.460
      1610.465          51.450    98344791.396 9  24738323.780        1590.002
        54.350
 140740863.822 7                  26782101.880
      -789.041                          46.650                   105098698.081 7
  26782106.840        -589.373          44.250   107840394.591 7  26782104.880
      -604.748          46.900   106469544.986 8  26782105.900        -596.994
        48.650
 143576685.941 7                  27321745.680
     -2750.552                          43.700                   107216356.383 7
  27321754.580       -2053.990          46.000   110013294.891 7  27321749.720
     -2107.684          44.350   108614824.294 8  27321751.640       -2080.878
        48.300
 23 12 30  9  5  0.0000000  0 20G05G07G08G13G14G15G18G20G22G24G30E04
                                E05E09E15E21E24E31E34E36
 109148426.921 8  85050716.39648  20770257.820                    20770255.840
      -995.417        -775.650          50.100          50.150



 123864546.169 7  96517818.25447  23570647.120                    23570645.280
     -2802.401       -2183.695          46.150          46.050



 131042642.382 6 102111180.53546  24936582.960                    24936586.540
       285.320         222.327          40.050          40.350    97856560.908 6
  24936585.080         213.147          41.650


 105913313.042 8  82529872.74148  20154630.200                    20154627.380
      1072.112         835.412          49.950          49.400



 112856669.219 8  87940267.04048  21475901.220                    21475901.280
      1415.922        1103.315          49.150          48.150    84276120.387 8
  21475906.220        1057.281          52.950


 116312053.325 7  90632757.94147  22133447.020                    22133445.300
      3053.592        2379.422          47.350          45.700



 127291118.540 7  99187854.99146  24222702.440                    24222701.240
       116.127          90.489          42.800          40.500    95055063.685 7
  24222705.940          86.730          45.100


 116440500.823 7  90732856.34447  22157896.080                    22157894.080
     -3170.212       -2470.299          47.600          43.900



 115719322.932 8  90170914.75947  22020643.440                    22020642.040
      2381.663        1855.842          48.600          43.000



 131434574.039 6 102416555.67946  25011165.900                    25011170.320
      3745.315        2918.431          36.700          36.000    98149211.029 7
  25011173.260        2796.369          44.250


 112079446.370 8  87334627.22148  21328010.080                    21328010.420
     -1840.208       -1433.931          50.750          50.650    83695686.859 8
  21328010.560       -1374.229          53.900


 130985853.917 8                  24925781.140
     -1830.789                          50.300                    97814118.135 8
  24925785.140       -1367.139          52.300   100365780.393 8  24925782.460
     -1402.774          52.150    99089947.414 9  24925783.340       -1384.956
        55.100
 130679829.260 7                  24867546.380
      2361.763                          46.700                    97585594.512 7
  24867548.700        1763.622          46.300   100131303.341 8  24867548.000
      1809.664          48.250    98858446.077 8  24867549.780        1786.616
        50.250
 122953386.933 8                  23397247.080
       427.346                          52.450                    91815871.410 9
  23397250.060         319.085          54.800    94211056.354 9  23397247.480
       327.396          55.200    93013454.034 9  23397249.040         323.271
        57.950
 149181130.534 6                  28388227.000
      1566.071                          38.500                   111401504.939 7
  28388233.060        1169.347          42.000   114307623.899 7  28388231.160
      1199.771          43.700   112854560.068 7  28388231.740        1184.567
        45.900
 150098856.990 6                  28562873.480
     -2707.271                          37.700                   112086811.723 6
  28562879.620       -2021.720          40.000   115010805.485 6  28562877.980
     -2074.344          39.750   113548803.257 7  28562879.440       -2048.105
        42.900
 146745086.925 6                  27924659.000
      3280.869                          41.550                   109582400.503 7
  27924666.540        2449.917          42.400   112441060.621 6  27924661.440
      2513.932          41.650   111011740.710 7  27924663.520        2481.981
        44.750
 129937898.091 8                  24726352.320
      2091.135                          50.850                    97031588.981 8
  24726358.300        1561.501          51.200    99562844.741 8  24726355.120
      1602.262          51.400    98297216.516 9  24726356.440        1581.864
        54.250
 140764756.989 7                  26786648.840
      -803.339                          47.350                   105116540.338 7
  26786653.520        -599.918          44.500   107858702.296 7  26786651.800
      -615.599          46.750   106487619.966 8  26786652.540        -607.718
        48.450
 143659282.668 7                  27337463.420
     -2755.611                          43.750                   107278035.621 7
  27337472.180       -2057.676          45.850   110076583.165 7  27337467.200
     -2111.251          44.100   108677308.046 8  27337469.440       -2084.455
        48.000
 23 12 30  9  5 30.0000000  0 20G05G07G08G13G14G15G18G20G22G24G30E04
                                E05E09E15E21E24E31E34E36
 109178600.967 8  85074228.59548  20775999.840                    20775997.900
     -1016.161        -791.815          50.350          50.200



 123948680.792 7  96583377.56547  23586657.460                    23586655.640
     -2806.584       -2186.951          46.950          46.650



 131034362.934 6 102104729.04846  24935007.320                    24935011.200
       266.857         207.941          40.300          39.750    97850378.248 6
  24935009.720         199.011          41.550


 105881338.613 8  82504957.57548  20148545.560                    20148542.660
      1059.291         825.421          50.150          48.750



 112814466.016 8  87907381.41947  21467870.320                    21467870.180
      1397.460        1088.929          49.500          46.850    84244604.991 8
  21467875.360        1043.592          52.950


 116220569.837 7  90561472.09847  22116038.160                    22116036.780
      3045.443        2373.072          47.150          45.800



 127287930.719 7  99185370.93946  24222095.760                    24222094.400
        96.022          74.820          42.550          39.950    95052683.109 7
  24222099.260          71.836          45.000


 116535774.847 8  90807095.76247  22176026.200                    22176024.340
     -3181.464       -2479.064          48.000          42.650



 115648089.849 8  90115408.46947  22007088.260                    22007086.680
      2367.059        1844.462          48.700          42.750



 131322274.493 6 102329049.63346  24989796.120                    24989800.640
      3741.903        2915.768          38.400          36.650    98065351.063 7
  24989802.800        2794.131          43.200


 112134819.785 8  87377775.27748  21338547.160                    21338547.620
     -1851.442       -1442.685          50.600          50.550    83737037.068 8
  21338547.940       -1382.610          53.800


 131040867.958 8                  24936249.880
     -1836.994                          49.900                    97855199.955 8
  24936254.060       -1371.789          51.950   100407933.931 8  24936251.240
     -1407.539          52.250    99131565.094 9  24936252.320       -1389.682
        55.050
 130609010.473 7                  24854069.840
      2359.476                          46.150                    97532710.347 7
  24854072.260        1761.930          46.400   100077039.588 8  24854071.440
      1807.820          48.050    98804872.123 8  24854073.420        1784.816
        50.250
 122940682.893 8                  23394829.400
       419.499                          52.400                    91806384.595 9
  23394832.700         313.257          54.800    94201322.062 9  23394829.880
       321.405          55.400    93003843.484 9  23394831.580         317.319
        58.050
 149134348.448 6                  28379324.720
      1552.610                          39.900                   111366570.139 6
  28379330.360        1159.370          41.700   114271777.742 7  28379328.740
      1189.676          42.850   112819169.589 7  28379329.540        1174.578
        45.250
 150180170.824 6                  28578347.300
     -2713.707                          41.000                   112147533.019 6
  28578353.080       -2026.368          39.450   115073110.843 6  28578351.580
     -2079.612          39.400   113610316.578 7  28578352.960       -2052.870
        42.650
 146646666.718 7                  27905930.420
      3280.310                          43.650                   109508904.685 7
  27905938.200        2449.563          42.550   112365647.546 7  27905933.100
      2513.334          43.150   110937286.256 7  27905935.060        2481.570
        45.650
 129875334.997 8                  24714447.180
      2079.655                          51.600                    96984869.795 8
  24714452.960        1552.953          51.250    99514906.792 8  24714449.660
      1593.489          51.700    98249887.949 9  24714451.040        1573.182
        54.350
 140789082.251 8                  26791278.000
      -818.419                          48.100                   105134705.265 7
  26791282.380        -611.083          44.550   107877341.098 7  26791280.840
      -627.148          46.550   106506021.833 8  26791281.420        -619.131
        48.350
 143742028.562 7                  27353209.580
     -2760.951                          43.550                   107339826.266 7
  27353218.160       -2061.779          45.300   110139985.764 7  27353213.240
     -2115.570          44.850   108739904.672 8  27353215.680       -2088.716
        48.000
 23 12 30  9  6  0.0000000  0 20G05G07G08G13G14G15G18G20G22G24G30E04
                                E05E09E15E21E24E31E34E36
 109209383.937 8  85098215.28648  20781857.700                    20781855.780
     -1036.524        -807.683          50.350          50.350



 124032935.570 7  96649030.53847  23602690.660                    23602688.740
     -2810.835       -2190.265          45.750          46.200



 131026640.588 6 102098711.64846  24933537.880                    24933542.060
       247.967         193.219          40.200          39.900    97844611.576 7
  24933540.740         185.116          42.350


 105849737.988 8  82480333.69548  20142532.060                    20142529.300
      1046.875         815.746          50.050          49.350



 112772805.406 8  87874918.60647  21459942.620                    21459942.300
      1379.568        1074.988          49.400          47.600    84213494.805 8
  21459947.700        1030.126          53.100


 116129319.365 7  90490367.82747  22098673.740                    22098672.580
      3037.633        2366.986          47.400          46.250



 127285329.254 7  99183343.76146  24221600.780                    24221599.640
        76.756          59.810          43.100          40.800    95050740.375 7
  24221604.420          57.488          45.550


 116631375.645 7  90881589.81747  22194218.460                    22194216.620
     -3192.328       -2487.532          47.100          43.850



 115577288.275 8  90060238.42247  21993615.180                    21993613.620
      2352.658        1833.241          48.000          43.450



 131210059.543 6 102241609.42946  24968442.480                    24968446.720
      3738.958        2913.469          36.950          36.600    97981554.238 7
  24968448.760        2792.057          43.200


 112190521.225 8  87421178.93548  21349146.700                    21349147.260
     -1862.363       -1451.194          50.200          50.150    83778632.230 8
  21349147.740       -1390.680          53.950


 131096056.945 8                  24946751.820
     -1842.661                          49.050                    97896412.418 8
  24946756.160       -1376.024          51.850   100450221.516 8  24946753.240
     -1411.929          52.100    99173315.118 9  24946754.580       -1393.968
        54.900
 130538253.546 7                  24840605.140
      2357.334                          46.250                    97479872.368 7
  24840607.680        1760.475          46.700   100022823.217 7  24840606.620
      1806.352          47.700    98751344.943 8  24840608.760        1783.421
        50.250
 122928204.992 8                  23392454.800
       411.900                          52.250                    91797066.647 9
  23392458.400         307.676          54.950    94191761.041 9  23392455.440
       315.679          55.350    92994403.996 9  23392457.120         311.688
        58.150
 149087949.890 6                  28370495.380
      1540.162                          39.100                   111331921.751 6
  28370500.620        1150.037          41.100   114236225.481 7  28370499.280
      1180.104          42.650   112784069.274 7  28370500.240        1165.093
        44.850
 150261665.086 6                  28593855.440
     -2719.831                          39.400                   112208389.028 6
  28593861.140       -2030.796          41.450   115135554.418 6  28593859.020
     -2083.786          40.700   113671966.377 7  28593860.980       -2057.265
        44.100
 146548258.820 7                  27887204.220
      3279.927                          42.650                   109435418.078 7
  27887212.000        2449.216          43.500   112290243.928 7  27887207.280
      2513.253          42.600   110862841.151 7  27887209.100        2481.291
        45.900
 129813107.014 8                  24702605.720
      2068.543                          51.400                    96938400.862 8
  24702611.420        1544.755          51.350    99467225.622 8  24702608.060
      1584.992          51.600    98202812.896 9  24702609.380        1564.897
        54.400
 140813846.853 7                  26795990.720
      -832.946                          47.950                   105153198.259 7
  26795994.900        -621.961          44.850   107896316.529 7  26795993.300
      -638.294          46.000   106524756.046 8  26795993.980        -630.095
        48.450
 143824929.663 7                  27368985.160
     -2766.083                          43.500                   107401732.797 7
  27368993.720       -2065.573          45.600   110203507.268 7  27368989.140
     -2119.559          44.800   108802618.683 8  27368991.340       -2092.519
        48.200
 23 12 30  9  6 30.0000000  0 20G05G07G08G13G14G15G18G20G22G24G30E04
                                E05E09E15E21E24E31E34E36
 109240773.935 8  85122674.99048  20787831.060                    20787829.160
     -1056.362        -823.141          50.500          50.350



 124117307.342 7  96714774.63547  23618745.820                    23618744.440
     -2814.191       -2192.881          45.250          45.600



 131019474.678 6 102093127.82646  24932174.060                    24932178.460
       229.634         178.937          38.200          38.550    97839260.422 7
  24932177.660         171.361          42.350


 105818510.555 8  82456000.62648  20136589.740                    20136587.100
      1034.833         806.362          50.100          49.700



 112731687.213 8  87842878.46047  21452118.080                    21452117.560
      1361.687        1061.055          49.050          47.600    84182789.657 8
  21452123.120        1016.804          53.100


 116038302.040 7  90419445.22747  22081353.740                    22081352.700
      3030.286        2361.261          47.700          46.150



 127283312.195 7  99181771.95946  24221217.020                    24221216.200
        57.709          44.964          43.350          41.200    95049234.085 7
  24221221.100          42.976          45.650


 116727298.656 7  90956334.94847  22212472.120                    22212470.400
     -3202.654       -2495.576          47.550          43.350



 115506918.894 7  90005405.14047  21980224.280                    21980222.640
      2338.599        1822.286          47.800          44.100



 131097928.700 6 102154234.79146  24947104.660                    24947108.920
      3737.280        2912.167          38.250          38.900    97897820.234 6
  24947110.560        2790.168          41.850


 112246547.410 8  87464835.65148  21359808.040                    21359808.640
     -1872.729       -1459.271          50.100          50.000    83820469.910 9
  21359809.360       -1398.524          54.000


 131151419.057 8                  24957286.660
     -1848.111                          48.850                    97937754.164 8
  24957291.100       -1380.110          51.600   100492641.756 8  24957288.120
     -1416.119          51.950    99215196.114 9  24957289.780       -1398.125
        54.700
 130467557.333 7                  24827152.060
      2355.593                          46.550                    97427079.732 7
  24827154.600        1759.076          46.250    99968653.371 7  24827153.460
      1804.959          47.500    98697863.701 8  24827155.600        1782.061
        49.900
 122915952.042 8                  23390123.160
       404.860                          52.700                    91787916.695 9
  23390126.880         302.286          55.000    94182372.394 9  23390123.920
       310.163          55.350    92985134.698 9  23390125.480         306.241
        58.050
 149041934.547 6                  28361739.040
      1527.741                          38.950                   111297559.502 6
  28361743.580        1140.915          40.500   114200966.868 7  28361742.420
      1170.477          42.200   112749258.833 7  28361743.860        1155.688
        44.300
 150343336.411 6                  28609397.140
     -2725.421                          40.700                   112269377.240 6
  28609403.040       -2034.979          39.850   115198133.613 6  28609400.480
     -2088.134          41.050   113733750.071 7  28609402.580       -2061.511
        43.350
 146449863.239 7                  27868480.480
      3279.875                          44.050                   109361940.702 7
  27868488.120        2449.148          43.600   112214849.795 7  27868483.580
      2513.056          42.000   110788405.397 7  27868485.380        2481.110
        45.750
 129751213.855 8                  24690827.900
      2057.623                          51.200                    96892181.956 8
  24690833.340        1536.595          51.250    99419800.998 8  24690830.120
      1576.632          51.650    98155991.131 9  24690831.420        1556.607
        54.300
 140839048.185 7                  26800786.540
      -847.183                          47.600                   105172017.392 7
  26800790.520        -632.605          45.200   107915626.596 7  26800788.740
      -649.146          45.850   106543820.642 8  26800789.720        -640.872
        48.400
 143907982.056 7                  27384789.680
     -2770.768                          43.600                   107463752.318 7
  27384797.960       -2069.102          45.150   110267144.724 7  27384793.360
     -2123.107          44.500   108865447.168 7  27384795.900       -2096.053
        47.700
 23 12 30  9  7  0.0000000  0 20G05G07G08G13G14G15G18G20G22G24G30E04
                                E05E09E15E21E24E31E34E36
 109272770.149 8  85147607.07648  20793919.760                    20793917.860
     -1076.562        -838.880          50.850          50.950



 124201795.603 7  96780609.52747  23634823.200                    23634822.420
     -2818.061       -2195.895          43.800          43.600



 131012865.966 6 102087978.20346  24930915.920                    24930920.860
       211.165         164.545          37.400          37.550    97834325.369 7
  24930920.620         157.798          42.600


 105787657.464 8  82431959.23048  20130718.640                    20130715.960
      1022.524         796.771          50.050          49.600



 112691113.444 8  87811262.53647  21444397.080                    21444396.420
      1343.506        1046.888          48.700          47.800    84152491.061 8
  21444402.000        1003.326          53.000


 115947520.299 7  90348706.21147  22064078.580                    22064077.540
      3022.354        2355.081          47.850          46.600



 127281879.859 7  99180655.78646  24220944.580                    24220943.980
        38.104          29.687          43.300          40.800    95048164.399 7
  24220948.820          28.533          45.750


 116823541.821 7  91031329.54947  22230786.640                    22230784.940
     -3213.283       -2503.859          46.750          43.850



 115436984.294 8  89950910.67647  21966916.080                    21966914.620
      2324.129        1811.010          48.550          43.850



 130985884.154 6 102066927.42346  24925783.600                    24925787.520
      3733.658        2909.345          38.750          37.000    97814150.594 7
  24925788.540        2788.050          43.150


 112302897.410 8  87508744.67948  21370530.940                    21370531.620
     -1883.536       -1467.693          49.550          49.550    83862549.385 9
  21370532.620       -1406.527          54.000


 131206954.715 8                  24967854.620
     -1853.851                          48.700                    97979225.503 8
  24967858.960       -1384.363          51.400   100535194.965 8  24967856.120
     -1420.469          51.800    99257208.384 9  24967857.940       -1402.391
        54.550
 130396922.972 7                  24813710.820
      2353.717                          46.950                    97374333.266 7
  24813713.300        1757.720          46.150    99914530.917 7  24813712.240
      1803.473          47.650    98644429.240 8  24813714.260        1780.612
        49.850
 122903925.110 8                  23387834.660
       397.394                          53.050                    91778935.515 9
  23387838.200         296.731          54.950    94173156.925 9  23387835.340
       304.454          55.300    92976036.375 9  23387836.820         300.595
        58.050
 148996304.284 6                  28353055.940
      1514.781                          38.800                   111263484.852 6
  28353060.120        1131.167          40.100   114166003.320 6  28353059.140
      1160.641          41.500   112714739.735 7  28353060.840        1145.935
        43.850
 150425183.455 6                  28624972.280
     -2730.808                          40.600                   112330496.779 6
  28624978.260       -2039.350          41.350   115260847.599 6  28624975.360
     -2092.595          38.350   113795666.844 7  28624977.400       -2066.070
        43.100
 146351482.264 7                  27849759.380
      3279.303                          43.250                   109288474.327 7
  27849767.140        2448.771          43.300   112139466.859 6  27849762.220
      2512.604          41.550   110713980.749 7  27849764.140        2480.759
        45.300
 129689657.405 8                  24679114.060
      2046.467                          51.450                    96846214.501 8
  24679119.480        1528.172          51.350    99372634.379 8  24679116.420
      1568.046          51.900    98109424.094 9  24679117.540        1548.112
        54.500
 140864685.903 7                  26805665.240
      -861.615                          46.900                   105191162.379 7
  26805669.120        -643.381          45.250   107935271.037 7  26805667.140
      -660.180          45.750   106563215.361 8  26805668.540        -651.760
        48.500
 143991184.166 7                  27400622.680
     -2775.764                          43.550                   107525883.611 7
  27400630.640       -2072.698          44.900   110330896.834 7  27400626.480
     -2126.856          44.900   108928388.877 7  27400628.920       -2099.802
        47.750
 23 12 30  9  7 30.0000000  0 20G05G07G08G13G14G15G18G20G22G24G30E04
                                E05E09E15E21E24E31E34E36
 109305368.046 8  85173008.00548  20800122.960                    20800121.020
     -1096.385        -854.327          50.600          50.600



 124286395.395 7  96846531.30947  23650921.860                    23650921.560
     -2821.711       -2198.739          44.650          44.400



 131006811.979 6 102083260.83746  24929763.580                    24929768.620
       192.718         150.169          37.100          37.650    97829804.550 7
  24929769.120         143.872          42.400


 105757176.177 8  82408207.55948  20124918.180                    20124915.620
      1010.105         787.095          50.000          49.650



 112651082.026 8  87780069.23047  21436779.280                    21436778.580
      1325.451        1032.819          48.800          47.600    84122597.476 8
  21436783.960         989.797          52.750


 115856972.467 8  90278149.46547  22046847.880                    22046846.840
      3014.432        2348.907          48.200          45.900



 127281028.335 7  99179992.19146  24220782.580                    24220782.100
        19.106          14.886          42.600          41.250    95047528.466 7
  24220786.580          14.129          45.600


 116920099.070 7  91106568.88047  22249160.880                    22249159.360
     -3223.589       -2511.890          46.850          43.050



 115367483.315 8  89896754.08847  21953690.440                    21953688.940
      2309.813        1799.855          48.650          44.150



 130873923.359 6 101979685.23046  24904478.280                    24904481.620
      3730.663        2907.014          39.250          37.100    97730543.561 7
  24904483.220        2785.922          42.600


 112359566.054 8  87552902.00748  21381314.480                    21381315.220
     -1893.986       -1475.836          49.450          49.400    83904866.821 9
  21381316.460       -1414.373          54.250


 131262660.254 8                  24978454.900
     -1859.485                          48.600                    98020823.699 8
  24978459.100       -1388.626          51.250   100577878.341 8  24978456.300
     -1424.856          51.650    99299349.171 9  24978458.440       -1406.717
        54.100
 130326347.512 7                  24800280.800
      2351.708                          47.200                    97321630.791 7
  24800283.300        1756.105          46.000    99860453.594 7  24800282.340
      1801.902          47.750    98591039.335 8  24800284.200        1779.032
        49.550
 122892121.199 8                  23385588.640
       389.927                          52.700                    91770120.870 9
  23385591.920         291.165          55.000    94164112.334 9  23385589.120
       298.762          55.300    92967106.755 9  23385590.620         294.956
        57.850
 148951056.778 6                  28344445.780
      1501.865                          38.900                   111229696.048 6
  28344449.720        1121.523          40.200   114131333.053 6  28344448.480
      1150.933          41.350   112680510.208 7  28344450.600        1136.199
        43.650
 150507201.234 6                  28640579.680
     -2736.430                          39.750                   112391743.652 6
  28640586.100       -2043.569          41.300   115323692.228 6  28640582.680
     -2096.774          40.750   113857712.593 7  28640585.120       -2070.152
        43.850
 146253113.954 7                  27831040.380
      3279.018                          42.850                   109215017.470 6
  27831048.460        2448.630          41.950   112064093.757 6  27831043.580
      2512.422          41.100   110639565.768 7  27831045.140        2480.486
        44.200
 129628435.490 8                  24667463.840
      2035.316                          51.250                    96800496.849 8
  24667468.920        1519.841          50.950    99325724.091 8  24667466.300
      1559.491          51.900    98063110.125 9  24667467.340        1539.630
        54.050
 140890755.603 7                  26810626.000
      -876.146                          46.150                   105210629.951 7
  26810630.000        -654.163          45.250   107955246.469 7  26810627.740
      -671.233          45.800   106582936.865 8  26810629.580        -662.729
        48.300
 144074530.292 7                  27416483.140
     -2780.382                          43.350                   107588122.444 7
  27416490.860       -2076.262          44.300   110394759.320 7  27416487.060
     -2130.524          44.200   108991439.531 7  27416489.280       -2103.310
        47.000
 23 12 30  9  8  0.0000000  0 20G05G07G08G13G14G15G18G20G22G24G30E04
                                E05E09E15E21E24E31E34E36
 109338570.353 8  85198879.90248  20806441.200                    20806439.240
     -1116.991        -870.384          50.550          50.350



 124371108.745 7  96912541.59747  23667042.320                    23667042.380
     -2825.807       -2201.932          44.750          44.700



 131001316.783 6 102078978.89046  24928717.500                    24928722.880
       173.403         135.117          38.500          38.600    97825701.002 7
  24928723.860         129.678          42.700


 105727070.725 8  82384748.74948  20119189.180                    20119186.940
       997.027         776.904          49.350          49.050



 112611597.766 8  87749302.26947  21429265.660                    21429264.880
      1306.829        1018.309          48.900          47.850    84093112.468 8
  21429269.980         975.910          52.600


 115766663.749 8  90207779.05347  22029662.720                    22029661.520
      3006.064        2342.388          48.350          46.200



 127280760.668 7  99179783.54946  24220731.660                    24220731.140
        -0.802          -0.627          43.250          39.050    95047328.510 7
  24220735.380          -0.747          45.600


 117016970.977 7  91182053.41147  22267595.040                    22267593.600
     -3234.460       -2520.359          45.900          44.200



 115298422.290 8  89842940.32747  21940548.540                    21940547.100
      2294.443        1787.879          48.350          44.500



 130762051.013 6 101892511.94146  24883189.840                    24883192.900
      3727.457        2904.514          38.800          36.700    97647002.483 6
  24883194.260        2783.470          41.500


 112416555.230 8  87597309.10148  21392159.240                    21392159.760
     -1905.138       -1484.524          50.200          50.250    83947423.606 9
  21392161.540       -1422.647          54.600


 131318538.880 8                  24989088.120
     -1865.629                          48.350                    98062551.142 8
  24989092.340       -1393.180          51.050   100620694.342 8  24989089.360
     -1429.545          51.550    99341620.895 9  24989091.900       -1411.338
        54.050
 130255834.897 7                  24786862.740
      2349.200                          47.100                    97268975.231 7
  24786865.260        1754.185          46.000    99806424.417 7  24786864.480
      1800.003          47.850    98537696.972 8  24786866.160        1777.135
        49.650
 122880544.162 8                  23383385.700
       381.931                          52.650                    91761475.646 9
  23383388.940         285.202          55.050    94155241.580 9  23383386.040
       292.676          55.300    92958348.766 9  23383387.580         288.914
        57.900
 148906196.721 6                  28335909.340
      1488.619                          39.700                   111196196.525 6
  28335913.140        1111.660          40.900   114096959.700 7  28335911.860
      1140.620          42.100   112646573.758 7  28335914.160        1126.225
        44.250
 150589391.172 6                  28656219.900
     -2742.757                          40.550                   112453119.191 6
  28656226.420       -2048.107          39.550   115386668.841 6  28656222.980
     -2101.470          41.150   113919888.673 7  28656225.440       -2074.785
        43.150
 146154763.372 7                  27812324.800
      3277.767                          43.150                   109141573.957 7
  27812333.060        2447.836          43.000   111988734.300 7  27812328.380
      2511.632          42.700   110565164.274 7  27812329.480        2479.787
        45.250
 129567552.790 8                  24655878.080
      2023.607                          51.050                    96755032.509 8
  24655883.180        1511.120          50.950    99279073.717 8  24655880.880
      1550.545          52.300    98017052.766 9  24655881.700        1530.828
        54.250
 140917259.692 7                  26815669.180
      -890.967                          45.700                   105230421.881 7
  26815673.460        -665.241          45.300   107975554.721 7  26815670.980
      -682.695          45.950   106602986.955 8  26815673.240        -673.966
        48.300
 144158021.610 7                  27432371.200
     -2785.630                          43.950                   107650469.729 7
  27432378.420       -2080.251          43.200   110458733.060 7  27432375.120
     -2134.436          44.850   109054600.045 7  27432377.420       -2107.295
        46.850
 23 12 30  9  8 30.0000000  0 20G05G07G08G13G14G15G18G20G22G24G30E04
                                E05E09E15E21E24E31E34E36
 109372376.811 8  85225222.56848  20812874.440                    20812872.380
     -1136.973        -885.953          50.300          50.350



 124455934.232 7  96978639.27347  23683184.260                    23683184.260
     -2829.320       -2204.668          45.250          45.300



 130996380.363 6 102075132.36646  24927778.300                    24927783.260
       155.138         120.888          39.750          40.500    97822014.783 7
  24927784.640         115.985          42.750


 105697341.552 8  82361583.14448  20113531.860                    20113529.820
       984.730         767.321          49.500          49.500



 112572661.920 8  87718962.64947  21421856.420                    21421855.700
      1288.642        1004.137          49.150          47.600    84064036.995 8
  21421860.400         962.364          52.400


 115676595.970 8  90137596.37647  22012523.420                    22012522.160
      2998.327        2336.358          48.600          45.900



 127281076.330 7  99180029.45646  24220791.780                    24220791.020
       -20.186         -15.731          42.550          39.700    95047564.145 7
  24220795.100         -15.063          45.350


 117114154.815 7  91257780.98547  22286088.480                    22286087.340
     -3244.571       -2528.239          46.350          42.850



 115229802.833 8  89789470.63347  21927490.760                    21927489.200
      2280.028        1776.646          48.700          44.500



 130650268.319 6 101805408.52446  24861918.340                    24861921.360
      3724.412        2902.140          38.850          38.500    97563528.338 7
  24861923.020        2781.320          42.550


 112473863.220 8  87641964.61548  21403064.760                    21403065.060
     -1915.544       -1492.634          50.650          50.550    83990218.457 9
  21403067.380       -1430.453          54.700


 131374590.318 8                  24999754.460
     -1871.226                          48.550                    98104407.631 8
  24999758.480       -1397.288          50.700   100663642.756 8  24999755.460
     -1433.730          51.650    99384023.347 8  24999758.280       -1415.529
        53.950
 130185385.579 7                  24773456.620
      2347.262                          46.800                    97216366.937 7
  24773459.520        1752.883          46.100    99752443.741 7  24773458.620
      1798.573          47.800    98484402.490 8  24773460.180        1775.676
        49.750
 122869194.373 8                  23381225.940
       374.521                          52.400                    91753000.121 9
  23381229.220         279.717          54.900    94146544.961 9  23381226.260
       286.987          55.350    92949762.692 9  23381227.800         283.365
        57.850
 148861725.221 6                  28327446.720
      1475.479                          38.850                   111162987.206 6
  28327451.300        1102.232          41.250   114062884.035 7  28327449.080
      1130.874          42.000   112612931.280 7  28327451.720        1116.491
        44.400
 150671751.435 6                  28671892.460
     -2748.086                          38.800                   112514621.938 6
  28671899.340       -2052.075          41.750   115449776.059 6  28671895.820
     -2105.915          39.650   113982193.648 7  28671897.900       -2078.979
        43.650
 146056431.981 7                  27793612.700
      3277.522                          43.850                   109068144.872 6
  27793620.940        2447.485          41.300   111913389.643 7  27793616.320
      2511.307          42.550   110490777.408 7  27793617.460        2479.436
        44.650
 129507010.533 8                  24644357.140
      2012.410                          50.950                    96709822.392 8
  24644361.920        1502.735          50.550    99232684.207 8  24644360.060
      1541.937          52.200    97971252.950 9  24644360.880        1522.374
        54.100
 140944197.088 7                  26820794.700
      -905.185                          45.800                   105250537.391 7
  26820799.540        -675.910          45.100   107996194.979 7  26820796.820
      -693.531          45.950   106623364.836 8  26820799.300        -684.675
        48.350
 144241655.844 7                  27448286.520
     -2790.020                          43.250                   107712923.718 7
  27448293.040       -2083.479          43.050   110522816.307 7  27448290.300
     -2137.871          44.050   109117868.659 7  27448292.540       -2110.638
        46.350
 23 12 30  9  9  0.0000000  0 20G05G07G08G13G14G15G18G20G22G24G30E04
                                E05E09E15E21E24E31E34E36
 109406781.499 8  85252031.38948  20819421.500                    20819419.340
     -1156.875        -901.461          50.550          50.650



 124540866.801 7  97044820.36947  23699346.700                    23699346.520
     -2832.985       -2207.525          45.550          45.450



 130991999.799 6 102071718.98146  24926944.860                    24926949.100
       136.522         106.386          38.850          39.750    97818743.630 7
  24926950.860         101.997          42.050


 105667986.199 8  82338708.83448  20107945.800                    20107943.700
       972.173         757.537          50.150          50.000



 112534272.170 8  87689048.55747  21414551.140                    21414550.480
      1270.438         989.951          49.250          47.700    84035369.327 8
  21414554.900         948.666          52.600


 115586767.716 8  90067600.34147  21995429.660                    21995428.380
      2990.157        2329.992          48.750          46.550



 127281971.241 7  99180726.73346  24220961.920                    24220961.220
       -39.880         -31.076          42.200          38.250    95048232.343 7
  24220964.980         -29.649          45.200


 117211644.213 7  91333746.66547  22304640.020                    22304639.020
     -3254.905       -2536.292          45.800          43.500



 115161623.402 8  89736343.82347  21914516.700                    21914515.200
      2265.200        1765.091          49.100          44.700



 130538572.874 6 101718372.96945  24840663.460                    24840666.420
      3721.600        2899.942          38.500          35.400    97480119.333 7
  24840668.540        2779.156          42.200


 112531484.716 8  87686864.42248  21414030.000                    21414030.160
     -1925.996       -1500.778          51.050          51.100    84033247.431 9
  21414032.780       -1438.281          54.850


 131430810.690 8                  25010453.200
     -1876.946                          49.600                    98146390.294 8
  25010456.900       -1401.666          50.550   100706720.629 8  25010453.960
     -1438.229          51.600    99426553.615 9  25010456.780       -1419.973
        54.000
 130114996.410 7                  24760061.960
      2345.236                          46.800                    97163803.569 7
  24760065.320        1751.296          46.450    99698509.162 7  24760064.140
      1796.938          47.600    98431153.519 8  24760065.620        1774.104
        49.950
 122858068.612 8                  23379108.740
       367.032                          52.300                    91744691.897 9
  23379112.000         274.038          54.900    94138020.004 9  23379109.120
       281.191          55.050    92941346.102 9  23379110.660         277.594
        57.950
 148817639.702 6                  28319057.540
      1462.893                          39.100                   111130066.140 6
  28319062.560        1092.443          40.650   114029104.146 6  28319059.940
      1120.951          40.850   112579580.801 7  28319062.520        1106.649
        43.900
 150754276.601 6                  28687596.440
     -2753.580                          39.950                   112576247.792 7
  28687603.700       -2056.313          42.200   115513009.556 6  28687599.860
     -2110.012          40.150   114044623.332 7  28687602.060       -2083.355
        44.350
 145958117.661 7                  27774903.880
      3276.769                          44.150                   108994728.607 7
  27774911.840        2446.814          42.200   111838058.194 7  27774908.080
      2510.738          42.350   110416403.554 7  27774908.900        2478.745
        45.200
 129446806.293 8                  24632900.540
      2001.021                          51.250                    96664864.694 8
  24632905.360        1494.270          50.700    99186553.693 8  24632903.720
      1533.266          52.150    97925708.843 9  24632904.400        1513.761
        54.300
 140971563.111 7                  26826002.100
      -919.574                          46.050                   105270972.981 7
  26826007.340        -686.562          45.250   108017163.679 7  26826004.380
      -704.542          45.700   106644066.985 8  26826006.880        -695.559
        48.400
 144325427.102 7                  27464227.720
     -2794.722                          43.550                   107775480.018 7
  27464233.700       -2086.981          42.750   110587004.519 7  27464231.640
     -2141.498          44.150   109181240.921 7  27464233.880       -2114.234
        46.450
 23 12 30  9  9 30.0000000  0 20G05G07G08G13G14G15G18G20G22G24G30E04
                                E05E09E15E21E24E31E34E36
 109441788.982 8  85279309.92748  20826083.260                    20826081.020
     -1176.541        -916.786          50.850          50.900



 124625910.566 7  97111088.09547  23715530.140                    23715529.920
     -2836.224       -2210.050          44.350          44.200



 130988181.727 6 102068743.88246  24926218.600                    24926221.600
       118.268          92.156          39.050          39.000    97815892.500 6
  24926223.620          88.168          41.150


 105639010.627 8  82316130.44448  20102432.000                    20102429.700
       959.961         748.021          49.600          49.700



 112496435.235 8  87659565.23248  21407351.060                    21407350.460
      1252.417         975.910          49.150          48.000    84007114.470 8
  21407354.760         935.198          52.950


 115497186.072 8  89997796.48047  21978382.840                    21978381.600
      2982.201        2323.794          48.450          46.250



 127283450.368 7  99181879.23246  24221243.100                    24221242.600
       -58.668         -45.718          42.400          40.000    95049336.800 7
  24221246.280         -43.822          45.700


 117309441.624 7  91409952.36047  22323250.180                    22323249.440
     -3264.794       -2543.998          45.300          43.900



 115093891.575 8  89683565.79147  21901627.800                    21901626.260
      2250.613        1753.726          49.100          43.800



 130426971.291 6 101631410.66645  24819426.180                    24819429.700
      3718.795        2897.762          37.850          35.750    97396780.416 6
  24819431.960        2777.076          41.750


 112589423.584 8  87732011.52848  21425055.620                    21425055.680
     -1936.103       -1508.653          51.000          51.200    84076513.397 9
  21425058.280       -1445.888          55.000


 131487205.229 8                  25021185.080
     -1882.346                          49.700                    98188503.003 8
  25021188.440       -1405.652          50.400   100749931.942 8  25021185.820
     -1442.354          52.100    99469215.625 8  25021188.380       -1424.004
        53.900
 130044673.370 7                  24746679.860
      2343.362                          47.000                    97111289.579 7
  24746683.920        1750.002          47.000    99644625.249 7  24746682.180
      1795.629          47.950    98377954.566 8  24746683.600        1772.816
        50.150
 122847172.771 8                  23377035.220
       359.766                          52.100                    91736555.365 9
  23377038.480         268.629          55.050    94129671.215 9  23377035.680
       275.604          55.400    92933103.444 9  23377037.280         272.108
        57.850
 148773946.888 6                  28310743.280
      1450.246                          39.350                   111097438.299 6
  28310748.360        1082.807          40.250   113995625.165 6  28310745.660
      1111.173          41.850   112546527.376 7  28310748.000        1097.062
        43.800
 150836970.268 6                  28703332.600
     -2759.059                          40.100                   112637999.481 6
  28703339.900       -2060.292          40.800   115576372.135 6  28703336.100
     -2113.866          41.200   114107180.465 7  28703338.360       -2087.088
        43.700
 145859827.389 7                  27756199.520
      3276.308                          43.900                   108921330.359 7
  27756207.580        2446.594          43.350   111762745.128 7  27756203.500
      2510.520          42.350   110342047.889 7  27756204.740        2478.553
        45.450
 129386946.749 8                  24621509.620
      1989.914                          51.400                    96620164.385 8
  24621514.120        1485.946          50.650    99140687.294 8  24621512.700
      1524.779          52.350    97880425.492 9  24621513.540        1505.362
        54.100
 140999362.138 7                  26831292.180
      -933.456                          46.200                   105291731.926 7
  26831297.760        -697.048          45.600   108038464.170 7  26831294.420
      -715.342          45.750   106665096.699 8  26831296.840        -706.135
        48.350
 144409338.560 7                  27480195.680
     -2799.028                          43.300                   107838141.028 7
  27480201.240       -2090.190          42.700   110651300.182 7  27480199.340
     -2144.728          43.200   109244719.263 7  27480201.740       -2117.509
        45.800
 23 12 30  9 10  0.0000000  0 20G05G07G08G13G14G15G18G20G22G24G30E04
                                E05E09E15E21E24E31E34E36
 109477393.584 8  85307053.74648  20832858.660                    20832856.320
     -1196.372        -932.238          51.050          51.200



 124711059.761 7  97177438.00447  23731733.520                    23731733.440
     -2839.565       -2212.652          44.800          44.700



 130984920.996 6 102066203.13346  24925598.200                    24925601.020
        99.684          77.676          40.550          40.200    97813457.607 7
  24925602.560          74.321          42.250


 105610410.843 8  82293844.89648  20096989.640                    20096987.280
       947.439         738.265          49.850          49.700



 112459147.860 8  87630510.13947  21400255.520                    21400255.000
      1234.066         961.611          49.250          47.650    83979270.006 8
  21400259.280         921.442          52.950


 115407847.918 7  89928182.33747  21961382.260                    21961381.020
      2974.007        2317.407          47.950          45.900



 127285508.561 7  99183482.95746  24221634.680                    24221634.260
       -78.016         -60.793          42.250          39.800    95050873.675 7
  24221638.100         -58.239          45.850


 117407539.849 7  91486392.44347  22341917.560                    22341916.960
     -3274.455       -2551.525          45.850          43.350



 115026605.223 8  89631134.88247  21888823.620                    21888822.200
      2235.660        1742.072          49.450          45.000



 130315460.314 6 101544518.92046  24798206.340                    24798210.120
      3715.596        2895.268          40.100          38.500    97313509.104 7
  24798212.300        2774.678          43.250


 112647673.613 8  87777401.10248  21436140.480                    21436140.400
     -1946.513       -1516.766          50.900          51.100    84120011.721 9
  21436142.740       -1453.665          54.750


 131543769.156 8                  25031949.060
     -1887.994                          49.600                    98230742.211 8
  25031952.280       -1409.895          49.950   100793273.043 8  25031949.920
     -1446.634          52.150    99512005.779 8  25031952.160       -1428.287
        53.750
 129974412.403 7                  24733309.620
      2341.211                          47.500                    97058821.960 7
  24733314.340        1748.201          47.150    99590788.901 8  24733311.960
      1793.881          48.050    98324802.583 8  24733313.380        1771.024
        50.300
 122836502.718 8                  23375004.720
       352.146                          52.450                    91728587.441 9
  23375008.000         262.948          54.850    94121495.435 9  23375005.220
       269.793          55.250    92925031.589 9  23375006.860         266.402
        57.800
 148730643.346 6                  28302503.180
      1437.186                          41.150                   111065101.164 6
  28302508.240        1073.110          40.550   113962444.454 7  28302505.640
      1101.067          42.750   112513768.462 7  28302507.680        1087.081
        44.400
 150919826.083 6                  28719099.560
     -2764.175                          38.850                   112699872.313 6
  28719106.800       -2064.214          41.100   115639859.052 6  28719103.100
     -2118.163          40.250   114169860.335 7  28719105.200       -2091.173
        43.550
 145761558.083 7                  27737499.060
      3275.627                          43.100                   108847947.754 7
  27737506.540        2445.955          42.250   111687448.186 6  27737502.960
      2509.692          41.550   110267708.122 7  27737504.380        2477.792
        44.650
 129327428.593 8                  24610183.820
      1978.498                          51.600                    96575719.005 8
  24610188.280        1477.412          50.700    99095082.477 8  24610186.740
      1515.937          52.300    97835400.396 9  24610187.660        1496.647
        54.150
 141027588.552 7                  26836663.740
      -947.773                          46.800                   105312810.039 7
  26836669.560        -707.781          45.650   108060092.137 7  26836665.780
      -726.180          45.300   106686449.745 8  26836668.160        -716.972
        48.250
 144493383.470 7                  27496188.740
     -2803.485                          42.800                   107900901.706 7
  27496193.940       -2093.579          42.650   110715698.103 7  27496192.180
     -2148.116          43.100   109308298.560 7  27496195.100       -2120.873
        45.750
 23 12 30  9 10 30.0000000  0 20G05G07G08G13G14G15G18G20G22G24G30E04
                                E05E09E15E21E24E31E34E36
 109513594.803 8  85335262.46648  20839747.560                    20839745.140
     -1216.717        -948.092          50.950          51.200



 124796313.526 7  97243869.36847  23747956.540                    23747957.140
     -2843.429       -2215.663          43.850          44.050



 130982218.583 6 102064097.41646  24925083.860                    24925086.120
        80.392          62.646          39.850          40.100    97811439.635 7
  24925088.040          60.214          42.200


 105582188.265 8  82271853.26248  20091619.080                    20091616.800
       934.339         728.056          50.300          49.950



 112422411.707 8  87601884.56747  21393264.860                    21393264.340
      1215.112         946.841          49.300          47.600    83951837.170 8
  21393268.840         907.412          53.500


 115318755.407 8  89858759.60447  21944428.340                    21944427.100
      2965.564        2310.830          48.050          45.800



 127288145.753 6  99185537.85046  24222136.540                    24222136.060
       -97.844         -76.244          41.950          40.400    95052842.927 7
  24222140.680         -73.007          46.700


 117505936.538 7  91563065.09447  22360641.820                    22360641.340
     -3285.020       -2559.760          46.000          42.850



 114959766.719 8  89579052.94147  21876104.680                    21876103.220
      2220.344        1730.138          49.400          44.700



 130204041.572 6 101457699.08246  24777004.020                    24777008.020
      3712.418        2892.794          39.800          38.700    97230306.786 7
  24777010.520        2772.126          44.200


 112706233.574 8  87823032.18748  21447284.200                    21447284.040
     -1957.282       -1525.156          50.600          50.650    84163741.491 9
  21447286.060       -1461.604          54.900


 131600502.664 8                  25042745.160
     -1893.948                          49.150                    98273108.050 8
  25042748.340       -1414.389          50.150   100836744.081 8  25042746.400
     -1451.299          52.200    99554924.216 8  25042748.180       -1432.824
        53.800
 129904214.481 7                  24719951.380
      2338.777                          47.800                    97006401.400 7
  24719956.780        1746.518          47.800    99537000.862 8  24719953.740
      1791.979          48.150    98271698.285 8  24719955.180        1769.249
        50.650
 122826059.331 8                  23373017.460
       344.192                          52.600                    91720788.767 9
  23373020.740         257.015          55.150    94113493.320 9  23373017.880
       263.705          55.150    92917131.196 9  23373019.560         260.365
        57.850
 148687730.645 7                  28294337.620
      1423.782                          42.200                   111033055.854 6
  28294342.280        1063.277          41.850   113929563.193 7  28294339.800
      1090.962          42.750   112481305.175 7  28294341.760        1077.177
        44.950
 151002842.651 6                  28734897.240
     -2770.008                          40.850                   112761865.192 7
  28734904.500       -2068.565          42.350   115703469.131 6  28734900.580
     -2122.664          39.650   114232661.812 7  28734902.660       -2095.483
        43.900
 145663311.785 7                  27718803.100
      3274.333                          43.850                   108774582.355 6
  27718810.680        2445.057          41.050   111612168.820 6  27718806.500
      2508.868          40.900   110193385.739 7  27718808.260        2476.972
        43.750
 129268253.454 8                  24598923.280
      1966.638                          51.700                    96531529.764 8
  24598927.560        1468.594          50.950    99049740.479 8  24598925.860
      1506.866          52.050    97790634.775 9  24598927.080        1487.702
        54.150
 141056241.720 7                  26842116.520
      -962.372                          46.850                   105334206.803 7
  26842122.480        -718.679          46.100   108082047.093 7  26842118.200
      -737.427          44.800   106708125.600 8  26842120.720        -728.042
        48.250
 144577559.968 7                  27512206.760
     -2808.013                          42.250                   107963760.622 7
  27512212.020       -2097.026          42.400   110780196.850 7  27512209.960
     -2151.741          42.800   109371977.395 7  27512213.560       -2124.434
        45.400
 23 12 30  9 11  0.0000000  0 20G05G07G08G13G14G15G18G20G22G24G30E04
                                E05E09E15E21E24E31E34E36
 109550396.637 8  85363939.18948  20846750.720                    20846748.320
     -1236.458        -963.475          51.100          51.050



 124881675.836 7  97310385.31247  23764200.520                    23764201.480
     -2846.811       -2218.298          44.750          44.750



 130980080.656 6 102062431.54246  24924677.020                    24924678.800
        62.461          48.673          39.350          39.700    97809843.225 7
  24924681.440          46.291          43.250


 105554348.858 8  82250160.18348  20086321.520                    20086319.260
       921.847         718.321          50.350          50.250



 112386233.389 8  87573693.67447  21386380.340                    21386379.760
      1196.922         932.667          49.550          47.150    83924820.898 8
  21386384.460         893.787          53.350


 115229916.363 7  89789534.36547  21927522.800                    21927521.560
      2957.493        2304.540          47.950          45.900



 127291366.709 7  99188047.60046  24222749.460                    24222749.000
      -116.607         -90.868          43.100          40.700    95055248.109 7
  24222754.400         -87.267          46.350


 117604634.336 7  91639972.38447  22379423.280                    22379422.880
     -3294.572       -2567.200          46.050          43.050



 114893383.900 8  89527326.08147  21863472.380                    21863471.120
      2205.553        1718.613          49.300          44.250



 130092721.757 6 101370956.35346  24755820.540                    24755824.700
      3709.258        2890.332          39.650          38.250    97147178.323 7
  24755827.140        2769.901          43.350


 112765107.249 8  87868907.72148  21458487.580                    21458487.540
     -1967.209       -1532.893          51.050          51.000    84207705.538 9
  21458489.060       -1469.172          54.500


 131657410.927 8                  25053574.320
     -1899.660                          48.700                    98315604.377 8
  25053577.760       -1418.571          49.900   100880349.008 8  25053576.100
     -1455.543          52.350    99597974.842 8  25053577.400       -1437.042
        53.950
 129834085.488 7                  24706606.280
      2336.692                          47.900                    96954032.328 7
  24706612.200        1744.941          47.850    99483265.647 8  24706608.720
      1790.391          48.250    98218646.142 8  24706610.080        1767.658
        50.950
 122815848.385 8                  23371074.460
       336.768                          52.700                    91713163.674 9
  23371077.680         251.465          54.850    94105669.318 9  23371074.760
       257.972          55.250    92909406.650 9  23371076.540         254.736
        58.050
 148645215.282 7                  28286247.440
      1410.731                          42.250                   111001307.265 6
  28286252.040        1053.645          41.800   113896986.424 7  28286249.800
      1080.865          42.700   112449142.498 7  28286251.400        1067.229
        45.200
 151086023.567 6                  28750726.160
     -2775.156                          39.950                   112823980.741 6
  28750733.420       -2072.214          41.650   115767205.112 6  28750729.080
     -2126.392          40.900   114295587.585 7  28750731.660       -2099.341
        44.500
 145565095.358 7                  27700112.800
      3273.527                          43.500                   108701239.192 7
  27700119.920        2444.685          42.200   111536912.366 6  27700116.060
      2508.355          41.200   110119085.925 7  27700118.020        2476.547
        44.650
 129209427.922 8                  24587729.180
      1955.241                          51.450                    96487601.597 8
  24587733.660        1460.090          50.950    99004666.366 8  24587731.500
      1498.185          52.000    97746133.635 9  24587733.020        1479.114
        54.400
 141085325.934 7                  26847651.340
      -976.433                          47.300                   105355925.456 7
  26847657.340        -729.030          46.100   108104332.332 7  26847652.640
      -748.128          44.700   106730127.546 8  26847655.360        -738.567
        48.550
 144661871.163 7                  27528250.560
     -2812.183                          43.250                   108026720.157 7
  27528255.680       -2100.078          42.050   110844798.799 7  27528253.680
     -2154.829          42.600   109435758.132 7  27528257.500       -2127.464
        45.350
 23 12 30  9 11 30.0000000  0 21G05G07G08G13G14G15G18G20G22G23G24G30
                                E04E05E09E15E21E24E31E34E36
 109587795.400 8  85393081.05748  20853867.460                    20853865.120
     -1256.229        -978.881          50.300          50.400



 124967142.650 7  97376982.70547  23780464.320                    23780465.540
     -2850.328       -2221.039          44.300          44.150



 130978504.658 6 102061203.52246  24924376.960                    24924378.980
        43.452          33.857          39.850          41.000    97808666.374 7
  24924382.100          32.457          44.600


 105526890.515 8  82228764.06548  20081096.540                    20081094.180
       909.124         708.409          50.600          50.200



 112350611.450 8  87545936.31547  21379601.700                    21379600.880
      1178.427         918.255          49.100          47.400    83898220.102 8
  21379606.000         879.998          53.200


 115141329.666 7  89720505.74747  21910665.240                    21910664.260
      2948.979        2297.905          46.750          46.300



 127295168.183 7  99191009.71446  24223472.980                    24223472.440
      -136.014        -105.987          43.150          40.800    95058086.778 7
  24223478.400        -101.512          46.150


 117703627.743 7  91717110.01147  22398261.080                    22398260.640
     -3304.286       -2574.772          44.900          43.250



 114827455.701 8  89475953.45947  21850926.560                    21850925.380
      2190.369        1706.781          48.900          44.800



 134885627.373 6 105105647.61245  25667881.880                    25667879.040
      3659.326        2851.410          39.550          34.350   100726292.291 6
  25667885.520        2732.753          41.600


 129981499.397 6 101284289.63446  24734655.480                    24734660.220
      3706.137        2887.898          38.950          38.350    97064122.719 7
  24734662.180        2767.483          43.600


 112824290.318 8  87915024.34348  21469749.840                    21469749.920
     -1977.564       -1540.961          51.000          50.950    84251900.611 9
  21469750.940       -1476.772          54.200


 131714491.015 8                  25064436.020
     -1905.192                          48.000                    98358229.017 8
  25064439.900       -1422.779          49.950   100924085.595 8  25064438.480
     -1459.844          52.200    99641155.458 9  25064439.320       -1441.317
        54.050
 129764023.269 7                  24693273.880
      2334.636                          47.200                    96901713.126 7
  24693280.200        1743.422          47.900    99429581.590 8  24693276.240
      1788.888          48.200    98165644.510 8  24693277.700        1766.159
        51.050
 122805867.646 8                  23369175.140
       329.155                          52.100                    91705710.493 9
  23369178.300         245.786          54.550    94098021.709 9  23369175.440
       252.216          55.200    92901856.256 9  23369177.300         248.991
        57.950
 148603095.606 6                  28278232.420
      1397.825                          41.400                   110969854.214 6
  28278237.120        1043.767          41.650   113864712.801 6  28278234.320
      1070.906          41.150   112417279.166 7  28278236.260        1057.319
        44.650
 151169364.391 6                  28766585.400
     -2780.436                          40.350                   112886215.756 6
  28766592.600       -2076.312          41.350   115831063.615 6  28766588.320
     -2130.506          39.600   114358634.339 7  28766590.840       -2103.284
        43.800
 145466907.693 7                  27681428.200
      3272.739                          43.100                   108627917.485 6
  27681434.660        2443.965          41.850   111461677.875 7  27681430.840
      2507.628          42.900   110044807.828 7  27681433.100        2475.872
        45.350
 129150950.510 8                  24576601.280
      1943.698                          50.600                    96443933.382 8
  24576605.940        1451.495          50.800    98959858.987 8  24576603.340
      1489.347          51.800    97701895.834 9  24576605.220        1470.452
        54.400
 141114837.399 7                  26853267.360
      -990.456                          46.700                   105377963.162 7
  26853273.320        -739.632          45.900   108126944.946 7  26853268.440
      -758.898          44.500   106752452.706 8  26853271.340        -749.267
        48.550
 144746312.173 6                  27544318.800
     -2816.614                          41.700                   108089776.609 7
  27544324.520       -2103.343          42.100   110909500.220 7  27544321.820
     -2158.181          42.200   109499637.071 7  27544326.160       -2130.773
        45.400
 23 12 30  9 12  0.0000000  0 21G05G07G08G13G14G15G18G20G22G23G24G30
                                E04E05E09E15E21E24E31E34E36
 109625788.063 8  85422685.69848  20861097.140                    20861094.980
     -1276.512        -994.687          50.350          50.500



 125052710.674 7  97443658.94447  23796747.460                    23796748.700
     -2854.048       -2223.937          44.350          44.550



 130977489.057 6 102060412.21246  24924183.640                    24924185.320
        23.956          18.672          39.600          39.750    97807908.051 7
  24924189.160          18.082          44.000


 105499811.787 8  82207663.74048  20075943.900                    20075941.360
       896.032         698.206          51.300          50.650



 112315544.759 8  87518611.61047  21372928.680                    21372927.620
      1159.512         903.515          49.050          47.100    83872033.932 8
  21372933.160         865.771          53.450


 115052994.940 7  89651673.46847  21893855.720                    21893854.860
      2940.038        2290.938          46.900          46.800



 127299547.296 7  99194421.91846  24224306.520                    24224305.760
      -155.719        -121.342          43.350          39.550    95061356.817 7
  24224312.120        -116.396          46.300


 117802911.801 7  91794474.12247  22417154.260                    22417153.760
     -3314.415       -2582.664          46.150          42.850



 114761982.526 8  89424935.39647  21838467.260                    21838466.140
      2174.563        1694.464          48.850          44.050



 134775907.564 6 105020151.41546  25647003.120                    25647001.180
      3655.586        2848.500          37.950          36.300   100644358.426 7
  25647005.860        2729.464          42.750


 129870373.366 6 101197698.04646  24713508.660                    24713513.920
      3702.280        2884.896          39.400          39.300    96981139.124 7
  24713515.200        2764.655          43.300


 112883778.846 8  87961378.99148  21481070.300                    21481070.300
     -1988.185       -1549.235          51.700          51.400    84296323.801 9
  21481071.100       -1484.761          54.350


 131771740.412 8                  25075330.200
     -1911.309                          48.750                    98400980.096 8
  25075334.420       -1427.312          50.350   100967951.930 8  25075332.920
     -1464.574          52.100    99684464.162 8  25075333.520       -1445.945
        53.900
 129694026.079 7                  24679953.860
      2331.932                          47.100                    96849442.489 8
  24679960.480        1741.379          48.050    99375947.369 8  24679956.220
      1786.801          48.050    98112692.080 8  24679957.660        1764.104
        50.850
 122796115.259 8                  23367319.340
       320.996                          52.350                    91698427.837 9
  23367322.380         239.696          54.550    94090549.073 9  23367319.660
       246.019          55.350    92894478.609 9  23367321.500         242.859
        57.750
 148561370.579 6                  28270292.500
      1384.065                          41.350                   110938695.805 6
  28270297.220        1033.449          40.250   113832741.570 6  28270294.280
      1060.448          40.950   112385714.338 7  28270296.000        1046.924
        43.350
 151252860.900 6                  28782474.260
     -2785.999                          41.100                   112948566.999 7
  28782481.460       -2080.400          42.100   115895041.432 6  28782477.140
     -2134.670          40.250   114421798.873 7  28782479.780       -2107.585
        44.300
 145368748.018 7                  27662748.960
      3271.171                          44.050                   108554616.661 6
  27662755.000        2442.831          40.550   111386464.847 6  27662751.480
      2506.562          41.500   109970550.894 7  27662753.800        2474.819
        43.900
 129092820.128 8                  24565539.320
      1931.638                          50.800                    96400524.307 8
  24565544.360        1442.486          51.050    98915317.509 8  24565541.200
      1480.120          51.900    97657920.562 9  24565543.440        1461.295
        54.300
 141144772.745 7                  26858964.000
     -1005.178                          46.600                   105400317.398 7
  26858969.660        -750.659          46.000   108149882.353 7  26858964.940
      -770.181          44.650   106775098.530 8  26858968.020        -760.515
        48.350
 144830878.424 7                  27560411.160
     -2821.101                          42.550                   108152926.606 7
  27560417.280       -2106.789          43.000   110974297.602 6  27560413.840
     -2161.637          41.750   109563610.765 7  27560418.660       -2134.214
        45.450
 23 12 30  9 12 30.0000000  0 21G05G07G08G13G14G15G18G20G22G23G24G30
                                E04E05E09E15E21E24E31E34E36
 109664371.398 8  85452750.60948  20868439.240                    20868437.300
     -1296.249       -1010.064          50.350          50.300



 125138376.767 7  97510411.62747  23813049.320                    23813050.480
     -2857.437       -2226.578          45.400          45.400



 130977032.095 6 102060056.18146  24924096.720                    24924098.180
         5.519           4.301          40.050          40.500    97807566.874 7
  24924102.320           4.018          44.050


 105473111.522 8  82186858.31848  20070863.220                    20070860.620
       883.272         688.264          50.650          50.550



 112281032.991 8  87491719.32047  21366361.260                    21366360.080
      1140.708         888.863          48.950          47.500    83846262.152 8
  21366365.900         851.817          53.650


 114964911.961 7  89583037.35047  21877094.180                    21877093.180
      2931.454        2284.249          47.950          45.950



 127304501.809 7  99198282.48346  24225249.540                    24225248.740
      -174.952        -136.329          42.950          40.500    95065056.539 7
  24225255.020        -130.844          46.350


 117902481.720 7  91872060.97947  22436101.820                    22436101.160
     -3324.086       -2590.201          45.350          42.850



 114696964.686 8  89374272.14047  21826094.660                    21826093.620
      2159.333        1682.598          48.550          44.350



 134666297.663 6 104934740.95846  25626145.380                    25626142.900
      3651.291        2845.158          40.950          39.500   100562506.626 7
  25626147.200        2726.722          46.050


 129759343.319 6 101111181.20646  24692380.200                    24692385.780
      3699.716        2882.898          38.750          38.200    96898227.190 7
  24692386.340        2762.259          44.300


 112943569.712 8  88007969.22548  21492448.240                    21492448.200
     -1998.499       -1557.274          51.300          51.350    84340972.754 9
  21492449.020       -1492.379          54.600


 131829157.387 8                  25086256.520
     -1917.187                          49.150                    98443856.316 8
  25086260.900       -1431.607          50.650   101011946.672 8  25086259.080
     -1468.921          51.750    99727899.643 8  25086259.660       -1450.281
        53.900
 129624092.944 7                  24666646.060
      2329.586                          47.050                    96797219.696 8
  24666652.760        1739.563          48.050    99322362.236 8  24666648.340
      1784.980          48.300    98059788.122 8  24666649.780        1762.277
        50.900
 122786590.129 8                  23365506.800
       313.313                          52.200                    91691314.892 9
  23365509.700         233.965          54.600    94083250.580 9  23365507.160
       240.022          55.550    92887272.892 9  23365508.980         236.984
        57.850
 148520039.678 6                  28262427.400
      1370.745                          40.500                   110907831.674 6
  28262432.140        1023.618          40.250   113801072.325 6  28262429.400
      1050.192          41.700   112354447.646 7  28262431.080        1036.895
        43.800
 151336509.932 6                  28798391.960
     -2791.359                          39.650                   113011032.130 6
  28798399.100       -2084.381          39.850   115959136.082 6  28798395.020
     -2138.743          39.800   114485078.759 7  28798397.840       -2111.491
        42.850
 145270616.406 7                  27644075.120
      3270.141                          43.750                   108481336.792 7
  27644080.920        2442.113          42.650   111311273.255 6  27644077.180
      2505.678          41.350   109896315.179 7  27644079.800        2473.908
        44.800
 129035036.449 8                  24554543.340
      1919.898                          50.450                    96357374.145 8
  24554548.720        1433.678          51.400    98871041.695 8  24554545.160
      1471.072          51.800    97614207.570 9  24554547.640        1452.395
        54.450
 141175129.299 7                  26864740.740
     -1019.354                          45.950                   105422986.168 7
  26864746.240        -761.171          46.400   108173142.505 7  26864741.900
      -781.023          45.300   106798062.987 8  26864744.880        -771.101
        48.850
 144915566.188 7                  27576526.720
     -2825.227                          42.400                   108216167.327 7
  27576533.220       -2109.843          42.650   111039188.129 7  27576529.320
     -2164.956          42.650   109627676.377 7  27576534.400       -2137.308
        45.650
 23 12 30  9 13  0.0000000  0 21G05G07G08G13G14G15G18G20G22G23G24G30
                                E04E05E09E15E21E24E31E34E36
 109703551.011 8  85483280.14548  20875894.820                    20875893.040
     -1316.391       -1025.760          50.500          50.550



 125224146.305 7  97577244.91947  23829371.060                    23829371.920
     -2861.253       -2229.552          45.650          45.550



 130977141.250 6 102060141.25946  24924117.420                    24924119.240
       -13.386         -10.430          39.850          39.200    97807648.417 7
  24924123.460         -10.083          44.250


 105446797.633 8  82166353.97148  20065855.860                    20065853.240
       870.313         678.165          50.650          50.350



 112247084.135 8  87465265.66247  21359901.000                    21359899.700
      1121.810         874.137          48.850          46.700    83820910.729 8
  21359905.780         837.747          53.700


 114877090.060 8  89514604.66447  21860382.460                    21860381.160
      2922.671        2277.403          48.550          46.250



 127310037.976 7  99202596.32046  24226303.240                    24226302.500
      -194.687        -151.706          43.550          40.050    95069190.597 7
  24226308.380        -145.329          46.200


 118002342.413 7  91949874.42247  22455104.800                    22455104.200
     -3333.983       -2597.912          45.750          43.150



 114632411.137 8  89323970.65947  21813810.500                    21813809.300
      2143.633        1670.363          48.650          44.650



 134556806.653 6 104849423.00346  25605310.140                    25605307.840
      3647.264        2842.015          41.200          38.150   100480743.546 7
  25605312.060        2723.625          43.650


 129648417.366 6 101024745.56546  24671271.460                    24671277.300
      3695.321        2879.473          39.650          38.500    96815393.066 7
  24671277.320        2759.582          44.000


 113003668.153 8  88054799.12648  21503884.620                    21503884.580
     -2008.741       -1565.255          51.300          51.300    84385851.397 9
  21503885.440       -1500.071          54.450


 131886748.534 8                  25097216.060
     -1923.062                          49.350                    98486862.600 8
  25097220.360       -1435.998          50.600   101056074.874 8  25097218.260
     -1473.445          51.350    99771466.891 8  25097219.000       -1454.729
        53.600
 129554231.297 7                  24653351.920
      2327.097                          47.150                    96745050.266 7
  24653358.340        1737.877          47.650    99268831.873 8  24653354.160
      1783.142          48.550    98006938.225 8  24653355.520        1760.459
        50.650
 122777299.602 8                  23363738.860
       305.375                          51.900                    91684377.133 9
  23363741.620         228.051          54.350    94076131.840 9  23363739.300
       233.979          55.650    92880244.642 9  23363741.100         230.997
        57.650
 148479110.892 6                  28254638.760
      1356.966                          40.600                   110877267.876 6
  28254644.040        1013.460          40.950   113769711.213 7  28254641.180
      1039.939          42.000   112323485.200 7  28254642.840        1026.697
        44.050
 151420316.568 6                  28814339.900
     -2796.498                          40.950                   113073614.986 6
  28814346.820       -2088.274          39.750   116023351.526 6  28814343.160
     -2142.853          40.250   114548477.920 7  28814345.660       -2115.627
        42.800
 145172521.279 7                  27625408.360
      3268.806                          44.150                   108408084.083 6
  27625413.320        2440.923          41.500   111236109.613 7  27625410.380
      2504.716          42.650   109822107.005 7  27625412.620        2472.751
        44.600
 128977607.532 8                  24543614.860
      1907.967                          50.700                    96314488.888 8
  24543620.500        1424.774          51.400    98827037.695 8  24543616.700
      1461.952          52.050    97570762.947 9  24543619.340        1443.333
        54.450
 141205912.802 7                  26870598.660
     -1033.582                          45.950                   105445973.771 7
  26870603.980        -771.880          46.350   108196729.796 7  26870600.280
      -791.947          45.850   106821350.439 8  26870602.960        -781.896
        48.900
 145000380.053 7                  27592666.540
     -2829.541                          42.850                   108279502.225 7
  27592673.400       -2113.020          43.600   111104175.234 7  27592669.280
     -2168.179          42.650   109691837.386 7  27592673.800       -2140.560
        46.050
 23 12 30  9 13 30.0000000  0 21G05G07G08G13G14G15G18G20G22G23G24G30
                                E04E05E09E15E21E24E31E34E36
 109743316.622 8  85514266.30848  20883461.960                    20883460.280
     -1335.590       -1040.721          50.250          50.300



 125310009.407 7  97644151.13847  23845710.500                    23845711.160
     -2864.032       -2231.717          45.450          45.400



 130977808.258 6 102060661.06746  24924244.360                    24924246.540
       -31.701         -24.701          38.800          38.800    97808146.581 7
  24924250.380         -23.687          43.900


 105420861.868 8  82146144.26348  20060920.380                    20060917.900
       857.829         668.438          50.300          50.050



 112213690.489 8  87439244.64147  21353546.360                    21353545.160
      1103.403         859.794          49.000          46.950    83795973.910 8
  21353551.260         824.040          53.900


 114789522.246 8  89446369.97447  21843718.940                    21843717.440
      2914.360        2270.929          48.250          46.200



 127316146.198 7  99207355.88946  24227465.720                    24227464.940
      -213.625        -166.464          43.900          39.200    95073751.834 7
  24227470.420        -159.429          46.550


 118102481.877 7  92027905.08847  22474160.820                    22474160.040
     -3343.197       -2605.093          46.050          42.050



 114568314.939 8  89274025.55547  21801613.420                    21801612.180
      2128.655        1658.692          49.000          44.000



 134447428.158 6 104764192.75345  25584496.340                    25584493.740
      3643.672        2839.215          38.650          35.300   100399064.535 7
  25584498.420        2720.941          44.250


 129537587.785 6 100938384.98346  24650181.220                    24650187.020
      3692.442        2877.231          38.600          38.150    96732630.850 7
  24650186.540        2757.348          43.050


 113064063.663 8  88101860.49948  21515377.460                    21515377.420
     -2018.508       -1572.865          51.100          51.250    84430951.866 9
  21515378.460       -1507.280          54.650


 131944504.771 8                  25108206.940
     -1928.270                          49.800                    98529992.162 8
  25108211.180       -1439.956          50.750   101100329.578 8  25108208.620
     -1477.557          50.950    99815159.024 8  25108209.820       -1458.766
        53.700
 129484432.794 7                  24640069.640
      2325.257                          47.400                    96692928.017 7
  24640075.760        1736.347          47.450    99215349.909 8  24640071.840
      1781.688          48.450    97954136.117 8  24640073.360        1758.990
        50.750
 122768235.228 8                  23362013.940
       297.982                          51.850                    91677608.240 9
  23362016.640         222.587          54.450    94069186.377 9  23362014.400
       228.358          55.400    92873387.463 9  23362016.260         225.465
        57.800
 148438576.449 6                  28246925.300
      1344.222                          41.300                   110846998.529 6
  28246930.780        1003.691          41.600   113738652.249 6  28246927.780
      1029.778          40.800   112292821.034 7  28246929.560        1016.865
        44.150
 151504270.098 6                  28830315.720
     -2801.195                          40.700                   113136307.480 7
  28830322.300       -2091.796          42.650   116087679.529 6  28830319.320
     -2146.459          41.800   114611988.157 7  28830321.480       -2119.140
        45.200
 145074455.372 7                  27606747.180
      3268.022                          44.500                   108334853.161 6
  27606751.100        2440.301          41.400   111160968.327 7  27606748.680
      2504.020          42.050   109747920.891 7  27606751.320        2472.143
        44.600
 128920525.666 8                  24532752.460
      1896.569                          50.900                    96271862.789 8
  24532758.340        1416.323          51.700    98783299.618 8  24532754.400
      1453.246          51.750    97527580.858 9  24532757.060        1434.767
        54.600
 141237113.243 7                  26876535.900
     -1047.318                          45.650                   105469272.712 7
  26876540.940        -782.001          46.450   108220636.561 7  26876537.960
      -802.407          46.100   106844953.286 8  26876540.380        -792.146
        49.200
 145085308.894 7                  27608828.260
     -2833.168                          43.900                   108342922.949 7
  27608835.380       -2115.581          43.800   111169250.442 7  27608831.040
     -2170.783          43.200   109756085.354 7  27608835.380       -2143.207
        46.350
 23 12 30  9 14  0.0000000  0 21G05G07G08G13G14G15G18G20G22G23G24G30
                                E04E05E09E15E21E24E31E34E36
 109783676.216 8  85545715.30648  20891142.200                    20891140.500
     -1355.213       -1056.012          50.800          50.600



 125395973.495 7  97711136.04547  23862069.160                    23862069.320
     -2867.168       -2234.160          45.300          45.050



 130979041.759 6 102061622.26646  24924479.060                    24924481.780
       -50.471         -39.325          40.200          39.650    97809067.739 7
  24924484.360         -37.604          43.350


 105395313.641 8  82126236.53548  20056058.560                    20056056.280
       845.178         658.580          50.450          50.200



 112180861.781 8  87413663.82347  21347299.340                    21347298.100
      1085.007         845.459          48.950          47.150    83771458.963 9
  21347304.240         810.249          54.100


 114702219.041 8  89378341.48947  21827105.660                    21827103.960
      2905.667        2264.155          48.150          45.850



 127322834.431 7  99212567.43246  24228738.440                    24228737.760
      -232.652        -181.289          43.900          39.600    95078746.194 7
  24228743.020        -173.575          47.000


 118202905.904 7  92106157.49147  22493271.100                    22493270.320
     -3352.134       -2612.056          46.250          43.100



 114504686.917 8  89224445.26647  21789505.520                    21789504.100
      2113.028        1646.515          49.400          44.100



 134338173.306 6 104679058.87146  25563705.980                    25563703.400
      3639.824        2836.216          38.950          37.300   100317477.830 7
  25563708.400        2718.113          44.600


 129426864.384 6 100852107.12446  24629111.120                    24629116.920
      3688.924        2874.488          38.800          38.000    96649947.923 7
  24629116.260        2754.847          45.100


 113124763.283 8  88149158.85048  21526928.180                    21526928.040
     -2028.327       -1580.517          51.300          51.250    84476279.429 9
  21526929.460       -1514.568          54.850


 132002434.559 8                  25119230.820
     -1933.681                          50.400                    98573251.317 8
  25119234.940       -1443.964          50.900   101144717.245 8  25119232.040
     -1481.612          50.450    99858982.432 8  25119233.680       -1462.804
        53.750
 129414706.647 7                  24626801.100
      2323.102                          47.550                    96640859.783 7
  24626806.740        1734.885          47.600    99161923.389 8  24626803.260
      1780.028          48.050    97901388.738 8  24626805.000        1757.453
        50.850
 122759406.085 8                  23360333.740
       290.462                          52.050                    91671015.025 9
  23360336.600         216.976          54.700    94062421.165 9  23360334.160
       222.617          55.000    92866708.248 9  23360336.180         219.794
        57.850
 148398446.095 6                  28239288.780
      1330.977                          40.800                   110817030.941 6
  28239294.520         994.023          41.100   113707902.906 6  28239291.220
      1019.869          39.950   112262462.568 7  28239293.020        1006.996
        43.700
 151588377.387 6                  28846320.660
     -2805.802                          40.050                   113199114.822 7
  28846327.160       -2095.284          42.250   116152125.324 6  28846324.520
     -2149.997          41.650   114675614.725 7  28846326.700       -2122.606
        45.050
 144976428.960 7                  27588093.500
      3266.877                          44.500                   108261651.774 6
  27588097.420        2439.604          41.150   111085857.263 7  27588094.700
      2503.336          42.750   109673764.662 7  27588097.200        2471.529
        45.050
 128863800.674 8                  24521957.980
      1884.973                          51.200                    96229503.186 8
  24521963.940        1407.698          52.000    98739834.987 8  24521960.120
      1444.333          51.700    97484668.740 9  24521962.660        1426.038
        54.850
 141268738.139 7                  26882553.940
     -1061.112                          46.100                   105492888.605 7
  26882558.820        -792.279          46.450   108244868.541 7  26882556.360
      -813.104          46.350   106868877.225 8  26882558.540        -802.641
        49.500
 145170359.186 7                  27625013.360
     -2836.916                          42.850                   108406434.408 7
  27625020.280       -2118.397          44.150   111234418.711 7  27625016.440
     -2173.580          43.250   109820425.216 7  27625019.900       -2146.023
        46.800
 23 12 30  9 14 30.0000000  0 21G05G07G08G13G14G15G18G20G22G23G24G30
                                E04E05E09E15E21E24E31E34E36
 109824625.147 8  85577623.52348  20898934.600                    20898932.900
     -1374.697       -1071.194          50.950          51.000



 125482033.989 7  97778196.10147  23878446.080                    23878445.860
     -2870.018       -2236.379          44.750          44.850



 130980838.816 6 102063022.64346  24924821.020                    24924824.220
       -69.190         -53.913          40.850          40.050    97810409.785 7
  24924825.740         -51.709          42.950


 105370150.340 8  82106628.74548  20051270.020                    20051267.820
       832.395         648.618          49.800          50.000



 112148596.034 8  87388521.66647  21341159.440                    21341158.260
      1066.113         830.736          48.850          47.350    83747364.392 9
  21341164.220         796.203          54.000


 114615179.085 8  89310518.14447  21810542.500                    21810540.540
      2897.004        2257.406          48.550          46.250



 127330098.827 7  99218227.90846  24230120.760                    24230120.160
      -251.784        -196.198          43.600          39.900    95084170.783 7
  24230125.580        -187.862          47.050


 118303608.341 7  92184626.83847  22512434.320                    22512433.340
     -3361.244       -2619.153          46.350          42.900



 114441526.209 8  89175229.13047  21777486.500                    21777485.200
      2097.756        1634.614          49.100          44.700



 134229041.026 6 104594020.47046  25542938.880                    25542936.620
      3636.039        2833.269          39.600          39.150   100235982.649 7
  25542941.820        2715.064          45.100


 129316245.291 6 100765910.53846  24608060.940                    24608066.620
      3685.161        2871.558          39.100          38.350    96567342.864 7
  24608065.980        2752.261          44.100


 113185762.260 8  88196690.46448  21538535.860                    21538535.720
     -2038.108       -1588.139          50.550          50.850    84521830.541 9
  21538537.420       -1521.983          54.800


 132060534.538 8                  25130287.200
     -1939.405                          50.750                    98616637.567 8
  25130291.140       -1448.248          50.800   101189235.322 8  25130287.980
     -1485.988          50.450    99902934.600 8  25130289.920       -1467.116
        53.650
 129345050.314 7                  24613545.840
      2320.702                          47.750                    96588843.692 7
  24613551.000        1733.087          47.700    99108550.355 7  24613547.880
      1778.313          47.950    97848694.178 8  24613549.940        1755.677
        50.900
 122750809.504 8                  23358697.840
       282.761                          51.800                    91664595.477 9
  23358700.820         211.153          54.750    94055834.153 9  23358698.160
       216.692          54.850    92860204.968 9  23358700.360         213.937
        57.800
 148358717.756 6                  28231728.620
      1317.419                          39.450                   110787363.551 6
  28231734.560         984.044          41.100   113677461.617 6  28231731.160
      1009.672          40.350   112232408.240 7  28231733.080         996.793
        43.850
 151672633.417 6                  28862353.920
     -2811.020                          37.850                   113262033.304 6
  28862360.520       -2099.006          39.200   116216685.121 6  28862357.900
     -2153.574          37.650   114739353.861 6  28862360.000       -2126.340
        41.600
 144878440.468 7                  27569447.000
      3265.604                          44.200                   108188478.617 7
  27569450.280        2438.688          42.600   111010775.299 6  27569448.500
      2502.305          41.500   109599637.106 7  27569450.700        2470.479
        45.200
 128807430.581 8                  24511231.060
      1873.169                          50.850                    96187408.613 8
  24511237.120        1398.799          51.900    98696642.287 8  24511233.440
      1435.315          51.600    97442025.103 9  24511235.780        1417.053
        54.750
 141300783.179 7                  26888651.880
     -1074.991                          45.450                   105516818.245 7
  26888656.680        -802.826          46.000   108269422.437 7  26888654.760
      -823.758          46.700   106893118.994 8  26888656.600        -813.278
        49.350
 145255525.565 7                  27641220.440
     -2840.700                          42.250                   108470032.532 7
  27641227.480       -2121.305          43.900   111299675.943 7  27641223.860
     -2176.603          43.500   109884852.892 7  27641226.580       -2148.946
        46.700
 23 12 30  9 15  0.0000000  0 21G05G07G08G13G14G15G18G20G22G23G24G30
                                E04E05E09E15E21E24E31E34E36
 109866158.354 8  85609987.02648  20906838.200                    20906836.340
     -1394.021       -1086.251          50.750          50.800



 125568186.407 7  97845327.77147  23894840.360                    23894840.160
     -2873.308       -2238.944          43.500          42.950



 130983196.275 6 102064859.68046  24925269.740                    24925273.080
       -87.519         -68.192          40.650          40.550    97812170.278 7
  24925274.040         -65.498          42.000


 105345369.566 8  82087319.02948  20046554.360                    20046552.240
       819.817         638.818          50.050          49.900



 112116890.955 8  87363816.39547  21335126.200                    21335125.040
      1047.698         816.388          48.750          47.650    83723688.518 8
  21335130.860         782.332          53.800


 114528401.150 8  89242898.96647  21794029.340                    21794027.120
      2888.525        2250.799          48.950          46.300



 127337935.333 7  99224334.18646  24231611.980                    24231611.640
      -270.373        -210.683          42.650          41.000    95090022.625 7
  24231617.220        -202.042          46.900


 118404583.438 7  92263308.64747  22531649.440                    22531648.520
     -3370.040       -2626.010          45.550          44.200



 114378831.392 8  89126376.01347  21765556.060                    21765554.740
      2082.299        1622.569          49.100          45.000



 134120030.830 6 104509077.20945  25522194.900                    25522192.940
      3631.840        2830.003          37.250          33.500   100154578.655 7
  25522198.300        2712.108          45.350


 129205728.401 6 100679793.54046  24587030.360                    24587035.620
      3682.328        2869.345          39.200          39.000    96484814.123 7
  24587035.060        2749.693          44.100


 113247055.701 8  88244451.53148  21550199.580                    21550199.640
     -2047.950       -1595.808          50.050          49.900    84567601.544 9
  21550201.220       -1529.257          54.350


 132118801.171 8                  25141375.360
     -1944.906                          50.950                    98660148.276 8
  25141379.020       -1452.338          50.550   101233881.107 8  25141375.820
     -1490.191          50.750    99947012.846 8  25141377.800       -1471.244
        53.350
 129275461.024 8                  24600303.420
      2318.726                          48.150                    96536877.676 7
  24600308.220        1731.547          47.750    99055228.711 8  24600305.300
      1776.657          48.000    97796050.348 8  24600307.600        1754.099
        50.700
 122742442.628 8                  23357105.720
       275.278                          51.900                    91658347.452 9
  23357108.680         205.540          54.500    94049423.148 9  23357105.860
       210.894          54.800    92853875.453 9  23357108.240         208.213
        57.400
 148319389.134 6                  28224244.780
      1304.583                          41.100                   110757994.695 6
  28224251.060         974.106          41.750   113647326.646 6  28224247.260
       999.596          40.950   112202656.325 7  28224249.340         986.720
        44.100
 151757033.410 6                  28878414.700
     -2815.656                          39.000                   113325059.217 7
  28878421.540       -2102.483          42.100   116281355.225 6  28878418.720
     -2157.325          41.900   114803201.873 7  28878420.880       -2129.907
        44.800
 144780488.186 7                  27550807.340
      3264.738                          43.700                   108115332.567 7
  27550810.860        2437.984          42.750   110935721.041 7  27550808.700
      2501.501          43.250   109525536.954 7  27550810.860        2469.745
        45.750
 128751413.251 8                  24500571.320
      1861.521                          50.900                    96145577.464 8
  24500577.320        1390.152          51.850    98653719.897 8  24500574.000
      1426.387          51.900    97399648.333 9  24500576.040        1408.246
        54.650
 141333243.896 7                  26894828.980
     -1088.772                          45.600                   105541058.287 7
  26894833.500        -813.067          45.050   108294294.830 7  26894832.180
      -834.232          46.950   106917675.209 8  26894833.720        -823.594
        48.800
 145340802.512 7                  27657448.420
     -2844.327                          42.800                   108533713.260 7
  27657455.420       -2123.860          44.100   111365017.893 7  27657452.480
     -2179.400          44.050   109949364.229 7  27657454.200       -2151.632
        46.650
 23 12 30  9 15 30.0000000  0 21G05G07G08G13G14G15G18G20G22G23G24G30
                                E04E05E09E15E21E24E31E34E36
 109908280.336 8  85642809.31148  20914853.800                    20914851.800
     -1414.194       -1101.972          50.800          50.800



 125654435.058 7  97912534.41147  23911252.700                    23911253.060
     -2877.163       -2241.949          42.450          42.100



 130986119.748 6 102067137.74446  24925825.880                    24925829.840
      -107.293         -83.603          38.950          39.100    97814353.417 7
  24925830.200         -79.968          42.800


 105320977.255 8  82068312.00048  20041912.720                    20041910.640
       806.195         628.204          50.050          50.050



 112085753.172 8  87339553.16847  21329200.860                    21329199.740
      1028.077         801.099          48.550          47.500    83700436.242 8
  21329205.440         767.845          53.750


 114441892.393 8  89175489.55347  21777567.380                    21777565.320
      2878.771        2243.198          48.750          47.400



 127346348.644 7  99230889.92546  24233213.020                    24233212.700
      -290.274        -226.191          42.350          41.250    95096305.191 7
  24233218.680        -216.753          47.050


 118505833.838 7  92342204.97147  22550916.940                    22550916.020
     -3379.907       -2633.695          46.200          42.550



 114316609.959 8  89077891.78447  21753715.720                    21753714.640
      2065.738        1609.666          49.050          44.950



 134011150.555 6 104424235.15346  25501475.840                    25501474.220
      3626.848        2826.107          38.900          38.450   100073271.565 7
  25501479.280        2708.422          44.400


 129095320.426 6 100593761.41846  24566020.440                    24566025.360
      3678.212        2866.146          38.550          38.250    96402366.669 7
  24566024.880        2746.714          43.900


 113308647.489 8  88292445.07348  21561920.000                    21561920.420
     -2058.344       -1603.905          49.750          49.750    84613595.335 9
  21561921.700       -1536.989          54.400


 132177239.722 8                  25152496.120
     -1951.002                          50.850                    98703787.375 8
  25152499.680       -1456.888          50.700   101278658.624 8  25152496.400
     -1494.958          50.900    99991221.153 8  25152498.300       -1475.902
        53.750
 129205944.895 7                  24587075.040
      2315.765                          47.800                    96484966.273 8
  24587079.560        1729.313          48.000    99001963.092 8  24587076.680
      1774.402          48.100    97743461.834 8  24587079.140        1751.911
        51.100
 122734311.433 8                  23355558.480
       266.756                          52.200                    91652275.418 9
  23355561.480         199.287          54.700    94043192.713 9  23355558.460
       204.508          54.900    92847724.219 9  23355560.980         201.870
        57.800
 148280466.928 7                  28216838.380
      1290.283                          42.650                   110728929.305 7
  28216844.960         963.591          42.550   113617503.053 6  28216840.480
       988.693          40.900   112173211.826 7  28216843.040         976.220
        44.800
 151841581.137 6                  28894503.400
     -2820.935                          38.200                   113388195.446 6
  28894510.500       -2106.594          41.100   116346138.470 6  28894507.920
     -2161.529          40.050   114867161.612 7  28894509.680       -2134.050
        43.650
 144682579.222 7                  27532175.940
      3262.677                          44.450                   108042218.820 6
  27532178.960        2436.366          41.950   110860699.981 7  27532177.460
      2500.055          43.600   109451469.555 7  27532179.340        2468.183
        45.750
 128695755.321 8                  24489980.000
      1849.034                          51.000                    96104014.708 8
  24489985.940        1380.789          51.800    98611072.893 8  24489982.800
      1416.734          52.000    97357543.450 9  24489984.680        1398.787
        54.850
 141366124.545 7                  26901086.040
     -1103.245                          45.950                   105565611.930 7
  26901090.340        -823.800          44.750   108319488.997 7  26901089.560
      -845.307          47.200   106942549.115 8  26901090.620        -834.544
        48.950
 145426193.218 7                  27673697.760
     -2848.296                          42.050                   108597478.880 7
  27673705.340       -2127.024          44.200   111430447.018 7  27673702.400
     -2182.673          44.050   110013961.603 7  27673703.620       -2154.902
        46.900
 23 12 30  9 16  0.0000000  0 21G05G07G08G13G14G15G18G20G22G23G24G30
                                E04E05E09E15E21E24E31E34E36
 109950987.896 8  85676087.89248  20922980.860                    20922978.640
     -1433.070       -1116.680          50.800          50.800



 125740776.927 6  97979813.69246  23927682.740                    23927683.260
     -2879.728       -2243.947          41.850          41.850



 130989607.978 6 102069855.91446  24926489.660                    24926494.000
      -125.381         -97.695          40.200          40.900    97816958.342 7
  24926494.280         -93.654          43.100


 105296972.258 8  82049606.78648  20037344.720                    20037342.680
       794.024         618.720          50.200          50.000



 112055181.754 8  87315731.26147  21323383.200                    21323382.320
      1009.930         786.957          48.300          47.450    83677606.916 8
  21323387.760         754.102          53.600


 114355652.839 8  89108289.91747  21761156.560                    21761154.840
      2870.275        2236.579          48.800          47.350



 127355336.071 7  99237893.03847  24234923.200                    24234923.020
      -308.879        -240.687          42.100          42.200    95103016.479 7
  24234929.160        -230.636          46.550


 118607354.712 7  92421312.05747  22570235.880                    22570234.960
     -3388.259       -2640.206          46.150          42.350



 114254861.824 8  89029776.35447  21741965.400                    21741964.420
      2050.691        1597.941          48.950          44.700



 133902400.494 6 104339494.56045  25480781.440                    25480779.880
      3622.958        2823.070          36.700          33.150    99992061.798 7
  25480785.260        2705.542          44.300


 128985020.803 6 100507813.68846  24545031.260                    24545035.660
      3675.447        2863.982          38.800          38.150    96320000.137 7
  24545035.520        2744.389          44.000


 113370534.089 8  88340668.34348  21573696.580                    21573697.360
     -2067.416       -1610.976          49.700          49.450    84659809.290 9
  21573698.280       -1543.918          54.250


 132235848.081 8                  25163649.020
     -1956.081                          50.550                    98747553.279 8
  25163652.680       -1460.706          50.700   101323566.241 8  25163649.180
     -1498.813          51.000   100035557.911 8  25163651.060       -1479.748
        53.550
 129136500.566 7                  24573860.380
      2313.928                          47.700                    96433108.485 8
  24573864.640        1727.838          48.050    98948752.492 8  24573861.860
      1772.962          48.300    97690927.642 8  24573864.340        1750.407
        51.000
 122726414.423 8                  23354055.800
       259.622                          51.900                    91646378.273 9
  23354058.920         193.854          54.700    94037141.731 9  23354055.720
       198.924          55.100    92841750.156 9  23354058.220         196.372
        57.700
 148241950.211 7                  28209509.120
      1277.327                          42.400                   110700166.745 7
  28209515.800         953.857          42.050   113587990.152 6  28209510.940
       978.799          41.300   112144074.100 7  28209513.660         966.313
        44.650
 151926272.778 6                  28910619.700
     -2825.079                          40.600                   113451439.175 6
  28910627.060       -2109.608          40.400   116411032.053 6  28910624.580
     -2164.793          40.950   114931230.265 7  28910626.020       -2137.260
        43.400
 144584713.280 7                  27513552.680
      3261.802                          44.300                   107969137.254 6
  27513555.940        2435.663          41.450   110785711.901 7  27513554.100
      2499.164          43.550   109377434.717 7  27513555.960        2467.538
        45.200
 128640456.023 8                  24479456.920
      1837.515                          50.950                    96062719.746 8
  24479462.800        1372.229          51.850    98568700.671 8  24479459.920
      1408.033          52.150    97315709.859 9  24479461.560        1390.144
        54.750
 141399422.053 7                  26907422.480
     -1116.479                          45.700                   105590476.881 7
  26907426.740        -833.862          44.850   108345002.591 7  26907426.260
      -855.593          47.150   106967738.385 8  26907426.780        -844.710
        48.700
 145511693.591 6                  27689967.780
     -2851.516                          40.600                   108661326.398 7
  27689975.820       -2129.352          43.650   111495960.114 7  27689973.340
     -2184.927          44.850   110078641.907 7  27689973.960       -2157.114
        46.850
 23 12 30  9 16 30.0000000  0 21G05G07G08G13G14G15G18G20G22G23G24G30
                                E04E05E09E15E21E24E31E34E36
 109994277.753 8  85709820.21048  20931218.700                    20931216.380
     -1451.947       -1131.389          50.950          50.900



 125827208.458 6  98047162.81246  23944129.940                    23944130.300
     -2881.962       -2245.689          41.650          41.600



 130993659.029 6 102073012.63546  24927260.560                    24927264.960
      -143.799        -112.049          39.600          40.400    97819983.535 7
  24927265.320        -107.418          42.350


 105273353.469 8  82031202.49848  20032850.160                    20032848.080
       781.460         608.930          50.050          50.050



 112025175.803 8  87292349.98247  21317673.120                    21317672.520
       991.421         772.535          48.850          47.350    83655199.852 8
  21317677.720         740.354          53.350


 114269682.203 8  89041299.83447  21744796.980                    21744795.400
      2861.963        2230.102          49.700          46.700



 127364894.831 7  99245341.35046  24236742.060                    24236742.140
      -327.372        -255.097          42.250          41.850    95110154.439 7
  24236747.880        -244.616          45.800


 118709141.286 7  92500626.17347  22589605.400                    22589604.540
     -3396.737       -2646.812          46.950          42.000



 114193587.311 8  88982029.97247  21730305.280                    21730304.320
      2035.209        1585.876          49.250          43.900



 133793781.452 6 104254856.05246  25460112.200                    25460110.560
      3619.286        2820.211          38.250          38.100    99910949.848 7
  25460116.360        2702.660          44.400


 128874828.773 6 100421949.86146  24524062.560                    24524066.400
      3671.890        2861.217          39.350          38.900    96237713.989 7
  24524066.720        2741.991          44.600


 113432712.005 8  88389118.60148  21585528.700                    21585529.740
     -2076.734       -1618.237          50.250          50.250    84706240.775 9
  21585530.340       -1550.832          54.050


 132294624.066 8                  25174833.680
     -1961.368                          50.550                    98791444.350 8
  25174837.540       -1464.596          50.700   101368602.305 8  25174833.800
     -1502.881          50.950   100080021.482 8  25174835.720       -1483.760
        53.550
 129067126.714 7                  24560659.140
      2311.997                          47.850                    96381303.314 8
  24560663.300        1726.459          48.050    98895595.888 8  24560660.480
      1771.557          48.600    97638446.758 8  24560662.960        1749.002
        51.100
 122718750.120 8                  23352597.340
       252.309                          52.100                    91640654.906 9
  23352600.580         188.398          54.650    94031269.059 9  23352597.440
       193.264          55.450    92835952.135 9  23352599.740         190.831
        57.800
 148203838.011 6                  28202256.620
      1264.447                          41.750                   110671706.258 7
  28202263.460         944.132          42.450   113558787.237 6  28202258.520
       968.748          41.650   112115242.393 7  28202261.200         956.539
        44.850
 152011104.918 6                  28926762.740
     -2829.258                          41.700                   113514787.851 6
  28926770.020       -2112.806          40.850   116476033.301 6  28926767.500
     -2168.018          41.150   114995405.220 7  28926769.040       -2140.358
        43.850
 144486890.014 7                  27494937.360
      3260.767                          44.900                   107896087.550 7
  27494940.400        2434.827          42.600   110710756.577 7  27494939.560
      2498.378          43.900   109303432.213 7  27494940.880        2466.643
        46.000
 128585514.524 8                  24469002.020
      1826.109                          51.600                    96021691.983 8
  24469007.760        1363.633          51.600    98526602.628 8  24469004.940
      1399.188          52.450    97274146.956 9  24469006.580        1381.421
        54.800
 141433133.310 7                  26913837.620
     -1130.047                          46.650                   105615650.788 7
  26913842.000        -843.818          44.750   108370833.196 7  26913841.520
      -865.799          46.750   106993240.643 8  26913841.660        -854.824
        48.350
 145597299.466 6                  27706257.600
     -2854.671                          41.600                   108725252.687 7
  27706266.380       -2131.673          43.850   111561554.043 7  27706264.180
     -2187.254          44.850   110143402.015 7  27706264.220       -2159.446
        46.850
 23 12 30  9 17  0.0000000  0 21G05G07G08G13G14G15G18G20G22G23G24G30
                                E04E05E09E15E21E24E31E34E36
 110038150.397 8  85744006.64248  20939567.420                    20939565.200
     -1472.149       -1147.131          50.750          50.750



 125913730.287 6  98114582.31646  23960594.460                    23960593.960
     -2885.687       -2248.589          41.100          41.300



 130998274.890 6 102076609.45446  24928139.060                    24928143.340
      -163.227        -127.187          40.050          40.100    97823430.503 7
  24928143.920        -121.933          43.400


 105250123.383 8  82013101.09748  20028429.520                    20028427.440
       767.886         598.351          49.750          49.700



 111995738.261 8  87269411.62147  21312071.300                    21312070.980
       971.630         757.113          48.650          47.900    83633217.241 8
  21312075.820         725.626          53.250


 114183984.669 8  88974522.54547  21728489.300                    21728487.800
      2851.918        2222.273          49.600          46.500



 127375026.064 7  99253235.74146  24238669.880                    24238670.280
      -347.244        -270.582          43.250          41.050    95117719.874 7
  24238675.240        -259.317          45.750


 118811192.711 7  92580146.66946  22609025.280                    22609024.380
     -3406.053       -2654.071          46.650          41.650



 114132790.219 8  88934655.60047  21718735.960                    21718735.060
      2018.463        1572.827          49.200          44.550



 133685297.705 6 104170323.00946  25439468.800                    25439467.020
      3613.597        2815.780          39.850          38.750    99829938.916 7
  25439472.940        2698.647          45.300


 128764747.570 6 100336172.38846  24503114.680                    24503118.540
      3667.181        2857.549          38.600          38.350    96155510.574 7
  24503118.880        2738.694          43.900


 113495181.555 8  88437796.10748  21597416.260                    21597417.360
     -2087.289       -1626.462          49.950          50.100    84752890.039 9
  21597417.960       -1558.681          54.050


 132353569.423 8                  25186050.480
     -1967.777                          50.100                    98835461.897 8
  25186054.600       -1469.441          50.850   101413768.139 8  25186050.360
     -1507.811          50.400   100124613.168 8  25186052.660       -1488.590
        53.450
 128997825.855 7                  24547471.760
      2308.667                          47.750                    96329552.651 8
  24547475.920        1724.014          48.350    98842495.214 8  24547472.960
      1768.956          48.200    97586021.084 8  24547475.460        1746.517
        51.150
 122711320.950 8                  23351183.620
       243.615                          52.150                    91635107.118 9
  23351186.940         181.956          54.800    94025576.548 9  23351183.980
       186.676          55.450    92830331.986 9  23351185.980         184.326
        57.950
 148166133.363 6                  28195081.640
      1249.801                          41.550                   110643550.107 7
  28195088.560         933.440          42.750   113529896.582 6  28195084.080
       957.813          41.650   112086719.006 7  28195086.240         945.537
        45.000
 152096077.651 6                  28942932.480
     -2834.693                          39.950                   113578241.531 7
  28942939.640       -2117.012          42.400   116541142.285 7  28942937.080
     -2172.063          42.250   115059686.555 7  28942938.880       -2144.469
        45.250
 144389112.980 7                  27476330.880
      3258.429                          43.900                   107823072.365 7
  27476333.640        2433.223          42.350   110635836.646 7  27476333.020
      2496.627          45.100   109229464.657 7  27476334.400        2464.946
        46.600
 128530933.908 8                  24458615.820
      1813.277                          51.700                    95980933.708 8
  24458621.500        1354.072          51.800    98484781.095 8  24458618.640
      1389.396          52.250    97232857.056 9  24458620.280        1371.712
        54.850
 141467259.004 7                  26920331.640
     -1144.510                          46.600                   105641134.183 7
  26920336.300        -854.637          45.750   108396981.392 7  26920335.460
      -877.032          45.900   107019056.437 8  26920335.480        -865.832
        48.700
 145683010.580 6                  27722567.580
     -2858.796                          40.050                   108789257.549 7
  27722577.300       -2134.910          44.100   111627228.661 7  27722574.780
     -2190.668          44.150   110208241.756 7  27722574.720       -2162.827
        46.850
 23 12 30  9 17 30.0000000  0 21G05G07G08G13G14G15G18G20G22G23G24G30
                                E04E05E09E15E21E24E31E34E36
 110082605.706 8  85778647.09448  20948027.020                    20948024.860
     -1491.796       -1162.439          50.650          50.650



 126000342.817 7  98182072.51647  23977076.540                    23977075.040
     -2888.826       -2251.035          42.350          42.650



 131003457.285 6 102080647.70746  24929125.340                    24929129.460
      -182.461        -142.177          39.750          39.300    97827300.510 7
  24929130.160        -136.355          42.550


 105227284.418 8  81995304.47648  20024083.320                    20024081.320
       754.463         587.893          49.250          49.150



 111966871.516 8  87246918.03548  21306578.160                    21306578.000
       952.469         742.184          48.450          48.000    83611660.879 8
  21306582.580         711.198          53.050


 114098563.414 8  88907960.56047  21712234.040                    21712232.760
      2842.435        2214.885          48.800          47.400



 127385730.269 7  99261576.59746  24240707.020                    24240707.420
      -366.464        -285.559          42.450          40.800    95125713.198 7
  24240711.720        -273.778          45.800


 118913507.547 7  92659872.41647  22628495.380                    22628494.380
     -3415.137       -2661.149          46.250          42.550



 114072474.057 8  88887655.98747  21707258.140                    21707257.260
      2002.272        1560.212          48.700          44.300



 133576953.181 6 104085898.40346  25418851.820                    25418850.260
      3608.840        2812.072          39.250          38.600    99749031.959 7
  25418855.820        2694.915          45.350


 128654779.731 6 100250483.23446  24482188.480                    24482192.160
      3663.495        2854.676          38.700          38.650    96073391.829 7
  24482192.620        2735.627          44.950


 113557942.567 8  88486700.72248  21609359.180                    21609360.200
     -2097.219       -1634.198          49.350          49.400    84799756.942 8
  21609360.980       -1566.064          53.800


 132412685.304 8                  25197299.720
     -1973.625                          49.750                    98879606.782 8
  25197304.020       -1473.788          50.700   101459064.646 8  25197299.380
     -1512.291          50.150   100169333.868 8  25197302.120       -1493.088
        53.000
 128928599.991 7                  24534298.640
      2305.926                          47.850                    96277857.977 8
  24534302.880        1721.996          48.300    98789451.987 7  24534299.720
      1766.887          47.900    97533652.135 8  24534302.240        1744.469
        50.800
 122704128.777 8                  23349815.080
       235.465                          52.000                    91629736.306 9
  23349818.400         175.835          54.750    94020065.632 9  23349815.700
       180.409          55.650    92824891.120 9  23349817.360         178.139
        57.700
 148128838.552 6                  28187984.620
      1236.182                          41.950                   110615700.039 7
  28187991.680         922.948          42.750   113501319.982 6  28187987.200
       947.052          40.900   112058505.666 7  28187989.220         935.029
        44.500
 152181190.536 6                  28959129.180
     -2839.860                          37.600                   113641799.788 6
  28959136.160       -2120.550          39.500   116606358.566 6  28959133.600
     -2175.809          40.300   115124073.835 7  28959135.280       -2148.264
        42.400
 144291385.111 7                  27457733.680
      3256.479                          44.050                   107750093.947 7
  27457737.000        2431.856          42.350   110560954.398 7  27457735.740
      2495.409          43.700   109155534.326 7  27457737.360        2463.510
        45.600
 128476716.703 8                  24448298.840
      1800.869                          51.400                    95940446.805 8
  24448304.300        1344.789          51.550    98443238.018 8  24448301.340
      1379.868          52.300    97191842.063 9  24448303.120        1362.356
        54.550
 141501799.327 7                  26926904.480
     -1158.532                          46.650                   105666927.196 7
  26926909.640        -865.255          46.050   108423447.281 7  26926908.140
      -887.676          45.450   107045185.888 8  26926908.380        -876.436
        48.350
 145768826.079 6                  27738897.820
     -2862.382                          40.000                   108853340.416 7
  27738907.280       -2137.620          42.900   111692983.251 7  27738905.080
     -2193.383          44.500   110273160.489 7  27738905.200       -2165.562
        46.100
 23 12 30  9 18  0.0000000  0 21G05G07G08G13G14G15G18G20G22G23G24G30
                                E04E05E09E15E21E24E31E34E36
 110127639.584 8  85813738.37448  20956596.680                    20956594.700
     -1510.760       -1177.217          50.250          50.250



 126087042.302 7  98249630.48247  23993575.180                    23993573.400
     -2891.370       -2253.018          42.950          43.050



 131009203.374 6 102085125.23046  24930218.660                    24930222.560
      -201.156        -156.745          39.450          39.600    97831591.402 7
  24930223.580        -150.025          42.900


 105204834.344 8  81977810.88048  20019811.100                    20019809.220
       741.744         577.982          49.350          49.400



 111938573.862 8  87224867.88948  21301193.380                    21301193.240
       933.779         727.619          48.600          48.150    83590529.483 8
  21301197.600         697.281          53.050


 114013417.669 8  88841613.27347  21696031.220                    21696030.220
      2833.477        2207.905          49.350          47.600



 127397003.939 7  99270361.20746  24242852.540                    24242852.860
      -385.233        -300.184          42.550          41.500    95134131.753 7
  24242856.840        -287.701          45.950


 119016080.698 7  92739799.43546  22648014.440                    22648013.440
     -3423.388       -2667.578          46.550          41.000



 114012638.103 8  88841030.55047  21695871.720                    21695870.820
      1986.545        1547.957          48.750          44.800



 133468747.663 6 104001582.20246  25398261.080                    25398259.420
      3604.176        2808.437          38.150          36.950    99668228.872 7
  25398265.440        2691.682          44.800


 128544923.889 6 100164881.40346  24461283.240                    24461287.300
      3659.901        2851.879          37.950          39.250    95991356.747 7
  24461287.640        2733.133          44.500


 113620990.785 8  88535829.13848  21621356.800                    21621357.640
     -2106.445       -1641.389          49.050          48.850    84846838.325 8
  21621358.600       -1572.930          53.750


 132471968.880 8                  25208580.980
     -1978.829                          49.750                    98923876.895 8
  25208585.340       -1477.721          50.750   101504489.650 8  25208580.440
     -1516.337          50.250   100214181.424 8  25208583.560       -1497.022
        53.600
 128859447.150 8                  24521139.380
      2303.780                          48.050                    96226217.831 8
  24521143.760        1720.396          48.550    98736464.695 7  24521140.320
      1765.368          47.800    97481338.421 8  24521142.880        1742.867
        51.350
 122697171.407 8                  23348491.200
       227.980                          51.800                    91624540.826 9
  23348494.560         170.270          54.850    94014734.622 9  23348492.080
       174.699          55.750    92819627.875 9  23348493.440         172.496
        58.300
 148091952.105 6                  28180965.440
      1222.598                          40.900                   110588154.870 6
  28180972.640         913.015          41.900   113473056.250 6  28180968.020
       936.819          40.200   112030601.215 7  28180969.940         924.930
        44.150
 152266439.319 6                  28975351.560
     -2843.943                          37.500                   113705459.691 6
  28975358.940       -2123.805          38.650   116671679.167 6  28975356.000
     -2179.004          38.300   115188564.081 6  28975357.540       -2151.373
        41.650
 144193705.384 7                  27439145.580
      3255.106                          43.750                   107677151.519 7
  27439149.320        2430.740          42.550   110486109.083 7  27439147.960
      2494.231          44.600   109081640.455 7  27439149.260        2462.469
        46.600
 128422861.384 8                  24438050.740
      1789.138                          51.350                    95900230.147 8
  24438056.100        1336.021          51.750    98401972.229 8  24438052.880
      1370.901          52.100    97151100.840 9  24438054.860        1353.478
        54.950
 141536750.429 7                  26933555.560
     -1171.878                          46.600                   105693026.942 7
  26933560.940        -875.023          46.350   108450227.943 7  26933558.900
      -898.025          45.100   107071626.092 8  26933559.660        -886.521
        49.000
 145854741.245 6                  27755246.860
     -2865.751                          41.250                   108917497.609 7
  27755256.520       -2139.823          43.700   111758814.143 7  27755254.160
     -2195.578          43.800   110338154.529 7  27755254.400       -2167.718
        46.700
 23 12 30  9 18 30.0000000  0 21G05G07G08G13G14G15G18G20G22G23G24G30
                                E04E05E09E15E21E24E31E34E36
 110173251.413 8  85849279.99948  20965276.400                    20965274.440
     -1530.040       -1192.242          50.500          50.400



 126173828.433 7  98317255.93847  24010090.440                    24010088.760
     -2894.438       -2255.411          43.700          43.950



 131015514.244 6 102090042.84846  24931419.400                    24931423.400
      -219.833        -171.296          39.600          40.100    97836304.133 7
  24931424.020        -164.213          42.750


 105182774.675 8  81960621.49648  20015613.280                    20015611.360
       728.697         567.815          49.650          49.750



 111910847.186 8  87203262.66048  21295917.300                    21295917.080
       914.685         712.739          48.800          48.550    83569824.470 8
  21295921.360         682.955          53.050


 113928550.557 8  88775483.09747  21679881.540                    21679880.560
      2824.135        2200.625          49.750          47.550



 127408847.049 7  99279589.52546  24245106.400                    24245106.620
      -404.206        -314.968          42.650          41.250    95142975.548 7
  24245110.500        -301.952          46.150


 119118909.934 7  92819926.00646  22667582.320                    22667581.200
     -3431.944       -2674.246          46.400          41.200



 113953285.089 8  88794781.43047  21684577.280                    21684576.220
      1970.199        1535.220          48.850          45.000



 133360684.816 6 103917377.06946  25377697.920                    25377696.100
      3599.520        2804.808          38.250          37.750    99587532.287 7
  25377702.340        2687.979          45.050


 128435182.261 6 100079368.52346  24440399.700                    24440404.160
      3656.010        2848.842          37.550          37.150    95909406.943 7
  24440404.380        2730.153          44.200


 113684325.542 8  88585180.83348  21633409.000                    21633409.820
     -2115.979       -1648.816          49.000          49.100    84894133.690 8
  21633410.760       -1580.185          53.650


 132531420.836 8                  25219894.400
     -1984.557                          49.700                    98968272.754 8
  25219898.500       -1482.034          50.650   101550043.673 8  25219893.900
     -1520.717          50.050   100259156.364 8  25219897.060       -1501.347
        53.350
 128790368.850 8                  24507994.260
      2301.179                          48.400                    96174633.349 8
  24507998.840        1718.406          48.800    98683534.528 7  24507995.040
      1763.285          47.200    97429081.095 8  24507997.680        1740.822
        51.100
 122690450.243 8                  23347212.240
       219.942                          52.000                    91619521.732 9
  23347215.680         164.233          54.950    94009584.599 9  23347213.260
       168.519          55.300    92814543.316 9  23347214.480         166.393
        58.100
 148055475.887 6                  28174024.320
      1208.985                          41.850                   110560916.042 6
  28174031.460         902.813          41.850   113445106.850 6  28174026.800
       926.425          40.350   112003007.101 7  28174028.780         914.602
        44.250
 152351823.430 6                  28991599.320
     -2848.499                          39.600                   113769220.496 6
  28991607.400       -2127.075          40.700   116737103.318 6  28991604.300
     -2182.608          39.350   115253156.554 7  28991605.500       -2154.747
        43.100
 144096076.395 7                  27420567.180
      3253.287                          43.800                   107604246.919 7
  27420570.660        2429.449          43.050   110411302.642 7  27420569.720
      2492.737          43.950   109007784.930 7  27420571.060        2461.150
        46.550
 128369369.949 8                  24427871.820
      1776.807                          51.750                    95860285.217 8
  24427877.020        1326.853          51.850    98360985.272 8  24427873.580
      1361.410          51.650    97110634.897 9  24427875.820        1344.162
        54.800
 141572111.933 7                  26940284.740
     -1185.573                          46.250                   105719433.178 7
  26940290.220        -885.432          46.450   108477323.059 7  26940287.800
      -908.594          45.000   107098376.769 8  26940289.100        -897.000
        48.900
 145940754.591 6                  27771615.300
     -2868.708                          40.950                   108981728.227 7
  27771624.160       -2142.287          42.650   111824720.381 7  27771621.880
     -2198.231          43.800   110403222.952 7  27771622.580       -2170.190
        46.150
 23 12 30  9 19  0.0000000  0 21G05G07G08G13G14G15G18G20G22G23G24G30
                                E04E05E09E15E21E24E31E34E36
 110219440.282 8  85885271.26648  20974065.940                    20974063.900
     -1549.071       -1207.070          51.050          51.050



 126260700.375 7  98384948.24847  24026622.060                    24026620.400
     -2896.798       -2257.249          44.200          44.450



 131022390.463 6 102095400.94346  24932727.920                    24932731.520
      -238.405        -185.771          40.700          40.500    97841438.999 7
  24932732.060        -178.216          42.650


 105161106.737 8  81943737.36448  20011490.080                    20011488.000
       715.905         557.848          49.800          49.700



 111883692.986 8  87182103.52047  21290750.140                    21290749.800
       895.640         697.899          49.300          47.600    83549546.951 8
  21290754.060         668.828          53.050


 113843964.604 8  88709572.00247  21663785.380                    21663784.220
      2814.963        2193.479          49.650          46.700



 127421259.275 7  99289261.35246  24247468.460                    24247468.640
      -423.312        -329.854          42.350          40.300    95152244.337 7
  24247472.540        -316.092          45.900


 119221993.285 7  92900250.57946  22687198.480                    22687197.540
     -3440.096       -2680.598          46.900          40.850



 113894417.601 8  88748910.64847  21673375.320                    21673374.220
      1954.258        1522.798          49.950          44.100



 133252767.573 6 103833285.48145  25357162.340                    25357160.300
      3594.956        2801.253          39.650          33.950    99506944.431 7
  25357166.700        2684.522          44.250


 128325556.543 6  99993946.02946  24419538.260                    24419543.100
      3652.463        2846.079          37.950          37.500    95827543.737 7
  24419543.460        2727.391          45.250


 113747945.860 8  88634755.04848  21645515.600                    21645516.640
     -2125.462       -1656.207          49.700          49.850    84941642.293 8
  21645517.140       -1587.167          53.400


 132591041.499 8                  25231239.880
     -1990.151                          49.650                    99012794.581 8
  25231243.820       -1486.172          50.500   101595726.952 8  25231239.660
     -1524.913          50.250   100304258.918 8  25231242.640       -1505.517
        53.500
 128721366.267 8                  24494863.540
      2298.904                          48.700                    96123105.401 8
  24494868.260        1716.733          48.850    98630662.367 7  24494864.240
      1761.541          47.200    97376881.037 8  24494866.840        1739.142
        51.250
 122683966.294 8                  23345978.440
       212.267                          52.600                    91614679.784 9
  23345981.920         158.512          55.000    94004616.348 9  23345979.480
       162.625          55.350    92809638.215 9  23345980.680         160.595
        58.250
 148019411.477 6                  28167161.600
      1195.426                          41.550                   110533984.731 6
  28167168.400         892.707          41.900   113417473.027 6  28167164.200
       915.968          40.500   111975724.538 7  28167166.140         904.289
        44.300
 152437341.405 5                  29007872.760
     -2852.396                          35.250                   113833081.347 6
  29007880.800       -2130.363          36.700   116802630.140 6  29007877.940
     -2185.903          36.850   115317850.383 6  29007879.260       -2157.991
        40.100
 143998500.197 7                  27401998.660
      3251.724                          43.950                   107531381.799 7
  27402002.280        2428.145          42.000   110336536.668 7  27402001.380
      2491.572          44.650   108933969.377 7  27402002.720        2459.912
        46.550
 128316244.063 8                  24417762.400
      1764.894                          52.100                    95820613.276 8
  24417767.560        1317.913          51.900    98320278.414 8  24417763.900
      1352.234          51.700    97070445.497 9  24417766.360        1335.063
        54.950
 141607883.167 7                  26947091.840
     -1199.170                          45.900                   105746145.365 7
  26947097.340        -895.500          46.300   108504732.098 7  26947094.840
      -918.787          45.550   107125437.387 8  26947096.420        -907.151
        49.150
 146026864.690 7                  27788001.960
     -2871.859                          42.800                   109046031.021 7
  27788010.180       -2144.461          43.000   111890700.667 7  27788007.840
     -2200.505          43.000   110468364.494 7  27788008.900       -2172.474
        46.100
 23 12 30  9 19 30.0000000  0 21G05G07G08G13G14G15G18G20G22G23G24G30
                                E04E05E09E15E21E24E31E34E36
 110266203.944 8  85921710.41848  20982964.820                    20982962.780
     -1567.433       -1221.379          51.250          51.100



 126347655.868 7  98452705.66647  24043169.380                    24043167.880
     -2899.007       -2258.969          44.700          44.600



 131029830.771 6 102101198.61446  24934143.740                    24934147.220
      -256.547        -199.904          39.300          39.800    97846995.091 6
  24934147.520        -191.418          41.800


 105139830.149 8  81927158.18248  20007441.380                    20007439.080
       703.602         548.260          49.750          49.750



 111857110.912 8  87161390.19147  21285691.860                    21285691.400
       877.498         683.764          49.550          47.650    83529696.680 8
  21285695.660         655.285          53.100


 113759660.348 8  88643880.40147  21647742.800                    21647741.460
      2806.218        2186.664          49.600          46.200



 127434238.424 7  99299374.90146  24249938.320                    24249938.700
      -441.160        -343.764          42.200          40.100    95161936.477 7
  24249942.380        -329.381          45.950


 119325326.489 7  92980769.85846  22706862.300                    22706861.200
     -3447.814       -2686.613          46.600          41.200



 113836036.191 8  88703418.61347  21662265.960                    21662264.400
      1938.805        1510.756          50.300          44.800



 133144997.261 6 103749308.40846  25336654.380                    25336653.040
      3590.439        2797.740          38.100          38.100    99426466.287 7
  25336658.800        2681.498          45.750


 128216046.825 6  99908613.88046  24398699.080                    24398704.080
      3649.345        2843.650          38.500          38.200    95745767.111 7
  24398704.440        2725.211          44.800


 113811848.904 8  88684549.56848  21657676.020                    21657677.300
     -2133.934       -1662.808          49.200          48.850    84989362.032 8
  21657677.440       -1593.392          53.350


 132650829.446 8                  25242617.040
     -1994.777                          49.400                    99057441.335 8
  25242620.820       -1489.521          50.100   101641538.413 8  25242617.340
     -1528.434          50.400   100349488.026 8  25242620.020       -1508.965
        53.050
 128652438.828 8                  24481747.120
      2297.205                          48.700                    96071633.583 8
  24481752.040        1715.447          48.950    98577847.798 7  24481747.800
      1760.278          47.500    97324737.845 8  24481750.260        1737.828
        51.050
 122677718.800 8                  23344789.680
       205.237                          52.600                    91610014.415 9
  23344793.120         153.286          54.950    93999829.277 9  23344790.640
       157.321          55.450    92804911.999 9  23344791.880         155.298
        57.950
 147983758.582 6                  28160377.180
      1182.570                          40.950                   110507360.782 7
  28160383.800         883.095          42.550   113390154.534 6  28160379.560
       906.063          41.300   111948753.312 7  28160381.820         894.615
        44.800
 152523048.716 6                  29024171.240
     -2856.226                          41.500                   113897040.207 6
  29024178.960       -2132.788          38.150   116868257.472 6  29024176.320
     -2188.591          37.400   115382643.500 6  29024177.760       -2160.791
        40.550
 143900977.239 7                  27383440.260
      3250.885                          44.300                   107458556.436 7
  27383444.560        2427.574          43.400   110261811.481 7  27383442.860
      2490.813          43.950   108860194.104 7  27383444.680        2459.302
        46.550
 128263483.607 8                  24407722.460
      1753.553                          51.900                    95781214.218 8
  24407727.480        1309.479          51.850    98279851.555 8  24407723.740
      1343.617          51.800    97030532.539 9  24407726.400        1326.564
        54.750
 141644061.640 7                  26953976.540
     -1211.784                          45.400                   105773161.681 7
  26953981.840        -904.866          46.050   108532453.193 7  26953979.480
      -928.490          45.900   107152806.094 8  26953981.120        -916.720
        48.900
 146113067.910 7                  27804406.560
     -2873.942                          42.650                   109110403.397 7
  27804413.820       -2146.196          42.900   111956752.359 7  27804411.580
     -2202.247          43.000   110533576.523 7  27804413.160       -2174.101
        45.950
 23 12 30  9 20  0.0000000  0 21G05G07G08G13G14G15G18G20G22G23G24G30
                                E04E05E09E15E21E24E31E34E36
 110313544.328 8  85958598.95548  20991973.460                    20991971.460
     -1587.479       -1236.999          51.050          50.800



 126434697.193 7  98520529.98647  24059732.920                    24059731.500
     -2902.661       -2261.816          44.100          44.100



 131037838.990 6 102107438.78146  24935667.560                    24935671.320
      -276.302        -215.300          38.400          38.350    97852975.257 6
  24935671.080        -206.242          41.500


 105118949.103 8  81910887.21548  20003467.960                    20003465.560
       689.595         537.346          50.000          49.900



 111831105.502 8  87141126.21148  21280743.260                    21280742.720
       857.354         668.066          49.300          48.050    83510277.022 8
  21280747.080         640.309          53.250


 113675643.262 8  88578412.55847  21631754.820                    21631753.320
      2795.878        2178.606          48.950          46.900



 127447787.180 7  99309932.29746  24252516.480                    24252517.040
      -461.077        -359.281          42.300          40.950    95172053.966 7
  24252520.740        -344.107          46.250


 119428910.414 7  93061484.49446  22726573.640                    22726572.660
     -3456.648       -2693.496          46.250          41.350



 113778146.628 8  88658309.84747  21651250.200                    21651248.500
      1921.597        1497.347          50.400          45.000



 133037380.036 6 103665450.62146  25316175.620                    25316174.520
      3584.816        2793.358          38.150          36.750    99346102.549 7
  25316180.140        2677.078          46.300


 128106657.941 6  99823375.88946  24377883.100                    24377888.100
      3644.084        2839.554          38.550          38.550    95664080.717 7
  24377888.360        2721.525          44.400


 113876036.722 8  88734565.99248  21669890.640                    21669892.040
     -2144.018       -1670.666          49.150          49.050    85037294.444 8
  21669892.160       -1601.162          53.350


 132710788.121 8                  25254026.560
     -2001.319                          49.050                    99102215.562 8
  25254030.300       -1494.391          49.650   101687480.680 8  25254027.440
     -1533.367          50.550   100394846.277 8  25254029.880       -1513.905
        53.100
 128583590.840 8                  24468645.740
      2293.741                          48.600                    96020221.095 8
  24468650.780        1712.971          48.950    98525094.108 8  24468646.620
      1757.599          48.000    97272654.756 8  24468648.780        1735.263
        51.600
 122671711.916 8                  23343646.700
       196.434                          52.100                    91605528.725 9
  23343650.000         146.675          54.800    93995226.572 9  23343647.480
       150.515          55.450    92800367.801 9  23343648.840         148.594
        58.150
 147948521.811 7                  28153671.860
      1167.859                          42.050                   110481047.554 6
  28153677.880         871.954          41.800   113363154.896 6  28153674.080
       894.861          41.500   111922096.882 7  28153676.680         883.383
        44.900

                                                                 113961170.39815
  29040502.740       -2136.803          34.450
                                 115447537.230 6  29040501.660       -2164.754
        37.500
 143803512.758 7                  27364893.180
      3247.979                          44.950                   107385774.725 7
  27364897.680        2425.607          43.300   110187131.082 7  27364895.600
      2488.780          44.150   108786463.058 7  27364897.540        2457.122
        46.900
 128211093.297 8                  24397752.820
      1740.387                          51.900                    95742091.564 8
  24397757.820        1299.609          51.850    98239708.312 8  24397754.220
      1333.532          51.950    96990899.596 9  24397756.900        1316.542
        55.050
 141680649.732 7                  26960939.120
     -1226.139                          44.750                   105800483.891 7
  26960944.300        -915.777          45.850   108560488.155 7  26960942.100
      -939.518          46.300   107180484.675 8  26960943.640        -927.642
        49.150
 146199365.864 7                  27820829.020
     -2877.891                          42.850                   109174846.496 7
  27820835.540       -2149.062          42.600   112022876.595 7  27820833.520
     -2205.106          43.750   110598860.204 7  27820835.400       -2177.139
        46.200
 23 12 30  9 20 30.0000000  0 21G05G07G08G13G14G15G18G20G22G23G24G30
                                E04E05E09E15E21E24E31E34E36
 110361455.206 8  85995932.03548  21001090.660                    21001088.760
     -1606.979       -1252.194          50.500          50.400



 126521819.052 7  98588417.06047  24076311.660                    24076310.600
     -2905.866       -2264.314          44.300          44.100



 131046410.665 6 102114118.00846  24937298.720                    24937302.460
      -295.663        -230.388          39.600          39.050    97859376.194 6
  24937301.780        -220.715          41.100


 105098459.754 8  81894921.45748  19999569.100                    19999566.780
       676.004         526.755          49.750          49.850



 111805673.095 8  87121308.72348  21275903.640                    21275903.120
       837.697         652.750          48.800          48.100    83491285.255 8
  21275907.580         625.560          53.350


 113591910.995 8  88513166.63247  21615821.000                    21615819.440
      2785.758        2170.720          48.450          47.200



 127461900.024 7  99320929.22746  24255201.980                    24255202.860
      -480.259        -374.230          42.600          41.400    95182592.694 7
  24255206.740        -358.699          46.900


 119532737.947 7  93142388.95946  22746331.440                    22746330.340
     -3465.387       -2700.304          45.100          41.550



 113720746.057 8  88613582.10847  21640327.420                    21640325.480
      1904.715        1484.192          50.150          44.900



 132929913.914 6 103581710.57346  25295725.620                    25295724.300
      3579.056        2788.871          38.350          37.300    99265851.632 7
  25295730.200        2672.759          45.250


 127997386.623 6  99738229.51946  24357089.380                    24357094.180
      3640.059        2836.412          38.650          38.250    95582482.156 7
  24357094.720        2718.126          44.700


 113940503.316 8  88784799.63848  21682158.380                    21682159.780
     -2154.082       -1678.507          49.350          49.350    85085435.002 8
  21682160.080       -1608.512          53.300


 132770912.782 8                  25265467.740
     -2007.524                          48.800                    99147113.759 8
  25265471.400       -1499.050          49.350   101733550.141 8  25265468.920
     -1538.163          50.550   100440330.105 8  25265471.280       -1518.632
        52.750
 128514818.414 8                  24455558.700
      2290.675                          48.400                    95968865.060 8
  24455563.800        1710.496          48.750    98472398.341 8  24455560.080
      1755.142          48.750    97220628.850 8  24455561.700        1732.860
        51.600
 122665941.611 8                  23342548.680
       187.916                          51.800                    91601219.700 9
  23342551.820         140.332          54.700    93990805.141 9  23342549.260
       143.985          55.450    92796002.575 9  23342550.800         142.155
        57.850
 147913697.660 7                  28147045.040
      1153.307                          42.550                   110455042.457 6
  28147050.680         861.219          41.850   113336471.398 6  28147047.340
       883.830          41.600   111895752.583 7  28147050.020         872.549
        44.650

                                                                 114025323.772 5
  29056851.060       -2140.384          35.000
                                 115512527.371 6  29056849.880       -2168.026
        38.250
 143706103.844 7                  27346356.660
      3245.440                          43.050                   107313034.496 7
  27346361.200        2423.668          42.650   110112493.276 7  27346359.180
      2486.913          45.100   108712774.042 7  27346360.980        2455.212
        46.650
 128159069.686 8                  24387852.920
      1727.552                          51.850                    95703242.754 8
  24387857.860        1290.029          51.700    98199846.055 8  24387854.440
      1323.698          52.200    96951544.060 9  24387857.140        1306.856
        54.850
 141717641.653 7                  26967978.520
     -1240.178                          44.700                   105828107.655 7
  26967983.640        -926.192          45.750   108588832.557 7  26967981.580
      -950.358          46.350   107208468.755 8  26967982.980        -938.219
        48.800
 146285751.726 7                  27837268.140
     -2881.553                          43.850                   109239355.270 7
  27837274.220       -2151.765          42.500   112089068.233 7  27837271.920
     -2207.929          42.650   110664210.400 7  27837274.200       -2179.827
        45.550
 23 12 30  9 21  0.0000000  0 21G05G07G08G13G14G15G18G20G22G23G24G30
                                E04E05E09E15E21E24E31E34E36
 110409937.086 8  86033710.05248  21010316.460                    21010314.720
     -1625.606       -1266.709          50.300          50.450



 126609021.830 7  98656367.16947  24092905.580                    24092905.180
     -2908.313       -2266.224          43.050          43.050



 131055547.443 6 102121237.59446  24939037.460                    24939040.840
      -313.986        -244.662          40.300          40.650    97866199.144 6
  24939040.100        -234.550          41.050


 105078364.727 8  81879262.96448  19995745.280                    19995742.880
       663.238         516.808          50.200          50.000



 111780816.386 8  87101939.82147  21271173.500                    21271173.080
       818.947         638.139          48.650          47.850    83472723.393 8
  21271177.720         611.557          53.550


 113508467.144 8  88448145.43247  21599942.100                    21599940.500
      2776.539        2163.535          48.850          47.500



 127476577.756 7  99332366.34346  24257995.240                    24257996.060
      -498.958        -388.800          43.650          41.400    95193553.228 7
  24258000.460        -372.248          47.550


 119636807.946 7  93223482.33847  22766135.240                    22766134.280
     -3472.997       -2706.235          45.050          42.100



 113663838.069 8  88569238.20347  21629498.240                    21629496.240
      1888.574        1471.616          50.050          45.450



 132822603.331 6 103498091.71846  25275305.260                    25275304.140
      3574.085        2784.991          39.600          38.000    99185716.833 7
  25275309.880        2669.265          44.900


 127888235.989 6  99653177.15746  24336318.780                    24336323.400
      3636.004        2833.254          39.750          39.900    95500973.643 7
  24336324.000        2715.445          44.700


 114005248.855 8  88835250.64948  21694479.320                    21694480.420
     -2162.806       -1685.305          50.100          49.950    85133783.881 8
  21694481.140       -1615.085          53.300


 132831205.028 8                  25276941.080
     -2012.601                          49.300                    99192137.104 8
  25276944.460       -1502.833          49.150   101779748.009 8  25276942.200
     -1542.039          50.150   100485940.712 8  25276944.580       -1522.470
        52.600
 128446124.033 8                  24442486.460
      2288.584                          48.600                    95917567.297 8
  24442491.620        1709.011          48.400    98419762.377 8  24442488.440
      1753.588          49.350    97168661.987 8  24442489.540        1731.335
        51.800
 122660410.156 8                  23341496.080
       180.334                          52.050                    91597089.022 9
  23341499.120         134.726          54.700    93986566.711 9  23341496.520
       138.245          55.300    92791818.021 9  23341498.220         136.456
        57.950
 147879288.876 6                  28140497.460
      1140.028                          41.750                   110429347.513 6
  28140502.420         851.406          40.900   113310106.171 6  28140499.780
       873.736          41.250   111869722.493 7  28140502.260         862.552
        44.150



                                 115577692.57215  29073222.040       -2171.080
        30.500
 143608753.931 7                  27327831.320
      3243.964                          43.600                   107240338.325 7
  27327835.840        2422.529          42.550   110037900.677 7  27327833.880
      2485.676          45.050   108639129.658 7  27327835.860        2454.048
        46.750
 128107415.685 8                  24378023.220
      1715.612                          51.400                    95664669.948 8
  24378028.260        1281.207          51.800    98160267.005 8  24378025.200
      1314.582          52.200    96912468.128 9  24378027.720        1297.927
        55.000
 141755037.946 7                  26975094.860
     -1253.181                          44.600                   105856033.359 7
  26975100.060        -935.726          45.650   108617486.773 7  26975097.900
      -960.294          46.050   107236758.717 8  26975099.300        -947.984
        48.800
 146372225.200 7                  27853723.760
     -2883.920                          42.600                   109303929.441 7
  27853729.740       -2153.422          42.000   112155326.976 7  27853727.420
     -2209.718          43.300   110729626.859 7  27853729.800       -2181.502
        45.700
 23 12 30  9 21 30.0000000  0 20G05G07G08G13G14G15G18G20G22G23G24G30
                                E04E05E09E15E24E31E34E36
 110458990.401 8  86071933.33348  21019650.960                    21019649.420
     -1644.585       -1281.498          50.500          50.550



 126696306.414 7  98724381.03847  24109515.100                    24109515.180
     -2910.702       -2268.082          43.600          43.200



 131065251.231 6 102128799.00246  24940883.920                    24940887.240
      -333.146        -259.595          39.050          39.300    97873445.474 6
  24940886.340        -248.601          41.000


 105058666.665 8  81863913.80148  19991996.980                    19991994.460
       649.870         506.392          50.550          50.050



 111756538.219 8  87083021.74147  21266553.440                    21266553.060
       799.553         623.026          48.650          47.600    83454593.564 8
  21266557.980         597.130          53.850


 113425315.417 8  88383351.86947  21584118.840                    21584117.320
      2766.962        2156.073          48.650          47.050



 127491821.345 7  99344244.39246  24260896.280                    24260896.920
      -517.593        -403.321          44.350          39.300    95204936.349 7
  24260901.700        -386.418          47.650


 119741119.502 7  93304763.96346  22785985.000                    22785984.040
     -3481.039       -2712.503          44.950          39.400



 113607426.876 8  88525281.41847  21618763.520                    21618761.620
      1872.099        1458.779          50.150          44.950



 132715452.795 6 103414597.57145  25254915.260                    25254914.020
      3569.110        2781.115          39.250          35.750    99105701.620 7
  25254919.960        2665.097          44.300


 127779209.229 6  99568221.33746  24315571.800                    24315576.220
      3632.115        2830.222          41.200          40.800    95419557.678 7
  24315576.860        2712.354          45.000


 114070273.884 8  88885919.44548  21706853.360                    21706854.080
     -2172.115       -1692.560          49.900          50.300    85182341.455 8
  21706855.260       -1622.038          53.200


 132891666.702 8                  25288446.800
     -2018.107                          49.750                    99237286.974 8
  25288450.100       -1507.115          49.300   101826075.721 8  25288447.600
     -1546.468          50.100   100531679.498 8  25288450.100       -1526.749
        52.900
 128377510.409 8                  24429429.580
      2285.762                          48.350                    95866329.848 8
  24429434.660        1706.886          48.250    98367188.306 8  24429432.160
      1751.482          49.950    97116756.229 8  24429432.820        1729.191
        52.150
 122655120.106 8                  23340489.340
       172.298                          52.250                    91593138.621 9
  23340492.480         128.680          54.750    93982513.256 9  23340489.800
       132.060          55.300    92787816.093 9  23340491.580         130.358
        58.200
 147845298.387 6                  28134029.460
      1126.068                          41.750                   110403964.948 6
  28134033.780         840.758          40.850   113284061.436 6  28134031.960
       862.900          41.650   111844008.843 7  28134034.080         851.811
        44.650
 143511466.642 7                  27309317.960
      3241.851                          44.800                   107167688.930 7
  27309322.600        2420.877          43.050   109963356.052 7  27309320.280
      2483.952          44.650   108565532.642 7  27309322.700        2452.424
        47.050
 128056134.367 8                  24368264.500
      1703.187                          51.750                    95626375.454 8
  24368269.580        1271.853          51.750    98120973.511 8  24368266.760
      1305.065          52.400    96873674.133 9  24368269.160        1288.458
        55.250
 141792839.345 7                  26982288.140
     -1266.951                          45.450                   105884261.580 7
  26982293.600        -946.062          45.600   108646451.379 7  26982291.320
      -970.628          46.050   107265355.130 8  26982292.700        -958.345
        49.000
 146458786.136 7                  27870195.680
     -2886.735                          43.550                   109368568.944 7
  27870202.200       -2155.619          43.600   112221652.721 7  27870199.760
     -2211.925          42.650   110795109.486 7  27870201.720       -2183.729
        46.250
 23 12 30  9 22  0.0000000  0 20G05G07G08G13G14G15G18G20G22G23G24G30
                                E04E05E09E15E24E31E34E36
 110508611.052 8  86110598.69948  21029093.440                    21029092.000
     -1663.035       -1295.874          50.350          50.250



 126783668.904 7  98792455.62747  24126139.640                    24126139.860
     -2912.892       -2269.789          43.800          44.000



 131075519.284 6 102136800.11546  24942837.900                    24942840.840
      -351.751        -274.090          40.000          40.250    97881113.223 6
  24942839.660        -262.335          40.350


 105039363.519 8  81848872.35648  19988323.900                    19988321.060
       637.247         496.555          50.250          50.150



 111732836.803 8  87064553.08047  21262043.160                    21262042.840
       780.775         608.396          48.450          47.900    83436894.425 8
  21262048.040         583.024          53.900


 113342455.292 8  88318785.53147  21568350.940                    21568349.640
      2757.442        2148.656          48.200          47.300



 127507627.181 7  99356560.56646  24263904.300                    24263904.640
      -535.816        -417.522          43.500          39.350    95216739.337 7
  24263909.880        -400.153          47.650


 119845667.502 7  93386229.82546  22805879.720                    22805878.800
     -3488.632       -2718.419          44.850          41.150



 113551511.652 8  88481711.09647  21608123.080                    21608121.320
      1855.974        1446.213          49.900          45.450



 132608462.415 6 103331228.32646  25234555.640                    25234555.100
      3563.984        2777.128          37.950          37.100    99025805.996 7
  25234560.480        2661.365          45.250


 127670305.141 6  99483361.14346  24294848.140                    24294852.220
      3628.339        2827.281          40.400          39.900    95338233.351 7
  24294853.260        2709.519          45.000


 114135574.226 8  88936802.76348  21719279.600                    21719280.200
     -2181.035       -1699.510          49.600          49.600    85231104.624 8
  21719281.540       -1628.587          52.850


 132952295.018 8                  25299984.320
     -2023.307                          49.700                    99282561.286 8
  25299987.420       -1510.965          49.250   101872531.101 8  25299984.680
     -1550.374          49.750   100577544.348 8  25299987.320       -1530.661
        52.550
 128308975.598 7                  24416387.680
      2283.457                          47.650                    95815151.277 8
  24416392.680        1705.127          48.050    98314674.653 8  24416390.880
      1749.633          50.150    97064910.120 8  24416391.200        1727.390
        52.000
 122650069.308 8                  23339528.140
       164.708                          52.100                    91589366.878 9
  23339531.480         122.943          54.750    93978643.121 9  23339528.720
       126.227          55.100    92783995.155 9  23339530.460         124.557
        57.900
 147811724.640 6                  28127640.760
      1112.443                          41.900                   110378893.538 6
  28127644.540         830.766          40.750   113258336.023 6  28127643.520
       852.409          41.350   111818610.427 7  28127645.200         841.675
        44.300
 143414241.063 7                  27290816.540
      3240.181                          44.150                   107095085.576 7
  27290821.240        2419.593          43.750   109888858.672 7  27290818.400
      2482.718          43.400   108491982.278 7  27290821.180        2451.205
        46.700
 128005224.203 8                  24358576.460
      1691.164                          51.450                    95588358.132 8
  24358581.640        1262.873          51.900    98081964.431 8  24358579.140
      1295.795          52.250    96835160.933 9  24358581.220        1279.330
        55.100
 141831041.913 7                  26989557.860
     -1279.758                          45.650                   105912789.379 7
  26989563.620        -955.741          45.550   108675723.384 7  26989561.120
      -980.513          46.000   107294255.029 8  26989562.440        -968.079
        48.750
 146545429.756 7                  27886683.320
     -2889.248                          43.050                   109433270.197 7
  27886690.600       -2157.596          43.250   112288041.873 7  27886687.800
     -2213.793          43.000   110860654.685 7  27886689.700       -2185.644
        46.250
 23 12 30  9 22 30.0000000  0 20G05G07G08G13G14G15G18G20G22G23G24G30
                                E04E05E09E15E24E31E34E36
 110558796.728 8  86149704.35148  21038643.480                    21038642.180
     -1681.975       -1310.633          50.450          50.650



 126871107.885 7  98860589.80747  24142778.680                    24142779.020
     -2915.625       -2271.920          43.050          43.250



 131086351.207 6 102145240.57246  24944899.020                    24944901.900
      -369.670        -288.051          39.100          38.900    97889202.050 6
  24944900.460        -276.351          39.850


 105020455.544 8  81834138.83248  19984725.960                    19984722.860
       623.915         486.166          50.500          50.200



 111709712.451 8  87046534.08647  21257642.760                    21257642.360
       761.390         593.290          48.750          47.950    83419626.214 9
  21257647.840         568.631          54.150


 113259889.142 8  88254448.26147  21552639.140                    21552637.920
      2747.557        2140.953          49.050          47.600



 127523993.755 7  99369313.69446  24267018.820                    24267018.800
      -554.632        -432.180          42.800          40.400    95228961.057 7
  24267024.640        -414.149          47.650


 119950448.498 7  93467877.22946  22825818.920                    22825818.140
     -3496.120       -2724.254          44.750          41.100



 113496093.737 8  88438528.29647  21597577.280                    21597575.660
      1839.244        1433.177          50.000          45.600



 132501634.322 6 103247985.40946  25214227.140                    25214226.680
      3558.402        2772.771          39.750          37.500    98946031.532 7
  25214231.880        2657.235          44.800


 127561524.382 6  99398597.01046  24274147.980                    24274151.720
      3624.096        2823.977          40.700          39.750    95257001.086 7
  24274152.940        2706.336          45.550


 114201147.873 8  88987899.04348  21731757.780                    21731758.380
     -2190.060       -1706.542          48.900          49.000    85280071.894 8
  21731759.680       -1635.440          52.700


 133013089.273 8                  25311553.300
     -2028.968                          49.700                    99327959.503 8
  25311556.480       -1515.248          49.300   101919113.626 8  25311553.380
     -1554.760          49.850   100623534.714 8  25311556.120       -1534.980
        52.450
 128240519.848 7                  24403360.820
      2280.702                          47.150                    95764031.730 8
  24403365.960        1703.146          48.250    98262221.567 8  24403364.400
      1747.566          50.450    97013123.796 8  24403364.660        1725.408
        52.100
 122645257.800 8                  23338612.560
       156.612                          52.250                    91585773.824 9
  23338616.020         116.971          54.800    93974956.343 9  23338613.180
       120.021          55.150    92780355.236 9  23338614.900         118.483
        57.850
 147778568.005 7                  28121331.340
      1098.469                          42.050                   110354133.660 6
  28121335.140         820.376          41.700   113232930.225 6  28121334.020
       841.599          41.350   111793527.593 7  28121335.740         831.047
        44.550
 143317078.285 7                  27272326.860
      3237.988                          43.400                   107022529.107 7
  27272331.780        2417.935          43.300   109814409.413 7  27272328.700
      2481.011          44.750   108418479.406 7  27272331.380        2449.577
        46.900
 127954685.776 8                  24348959.280
      1678.614                          51.250                    95550618.394 8
  24348964.500        1253.541          51.950    98043240.171 8  24348962.140
      1286.239          52.600    96796928.935 9  24348963.980        1269.883
        55.150
 141869643.877 7                  26996903.620
     -1293.082                          46.050                   105941615.423 7
  26996909.600        -965.644          45.150   108705301.421 7  26996906.860
      -990.879          46.000   107323457.075 8  26996908.140        -978.244
        48.400
 146632153.438 7                  27903186.040
     -2891.860                          42.650                   109498031.239 7
  27903194.080       -2159.526          42.900   112354492.342 7  27903191.160
     -2215.873          43.550   110926260.444 7  27903192.820       -2187.728
        45.950
 23 12 30  9 23  0.0000000  0 20G05G07G08G13G14G15G18G20G22G23G24G30
                                E04E05E09E15E24E31E34E36
 110609548.302 8  86189250.97148  21048301.220                    21048300.100
     -1701.229       -1325.635          50.500          50.400



 126958624.883 7  98928784.77047  24159432.720                    24159433.140
     -2918.718       -2274.329          43.900          43.800



 131097749.842 6 102154122.65046  24947068.040                    24947070.860
      -389.889        -303.807          39.100          38.400    97897714.019 6
  24947069.380        -290.759          40.150


 105001946.298 8  81819716.01148  19981203.860                    19981200.740
       610.157         475.446          50.950          50.050



 111687168.585 8  87028967.42747  21253352.880                    21253352.320
       741.612         577.880          49.000          47.600    83402791.492 9
  21253358.080         553.871          54.150


 113177621.099 8  88190343.27447  21536984.180                    21536983.000
      2737.259        2132.930          49.550          47.750



 127540922.552 7  99382504.90146  24270240.120                    24270240.080
      -573.729        -447.064          42.650          38.600    95241602.601 7
  24270246.020        -428.488          46.950


 120055462.247 7  93549706.03246  22845802.460                    22845801.680
     -3504.455       -2730.746          45.100          40.200



 113441177.715 8  88395736.58447  21587126.980                    21587125.460
      1822.118        1419.832          50.200          45.550



 132394973.627 6 103164872.99146  25193930.280                    25193930.040
      3552.251        2767.978          38.650          37.850    98866382.088 7
  25193935.240        2652.865          44.700


 127452870.864 6  99313932.03246  24253471.960                    24253475.680
      3619.822        2820.642          41.150          37.850    95175863.874 7
  24253477.220        2702.992          45.750


 114266995.890 8  89039209.13348  21744288.140                    21744288.820
     -2199.580       -1713.960          49.350          49.350    85329244.063 8
  21744289.980       -1642.612          52.450


 133074051.875 8                  25323154.280
     -2034.998                          50.250                    99373483.418 8
  25323157.540       -1519.617          49.350   101965825.135 8  25323154.080
     -1559.280          49.600   100669652.429 8  25323156.940       -1539.435
        52.450
 128172146.440 7                  24390349.660
      2277.533                          47.350                    95712973.704 8
  24390354.840        1700.797          48.450    98209831.601 8  24390353.420
      1745.194          50.350    96961399.805 8  24390353.780        1723.014
        52.400
 122640688.678 8                  23337743.220
       148.187                          52.650                    91582361.788 9
  23337746.600         110.660          54.800    93971455.303 9  23337743.680
       113.531          55.000    92776898.697 9  23337745.480         112.096
        57.900
 147745832.145 7                  28115101.740
      1083.967                          42.250                   110329687.956 6
  28115105.840         809.459          41.250   113207846.815 7  28115104.700
       830.592          42.000   111768763.031 7  28115106.160         820.055
        44.600
 143219982.589 7                  27253850.020
      3235.222                          43.800                   106950022.726 7
  27253855.100        2415.835          42.600   109740011.543 7  27253851.880
      2479.067          45.050   108345027.288 7  27253854.560        2447.441
        46.900
 127904522.720 8                  24339413.640
      1665.745                          51.850                    95513158.983 8
  24339418.900        1243.885          52.050    98004803.555 8  24339416.660
      1276.330          52.550    96758980.921 9  24339418.180        1260.115
        55.300
 141908646.556 7                  27004325.680
     -1306.815                          46.600                   105970740.704 7
  27004331.740        -975.870          45.000   108735186.490 7  27004328.940
     -1001.401          45.800   107352962.247 8  27004330.040        -988.600
        48.350
 146718957.619 7                  27919704.160
     -2894.828                          43.050                   109562852.410 7
  27919712.820       -2161.656          43.100   112421004.506 7  27919710.080
     -2218.108          43.200   110991927.110 7  27919711.100       -2189.894
        46.100
 23 12 30  9 23 30.0000000  0 20G05G07G08G13G14G15G18G20G22G23G24G30
                                E04E05E09E15E24E31E34E36
 110660861.519 8  86229235.23848  21058065.940                    21058064.980
     -1719.918       -1340.197          50.900          50.850



 127046215.439 7  98997037.06547  24176100.680                    24176101.300
     -2921.023       -2276.125          43.200          43.300



 131109711.164 6 102163443.19046  24949344.340                    24949346.820
      -407.880        -317.825          38.700          37.900    97906646.252 6
  24949345.400        -304.946          41.250


 104983833.549 8  81805602.15748  19977757.180                    19977754.120
       596.998         465.192          50.550          50.050



 111665203.023 8  87011851.39947  21249173.120                    21249172.360
       722.390         562.901          49.200          47.850    83386388.633 9
  21249178.240         539.438          54.250


 113095649.706 8  88126469.43947  21521385.680                    21521384.520
      2727.271        2125.146          50.000          47.900



 127558409.547 7  99396131.07546  24273567.700                    24273567.720
      -592.509        -461.698          42.550          40.300    95254661.002 7
  24273573.380        -442.401          46.300


 120160703.242 7  93631711.88446  22865829.200                    22865828.540
     -3511.936       -2736.577          44.600          40.500



 113386762.122 8  88353334.82547  21576771.980                    21576770.480
      1805.259        1406.695          49.900          44.950



 132288480.120 6 103081890.80446  25173665.280                    25173665.260
      3547.042        2763.920          38.500          37.650    98786857.500 7
  25173670.220        2648.544          44.650


 127344343.002 7  99229364.99746  24232819.800                    24232823.360
      3615.546        2817.314          42.050          39.950    95094820.470 7
  24232825.200        2699.810          45.600


 114333113.858 8  89090729.57248  21756869.980                    21756870.700
     -2208.559       -1720.957          49.000          49.050    85378617.808 8
  21756871.880       -1649.214          52.700


 133135179.756 8                  25334786.720
     -2040.470                          50.250                    99419130.766 8
  25334790.060       -1523.724          49.550   102012663.289 8  25334786.340
     -1563.489          49.550   100715895.181 8  25334789.240       -1543.605
        52.550
 128103853.152 7                  24377353.820
      2274.917                          47.300                    95661975.517 8
  24377359.000        1698.846          48.950    98157503.034 8  24377357.620
      1743.196          50.450    96909736.428 8  24377358.100        1721.023
        52.700
 122636359.585 8                  23336919.560
       140.120                          52.400                    91579128.986 9
  23336922.840         104.640          54.850    93968138.170 9  23336919.840
       107.392          55.200    92773623.731 9  23336921.700         106.005
        58.000
 147713514.975 7                  28108951.940
      1070.086                          42.200                   110305554.900 7
  28108956.400         799.243          42.600   113183084.240 7  28108955.180
       819.952          42.650   111744315.216 7  28108956.600         809.696
        45.700
 143122952.739 7                  27235385.760
      3233.023                          44.300                   106877565.493 7
  27235391.100        2414.305          43.750   109665664.111 7  27235387.580
      2477.325          45.250   108271624.954 7  27235390.380        2445.792
        47.550
 127854733.193 8                  24329939.220
      1653.241                          51.750                    95475978.504 8
  24329944.400        1234.550          52.150    97966653.146 8  24329942.200
      1266.781          52.850    96721315.475 9  24329943.480        1250.671
        55.450
 141948045.730 7                  27011823.240
     -1320.085                          45.950                   106000162.077 7
  27011829.260        -985.739          45.250   108765375.361 7  27011826.500
     -1011.443          45.650   107382767.378 8  27011827.360        -998.634
        48.350
 146805837.245 7                  27936236.700
     -2897.372                          42.600                   109627729.922 7
  27936245.880       -2163.597          42.800   112487574.489 7  27936243.080
     -2220.166          43.250   111057650.859 7  27936243.840       -2191.823
        45.900
 23 12 30  9 24  0.0000000  0 20G05G07G08G13G14G15G18G20G22G23G24G30
                                E04E05E09E15E24E31E34E36
 110712735.829 8  86269656.72348  21067937.480                    21067936.600
     -1738.265       -1354.494          51.150          51.400



 127133879.817 7  99065346.88647  24192782.780                    24192783.540
     -2923.192       -2277.815          43.700          43.950



 131122236.673 6 102173203.33046  24951727.920                    24951730.680
      -426.506        -332.343          39.550          39.700    97915999.726 6
  24951729.520        -318.735          41.300


 104966118.302 8  81791798.03948  19974386.060                    19974383.140
       584.020         455.079          50.400          50.200



 111643817.070 8  86995187.00947  21245103.720                    21245102.640
       703.260         547.994          49.700          47.750    83370418.591 8
  21245108.620         525.178          53.900


 113013978.320 8  88062829.36347  21505844.320                    21505843.140
      2717.505        2117.534          50.200          47.600



 127576454.172 7  99410191.76146  24277001.480                    24277001.280
      -610.704        -475.874          42.250          41.550    95268135.816 7
  24277006.700        -456.005          45.750


 120266169.366 7  93713893.15246  22885898.840                    22885898.300
     -3518.979       -2742.064          45.350          40.550



 113332849.439 8  88311324.95147  21566512.640                    21566511.080
      1788.985        1394.016          50.000          44.600



 132182156.987 6 102999041.40946  25153432.940                    25153432.940
      3541.584        2759.667          38.250          36.900    98707460.089 7
  25153437.820        2644.527          44.350


 127235942.614 6  99144897.25546  24212191.960                    24212195.160
      3610.960        2813.740          40.900          39.050    95013872.246 7
  24212197.480        2696.704          45.700


 114399500.781 8  89142459.58748  21769502.980                    21769503.800
     -2217.299       -1727.767          48.900          48.750    85428192.406 8
  21769505.220       -1655.789          52.600


 133196473.263 8                  25346450.640
     -2045.838                          50.300                    99464901.808 8
  25346454.000       -1527.723          49.350   102059628.371 8  25346450.120
     -1567.592          49.600   100762263.241 8  25346453.060       -1547.660
        52.400
 128035641.252 8                  24364373.580
      2272.428                          48.550                    95611038.118 8
  24364378.780        1696.937          49.100    98105236.827 8  24364377.220
      1741.230          50.300    96858134.624 8  24364377.840        1719.109
        52.650
 122632271.556 8                  23336141.740
       132.354                          52.550                    91576076.210 9
  23336144.980          98.814          54.700    93965005.760 9  23336141.980
       101.379          55.450    92770531.140 9  23336143.800         100.092
        58.000
 147681617.976 7                  28102882.020
      1056.337                          42.200                   110281735.678 7
  28102887.320         788.864          42.400   113158643.620 6  28102885.260
       809.379          41.750   111720185.308 7  28102886.880         799.062
        45.100
 143025990.853 7                  27216934.340
      3230.978                          43.050                   106805158.985 7
  27216939.760        2412.711          44.200   109591368.744 7  27216936.380
      2475.634          44.350   108198274.022 7  27216939.240        2444.191
        47.250
 127805318.813 8                  24320536.200
      1640.952                          52.150                    95439078.170 8
  24320541.340        1225.374          52.050    97928790.187 8  24320539.100
      1257.339          53.000    96683933.829 9  24320540.180        1241.351
        55.400
 141987840.613 7                  27019396.080
     -1332.987                          46.150                   106029878.951 7
  27019402.160        -995.436          45.200   108795867.478 7  27019399.320
     -1021.376          45.100   107412871.872 8  27019400.020       -1008.521
        48.200
 146892790.708 7                  27952783.480
     -2899.517                          42.950                   109692662.578 7
  27952793.240       -2165.311          43.100   112554201.067 7  27952790.000
     -2221.714          42.850   111123430.481 7  27952790.560       -2193.588
        45.900
 23 12 30  9 24 30.0000000  0 20G05G07G08G13G14G15G18G20G22G23G24G30
                                E04E05E09E15E24E31E34E36
 110765172.799 8  86310516.64048  21077916.100                    21077915.100
     -1757.242       -1369.282          50.900          50.850



 127221620.632 7  99133716.28147  24209479.300                    24209480.340
     -2925.909       -2279.932          43.700          43.800



 131135329.838 6 102183405.85246  24954219.360                    24954222.740
      -445.687        -347.284          38.550          38.150    97925777.129 7
  24954221.580        -332.827          42.650


 104948805.340 8  81778307.38748  19971091.460                    19971088.660
       570.397         444.464          50.050          50.200



 111623015.498 8  86978977.98847  21241145.480                    21241144.220
       683.694         532.748          49.350          47.600    83354884.942 8
  21241150.100         510.579          53.700


 112932612.766 8  87999427.60247  21490361.020                    21490359.880
      2707.158        2109.473          49.600          47.950



 127595059.355 7  99424689.23046  24280541.820                    24280541.840
      -629.733        -490.705          42.200          40.050    95282029.210 7
  24280546.820        -469.999          45.700


 120371862.050 7  93796250.97946  22906011.620                    22906010.960
     -3526.798       -2748.157          44.950          40.400



 113279445.501 8  88269711.50547  21556350.220                    21556348.400
      1771.697        1380.544          49.350          45.900



 132076010.949 6 102916329.98746  25133234.160                    25133234.440
      3535.356        2754.813          38.500          37.050    98628194.919 7
  25133238.980        2640.079          43.950


 127127674.934 6  99060532.92346  24191589.260                    24191592.320
      3606.576        2810.319          41.650          38.900    94933023.144 7
  24191595.200        2693.293          46.100


 114466159.256 8  89194401.20348  21782187.660                    21782188.500
     -2226.498       -1734.935          49.250          49.050    85477969.774 8
  21782189.960       -1662.565          52.150


 133257936.273 8                  25358146.720
     -2051.620                          49.750                    99510799.421 8
  25358150.100       -1531.942          49.300   102106723.325 8  25358146.280
     -1571.961          49.350   100808759.524 8  25358149.180       -1551.968
        52.500
 127967515.524 8                  24351409.820
      2269.540                          48.700                    95560165.053 8
  24351414.860        1694.747          49.250    98053036.628 8  24351413.060
      1738.988          49.800    96806597.993 8  24351413.920        1716.896
        52.700
 122628429.156 8                  23335410.600
       124.078                          52.000                    91573206.852 9
  23335413.820          92.680          54.550    93962061.557 9  23335411.060
        95.059          55.350    92767624.357 9  23335412.640          93.893
        58.050
 147650146.186 7                  28096893.140
      1041.714                          42.000                   110258233.932 7
  28096898.700         778.181          42.400   113134528.797 6  28096896.000
       798.478          41.550   111696377.016 7  28096897.960         788.321
        45.300
 142929102.702 7                  27198496.920
      3228.503                          42.800                   106732807.560 7
  27198502.780        2410.824          43.800   109517129.866 7  27198499.040
      2473.652          44.600   108124978.863 7  27198501.800        2442.334
        47.350
 127756284.607 8                  24311205.520
      1628.267                          51.950                    95402461.740 8
  24311210.600        1215.896          51.950    97891218.549 8  24311208.280
      1247.572          52.750    96646839.793 9  24311209.260        1231.752
        55.400
 142028033.920 7                  27027044.740
     -1346.378                          46.150                   106059893.347 7
  27027050.840       -1005.336          45.550   108826664.868 7  27027047.840
     -1031.610          44.550   107443277.762 8  27027048.600       -1018.509
        48.300
 146979819.942 7                  27969344.660
     -2902.170                          42.700                   109757651.829 7
  27969354.840       -2167.153          42.700   112620885.683 7  27969351.280
     -2223.738          42.800   111189267.422 7  27969351.780       -2195.478
        45.800
 23 12 30  9 25  0.0000000  0 20G05G07G08G13G14G15G18G20G22G23G24G30
                                E04E05E09E15E24E31E34E36
 110818164.532 8  86351808.84048  21088000.200                    21087999.080
     -1775.488       -1383.500          50.800          51.000



 127309430.798 7  99202139.70947  24226189.140                    24226190.420
     -2928.006       -2281.566          43.300          43.800



 131148984.606 6 102194045.97246  24956817.580                    24956821.220
      -464.201        -361.715          39.250          38.700    97935973.932 7
  24956820.980        -346.896          42.450


 104931889.418 8  81765126.11848  19967872.380                    19967869.740
       557.413         434.347          49.950          49.850



 111602792.997 8  86963220.18748  21237297.360                    21237296.020
       664.511         517.800          49.100          48.050    83339783.720 8
  21237301.700         496.146          53.800


 112851548.723 8  87936260.78548  21474935.060                    21474933.980
      2697.156        2101.679          49.750          48.100



 127614217.892 7  99439617.87246  24284187.440                    24284187.400
      -647.682        -504.691          42.200          40.950    95296335.846 7
  24284192.520        -483.747          46.250


 120477771.856 7  93878777.95746  22926165.680                    22926165.060
     -3533.853       -2753.656          44.900          41.250



 113226545.902 8  88228491.05847  21546283.740                    21546281.760
      1755.057        1367.576          49.850          44.850



 131970038.676 6 102833753.98346  25113068.460                    25113068.820
      3529.432        2750.198          38.600          38.500    98549059.521 7
  25113073.340        2635.702          44.200


 127019535.337 7  98976268.39646  24171011.140                    24171013.620
      3602.642        2807.257          42.000          39.650    94852269.651 7
  24171017.240        2690.213          45.550


 114533081.728 8  89246548.53648  21794922.720                    21794923.500
     -2235.048       -1741.597          49.900          50.000    85527944.304 8
  21794924.680       -1669.119          52.250


 133319562.558 8                  25369873.820
     -2056.910                          49.600                    99556818.976 8
  25369877.300       -1536.029          49.650   102153943.398 8  25369873.600
     -1576.072          49.850   100855379.338 8  25369876.360       -1556.038
        52.600
 127899470.684 8                  24338461.460
      2266.855                          48.800                    95509352.379 8
  24338466.360        1692.744          49.600    98000898.409 8  24338464.220
      1736.864          49.750    96755122.547 8  24338465.360        1714.798
        52.600
 122624826.910 8                  23334725.100
       116.125                          52.100                    91570516.836 9
  23334728.320          86.707          54.700    93959301.369 9  23334725.840
        88.923          55.700    92764899.254 9  23334727.200          87.849
        58.000
 147619094.416 6                  28090984.320
      1028.131                          41.350                   110235045.866 7
  28090990.020         767.827          42.850   113110735.844 7  28090986.880
       787.692          42.100   111672886.505 7  28090989.060         777.813
        45.450
 142832283.918 7                  27180072.840
      3226.170                          43.950                   106660507.880 7
  27180078.880        2409.036          44.150   109442944.089 7  27180075.020
      2471.967          45.300   108051736.137 7  27180077.640        2440.563
        47.600
 127707625.643 8                  24301946.180
      1615.760                          51.950                    95366125.524 8
  24301951.240        1206.500          52.100    97853934.426 8  24301948.760
      1238.027          52.900    96610029.625 9  24301949.760        1222.277
        55.300
 142068618.294 7                  27034767.760
     -1359.411                          45.700                   106090199.765 7
  27034773.880       -1014.997          45.900   108857761.913 7  27034770.840
     -1041.558          45.000   107473979.493 8  27034771.700       -1028.301
        48.400
 147066916.789 7                  27985919.020
     -2904.316                          42.150                   109822691.606 7
  27985928.960       -2168.807          42.950   112687622.144 7  27985925.140
     -2225.378          42.650   111255155.528 7  27985925.720       -2197.062
        45.600
 23 12 30  9 25 30.0000000  0 20G05G07G08G13G14G15G18G20G22G23G24G30
                                E04E05E09E15E24E31E34E36
 110871715.379 8  86393536.71048  21098190.620                    21098189.260
     -1794.267       -1398.132          50.650          50.600



 127397314.038 7  99270620.05547  24242912.820                    24242914.440
     -2930.564       -2283.560          43.050          42.800



 131163205.883 6 102205127.56046  24959523.840                    24959527.500
      -483.651        -376.870          38.000          38.050    97946593.750 7
  24959527.880        -361.057          42.450


 104915376.407 8  81752258.80448  19964730.040                    19964727.600
       543.829         423.762          49.950          49.850



 111583155.397 8  86947918.15947  21233560.440                    21233559.180
       644.841         502.474          49.100          47.800    83325119.273 8
  21233564.620         481.562          53.850


 112770793.679 8  87873334.75247  21459567.760                    21459566.720
      2686.557        2093.420          49.250          47.650



 127633933.763 6  99454980.81946  24287939.140                    24287938.960
      -666.481        -519.340          41.050          40.600    95311058.658 7
  24287944.440        -497.761          46.300


 120583901.464 7  93961476.23546  22946361.660                    22946360.760
     -3541.206       -2759.386          44.950          39.750



 113174157.749 8  88187669.15047  21536314.620                    21536312.620
      1737.761        1354.100          50.150          44.900



 131864247.852 6 102751319.37846  25092937.240                    25092937.320
      3523.597        2745.653          39.450          37.800    98470059.670 7
  25092942.240        2631.052          44.500


 126911530.201 7  98892108.66546  24150458.380                    24150460.760
      3597.900        2803.563          42.500          37.850    94771616.596 7
  24150464.760        2686.832          45.900


 114600271.808 8  89298904.41248  21807708.700                    21807709.400
     -2243.990       -1748.564          50.150          50.000    85578118.678 8
  21807710.420       -1675.771          52.600


 133381357.090 8                  25381632.920
     -2062.526                          49.450                    99602964.163 8
  25381636.500       -1540.240          49.750   102201292.383 8  25381633.160
     -1580.388          50.050   100902126.427 8  25381635.540       -1560.346
        52.700
 127831512.566 8                  24325529.580
      2263.802                          48.700                    95458604.463 8
  24325534.320        1690.538          49.650    97948826.622 8  24325531.740
      1734.682          49.600    96703712.697 8  24325533.280        1712.548
        52.450
 122621470.430 8                  23334086.360
       107.881                          51.900                    91568010.342 9
  23334089.560          80.475          54.800    93956729.492 9  23334087.200
        82.597          55.750    92762360.071 9  23334088.540          81.524
        58.000
 147588468.686 6                  28085156.460
      1013.693                          41.700                   110212175.992 7
  28085162.600         757.043          42.950   113087269.378 6  28085158.400
       776.636          41.850   111649718.340 7  28085161.380         766.924
        45.250
 142735541.259 7                  27161663.340
      3223.396                          43.600                   106588265.002 7
  27161669.280        2407.195          44.350   109368816.639 7  27161665.640
      2469.935          45.700   107978550.975 7  27161668.140        2438.490
        47.700
 127659348.026 8                  24292759.320
      1602.916                          52.250                    95330074.076 8
  24292764.400        1196.946          52.300    97816942.510 8  24292761.740
      1228.208          52.900    96573507.941 9  24292762.860        1212.606
        55.300
 142109597.517 7                  27042565.700
     -1372.597                          45.550                   106120801.059 7
  27042571.920       -1024.865          46.100   108889161.516 7  27042569.120
     -1051.744          45.900   107504979.943 8  27042570.000       -1038.282
        48.800
 147154084.233 7                  28002506.640
     -2906.792                          43.000                   109887784.062 7
  28002516.760       -2170.644          43.650   112754412.727 7  28002512.300
     -2227.306          42.750   111321097.045 7  28002513.320       -2198.962
        45.950
 23 12 30  9 26  0.0000000  0 20G05G07G08G13G14G15G18G20G22G23G24G30
                                E04E05E09E15E24E31E34E36
 110925816.863 8  86435693.63748  21108485.700                    21108484.140
     -1812.917       -1412.665          50.400          50.400



 127485263.239 7  99339151.82347  24259649.120                    24259650.920
     -2932.945       -2285.415          43.950          44.000



 131177986.945 6 102216645.31746  24962336.400                    24962340.780
      -502.254        -391.364          37.600          37.250    97957631.603 6
  24962340.760        -375.056          41.750


 104899260.498 8  81739700.93748  19961663.300                    19961660.980
       530.223         413.159          50.200          50.150



 111564097.155 8  86933067.56648  21229933.640                    21229932.580
       625.305         487.250          49.100          48.000    83310887.464 8
  21229937.780         466.899          53.550


 112690343.432 8  87810646.21747  21444258.440                    21444257.380
      2676.229        2085.373          48.800          47.800



 127654199.508 6  99470772.24946  24291795.580                    24291795.280
      -684.880        -533.677          40.300          39.800    95326192.120 7
  24291801.120        -511.473          46.250


 120690241.800 7  94044338.70946  22966597.620                    22966596.880
     -3548.653       -2765.187          45.550          39.300



 113122276.694 8  88147242.37447  21526441.960                    21526439.840
      1720.529        1340.673          50.200          45.550



 131758635.134 6 102669023.58046  25072840.040                    25072840.340
      3517.221        2740.690          40.050          38.750    98391192.792 7
  25072845.020        2626.369          44.250


 126803654.660 6  98808049.89946  24129930.320                    24129932.380
      3593.424        2800.076          41.950          40.550    94691060.303 7
  24129936.840        2683.350          45.250


 114667721.867 8  89351462.84448  21820544.060                    21820544.700
     -2253.050       -1755.626          49.650          49.750    85628487.156 8
  21820545.820       -1682.433          52.500


 133443313.470 8                  25393422.760
     -2068.255                          49.350                    99649230.206 8
  25393426.560       -1544.475          49.400   102248765.384 8  25393423.420
     -1584.815          50.200   100948995.951 8  25393425.540       -1564.642
        52.750
 127763635.690 8                  24312613.020
      2260.949                          48.350                    95407917.215 8
  24312617.640        1688.288          49.200    97896817.092 8  24312614.660
      1732.360          49.050    96652364.307 8  24312616.680        1710.301
        52.150
 122618354.047 8                  23333493.200
        99.477                          51.800                    91565683.131 9
  23333496.580          74.326          54.450    93954341.580 9  23333494.040
        76.260          55.650    92760002.509 9  23333495.560          75.290
        57.950
 147558263.759 7                  28079408.680
       999.406                          42.000                   110189620.325 7
  28079415.200         746.396          42.900   113064125.297 6  28079410.080
       765.951          41.700   111626868.469 7  28079413.660         756.172
        45.500
 142638870.223 7                  27143267.400
      3220.852                          43.700                   106516075.639 7
  27143273.520        2405.064          44.600   109294744.069 7  27143270.080
      2467.844          45.250   107905420.014 7  27143272.380        2436.391
        47.800
 127611446.542 8                  24283643.960
      1590.132                          51.950                    95294303.507 8
  24283649.060        1187.375          51.850    97780238.795 8  24283646.240
      1218.375          52.800    96537270.805 9  24283647.540        1202.866
        55.200
 142150964.040 7                  27050437.280
     -1385.628                          45.000                   106151691.558 7
  27050443.520       -1034.700          45.700   108920857.868 7  27050441.240
     -1061.764          46.300   107536273.365 8  27050441.960       -1048.256
        48.950
 147241313.946 7                  28019106.040
     -2909.004                          42.200                   109952923.016 6
  28019116.120       -2172.394          41.850   112821250.972 7  28019111.740
     -2228.979          43.650   111387085.656 7  28019113.000       -2200.830
        45.700
 23 12 30  9 26 30.0000000  0 20G05G07G08G13G14G15G18G20G22G23G24G30
                                E04E05E09E15E24E31E34E36
 110980478.607 8  86478287.14848  21118887.360                    21118885.680
     -1830.964       -1426.727          50.000          50.100



 127573288.523 7  99407742.86247  24276399.940                    24276401.760
     -2934.887       -2286.928          44.500          44.250



 131193338.209 6 102228607.41346  24965257.380                    24965262.440
      -520.472        -405.559          38.700          39.600    97969095.304 6
  24965261.740        -388.998          41.050


 104883553.888 8  81727461.99948  19958674.460                    19958672.040
       517.118         402.949          50.700          50.150



 111545629.888 8  86918677.48648  21226419.300                    21226418.400
       606.091         472.278          49.050          48.350    83297096.967 8
  21226423.480         452.662          53.900


 112610210.596 8  87748205.02448  21429009.540                    21429008.460
      2666.217        2077.570          48.600          48.100



 127675024.967 6  99486999.84746  24295758.540                    24295758.180
      -703.064        -547.843          40.150          40.100    95341743.553 7
  24295764.300        -524.993          46.850


 120796801.509 7  94127372.11846  22986875.540                    22986874.660
     -3555.281       -2770.354          45.600          40.050



 113070915.418 8  88107220.62947  21516668.240                    21516666.160
      1703.754        1327.601          50.050          45.450



 131653214.080 6 102586877.08946  25052779.260                    25052779.180
      3511.307        2736.076          40.500          37.950    98312469.047 7
  25052784.300        2622.080          44.550


 126695920.939 6  98724101.65046  24109429.060                    24109431.180
      3589.436        2796.966          41.950          40.600    94610609.944 7
  24109435.720        2680.276          45.050


 114735441.349 8  89404231.20948  21833430.660                    21833431.260
     -2261.373       -1762.110          50.200          50.150    85679056.829 8
  21833432.500       -1688.705          53.100


 133505442.511 8                  25405245.420
     -2073.437                          49.250                    99695625.185 8
  25405249.180       -1548.277          49.550   102296370.673 8  25405246.480
     -1588.696          50.050   100995996.085 8  25405248.400       -1568.479
        52.400
 127695851.831 8                  24299714.160
      2258.361                          48.300                    95357299.412 8
  24299718.660        1686.329          49.600    97844878.812 8  24299715.280
      1730.339          48.650    96601086.264 8  24299717.780        1708.354
        51.900
 122615489.293 8                  23332947.880
        91.703                          51.700                    91563543.834 9
  23332951.540          68.474          54.950    93952146.480 9  23332948.840
        70.255          55.700    92757835.308 9  23332950.480          69.376
        57.900
 147528491.440 6                  28073743.060
       985.704                          41.400                   110167387.714 7
  28073749.800         736.045          43.300   113041312.726 6  28073744.400
       755.106          41.700   111604345.871 7  28073748.360         745.637
        45.450
 142542283.443 7                  27124887.580
      3218.510                          44.600                   106443949.158 7
  27124893.940        2403.386          45.550   109220736.014 7  27124890.180
      2466.120          44.800   107832352.740 7  27124892.480        2434.789
        47.900
 127563933.264 8                  24274602.420
      1577.687                          52.000                    95258822.817 8
  24274607.580        1178.142          52.250    97743832.528 8  24274604.560
      1208.896          52.650    96501327.325 9  24274606.100        1193.545
        55.100
 142192727.486 7                  27058384.400
     -1398.274                          45.350                   106182878.470 7
  27058390.580       -1044.235          46.100   108952858.354 7  27058388.860
     -1071.382          46.750   107567867.061 8  27058389.400       -1057.780
        49.000
 147328614.800 7                  28035718.800
     -2910.655                          42.500                   110018115.155 6
  28035728.520       -2173.639          41.050   112888143.749 7  28035724.580
     -2230.367          42.400   111453128.107 7  28035725.800       -2201.989
        44.200
 23 12 30  9 27  0.0000000  0 20G05G07G08G13G14G15G18G20G22G23G24G30
                                E04E05E09E15E24E31E34E36
 111035685.934 8  86521305.77948  21129392.820                    21129391.100
     -1849.267       -1440.987          50.050          49.950



 127661375.706 7  99476382.13347  24293162.500                    24293164.160
     -2937.297       -2288.805          44.600          44.550



 131209247.201 6 102241004.04346  24968285.060                    24968290.160
      -539.513        -420.397          40.550          39.650    97980975.407 6
  24968288.940        -402.844          40.600


 104868243.673 8  81715531.93348  19955760.980                    19955758.520
       503.750         392.532          50.400          50.300



 111527741.358 8  86904738.36648  21223015.140                    21223014.360
       586.727         457.189          49.300          48.250    83283738.651 8
  21223019.400         438.160          53.800


 112530384.832 8  87686003.11147  21413819.080                    21413818.020
      2655.867        2069.507          49.250          47.050



 127696395.977 6  99503652.54546  24299825.360                    24299825.420
      -721.498        -562.209          41.300          40.250    95357702.393 7
  24299831.200        -538.664          46.750


 120903564.289 7  94210563.78246  23007191.980                    23007191.100
     -3562.108       -2775.671          45.700          41.000



 113020062.432 8  88067594.94647  21506991.140                    21506989.240
      1686.746        1314.349          50.050          45.500



 131547974.543 6 102504872.09846  25032753.000                    25032752.920
      3505.437        2731.499          41.250          40.100    98233880.900 7
  25032758.200        2617.423          43.500


 126588317.485 6  98640254.88046  24088952.680                    24088954.840
      3584.423        2793.060          40.850          40.950    94530256.776 7
  24088959.200        2676.898          45.100


 114803415.872 8  89457198.32248  21846365.900                    21846366.380
     -2270.001       -1768.834          50.600          50.300    85729816.965 8
  21846367.820       -1695.114          53.250


 133567731.138 8                  25417098.540
     -2078.878                          49.100                    99742139.341 8
  25417102.120       -1552.341          49.250   102344098.248 8  25417099.860
     -1592.806          50.000   101043116.947 8  25417101.600       -1572.612
        52.400
 127628148.855 8                  24286830.580
      2255.598                          48.550                    95306741.990 8
  24286835.020        1684.300          49.350    97793002.495 8  24286831.360
      1728.234          48.250    96549869.394 8  24286834.240        1706.321
        51.750
 122612863.814 8                  23332448.160
        83.598                          52.050                    91561583.215 9
  23332452.060          62.463          54.850    93950134.720 9  23332449.300
        64.074          55.450    92755849.120 9  23332450.900          63.248
        57.850
 147499139.702 6                  28068157.420
       971.343                          41.050                   110145469.151 7
  28068164.280         725.477          42.950   113018822.383 7  28068158.920
       744.369          42.250   111582141.416 7  28068162.940         735.047
        45.450
 142445769.735 7                  27106521.840
      3215.945                          45.050                   106371877.217 7
  27106528.320        2401.585          44.650   109146783.929 7  27106524.420
      2464.213          45.550   107759340.725 7  27106526.300        2432.953
        47.700
 127516796.245 8                  24265632.480
      1565.043                          52.350                    95223623.108 8
  24265637.560        1168.678          52.000    97707714.562 8  24265634.460
      1199.200          52.400    96465668.490 9  24265636.240        1183.927
        55.000
 142234873.593 7                  27066404.520
     -1411.235                          45.600                   106214351.124 7
  27066410.620       -1053.735          46.150   108985152.053 7  27066409.120
     -1081.239          46.700   107599750.242 8  27066409.620       -1067.506
        49.100
 147415971.792 6                  28052342.080
     -2912.656                          40.300                   110083349.169 7
  28052351.840       -2175.130          42.800   112955079.560 7  28052348.140
     -2231.869          42.550   111519213.013 7  28052349.280       -2203.496
        45.250
 23 12 30  9 27 30.0000000  0 20G05G07G08G13G14G15G18G20G22G23G24G30
                                E04E05E09E15E24E31E34E36
 111091445.575 8  86564754.77248  21140003.440                    21140001.860
     -1867.732       -1455.379          49.550          49.550



 127749532.478 7  99545075.63847  24309938.360                    24309939.680
     -2939.713       -2290.687          43.800          43.750



 131225722.126 6 102253841.66346  24971420.360                    24971424.980
      -558.680        -435.334          40.000          39.550    97993278.154 6
  24971423.500        -417.120          41.150


 104853339.649 8  81703918.38748  19952924.800                    19952922.460
       490.095         381.892          49.900          49.900



 111510440.631 8  86891257.27448  21219722.860                    21219722.080
       567.039         441.849          49.150          48.600    83270819.281 8
  21219727.240         423.323          53.900


 112450876.673 8  87624048.68347  21398689.220                    21398688.020
      2645.021        2061.055          49.650          47.950



 127718319.793 6  99520735.99946  24303997.460                    24303997.680
      -739.757        -576.436          41.700          41.000    95374074.017 7
  24304003.120        -552.591          47.200


 121010536.075 7  94293918.28746  23027548.280                    23027547.440
     -3568.971       -2781.020          45.400          41.200



 112969728.265 8  88028373.53347  21497412.740                    21497410.900
      1669.218        1300.689          49.300          45.700



 131442927.764 6 102423017.32146  25012763.480                    25012763.120
      3498.557        2726.142          40.950          39.100    98155436.704 7
  25012768.740        2612.281          45.800


 126480853.982 6  98556517.17446  24068502.640                    24068505.080
      3579.822        2789.476          40.300          39.950    94450008.151 7
  24068509.100        2673.136          44.650


 114871652.499 8  89510369.66048  21859351.020                    21859351.420
     -2278.825       -1775.710          49.750          49.700    85780772.820 8
  21859353.260       -1701.841          53.550


 133630187.694 8                  25428983.600
     -2084.572                          48.700                    99788778.901 8
  25428986.960       -1556.719          49.150   102391954.500 8  25428985.040
     -1597.305          49.950   101090364.853 8  25428986.760       -1577.007
        52.300
 127560536.036 8                  24273964.120
      2252.171                          48.050                    95256251.883 8
  24273968.620        1681.826          49.200    97741195.247 8  24273964.860
      1725.687          48.350    96498720.719 8  24273967.840        1703.748
        51.700
 122610486.641 8                  23331995.760
        75.180                          52.000                    91559808.022 9
  23331999.800          56.043          54.850    93948313.219 9  23331996.960
        57.517          55.400    92754050.774 9  23331998.560          56.780
        57.850
 147470217.908 6                  28062653.420
       956.826                          40.550                   110123871.674 7
  28062660.580         714.494          43.100   112996661.528 7  28062655.760
       733.098          42.250   111560262.262 7  28062659.520         723.699
        45.600
 142349339.254 7                  27088171.860
      3212.883                          44.400                   106299867.411 7
  27088178.200        2399.223          44.750   109072895.608 7  27088174.520
      2461.861          46.050   107686391.664 7  27088176.200        2430.492
        47.950
 127470044.985 8                  24256735.880
      1551.915                          51.850                    95188711.465 8
  24256740.920        1158.838          52.050    97671892.178 8  24256737.900
      1189.168          52.500    96430301.475 9  24256739.800        1173.990
        55.000
 142277409.474 7                  27074498.800
     -1424.215                          45.450                   106246114.866 7
  27074504.780       -1063.642          45.900   109017744.419 7  27074503.360
     -1091.420          46.600   107631928.294 8  27074504.020       -1077.487
        48.950
 147503391.349 6                  28068977.420
     -2915.022                          40.900                   110148629.861 6
  28068987.040       -2176.733          41.000   113022063.297 7  28068983.580
     -2233.498          43.550   111585345.235 7  28068985.100       -2205.202
        44.950
 23 12 30  9 28  0.0000000  0 20G05G07G08G13G14G15G18G20G22G23G24G30
                                E04E05E09E15E24E31E34E36
 111147750.230 8  86608628.46248  21150717.840                    21150716.360
     -1885.700       -1469.380          49.450          49.400



 127837752.731 7  99613818.61147  24326726.160                    24326727.440
     -2941.402       -2292.005          42.650          43.100



 131242757.711 6 102267116.13646  24974662.240                    24974666.160
      -577.017        -449.622          39.500          39.200    98005999.544 7
  24974665.600        -430.905          42.550


 104838837.338 8  81692617.85948  19950165.180                    19950162.760
       476.850         371.570          50.500          50.350



 111493723.183 8  86878230.69147  21216541.700                    21216540.840
       547.551         426.663          49.650          47.950    83258335.463 8
  21216546.160         408.965          53.900


 112371682.734 8  87562339.09848  21383619.300                    21383617.980
      2634.659        2052.980          50.000          48.200



 127740789.970 7  99538245.17546  24308273.620                    24308274.120
      -758.085        -590.719          42.900          40.200    95390853.632 7
  24308279.180        -566.066          47.250


 121117709.397 7  94377429.83746  23047942.860                    23047942.060
     -3575.636       -2786.214          45.200          40.000



 112919909.257 8  87989553.54147  21487932.360                    21487930.640
      1652.119        1287.366          49.250          45.650



 131338071.253 6 102341310.85346  24992810.100                    24992810.120
      3492.008        2721.044          40.700          38.500    98077134.605 7
  24992815.520        2607.714          44.850


 126373526.649 6  98472885.53546  24048078.540                    24048081.580
      3576.106        2786.578          39.750          39.950    94369861.207 7
  24048084.740        2669.895          44.700


 114940144.585 8  89563740.06348  21872384.700                    21872385.100
     -2287.156       -1782.201          49.950          49.850    85831919.437 8
  21872387.220       -1707.971          53.550


 133692806.836 8                  25440899.640
     -2089.912                          49.150                    99835539.846 8
  25440903.000       -1560.699          49.250   102439935.316 8  25440901.240
     -1601.412          49.950   101137735.734 8  25440902.840       -1581.070
        52.650
 127493008.991 7                  24261114.060
      2249.544                          47.750                    95205825.829 8
  24261118.660        1679.898          48.900    97689453.718 8  24261115.080
      1723.730          48.800    96447636.927 8  24261117.740        1701.816
        51.950
 122608353.149 8                  23331589.940
        67.044                          52.150                    91558214.797 9
  23331593.820          50.125          54.850    93946678.431 9  23331590.880
        51.469          55.550    92752436.766 9  23331592.600          50.797
        58.150
 147441721.779 6                  28057230.500
       942.756                          40.700                   110102592.060 7
  28057238.100         704.011          43.400   112974826.761 7  28057233.540
       722.449          42.600   111538705.072 7  28057236.940         713.210
        46.150
 142252988.515 7                  27069836.980
      3210.429                          45.000                   106227917.125 7
  27069843.040        2397.490          44.900   108999068.392 7  27069839.960
      2459.962          45.350   107613502.912 8  27069841.480        2428.683
        48.050
 127423675.343 8                  24247911.860
      1539.409                          51.450                    95154084.780 8
  24247916.840        1149.520          51.850    97636362.190 8  24247913.940
      1179.539          52.700    96395223.138 9  24247915.940        1164.520
        55.300
 142320328.612 7                  27082666.060
     -1436.817                          45.550                   106278164.794 7
  27082671.880       -1072.959          45.300   109050630.458 7  27082670.400
     -1101.047          46.750   107664396.278 8  27082671.380       -1087.050
        48.900
 147590866.139 6                  28085623.060
     -2916.678                          39.400                   110213951.891 6
  28085632.080       -2178.016          39.150   113089089.322 7  28085629.620
     -2234.892          42.250   111651519.258 7  28085631.040       -2206.476
        43.750
 23 12 30  9 28 30.0000000  0 20G05G07G08G13G14G15G18G20G22G23G24G30
                                E04E05E09E15E24E31E34E36
 111204604.025 8  86652930.05748  21161536.800                    21161535.560
     -1903.807       -1483.488          49.300          49.550



 127926040.835 7  99682614.42147  24343526.720                    24343528.340
     -2943.416       -2293.574          43.650          43.200



 131260358.138 6 102280830.76646  24978011.340                    24978015.120
      -595.936        -464.365          40.150          39.650    98019142.722 7
  24978015.440        -444.764          42.600


 104824742.928 8  81681635.17148  19947483.220                    19947480.820
       463.408         361.097          50.550          50.400



 111477595.133 8  86865663.38147  21213472.740                    21213471.760
       528.175         411.563          50.050          47.950    83246291.790 9
  21213477.280         394.461          54.000


 112292810.874 8  87500880.48147  21368610.720                    21368609.280
      2624.059        2044.722          50.550          47.950



 127763810.793 7  99556183.43346  24312654.560                    24312654.940
      -775.928        -604.617          42.850          40.600    95408044.446 7
  24312659.960        -579.539          47.100


 121225086.721 7  94461100.35946  23068376.300                    23068375.500
     -3582.259       -2791.374          45.250          40.300



 112870612.544 8  87951140.53947  21478551.460                    21478549.720
      1634.984        1274.014          49.750          46.100



 131233413.320 6 102259759.09046  24972894.400                    24972894.440
      3485.871        2716.260          40.750          38.350    97998980.844 7
  24972900.000        2602.954          44.400


 126266342.336 6  98389365.35946  24027681.440                    24027685.140
      3571.459        2782.957          38.700          38.850    94289821.024 7
  24027687.580        2666.559          44.650


 115008896.237 8  89617312.73348  21885467.780                    21885468.160
     -2295.523       -1788.722          50.000          49.950    85883259.898 8
  21885470.400       -1714.210          53.400


 133755593.958 8                  25452847.720
     -2095.207                          49.400                    99882426.247 8
  25452850.960       -1564.696          49.250   102488044.842 8  25452849.160
     -1605.446          49.950   101185233.696 8  25452850.960       -1585.062
        52.450
 127425574.079 7                  24248281.660
      2246.779                          47.900                    95155468.566 8
  24248286.200        1677.723          48.600    97637782.792 8  24248283.100
      1721.536          49.350    96396622.833 8  24248285.300        1699.604
        51.800
 122606469.463 8                  23331231.720
        59.051                          52.750                    91556808.111 9
  23331235.380          44.138          54.900    93945235.060 9  23331232.440
        45.283          55.650    92751011.736 9  23331234.160          44.718
        58.100
 147413657.635 6                  28051890.000
       928.716                          41.600                   110081634.981 7
  28051897.740         693.608          42.700   112953322.992 7  28051893.720
       711.754          42.700   111517474.644 7  28051896.420         702.684
        45.600
 142156724.815 7                  27051518.740
      3207.882                          45.850                   106156031.867 7
  27051525.100        2395.462          45.650   108925307.859 7  27051521.640
      2457.890          45.100   107540680.016 8  27051523.180        2426.652
        48.200
 127377693.875 8                  24239161.700
      1526.669                          51.750                    95119747.960 8
  24239166.600        1140.078          51.800    97601129.629 8  24239164.040
      1169.798          52.850    96360438.448 9  24239165.980        1154.952
        55.200
 142363635.181 7                  27090907.100
     -1449.550                          45.300                   106310504.048 7
  27090912.560       -1082.435          44.700   109083813.339 7  27090911.280
     -1110.728          46.850   107697157.344 8  27090912.420       -1096.546
        48.650
 147678399.708 6                  28102279.960
     -2918.308                          40.550                   110279317.726 6
  28102288.560       -2179.187          41.000   113156160.408 6  28102286.720
     -2236.045          41.550   111717737.717 7  28102288.140       -2207.709
        44.100
 23 12 30  9 29  0.0000000  0 20G05G07G08G13G14G15G18G20G22G23G24G30
                                E04E05E09E15E24E31E34E36
 111261999.788 8  86697653.97048  21172458.960                    21172457.900
     -1922.378       -1497.958          49.900          50.000



 128014390.472 7  99751458.19047  24360339.180                    24360340.940
     -2946.002       -2295.590          43.300          43.750



 131278518.908 6 102294982.00846  24981467.100                    24981470.540
      -615.229        -479.401          38.700          37.850    98032704.326 7
  24981472.080        -459.200          43.150


 104811051.527 8  81670966.52648  19944877.880                    19944875.560
       449.536         350.287          50.150          50.100



 111462051.757 8  86853551.66648  21210515.080                    21210513.960
       508.172         395.978          50.200          48.150    83234684.728 9
  21210519.660         379.563          54.150


 112214257.513 8  87439670.04348  21353662.780                    21353661.180
      2612.727        2035.890          50.350          48.750



 127787375.683 7  99574545.64246  24317138.940                    24317139.060
      -794.858        -619.372          42.750          39.250    95425641.533 7
  24317144.320        -593.378          47.150


 121332660.106 7  94544923.64546  23088846.940                    23088846.500
     -3589.290       -2796.854          45.350          40.550



 112821834.590 8  87913131.77147  21469269.400                    21469267.640
      1617.062        1260.048          50.000          45.750



 131128951.357 6 102178360.06446  24953016.080                    24953016.000
      3478.493        2710.509          40.800          38.050    97920973.407 7
  24953021.900        2597.703          46.000


 126159297.172 6  98305953.56946  24007311.020                    24007315.120
      3565.777        2778.528          38.250          37.750    94209884.710 7
  24007316.920        2662.723          44.700


 115077900.773 8  89671082.44348  21898598.980                    21898599.280
     -2304.554       -1795.758          49.850          49.950    85934789.184 8
  21898601.440       -1720.895          53.350


 133818543.631 8                  25464826.780
     -2101.105                          49.400                    99929434.026 8
  25464830.060       -1569.037          49.100   102536278.933 8  25464828.060
     -1609.968          50.050   101232854.634 8  25464830.020       -1589.506
        52.250
 127358226.806 8                  24235466.040
      2243.268                          48.200                    95105176.710 8
  24235470.380        1675.190          48.200    97586179.001 8  24235467.820
      1718.821          49.700    96345675.006 8  24235469.620        1696.996
        51.600
 122604830.814 8                  23330920.120
        50.386                          52.600                    91555584.415 9
  23330923.640          37.594          55.000    93943979.441 9  23330920.800
        38.608          55.850    92749772.081 9  23330922.340          38.082
        58.000
 147386021.083 7                  28046631.440
       914.039                          42.200                   110060997.226 7
  28046638.880         682.497          43.100   112932146.886 7  28046635.120
       700.210          43.850   111496567.708 7  28046637.380         691.343
        46.100
 142060544.536 7                  27033216.400
      3204.434                          44.850                   106084208.892 7
  27033222.800        2392.948          45.000   108851611.217 7  27033219.060
      2455.262          45.700   107467920.206 7  27033220.500        2424.167
        47.900
 127332096.208 8                  24230484.600
      1513.344                          51.750                    95085697.746 8
  24230489.440        1130.104          51.700    97566191.151 8  24230487.100
      1159.529          52.950    96325944.101 9  24230489.020        1144.829
        55.000
 142407322.495 7                  27099220.500
     -1462.782                          44.550                   106343127.617 7
  27099225.800       -1092.210          44.650   109117287.968 7  27099224.640
     -1120.809          46.850   107730206.442 8  27099225.860       -1106.488
        48.400
 147765984.612 6                  28118947.040
     -2920.463                          40.300                   110344721.927 6
  28118954.620       -2180.906          40.300   113223270.792 7  28118953.880
     -2237.750          42.400   111783995.009 7  28118955.240       -2209.270
        44.050
 23 12 30  9 29 30.0000000  0 20G05G07G08G13G14G15G18G20G22G23G24G30
                                E04E05E09E15E24E31E34E36
 111319937.678 8  86742800.31548  21183484.300                    21183483.460
     -1939.907       -1511.618          50.400          50.650



 128102802.765 7  99820350.80447  24377163.660                    24377165.600
     -2947.591       -2296.827          42.800          43.150



 131297241.193 6 102309570.77646  24985029.800                    24985032.660
      -633.395        -493.556          39.700          40.200    98046685.247 7
  24985034.900        -472.765          43.450


 104797765.920 8  81660614.08748  19942349.620                    19942347.320
       436.451         340.092          50.400          50.350



 111447095.516 8  86841897.46248  21207669.080                    21207667.920
       489.187         381.185          50.200          48.550    83223516.120 9
  21207673.700         365.219          54.450


 112136027.271 8  87378711.39948  21338776.100                    21338774.600
      2602.525        2027.941          50.050          48.800



 127811485.184 6  99593332.22646  24321726.880                    24321726.940
      -812.398        -633.039          41.950          39.800    95443645.332 7
  24321732.340        -606.617          46.900


 121440428.529 7  94628898.92546  23109354.740                    23109354.480
     -3595.059       -2801.350          44.150          41.750



 112773579.126 8  87875530.13347  21460086.800                    21460085.020
      1600.236        1246.938          50.150          46.350



 131024690.069 6 102097117.36046  24933175.820                    24933175.800
      3472.574        2705.896          41.050          40.150    97843115.814 7
  24933181.960        2592.905          46.550


 126052394.267 6  98222652.69046  23986967.660                    23986972.340
      3561.341        2775.073          38.500          39.250    94130054.701 7
  23986973.400        2659.339          45.750


 115147158.601 8  89725049.54348  21911778.380                    21911778.400
     -2312.426       -1801.892          50.350          50.500    85986507.639 8
  21911780.440       -1726.855          53.400


 133881657.634 8                  25476837.120
     -2106.190                          49.550                    99976564.532 8
  25476840.360       -1572.750          49.500   102584638.933 8  25476838.220
     -1613.789          50.150   101280599.884 8  25476840.320       -1593.271
        52.350
 127290969.932 8                  24222667.560
      2240.701                          48.250                    95054952.363 8
  24222671.660        1673.272          48.250    97534644.467 8  24222669.660
      1716.944          49.800    96294795.564 8  24222671.240        1695.109
        51.650
 122603439.715 8                  23330655.420
        42.530                          52.400                    91554545.566 9
  23330658.940          31.790          55.250    93942913.499 9  23330656.340
        32.618          55.850    92748719.685 9  23330657.660          32.205
        58.050
 147358814.863 7                  28041454.880
       900.110                          42.400                   110040680.834 7
  28041461.480         672.045          43.350   112911300.504 7  28041458.360
       689.605          43.550   111475986.324 7  28041460.360         680.835
        46.100
 141964451.328 7                  27014930.540
      3202.160                          45.350                   106012450.942 7
  27014936.920        2391.043          45.050   108777981.324 7  27014933.380
      2453.404          45.850   107395226.289 7  27014934.520        2422.198
        47.900
 127286885.309 8                  24221881.200
      1500.844                          52.150                    95051936.345 8
  24221885.880        1120.762          51.950    97531549.013 8  24221883.860
      1150.032          52.900    96291742.330 9  24221885.680        1135.412
        55.000
 142451391.076 7                  27107606.440
     -1474.843                          44.200                   106376035.910 7
  27107611.720       -1101.384          44.750   109151054.731 7  27107610.720
     -1130.173          46.650   107763543.973 8  27107611.800       -1115.781
        48.100
 147853620.794 6                  28135623.820
     -2921.682                          40.750                   110410164.379 6
  28135630.620       -2181.762          40.150   113290420.435 6  28135630.420
     -2238.728          41.500   111850291.059 7  28135631.880       -2210.095
        43.400
 23 12 30  9 30  0.0000000  0 20G05G07G08G13G14G15G18G20G22G23G24G30
                                E04E05E09E15E24E31E34E36
 111378413.750 8  86788366.02648  21194612.080                    21194611.360
     -1958.149       -1525.833          49.750          49.650



 128191274.288 7  99889289.51447  24393999.280                    24394001.540
     -2950.076       -2298.766          42.350          42.500



 131316521.611 6 102324594.49646  24988698.620                    24988701.180
      -652.093        -508.124          39.550          39.250    98061082.968 7
  24988703.780        -487.045          43.050


 104784884.449 8  81650576.55048  19939898.200                    19939895.940
       422.441         329.174          49.000          48.900



 111432724.573 8  86830699.32948  21204934.440                    21204933.260
       469.218         365.624          49.850          48.750    83212784.574 9
  21204939.080         350.361          54.300


 112058119.639 8  87318004.14348  21323950.740                    21323949.360
      2591.366        2019.245          49.700          48.650



 127836135.615 6  99612540.29846  24326417.720                    24326417.600
      -830.699        -647.301          41.950          38.800    95462053.068 7
  24326423.140        -620.359          46.650


 121548386.995 7  94713022.29246  23129898.480                    23129898.440
     -3601.735       -2806.552          43.900          41.400



 112725845.195 8  87838334.87447  21451003.460                    21451001.600
      1582.354        1233.004          49.800          46.300



 130920629.851 6 102016031.35546  24913373.740                    24913373.800
      3464.985        2699.982          40.800          39.100    97765408.336 7
  24913380.180        2587.594          46.300


 125945632.637 6  98139461.84146  23966651.520                    23966656.060
      3556.646        2771.415          38.550          38.950    94050330.133 7
  23966656.980        2655.755          45.100


 115216665.946 8  89779211.07648  21925005.300                    21925005.200
     -2321.126       -1808.671          49.750          49.750    86038412.426 8
  21925006.940       -1733.326          53.100


 133944933.398 8                  25488878.200
     -2111.978                          48.850                   100023815.826 8
  25488881.600       -1577.125          49.100   102633122.887 8  25488879.280
     -1618.269          50.150   101328467.509 8  25488881.380       -1597.701
        52.550
 127223801.895 8                  24209886.020
      2237.273                          48.550                    95004794.344 8
  24209889.860        1670.719          48.050    97483177.994 8  24209888.220
      1714.318          49.800    96243983.321 8  24209889.820        1692.497
        51.850
 122602294.319 8                  23330437.360
        34.028                          51.600                    91553690.203 9
  23330440.940          25.395          55.050    93942035.829 9  23330438.520
        26.032          55.750    92747853.167 9  23330439.740          25.739
        58.150
 147332037.433 7                  28036359.880
       885.490                          42.050                   110020684.640 7
  28036365.840         661.146          43.650   112890782.670 7  28036363.220
       678.439          43.400   111455729.312 7  28036364.880         669.770
        46.450
 141868444.497 7                  26996661.140
      3198.765                          45.100                   105940757.494 7
  26996667.100        2388.673          44.850   108704417.646 7  26996664.200
      2450.925          45.900   107322597.716 8  26996665.180        2419.807
        48.200
 127242059.707 8                  24213351.260
      1487.692                          52.100                    95018462.667 8
  24213355.780        1110.942          51.700    97497202.111 8  24213353.820
      1139.901          52.850    96257832.045 9  24213355.640        1125.390
        55.200
 142495837.141 7                  27116064.160
     -1487.911                          42.950                   106409226.096 7
  27116069.740       -1111.142          44.750   109185110.741 7  27116068.600
     -1140.009          46.500   107797167.070 8  27116069.580       -1125.564
        48.350
 147941303.768 6                  28152309.740
     -2923.739                          40.300                   110475641.754 6
  28152316.220       -2183.175          40.950   113357605.997 6  28152315.580
     -2240.164          41.550   111916622.522 7  28152317.600       -2211.586
        44.150
 23 12 30  9 30 30.0000000  0 20G05G07G08G13G14G15G18G20G22G23G24G30
                                E04E05E09E15E24E31E34E36
 111437429.969 8  86834352.62648  21205842.620                    21205841.980
     -1975.144       -1539.075          50.000          49.850



 128279808.080 7  99958276.78247  24410846.800                    24410849.320
     -2951.164       -2299.612          42.650          43.000



 131336364.888 6 102340056.75146  24992474.740                    24992476.980
      -669.624        -521.787          39.350          39.050    98075900.987 7
  24992480.220        -500.190          43.950


 104772412.079 8  81640857.80848  19937524.620                    19937522.460
       409.975         319.460          49.100          49.350



 111418943.690 8  86819960.97448  21202312.040                    21202310.980
       450.491         351.032          49.750          48.950    83202493.649 9
  21202316.640         336.505          54.350


 111980541.009 8  87257553.25848  21309187.940                    21309186.680
      2581.472        2011.536          49.200          48.650



 127861329.881 6  99632172.13946  24331212.020                    24331211.880
      -847.706        -660.552          41.650          39.800    95480866.904 7
  24331217.380        -633.068          46.450


 121656537.112 7  94797295.00446  23150478.800                    23150479.180
     -3607.211       -2810.818          44.100          41.300



 112678638.513 8  87801550.46747  21442020.320                    21442018.720
      1565.781        1220.090          49.750          45.950



 130816777.612 6 101935107.38546  24893611.360                    24893611.540
      3459.068        2695.374          40.250          39.050    97687856.190 7
  24893617.980        2583.277          46.600


 125839017.863 6  98056385.41046  23946363.520                    23946367.900
      3552.250        2767.985          40.150          40.200    93970715.234 7
  23946368.580        2652.766          45.550


 115286425.730 8  89833569.29848  21938280.140                    21938280.280
     -2328.604       -1814.499          49.150          49.200    86090505.704 8
  21938281.480       -1738.791          53.200


 134008375.045 8                  25500950.680
     -2116.393                          48.600                   100071190.989 8
  25500954.520       -1580.440          49.350   102681733.927 8  25500951.940
     -1621.663          50.050   101376460.610 8  25500953.960       -1601.046
        52.350
 127156727.800 8                  24197122.320
      2235.320                          48.400                    94954706.487 8
  24197126.080        1669.188          48.450    97431783.507 8  24197124.500
      1712.788          49.550    96193242.153 8  24197126.220        1690.965
        51.800
 122601399.489 8                  23330266.900
        26.776                          51.400                    91553021.956 9
  23330270.660          19.951          55.100    93941350.151 9  23330268.320
        20.478          55.550    92747176.208 9  23330269.500          20.207
        58.050
 147305693.914 7                  28031347.060
       871.892                          42.200                   110001012.442 7
  28031352.700         651.184          43.750   112870597.290 7  28031350.260
       668.016          43.400   111435800.520 7  28031351.720         659.629
        46.400
 141772530.055 7                  26978409.380
      3196.670                          45.050                   105869133.064 7
  26978415.360        2387.185          45.450   108630924.734 7  26978412.360
      2449.389          45.050   107250039.046 7  26978413.340        2418.346
        47.950
 127197624.680 8                  24204895.700
      1475.717                          52.100                    94985280.647 8
  24204900.100        1102.020          52.000    97463154.471 8  24204898.120
      1130.763          52.600    96224217.211 9  24204899.940        1116.400
        55.000
 142540663.581 7                  27124594.120
     -1499.631                          42.750                   106442700.316 7
  27124600.320       -1119.753          44.900   109219458.209 7  27124598.880
     -1148.934          45.700   107831077.915 8  27124599.780       -1134.377
        48.000
 148029035.744 6                  28169004.940
     -2924.191                          39.050                   110541155.796 6
  28169010.660       -2183.654          38.700   113424829.065 6  28169010.440
     -2240.544          41.900   111982991.067 7  28169012.800       -2211.923
        43.050
