     2.11           OBSERVATION DATA    G (GPS)             RINEX VERSION / TYPE
teqc  2019Feb25                         20230902 15:05:52UTCPGM / RUN BY / DATE
Linux 2.6.32-573.12.1.x86_64|x86_64|gcc|Linux 64|=+         COMMENT
teqc  2019Feb25                         20230902 15:05:51UTCCOMMENT
     2.11           OBSERVATION DATA    M (MIXED)           COMMENT
teqc  2019Feb25     IGN-RGP             20230902 09:02:14UTCCOMMENT
teqc  2019Feb25     Administrateur RGP  20230902 09:02:14UTCCOMMENT
teqc  2019Feb25     IGN-RGP             20230902 09:02:12UTCCOMMENT
teqc  2019Feb25     IGN-RGP             20230902 09:02:11UTCCOMMENT
BIT 2 OF LLI FLAGS DATA COLLECTED UNDER A/S CONDITION       COMMENT
IGNF                                                        MARKER NAME
10001M009                                                   MARKER NUMBER
Automatic           IGN                                     OBSERVER / AGENCY
1834194             LEICA GR50          4.51                REC # / TYPE / VERS
5000113963          TRM57971.00     NONE                    ANT # / TYPE
  4201694.1440   177888.8370  4779371.7670                  APPROX POSITION XYZ
        0.0000        0.0000        0.0000                  ANTENNA: DELTA H/E/N
     1     1                                                WAVELENGTH FACT L1/2
    21    L1    L2    C1    P1    P2    D1    D2    S1    S2# / TYPES OF OBSERV
          L5    C5    D5    S5    L7    C7    D7    S7    L8# / TYPES OF OBSERV
          C8    D8    S8                                    # / TYPES OF OBSERV
    30.0000                                                 INTERVAL
DefaultJobName                                              COMMENT
DefaultUserDiscription                                      COMMENT
Project creator:                                            COMMENT
 SNR is mapped to RINEX snr flag value [0-9]                COMMENT
  L1 & L2: min(max(int(snr_dBHz/6), 0), 9)                  COMMENT
    18                                                      LEAP SECONDS
Forced Modulo Decimation to 30 seconds                      COMMENT
teqc_2019 edited: all GLONASS satellites excluded           COMMENT
teqc_2019 edited: all SBAS satellites excluded              COMMENT
teqc_2019 edited: all Galileo satellites excluded           COMMENT
  2023     9     2     8     0    0.0000000     GPS         TIME OF FIRST OBS
                                                            END OF HEADER
 23  9  2  8  0  0.0000000  0 10G02G03G08G10G14G17G21G22G27G32
 109820459.807 8  85574373.73748  20898139.560                    20898136.300
       484.898         377.842          51.100          50.900



 122093122.592 7  95137528.22147  23233548.040                    23233551.460
      3547.065        2763.947          45.450          43.300    91173455.796 8
  23233552.820        2648.754          49.050


 111234242.062 8  86676032.73948  21167176.900                    21167178.820
     -2173.423       -1693.580          50.850          50.800    83064528.653 9
  21167180.000       -1623.074          54.450


 123111027.119 7  95930677.48747  23427257.760                    23427262.880
     -3082.910       -2402.275          45.600          45.450    91933549.710 7
  23427263.380       -2302.213          47.950


 121089043.512 7  94355091.99047  23042482.320                    23042483.160
       522.479         407.125          45.400          43.200    90423646.751 8
  23042488.260         390.221          49.900


 132805179.875 6 103484541.61346  25271986.580                    25271986.120
      3349.500        2609.997          40.800          37.100



 108584565.031 7  84611330.64147  20662956.100                    20662954.440
      -322.042        -250.943          47.550          47.500



 127249706.104 7  99155606.19446  24214817.560                    24214817.060
      1610.979        1255.306          43.550          39.850



 124469808.708 7  96989441.41847  23685828.020                    23685833.700
     -3633.001       -2830.915          43.800          43.600    92948215.257 8
  23685836.500       -2713.002          48.350


 118946374.859 8  92685518.70848  22634736.760                    22634739.920
       776.599         605.141          49.650          49.350    88823629.692 8
  22634740.380         579.805          49.550


 23  9  2  8  0 30.0000000  0 10G02G03G08G10G14G17G21G22G27G32
 109806046.918 8  85563142.86248  20895396.940                    20895393.760
       475.659         370.642          51.050          51.050



 121986816.528 7  95054692.32247  23213318.480                    23213321.860
      3539.528        2758.073          45.250          43.750    91094071.377 8
  23213323.100        2643.312          49.050


 111299656.634 8  86727005.02648  21179624.920                    21179626.800
     -2187.626       -1704.647          50.650          50.650    83113377.071 9
  21179627.780       -1633.679          54.400


 123203599.756 7  96002811.80047  23444874.020                    23444879.080
     -3088.896       -2406.938          45.800          45.350    92002678.362 8
  23444879.580       -2306.597          48.200


 121073655.609 7  94343101.38147  23039554.080                    23039555.320
       503.158         392.069          45.950          42.300    90412155.747 8
  23039559.800         375.646          49.900


 132704707.858 6 103406251.67346  25252867.240                    25252866.900
      3348.602        2609.300          38.800          37.100



 108594360.113 8  84618963.12548  20664820.080                    20664818.260
      -331.183        -258.066          48.350          48.250



 127201604.284 7  99118124.25146  24205664.140                    24205663.640
      1595.554        1243.289          43.550          40.700



 124578873.803 7  97074427.03847  23706582.560                    23706588.080
     -3638.230       -2834.990          43.950          44.400    93029659.763 8
  23706591.020       -2716.829          48.450


 118923352.120 8  92667578.87048  22630355.760                    22630358.880
       758.150         590.766          50.050          50.100    88806437.336 8
  22630359.420         566.145          49.700


 23  9  2  8  1  0.0000000  0 10G02G03G08G10G14G17G21G22G27G32
 109791918.689 8  85552133.79148  20892708.400                    20892705.280
       466.188         363.261          50.700          50.850



 121880737.738 7  94972033.52947  23193132.080                    23193135.520
      3532.178        2752.348          44.550          43.700    91014856.707 8
  23193137.080        2637.689          49.550


 111365506.209 8  86778316.28548  21192155.680                    21192157.520
     -2202.293       -1716.076          49.950          50.150    83162550.332 9
  21192158.280       -1644.504          54.000


 123296357.123 7  96075090.05247  23462525.560                    23462530.480
     -3094.899       -2411.616          45.050          45.100    92071944.985 7
  23462530.720       -2311.140          47.600


 121058860.459 7  94331572.62746  23036738.520                    23036739.980
       483.246         376.552          45.100          41.950    90401107.352 8
  23036744.100         360.902          49.450


 132604268.439 6 103327987.12346  25233754.060                    25233753.660
      3347.454        2608.403          38.900          37.050



 108604438.288 8  84626816.19948  20666738.040                    20666736.040
      -340.622        -265.421          48.300          48.150



 127153964.481 7  99081002.31246  24196598.620                    24196598.140
      1580.373        1231.460          42.200          38.450



 124688098.317 7  97159536.86147  23727367.400                    23727373.040
     -3643.395       -2839.017          43.700          43.800    93111223.312 8
  23727375.840       -2720.773          48.050


 118900886.310 8  92650072.99948  22626080.780                    22626083.760
       739.542         576.265          49.650          49.750    88789660.869 8
  22626084.480         552.275          49.350


 23  9  2  8  1 30.0000000  0 10G02G03G08G10G14G17G21G22G27G32
 109778067.630 8  85541340.71048  20890072.580                    20890069.520
       457.047         356.139          50.850          50.850



 121774880.243 7  94889547.16347  23172987.680                    23172991.400
      3524.898        2746.675          44.650          42.700    90935807.267 8
  23172993.000        2632.191          49.050


 111431781.870 8  86829959.55748  21204767.440                    21204769.400
     -2216.264       -1726.963          50.000          49.850    83212041.783 8
  21204770.000       -1655.012          53.700


 123389289.038 7  96147504.29747  23480210.200                    23480215.140
     -3100.621       -2416.077          45.650          45.300    92141341.918 7
  23480214.860       -2315.428          47.300


 121044650.451 7  94320499.84747  23034034.280                    23034035.800
       464.010         361.566          44.900          42.800    90390495.914 8
  23034039.540         346.428          48.850


 132503855.739 6 103249743.47746  25214645.920                    25214645.540
      3346.627        2607.763          39.900          36.300



 108614791.451 8  84634883.55048  20668708.360                    20668706.200
      -349.802        -272.574          48.450          48.650



 127106780.169 7  99044235.23046  24187619.640                    24187619.160
      1565.142        1219.589          42.850          37.800



 124797472.532 7  97244763.33747  23748180.820                    23748186.300
     -3648.504       -2842.996          44.000          43.800    93192898.638 7
  23748189.180       -2724.333          47.800


 118878970.674 8  92632995.84748  22621910.460                    22621913.460
       721.439         562.160          50.150          50.050    88773295.249 8
  22621914.040         538.686          48.950


 23  9  2  8  2  0.0000000  0 10G02G03G08G10G14G17G21G22G27G32
 109764496.362 8  85530765.64148  20887490.100                    20887487.040
       447.836         348.961          50.950          50.900



 121669248.307 7  94807236.54847  23152886.180                    23152889.760
      3517.574        2740.967          44.000          42.650    90856926.266 8
  23152891.960        2626.596          49.650


 111498484.248 8  86881935.33748  21217460.360                    21217462.500
     -2230.380       -1737.962          49.350          49.350    83261851.881 8
  21217462.920       -1665.570          53.800


 123482395.836 7  96220054.80847  23497928.020                    23497933.140
     -3106.288       -2420.492          44.900          44.900    92210869.449 7
  23497932.400       -2319.672          47.650


 121031028.459 7  94309885.23447  23031442.020                    23031443.280
       444.421         346.301          44.250          42.700    90380323.557 8
  23031447.140         331.822          49.200


 132403473.518 6 103171523.49146  25195543.840                    25195543.320
      3345.667        2607.015          38.800          38.100



 108625421.952 7  84643167.00648  20670731.320                    20670729.140
      -358.840        -279.617          47.950          48.050



 127060055.198 7  99007826.14146  24178728.120                    24178727.740
      1550.097        1207.863          42.450          39.700



 124906997.116 7  97330106.98947  23769022.840                    23769028.100
     -3653.153       -2846.619          43.850          44.150    93274686.261 7
  23769031.200       -2728.075          47.750


 118857608.723 8  92616350.12948  22617845.500                    22617848.560
       703.021         547.808          50.200          50.200    88757343.082 8
  22617849.020         524.932          49.300


 23  9  2  8  2 30.0000000  0 10G02G03G08G10G14G17G21G22G27G32
 109751207.948 8  85520410.97148  20884961.480                    20884958.520
       438.316         341.543          51.000          50.900



 121563846.442 7  94725105.22047  23132828.520                    23132832.400
      3509.543        2734.707          43.600          43.400    90778217.062 8
  23132834.900        2620.861          49.900


 111565614.911 8  86934244.85748  21230234.800                    21230237.100
     -2244.594       -1749.037          49.100          49.250    83311981.822 8
  21230237.540       -1676.210          53.700


 123575678.391 7  96292742.27247  23515679.080                    23515684.460
     -3112.155       -2425.063          44.650          44.750    92280528.219 7
  23515683.500       -2324.028          47.550


 121017997.337 7  94299731.06047  23028962.140                    23028963.200
       424.599         330.854          44.650          42.850    90370592.450 8
  23028967.600         317.127          49.200


 132303126.054 6 103093330.58446  25176448.200                    25176447.580
      3344.489        2606.100          38.600          36.350



 108636331.815 7  84651668.14147  20672807.320                    20672805.260
      -368.173        -286.890          47.150          47.000



 127013793.694 7  98971778.22246  24169924.860                    24169924.600
      1534.540        1195.744          42.000          38.950



 125016672.868 7  97415568.43347  23789893.620                    23789898.980
     -3658.123       -2850.491          43.700          43.800    93356586.786 7
  23789901.840       -2731.769          47.200


 118836804.143 8  92600138.73548  22613886.620                    22613889.580
       684.310         533.227          50.350          50.550    88741807.141 8
  22613890.040         510.985          49.300


 23  9  2  8  3  0.0000000  0 10G02G03G08G10G14G17G21G22G27G32
 109738200.960 8  85510275.60548  20882486.460                    20882483.560
       429.063         334.333          51.250          51.250



 121458674.569 7  94643153.11346  23112814.720                    23112818.420
      3502.131        2728.932          44.350          41.700    90699679.640 8
  23112821.440        2615.158          49.300


 111633170.894 8  86986885.78248  21243090.260                    21243092.720
     -2258.702       -1760.031          49.500          49.700    83362429.359 8
  21243093.120       -1686.765          53.550


 123669132.727 7  96365563.59447  23533462.820                    23533468.360
     -3117.867       -2429.514          43.650          43.550    92350315.264 7
  23533467.560       -2328.289          47.350


 121005555.641 7  94290036.15847  23026594.640                    23026595.300
       405.060         315.628          45.650          43.250    90361301.486 8
  23026600.400         302.435          49.150


 132202813.483 6 103015164.86246  25157359.400                    25157359.140
      3343.264        2605.138          40.300          37.500



 108647519.140 7  84660385.48147  20674936.100                    20674934.200
      -377.296        -293.998          47.550          47.250



 126967995.221 6  98936091.08646  24161209.740                    24161209.260
      1518.978        1183.619          41.950          40.150



 125126496.183 7  97501144.84847  23810792.540                    23810797.780
     -3663.107       -2854.376          43.900          43.700    93438597.476 7
  23810800.680       -2735.388          47.200


 118816556.184 8  92584361.05948  22610033.680                    22610036.460
       665.793         518.797          50.550          50.550    88726686.851 8
  22610037.160         497.217          49.500


 23  9  2  8  3 30.0000000  0 10G02G03G08G10G14G17G21G22G27G32
 109725475.774 8  85500359.82448  20880065.040                    20880062.020
       419.873         327.172          51.450          51.250



 121353734.848 7  94561381.88647  23092845.140                    23092848.940
      3494.714        2723.157          42.550          42.450    90621315.550 8
  23092852.220        2609.466          49.550


 111701151.162 8  87039857.32248  21256026.560                    21256029.040
     -2272.628       -1770.882          49.800          49.850    83413193.728 8
  21256029.600       -1697.176          53.600


 123762757.031 7  96438517.33647  23551278.920                    23551284.560
     -3123.237       -2433.699          43.600          43.700    92420229.220 7
  23551284.020       -2332.318          47.200


 120993703.768 7  94280800.86147  23024339.400                    23024339.940
       385.659         300.511          45.250          43.150    90352450.971 8
  23024345.700         287.901          49.200


 132102537.614 6 102937027.75646  25138277.780                    25138277.300
      3342.342        2604.421          40.850          36.300



 108658984.085 7  84669319.16247  20677117.780                    20677115.980
      -386.407        -301.098          47.650          46.850



 126922661.562 7  98900766.13846  24152583.180                    24152582.860
      1503.617        1171.646          42.550          39.650



 125236465.478 7  97586835.02347  23831719.220                    23831724.400
     -3667.579       -2857.859          44.050          44.100    93520717.192 7
  23831727.260       -2738.881          46.900


 118796866.039 8  92569018.04048  22606286.840                    22606289.380
       647.489         504.535          49.900          49.800    88711983.128 8
  22606290.420         483.381          49.600


 23  9  2  8  4  0.0000000  0 10G02G03G08G10G14G17G21G22G27G32
 109713029.750 8  85490661.57148  20877696.680                    20877693.520
       410.230         319.658          51.050          50.850



 121249025.901 7  94479790.50347  23072919.720                    23072923.380
      3486.380        2716.658          43.500          42.750    90543123.791 8
  23072926.920        2603.428          49.950


 111769550.255 8  87093155.21148  21269042.640                    21269045.100
     -2286.907       -1782.009          49.700          49.750    83464270.856 8
  21269045.740       -1707.814          53.800


 123856546.187 7  96511599.53847  23569126.600                    23569132.180
     -3129.055       -2438.234          43.350          43.800    92490266.265 7
  23569131.920       -2336.595          47.400


 120982438.711 7  94272022.81247  23022195.860                    23022196.260
       365.714         284.970          45.050          43.550    90344038.658 8
  23022202.620         273.032          49.150


 132002297.247 6 102858918.29146  25119202.860                    25119202.160
      3340.874        2603.277          40.700          36.650



 108670723.395 7  84678466.62147  20679351.740                    20679349.980
      -395.879        -308.479          47.600          47.200



 126877790.882 7  98865801.95446  24144044.620                    24144044.180
      1488.004        1159.483          43.050          38.750



 125346575.731 7  97672635.03047  23852672.820                    23852678.080
     -3672.650       -2861.812          44.000          44.200    93602942.163 7
  23852680.580       -2742.585          46.750


 118777731.517 8  92554107.96548  22602645.620                    22602648.020
       628.316         489.596          49.200          49.150    88697694.299 8
  22602649.240         469.292          49.400


 23  9  2  8  4 30.0000000  0 10G02G03G08G10G14G17G21G22G27G32
 109700869.892 8  85481186.31048  20875382.720                    20875379.640
       400.295         311.917          50.900          50.900



 121144556.164 7  94398385.49847  23053039.860                    23053043.140
      3478.049        2710.167          44.400          43.100    90465110.671 8
  23053047.100        2597.265          49.750


 111838374.148 8  87146784.12148  21282139.640                    21282141.980
     -2301.459       -1793.348          49.900          49.900    83515665.200 8
  21282142.800       -1718.583          53.800


 123950505.141 7  96584814.05947  23587006.680                    23587012.280
     -3135.116       -2442.956          44.550          44.550    92560430.143 7
  23587012.160       -2341.102          47.300


 120971767.427 7  94263707.45647  23020165.240                    23020165.700
       345.539         269.249          44.800          43.700    90336069.759 8
  23020172.340         258.044          49.200


 131902100.114 6 102780842.50546  25100136.320                    25100135.420
      3339.066        2601.869          41.450          40.250



 108682743.887 7  84687833.18147  20681639.280                    20681637.440
      -405.569        -316.030          47.700          47.600



 126833391.274 7  98831204.82846  24135595.620                    24135595.320
      1471.942        1146.965          43.200          38.300



 125456831.774 7  97758548.63647  23873654.120                    23873659.440
     -3677.918       -2865.916          44.100          44.350    93685276.004 7
  23873661.740       -2746.427          46.950


 118759160.208 8  92539636.76748  22599111.460                    22599114.000
       609.545         474.969          49.400          49.150    88683826.073 8
  22599115.080         455.091          49.300


 23  9  2  8  5  0.0000000  0 10G02G03G08G10G14G17G21G22G27G32
 109688991.302 8  85471930.22148  20873122.380                    20873119.260
       390.816         304.530          51.600          51.200



 121040322.299 7  94317164.32747  23033204.940                    23033208.280
      3470.048        2703.938          44.100          43.800    90387273.706 8
  23033212.060        2591.332          50.150


 111907615.933 8  87200738.65448  21295316.180                    21295318.420
     -2315.392       -1804.205          50.050          50.200    83567371.604 8
  21295319.300       -1729.013          53.850


 124044626.465 7  96658155.11147  23604917.640                    23604923.240
     -3140.337       -2447.023          45.250          45.200    92630715.271 7
  23604923.320       -2345.129          47.050


 120961684.782 7  94255850.77847  23018246.700                    23018247.240
       325.843         253.901          44.400          44.050    90328540.438 8
  23018253.860         243.323          49.100


 131801943.324 7 102702798.19146  25081077.400                    25081076.560
      3337.748        2600.842          42.600          38.550



 108695039.553 7  84697414.15448  20683979.140                    20683977.360
      -414.853        -323.264          47.900          48.050



 126789459.104 7  98796971.91546  24127235.660                    24127235.300
      1456.253        1134.739          43.350          39.500



 125567226.630 7  97844570.42147  23894661.760                    23894667.140
     -3682.521       -2869.502          44.250          44.600    93767713.503 7
  23894669.300       -2749.972          46.800


 118741147.917 8  92525601.17848  22595683.740                    22595686.560
       590.576         460.188          49.100          49.050    88670375.293 8
  22595687.300         441.087          49.150


 23  9  2  8  5 30.0000000  0 10G02G03G08G10G14G17G21G22G27G32
 109677395.021 8  85462894.10448  20870915.760                    20870912.600
       382.053         297.702          51.600          51.400



 120936326.453 7  94236128.59546  23013415.360                    23013418.360
      3462.555        2698.095          44.350          41.950    90309614.488 8
  23013422.480        2585.638          49.750


 111977275.015 8  87255018.35048  21308572.080                    21308574.280
     -2328.736       -1814.603          50.150          50.350    83619389.636 8
  21308575.080       -1739.053          53.400


 124138908.444 7  96731621.34347  23622859.220                    23622864.860
     -3145.326       -2450.911          45.450          45.400    92701120.368 7
  23622865.080       -2348.816          46.800


 120952191.311 7  94248453.21147  23016440.240                    23016440.840
       306.813         239.072          44.100          43.650    90321451.091 8
  23016447.380         228.997          48.950


 131701829.275 6 102624787.15246  25062026.580                    25062025.700
      3336.552        2599.907          41.950          38.350



 108707610.604 8  84707209.71948  20686371.440                    20686369.720
      -423.417        -329.937          48.350          48.200



 126745996.172 7  98763104.68346  24118965.020                    24118964.520
      1440.934        1122.806          43.700          40.800



 125677758.826 7  97930699.21247  23915695.580                    23915701.120
     -3686.641       -2872.715          43.550          43.250    93850253.555 7
  23915702.960       -2752.916          46.350


 118723695.863 8  92512002.13848  22592362.680                    22592365.780
       572.458         446.071          49.050          49.250    88657342.870 8
  22592366.260         427.449          49.050


 23  9  2  8  6  0.0000000  0 10G02G03G08G10G14G17G21G22G27G32
 109666082.603 8  85454079.19448  20868763.100                    20868760.120
       372.118         289.961          51.300          51.050



 120832572.268 7  94155281.18647  22993671.720                    22993674.940
      3454.328        2691.686          44.150          43.700    90232135.703 8
  22993678.460        2579.397          49.550


 112047351.170 8  87309623.04248  21321907.320                    21321909.500
     -2343.021       -1825.733          50.250          50.200    83671719.109 8
  21321910.260       -1749.754          53.500


 124233351.090 7  96805212.75347  23640831.380                    23640837.020
     -3150.943       -2455.290          45.950          45.800    92771645.418 7
  23640837.520       -2352.969          46.600


 120943288.989 7  94241516.29147  23014746.420                    23014746.880
       286.673         223.381          44.900          43.600    90314803.193 8
  23014753.280         213.972          49.250


 131601761.169 7 102546811.90246  25042984.400                    25042983.560
      3334.552        2598.348          42.000          38.800



 108720458.893 8  84717221.32548  20688816.460                    20688814.700
      -433.262        -337.608          48.000          48.300



 126703005.079 7  98729605.06646  24110784.000                    24110783.600
      1424.747        1110.189          43.200          38.500



 125788428.370 7  98016935.03747  23936755.240                    23936761.180
     -3691.771       -2876.710          43.900          44.000    93932896.169 7
  23936762.880       -2756.640          46.700


 118706806.789 8  92498841.77548  22589148.820                    22589152.160
       553.409         431.227          48.750          48.900    88644730.848 8
  22589152.500         413.184          49.650


 23  9  2  8  6 30.0000000  0 10G02G03G08G10G14G17G21G22G27G32
 109655054.452 8  85445485.79248  20866664.480                    20866661.640
       362.722         282.639          51.250          51.050



 120729061.235 7  94074623.25547  22973974.340                    22973977.440
      3445.945        2685.154          44.650          43.050    90154838.522 8
  22973981.060        2573.415          50.100


 112117842.868 8  87364551.53348  21335321.540                    21335323.740
     -2356.694       -1836.389          50.050          49.900    83724358.895 8
  21335324.300       -1759.929          53.300


 124327952.055 7  96878927.53647  23658833.600                    23658839.240
     -3156.157       -2459.353          45.550          45.900    92842288.713 7
  23658839.900       -2356.833          46.150


 120934977.541 7  94235039.77747  23013165.040                    23013165.320
       266.976         208.030          44.700          43.700    90308596.507 8
  23013171.640         199.428          49.400


 131501740.710 7 102468873.80846  25023951.280                    25023950.620
      3333.117        2597.232          42.650          40.150



 108733584.069 7  84727448.68047  20691314.160                    20691312.340
      -442.154        -344.537          47.800          47.800



 126660487.548 7  98696474.49846  24102693.200                    24102692.900
      1409.351        1098.195          43.100          39.700



 125899233.031 7  98103276.13947  23957840.760                    23957846.780
     -3696.004       -2880.010          43.500          43.300    94015639.694 7
  23957848.560       -2759.893          46.700


 118690481.212 8  92486120.50648  22586042.240                    22586045.720
       534.688         416.639          48.650          48.450    88632539.627 8
  22586046.320         399.217          50.000


 23  9  2  8  7  0.0000000  0 10G02G03G08G10G14G17G21G22G27G32
 109644308.437 8  85437112.23248  20864619.520                    20864616.740
       353.834         275.713          51.000          51.050



 120625792.613 7  93994154.23147  22954323.120                    22954326.360
      3438.611        2679.439          45.100          43.600    90077722.370 8
  22954329.580        2567.733          49.650


 112188746.323 8  87419800.87048  21348814.020                    21348816.300
     -2369.947       -1846.716          50.200          50.500    83777306.153 8
  21348816.700       -1769.800          53.050


 124422706.839 7  96952762.17647  23676865.040                    23676870.700
     -3160.642       -2462.847          45.750          45.650    92913046.866 7
  23676871.400       -2360.209          46.050


 120927254.538 7  94229021.81047  23011695.500                    23011695.760
       247.828         193.111          44.600          43.950    90302829.267 8
  23011702.160         185.160          49.600


 131401766.802 7 102390971.97846  25004927.040                    25004926.400
      3332.076        2596.422          43.350          38.400



 108746983.190 7  84737889.51047  20693863.900                    20693862.220
      -450.919        -351.367          47.950          47.800



 126618442.133 7  98663711.81546  24094692.160                    24094692.000
      1393.988        1086.224          43.750          41.500



 126010168.554 7  98189719.22147  23978951.200                    23978957.340
     -3699.744       -2882.925          44.050          43.950    94098480.943 7
  23978959.040       -2762.808          46.300


 118674717.490 8  92473837.03348  22583042.720                    22583046.180
       516.386         402.376          49.700          49.850    88620767.962 8
  22583046.960         385.561          50.100


 23  9  2  8  7 30.0000000  0 10G02G03G08G10G14G17G21G22G27G32
 109633850.867 8  85428963.44148  20862629.460                    20862626.760
       344.253         268.248          50.500          50.500



 120522774.295 7  93913880.22847  22934719.620                    22934722.880
      3430.342        2672.994          44.500          44.150    90000793.107 8
  22934725.640        2561.599          49.800


 112260066.361 8  87475374.82148  21362385.800                    21362388.120
     -2383.771       -1857.487          50.200          50.200    83830564.500 8
  21362388.360       -1780.136          53.050


 124517619.845 7  97026720.09847  23694926.560                    23694932.220
     -3165.920       -2466.960          45.200          45.350    92983923.137 7
  23694932.840       -2364.083          45.450


 120920126.096 7  94223467.14747  23010338.960                    23010339.380
       228.093         177.735          44.600          42.950    90297506.031 8
  23010345.880         170.400          49.550


 131301847.279 6 102313112.50346  24985913.020                    24985912.260
      3330.247        2594.997          41.750          38.900



 108760662.197 7  84748548.42048  20696466.920                    20696465.360
      -460.321        -358.694          47.700          48.050



 126576876.171 7  98631322.69246  24086782.580                    24086782.480
      1378.168        1073.893          43.550          40.300



 126121239.170 7  98276267.56947  24000087.320                    24000093.560
     -3704.008       -2886.247          43.750          43.700    94181423.079 7
  24000095.380       -2766.083          46.300


 118659522.524 8  92461996.73648  22580151.440                    22580154.900
       497.498         387.658          50.000          49.800    88609421.012 8
  22580155.680         371.417          50.050


 23  9  2  8  8  0.0000000  0 10G02G03G08G10G14G17G21G22G27G32
 109623672.859 8  85421032.49348  20860692.600                    20860689.980
       334.101         260.337          50.850          50.850



 120419998.887 7  93833795.51047  22915162.280                    22915165.600
      3421.260        2665.917          45.800          44.200    89924045.264 8
  22915168.200        2554.956          49.350


 112331791.936 8  87531264.76548  21376034.740                    21376037.120
     -2397.981       -1868.562          50.150          50.050    83884125.678 8
  21376037.080       -1790.735          52.750


 124612679.717 7  97100792.47947  23713016.040                    23713021.500
     -3171.692       -2471.456          46.250          46.450    93054909.126 7
  23713021.960       -2368.287          44.850


 120913583.054 7  94218368.61147  23009093.820                    23009094.300
       207.915         162.012          44.400          43.100    90292619.936 8
  23009101.060         155.288          49.250


 131201975.283 7 102235290.12346  24966908.020                    24966907.320
      3327.865        2593.143          42.000          39.850



 108774611.791 7  84759418.17847  20699121.400                    20699119.800
      -469.937        -366.187          47.100          47.300



 126535781.854 7  98599301.12646  24078962.800                    24078962.680
      1361.519        1060.924          44.650          40.550



 126232433.886 7  98362912.61447  24021247.100                    24021253.300
     -3709.036       -2890.164          43.600          43.400    94264457.851 7
  24021255.340       -2769.675          46.400


 118644887.959 8  92450593.11448  22577366.740                    22577370.100
       477.946         372.424          50.600          50.550    88598492.525 8
  22577370.880         356.937          49.650


 23  9  2  8  8 30.0000000  0 10G02G03G08G10G14G17G21G22G27G32
 109613784.856 8  85413327.52448  20858810.960                    20858808.320
       324.613         252.944          50.850          50.800



 120317478.118 7  93753909.20247  22895653.280                    22895656.820
      3412.956        2659.447          45.050          43.850    89847487.530 8
  22895658.740        2548.602          49.350


 112403931.478 8  87587477.28748  21389762.500                    21389764.840
     -2411.752       -1879.290          50.000          50.100    83937995.986 8
  21389764.760       -1800.980          52.600


 124707894.467 7  97174985.53347  23731135.000                    23731140.320
     -3176.501       -2475.204          45.550          45.300    93126010.759 7
  23731140.620       -2372.184          44.750


 120907635.339 7  94213733.99147  23007961.920                    23007962.620
       188.175         146.628          44.250          43.600    90288178.425 8
  23007969.260         140.461          48.350


 131102162.235 6 102157513.63046  24947914.060                    24947913.300
      3325.715        2591.466          40.050          38.650



 108788841.723 7  84770506.38747  20701829.280                    20701827.600
      -479.129        -373.349          47.050          46.900



 126495170.462 7  98567655.83646  24071234.820                    24071234.760
      1345.374        1048.343          44.950          40.000



 126343760.775 7  98449660.65047  24042432.040                    24042438.340
     -3713.305       -2893.491          43.650          43.100    94347591.357 7
  24042440.240       -2772.823          45.900


 118630824.491 8  92439634.48748  22574690.580                    22574693.980
       459.097         357.734          50.050          50.100    88587990.502 8
  22574694.360         342.801          49.050


 23  9  2  8  9  0.0000000  0 10G02G03G08G10G14G17G21G22G27G32
 109604180.177 8  85405843.32748  20856983.360                    20856980.560
       315.595         245.917          51.300          51.150



 120215207.169 7  93674217.54547  22876191.800                    22876195.620
      3404.820        2653.106          44.800          44.500    89771116.371 8
  22876197.300        2542.618          49.650


 112476476.875 8  87644006.05748  21403567.520                    21403569.940
     -2424.781       -1889.444          49.750          49.650    83992169.373 8
  21403569.660       -1810.748          52.850


 124803255.761 7  97249292.79847  23749281.900                    23749286.940
     -3181.043       -2478.743          46.250          46.400    93197221.820 7
  23749287.220       -2375.407          44.100


 120902276.317 7  94209558.08147  23006942.080                    23006943.060
       168.940         131.642          44.150          43.750    90284176.505 7
  23006949.080         126.174          47.750


 131002403.603 6 102079779.54746  24928930.460                    24928930.040
      3324.729        2590.692          40.400          39.900



 108803345.713 7  84781808.14747  20704589.280                    20704587.540
      -487.845        -380.141          46.950          46.800



 126455036.590 7  98536382.65246  24063597.760                    24063597.620
      1329.845        1036.241          45.100          40.100



 126455211.425 7  98536505.12447  24063640.560                    24063646.940
     -3716.853       -2896.256          43.350          42.950    94430817.275 7
  24063648.840       -2775.688          46.100


 118617326.244 8  92429116.29348  22572121.900                    22572125.480
       440.745         343.436          49.400          49.600    88577910.556 8
  22572125.380         329.003          49.100


 23  9  2  8  9 30.0000000  0 10G02G03G08G10G14G17G21G22G27G32
 109594860.840 8  85398581.46848  20855210.100                    20855207.220
       305.933         238.389          51.550          51.350



 120113188.935 7  93594722.82747  22856778.140                    22856782.420
      3396.507        2646.628          44.850          43.900    89694933.929 8
  22856783.620        2536.317          49.000


 112549428.300 8  87700851.21048  21417449.820                    21417452.200
     -2438.400       -1900.056          49.850          49.650    84046645.951 8
  21417451.980       -1820.886          52.750


 124898762.584 7  97323713.45547  23767456.540                    23767461.420
     -3185.891       -2482.521          45.550          45.650    93268541.555 7
  23767461.560       -2379.102          43.850


 120897507.094 7  94205841.77447  23006034.640                    23006035.840
       149.305         116.341          44.900          43.600    90280615.041 7
  23006040.780         111.438          47.000


 130902702.177 6 102002090.06346  24909957.720                    24909957.620
      3322.612        2589.041          39.700          38.850



 108818123.979 7  84793323.61948  20707401.600                    20707399.740
      -497.227        -387.451          47.950          48.400



 126415382.631 7  98505483.43246  24056051.900                    24056051.780
      1313.652        1023.624          44.750          40.050



 126566785.192 7  98623445.53247  24084872.600                    24084878.960
     -3721.021       -2899.503          43.100          43.400    94514135.117 7
  24084880.960       -2778.665          45.700


 118604395.155 8  92419040.05648  22569661.140                    22569665.020
       421.682         328.581          49.400          49.400    88568254.131 8
  22569664.500         314.854          48.850


 23  9  2  8 10  0.0000000  0 10G02G03G08G10G14G17G21G22G27G32
 109585828.829 8  85391543.49548  20853491.540                    20853488.520
       296.375         230.940          51.600          51.500



 120011426.955 7  93515427.75947  22837413.060                    22837418.040
      3387.714        2639.776          43.500          43.750    89618942.840 8
  22837418.980        2529.911          49.650


 112622785.820 8  87758012.79548  21431409.400                    21431411.880
     -2451.877       -1910.558          49.600          49.350    84101425.784 8
  21431411.740       -1830.979          53.000


 124994414.978 7  97398247.50147  23785658.780                    23785663.920
     -3190.673       -2486.248          45.350          45.550    93339969.958 7
  23785663.880       -2382.781          44.400


 120893329.296 7  94202586.29047  23005239.880                    23005240.940
       129.503         100.908          45.550          43.600    90277495.212 7
  23005245.040          96.691          47.000


 130803060.982 6 101924447.53246  24890996.360                    24890996.600
      3320.615        2587.490          38.300          38.350



 108833178.302 8  84805054.21048  20710266.560                    20710264.660
      -506.158        -394.411          48.100          48.250



 126376211.546 7  98474960.45446  24048597.940                    24048597.540
      1297.679        1011.176          45.300          40.900



 126678481.899 7  98710481.71847  24106128.000                    24106134.560
     -3725.113       -2902.691          43.150          43.250    94597544.754 7
  24106136.200       -2781.720          45.400


 118592033.624 8  92409407.61748  22567308.800                    22567312.980
       402.606         313.716          49.600          49.650    88559023.020 8
  22567312.240         300.757          49.150


 23  9  2  8 10 30.0000000  0 10G02G03G08G10G14G17G21G22G27G32
 109577082.850 8  85384728.40748  20851827.360                    20851824.240
       287.288         223.859          51.350          51.450



 119909921.231 7  93436332.37747  22818096.880                    22818102.180
      3379.977        2633.746          43.600          43.200    89543143.122 8
  22818102.880        2523.665          49.050


 112696545.643 8  87815487.86348  21445445.500                    21445448.060
     -2464.955       -1920.748          50.050          50.250    84156506.035 8
  21445448.280       -1840.743          53.150


 125090209.075 7  97472891.99847  23803888.040                    23803893.320
     -3195.037       -2489.647          45.900          46.150    93411504.204 7
  23803893.120       -2385.967          43.900


 120889741.131 7  94199790.26847  23004557.260                    23004558.160
       110.081          85.775          46.250          43.650    90274815.675 7
  23004561.700          82.208          47.050


 130703480.332 6 101846852.22746  24872046.680                    24872047.060
      3318.659        2585.972          38.150          37.850



 108848506.687 8  84816998.36448  20713183.640                    20713181.820
      -515.260        -401.503          48.300          48.050



 126337523.003 7  98444813.51346  24041235.720                    24041235.080
      1281.806         998.810          45.600          40.650



 126790298.047 7  98797610.99747  24127406.100                    24127412.840
     -3728.740       -2905.519          42.850          42.250    94681043.610 7
  24127414.240       -2784.498          45.700


 118580240.655 8  92400218.20648  22565064.840                    22565068.980
       383.917         299.153          50.300          50.500    88550216.493 8
  22565068.400         286.682          49.250


 23  9  2  8 11  0.0000000  0 10G02G03G08G10G14G17G21G22G27G32
 109568620.627 8  85378134.43048  20850217.060                    20850213.900
       277.363         216.126          51.350          50.850



 119808671.081 7  93357436.16247  22798829.260                    22798835.060
      3370.956        2626.717          44.150          43.800    89467534.238 8
  22798835.640        2517.174          49.900


 112770703.860 8  87873273.37648  21459557.380                    21459559.960
     -2478.394       -1931.220          50.000          49.950    84211883.787 8
  21459560.660       -1850.838          53.600


 125186140.633 7  97547643.55747  23822143.340                    23822149.040
     -3199.806       -2493.365          45.750          45.650    93483141.063 7
  23822148.760       -2389.500          45.000


 120886739.957 7  94197451.64047  23003986.320                    23003986.940
        90.401          70.441          46.150          42.600    90272574.480 7
  23003990.300          67.459          47.350


 130603960.783 6 101769304.45546  24853108.640                    24853109.120
      3316.549        2584.327          38.800          38.350



 108864106.906 8  84829154.32848  20716152.420                    20716150.600
      -524.318        -408.562          48.550          48.450



 126299315.627 7  98415041.48446  24033965.140                    24033964.460
      1265.625         986.199          46.000          40.650



 126902229.277 7  98884829.93847  24148706.100                    24148712.960
     -3732.721       -2908.620          43.700          43.650    94764628.398 7
  24148714.280       -2787.591          45.850


 118569014.399 8  92391470.38448  22562928.760                    22562932.800
       364.841         284.288          50.500          50.500    88541833.140 8
  22562932.520         272.457          49.500


 23  9  2  8 11 30.0000000  0 10G02G03G08G10G14G17G21G22G27G32
 109560447.791 8  85371765.94648  20848661.740                    20848658.600
       267.582         208.504          51.100          51.050



 119707683.558 7  93278744.59147  22779612.020                    22779617.940
      3361.951        2619.703          44.300          44.200    89392121.480 8
  22779618.240        2510.479          49.050


 112845264.599 8  87931372.53748  21473745.840                    21473748.560
     -2492.038       -1941.852          49.900          49.700    84267562.114 8
  21473749.700       -1860.957          53.600


 125282212.942 7  97622504.79947  23840425.560                    23840431.440
     -3204.805       -2497.260          45.050          44.900    93554883.017 7
  23840431.520       -2393.088          45.700


 120884330.888 7  94195574.38047  23003527.960                    23003528.380
        70.601          55.011          45.400          43.900    90270775.433 7
  23003531.800          52.568          47.600


 130504508.706 6 101691809.28346  24834183.560                    24834183.980
      3314.016        2582.347          39.450          38.950



 108879983.737 8  84841525.84148  20719173.780                    20719171.960
      -533.849        -415.987          48.650          48.600



 126261595.789 7  98385649.34746  24026787.360                    24026786.440
      1249.169         973.375          45.750          39.550



 127014279.114 7  98972141.29047  24170028.660                    24170035.740
     -3737.146       -2912.071          42.800          42.450    94848301.722 7
  24170036.880       -2790.622          45.350


 118558360.810 8  92383168.79848  22560901.600                    22560905.520
       345.526         269.238          50.400          50.600    88533877.438 8
  22560905.560         258.006          49.600


 23  9  2  8 12  0.0000000  0 10G02G03G08G10G14G17G21G22G27G32
 109552562.586 8  85365621.59448  20847161.200                    20847158.080
       257.897         200.958          51.550          51.250



 119606958.244 7  93200257.31747  22760444.640                    22760450.480
      3352.772        2612.549          46.000          45.050    89316904.509 8
  22760450.740        2503.787          49.800


 112920223.776 8  87989782.17048  21488010.120                    21488012.900
     -2505.302       -1952.187          49.700          49.650    84323537.989 8
  21488014.280       -1870.852          53.900


 125378422.055 7  97697472.64847  23858733.660                    23858739.620
     -3209.213       -2500.697          44.250          43.800    93626727.139 7
  23858740.160       -2396.505          46.250


 120882511.603 7  94194156.67747  23003181.760                    23003182.220
        50.763          39.553          45.550          43.150    90269416.774 8
  23003185.920          37.937          48.250


 130405123.460 6 101614366.16046  24815271.360                    24815271.760
      3311.862        2580.674          37.700          37.250



 108896135.015 8  84854111.19348  20722247.260                    20722245.640
      -543.025        -423.139          48.450          48.450



 126224362.549 7  98356636.36546  24019702.240                    24019701.220
      1232.907         960.706          45.300          39.850



 127126443.495 7  99059541.90147  24191372.940                    24191380.220
     -3740.508       -2914.688          43.350          43.000    94932060.620 7
  24191381.220       -2793.515          46.050


 118548278.347 8  92375312.24348  22558983.040                    22558986.860
       326.479         254.396          50.150          50.550    88526348.208 8
  22558987.300         243.782          50.050


 23  9  2  8 12 30.0000000  0 10G02G03G08G10G14G17G21G22G27G32
 109544962.636 8  85359699.50748  20845714.960                    20845711.880
       249.149         194.141          51.150          50.900



 119506494.084 7  93121973.56847  22741327.220                    22741332.920
      3345.126        2606.594          45.350          44.750    89241882.573 8
  22741332.900        2497.957          48.850


 112995577.272 8  88048499.05548  21502349.400                    21502352.240
     -2517.620       -1961.785          49.300          49.050    84379808.306 8
  21502353.740       -1880.082          53.350


 125474763.064 7  97772543.26047  23877066.760                    23877073.040
     -3212.757       -2503.457          42.950          43.000    93698669.739 7
  23877074.020       -2399.240          46.750


 120881279.095 7  94193196.21447  23002947.160                    23002947.780
        32.037          24.961          45.700          42.050    90268496.330 8
  23002951.920          23.860          48.200


 130305804.488 6 101536974.73346  24796371.880                    24796372.340
      3310.420        2579.545          39.950          39.700



 108912557.763 8  84866908.09348  20725372.380                    20725370.780
      -551.460        -429.711          48.150          48.250



 126187614.424 7  98328001.46146  24012709.360                    24012708.380
      1217.697         948.855          44.550          40.900



 127238717.811 7  99147028.20447  24212738.180                    24212745.440
     -3743.537       -2917.046          42.950          43.000    95015901.599 7
  24212746.620       -2795.511          45.900


 118538764.833 8  92367899.01948  22557172.680                    22557176.440
       308.401         240.311          49.600          49.500    88519243.837 8
  22557177.320         230.212          50.050


 23  9  2  8 13  0.0000000  0 10G02G03G08G10G14G17G21G22G27G32
 109537651.878 8  85354002.75748  20844323.740                    20844320.680
       239.008         186.238          51.250          51.050



 119406296.254 7  93043897.32947  22722260.560                    22722265.480
      3335.617        2599.182          46.750          44.200    89167059.522 8
  22722265.760        2490.843          49.200


 113071327.265 8  88107524.90648  21516764.120                    21516767.120
     -2531.421       -1972.540          48.800          48.700    84436374.721 8
  21516768.460       -1890.364          53.400


 125571238.108 7  97847718.28747  23895425.120                    23895431.940
     -3218.048       -2507.582          42.350          42.100    93770712.390 7
  23895433.240       -2402.997          47.300


 120880636.646 7  94192695.55147  23002824.920                    23002825.620
        11.595           9.033          45.900          43.500    90268016.498 8
  23002830.440           8.702          48.600


 130206556.706 6 101459638.73746  24777485.740                    24777486.180
      3306.905        2576.807          40.900          40.800



 108929255.304 8  84879919.11348  20728549.860                    20728548.140
      -561.022        -437.162          48.450          48.600



 126151355.954 7  98299748.06346  24005809.460                    24005808.700
      1200.584         935.519          43.650          41.500



 127351103.729 7  99234601.44147  24234124.700                    24234131.940
     -3748.021       -2920.542          42.700          42.200    95099825.914 7
  24234133.320       -2798.803          45.650


 118529824.275 8  92360932.25148  22555471.180                    22555474.920
       288.661         224.927          48.950          48.750    88512567.329 8
  22555476.340         215.458          50.400


 23  9  2  8 13 30.0000000  0 10G02G03G08G10G14G17G21G22G27G32
 109530630.210 8  85348531.28148  20842987.620                    20842984.580
       229.233         178.622          51.450          51.350



 119306366.263 7  92966029.82447  22703244.780                    22703249.480
      3326.510        2592.086          46.500          44.750    89092436.483 8
  22703249.640        2484.097          49.050


 113147470.961 8  88166857.53948  21531253.820                    21531256.880
     -2544.632       -1982.834          48.650          48.600    84493235.139 8
  21531257.880       -1900.197          53.250


 125667844.586 6  97922995.75946  23913808.740                    23913815.780
     -3222.327       -2510.914          41.300          40.400    93842853.212 7
  23913817.360       -2406.279          47.600


 120880583.662 7  94192654.19747  23002814.800                    23002815.480
        -8.012          -6.244          45.650          42.750    90267976.848 8
  23002821.240          -6.003          48.950


 130107382.121 6 101382359.76046  24758613.640                    24758613.900
      3304.395        2574.852          41.000          40.100



 108946227.200 8  84893143.91448  20731779.580                    20731777.760
      -570.281        -444.377          48.450          48.450



 126115588.033 7  98271876.93546  23999002.780                    23999002.400
      1184.059         922.641          43.800          41.600



 127463599.067 7  99322259.94546  24255531.960                    24255539.200
     -3751.199       -2923.019          42.300          41.450    95183831.965 7
  24255540.740       -2801.519          45.700


 118521456.979 8  92354412.19448  22553878.820                    22553882.400
       269.259         209.809          48.550          48.650    88506318.912 8
  22553884.540         201.067          50.700


 23  9  2  8 14  0.0000000  0 10G02G03G08G10G14G17G21G22G27G32
 109523896.628 8  85343284.27848  20841706.340                    20841703.280
       219.874         171.328          51.050          51.000



 119206704.324 7  92888371.18247  22684279.960                    22684283.860
      3317.485        2585.053          46.900          44.100    89018013.614 8
  22684284.380        2477.472          49.150


 113224006.793 8  88226495.73248  21545818.240                    21545821.280
     -2557.524       -1992.880          49.050          49.000    84550388.380 8
  21545822.040       -1909.940          53.000


 125764579.266 6  97998373.08246  23932216.820                    23932224.100
     -3226.754       -2514.364          40.800          41.100    93915089.736 7
  23932225.700       -2409.416          47.400


 120881118.417 7  94193070.83247  23002916.580                    23002917.200
       -27.375         -21.332          45.250          42.800    90268376.121 8
  23002923.800         -20.587          48.850


 130008281.159 7 101305138.18646  24739755.500                    24739755.760
      3302.291        2573.214          42.000          39.950



 108963471.702 8  84906581.14748  20735061.120                    20735059.160
      -579.112        -451.259          48.550          48.750



 126080310.016 7  98244387.52646  23992289.300                    23992289.480
      1168.246         910.322          43.600          40.550



 127576200.588 7  99410001.18347  24276959.560                    24276966.500
     -3754.927       -2925.923          42.750          42.750    95267917.255 7
  24276968.540       -2804.160          45.900


 118513661.962 8  92348338.06048  22552395.400                    22552398.960
       250.524         195.210          48.100          48.100    88500497.844 8
  22552401.380         186.963          50.300


 23  9  2  8 14 30.0000000  0 10G02G03G08G10G14G17G21G22G27G32
 109517451.080 8  85338261.73148  20840479.760                    20840476.740
       209.486         163.234          50.500          50.600



 119107311.957 7  92810922.62147  22665366.300                    22665369.920
      3308.105        2577.746          46.100          44.350    88943792.094 8
  22665370.760        2470.219          49.250


 113300931.510 8  88286436.95248  21560456.740                    21560459.700
     -2571.311       -2003.622          49.400          49.350    84607832.010 8
  21560460.180       -1920.076          53.050


 125861440.117 7  98073848.75647  23950649.280                    23950656.360
     -3231.212       -2517.838          42.600          42.350    93987420.530 7
  23950658.060       -2413.014          47.750


 120882240.435 7  94193945.07547  23003130.120                    23003130.600
       -47.712         -37.180          45.100          42.450    90269213.908 8
  23003137.720         -35.692          48.750


 129909255.326 7 101227975.11646  24720911.640                    24720911.860
      3298.801        2570.491          42.650          41.250



 108980988.361 7  84920230.44347  20738394.440                    20738392.500
      -589.013        -458.973          47.900          47.850



 126045522.908 7  98217280.61746  23985669.400                    23985669.520
      1150.813         896.735          43.100          41.550



 127688906.201 7  99497823.55447  24298406.920                    24298413.480
     -3759.362       -2929.380          42.100          42.450    95352080.292 7
  24298416.080       -2807.103          46.050


 118506439.580 8  92342710.13048  22551021.100                    22551024.520
       230.786         179.830          48.450          48.700    88495104.389 8
  22551026.820         172.237          50.050


 23  9  2  8 15  0.0000000  0 10G02G03G08G10G14G17G21G22G27G32
 109511293.957 8  85333463.92348  20839308.040                    20839305.160
       200.232         156.023          51.100          50.950



 119008190.976 7  92733685.50047  22646504.280                    22646507.320
      3299.410        2570.970          46.450          44.500    88869773.184 8
  22646508.600        2463.816          49.350


 113378244.488 8  88346680.70848  21575169.200                    21575172.160
     -2583.710       -2013.285          49.900          50.050    84665565.586 8
  21575172.340       -1929.330          52.900


 125958425.265 7  98149421.30347  23969105.400                    23969112.200
     -3235.011       -2520.798          44.150          43.950    94059844.129 7
  23969113.960       -2415.660          47.600


 120883949.323 7  94195276.60647  23003455.320                    23003455.680
       -66.807         -52.059          45.900          42.750    90270489.949 8
  23003462.920         -49.948          48.350


 129810306.663 6 101150872.15546  24702082.380                    24702082.740
      3296.999        2569.089          41.850          39.850



 108998777.332 8  84934091.93348  20741779.600                    20741777.820
      -597.620        -465.680          48.700          48.800



 126011227.998 7  98190557.24946  23979143.320                    23979143.280
      1134.781         884.243          43.400          39.600



 127801714.063 7  99585725.57047  24319873.680                    24319880.020
     -3762.052       -2931.476          42.850          42.600    95436319.675 7
  24319883.120       -2809.290          45.850


 118499790.279 8  92337528.75848  22549756.020                    22549759.320
       211.943         165.147          49.200          49.150    88490138.878 8
  22549761.160         158.326          49.500


 23  9  2  8 15 30.0000000  0 10G02G03G08G10G14G17G21G22G27G32
 109505425.454 8  85328891.02548  20838191.320                    20838188.440
       190.505         148.443          51.100          50.550



 118909342.661 7  92656660.88147  22627693.840                    22627696.900
      3289.919        2563.574          47.200          43.200    88795957.925 8
  22627698.540        2456.870          49.600


 113455942.807 8  88407224.73648  21589954.980                    21589957.960
     -2596.649       -2023.367          50.000          49.900    84723586.917 8
  21589957.980       -1939.012          52.850


 126055532.716 7  98225089.16747  23987584.920                    23987591.340
     -3239.396       -2524.214          44.600          44.700    94132359.098 7
  23987593.000       -2418.829          46.800


 120886244.515 7  94197065.01247  23003892.180                    23003892.600
       -86.785         -67.626          45.900          42.100    90272203.806 7
  23003899.260         -64.635          47.900


 129711437.031 7 101073830.78046  24683268.080                    24683268.540
      3293.951        2566.710          42.050          39.550



 109016838.340 8  84948165.40348  20745216.520                    20745214.900
      -606.879        -472.894          48.550          48.550



 125977425.886 7  98164217.90246  23972711.260                    23972711.000
      1118.141         871.276          43.200          39.000



 127914622.021 7  99673705.60047  24341359.640                    24341365.840
     -3765.266       -2933.980          42.700          42.250    95520633.849 7
  24341369.240       -2811.811          45.400


 118493714.207 8  92332794.06048  22548600.080                    22548603.520
       192.729         150.176          49.600          49.400    88485601.432 8
  22548604.320         143.939          49.050


 23  9  2  8 16  0.0000000  0 10G02G03G08G10G14G17G21G22G27G32
 109499848.290 8  85324545.14448  20837130.060                    20837127.060
       181.540         141.458          51.000          50.450



 118810771.049 7  92579851.82547  22608936.220                    22608939.060
      3281.624        2557.111          45.800          44.050    88722349.256 8
  22608941.020        2450.581          49.700


 113534027.634 8  88468069.92648  21604814.220                    21604817.360
     -2608.610       -2032.687          50.100          50.150    84781896.875 8
  21604817.160       -1948.067          52.950


 126152762.730 7  98300852.53147  24006087.740                    24006093.800
     -3242.361       -2526.525          44.100          44.100    94204965.611 7
  24006095.280       -2421.387          47.000


 120889127.784 7  94199311.65446  23004440.960                    23004441.620
      -105.232         -82.002          46.050          41.600    90274356.829 7
  23004447.220         -78.721          47.650


 129612650.241 7 100996853.94246  24664469.560                    24664470.120
      3291.918        2565.128          42.350          40.600



 109035172.888 8  84962452.03548  20748705.440                    20748703.820
      -615.212        -479.388          48.400          48.350



 125944119.847 7  98138265.09946  23966373.600                    23966373.000
      1102.428         859.035          43.250          40.000



 128027630.510 7  99761763.95947  24362864.540                    24362870.600
     -3767.860       -2936.002          42.550          42.500    95605023.064 7
  24362874.400       -2813.878          45.900


 118488214.032 8  92328508.10948  22547553.700                    22547557.180
       174.392         135.888          49.300          49.400    88481494.047 8
  22547557.320         130.163          49.150


 23  9  2  8 16 30.0000000  0 10G02G03G08G10G14G17G21G22G27G32
 109494561.711 8  85320425.69948  20836124.140                    20836121.040
       171.134         133.349          51.700          50.500



 118712476.969 7  92503259.04847  22590231.340                    22590234.320
      3271.607        2549.304          46.300          43.600    88648947.850 8
  22590236.260        2443.103          49.800


 113612496.895 8  88529214.67348  21619746.540                    21619749.920
     -2622.196       -2043.274          50.000          50.000    84840493.888 8
  21619749.680       -1958.168          52.950


 126250112.672 7  98376709.33247  24024613.280                    24024619.160
     -3247.138       -2530.246          44.100          44.500    94277661.641 7
  24024620.520       -2424.886          46.850


 120892597.960 7  94202015.63447  23005101.460                    23005102.460
      -125.771         -98.005          45.600          42.600    90276948.115 7
  23005106.820         -93.795          47.550


 129513946.983 7 100919942.20646  24645686.920                    24645687.700
      3288.427        2562.404          42.050          40.600



 109053780.138 7  84976951.15447  20752246.280                    20752244.520
      -624.997        -487.013          47.800          47.850



 125911310.051 7  98112698.96546  23960130.400                    23960129.740
      1085.191         845.601          44.700          38.650



 128140736.841 7  99849898.57346  24384388.140                    24384394.000
     -3772.288       -2939.452          42.100          41.900    95689485.344 7
  24384398.220       -2816.831          45.800


 118483289.415 8  92324670.64348  22546616.760                    22546620.500
       154.452         120.350          49.150          49.000    88477816.447 8
  22546620.140         115.349          49.300


 23  9  2  8 17  0.0000000  0 10G02G03G08G10G14G17G21G22G27G32
 109489567.268 8  85316533.88648  20835173.800                    20835170.540
       162.061         126.280          51.450          50.600



 118614463.035 7  92426884.56447  22571579.540                    22571582.880
      3262.971        2542.575          44.750          44.600    88575755.658 8
  22571584.920        2436.577          49.450


 113691349.236 8  88590657.93248  21634751.660                    21634755.160
     -2634.456       -2052.826          49.900          49.700    84899376.986 8
  21634754.980       -1967.169          52.900


 126347581.551 7  98452658.84847  24043161.320                    24043167.140
     -3250.437       -2532.817          44.500          44.900    94350446.515 7
  24043168.340       -2427.320          46.150


 120896655.484 7  94205177.28947  23005873.600                    23005875.100
      -144.654        -112.719          45.400          42.600    90279978.019 7
  23005878.480        -107.944          47.600


 129415330.683 7 100843098.23446  24626920.820                    24626921.500
      3285.967        2560.491          42.000          39.600



 109072660.805 8  84991663.31748  20755839.160                    20755837.360
      -633.479        -493.621          48.550          48.800



 125878998.562 7  98087521.10046  23953981.980                    23953981.380
      1069.033         833.012          44.950          38.650



 128253940.069 7  99938108.67647  24405930.120                    24405936.160
     -3774.788       -2941.400          43.350          43.300    95774019.975 7
  24405940.480       -2818.654          45.700


 118478941.590 8  92321282.63548  22545789.380                    22545793.320
       135.586         105.648          48.700          48.700    88474569.585 8
  22545792.880         101.358          49.550


 23  9  2  8 17 30.0000000  0 10G02G03G08G10G14G17G21G22G27G32
 109484859.678 8  85312865.59248  20834278.000                    20834274.720
       152.211         118.604          51.250          50.750



 118516725.143 7  92350725.16347  22552980.360                    22552984.300
      3253.496        2535.191          44.750          44.700    88502769.554 8
  22552985.840        2429.456          49.600


 113770577.359 8  88652394.00748  21649828.320                    21649831.880
     -2647.163       -2062.729          49.600          49.650    84958540.703 8
  21649831.900       -1976.765          53.150


 126445161.768 7  98528695.08047  24061730.460                    24061736.360
     -3254.275       -2535.810          45.000          44.950    94423314.524 7
  24061737.340       -2430.144          46.200


 120901294.093 7  94208791.72947  23006756.240                    23006758.160
      -164.353        -128.070          44.850          43.000    90283441.857 7
  23006760.980        -122.677          47.850


 129316797.598 7 100766319.12746  24608170.680                    24608171.060
      3283.112        2558.262          42.400          40.150



 109091809.219 8  85006584.10448  20759483.000                    20759481.200
      -642.680        -500.791          48.350          48.900



 125847180.452 7  98062727.72846  23947927.440                    23947927.160
      1052.367         820.025          45.200          38.850



 128367232.503 7 100026388.29747  24427489.200                    24427495.240
     -3778.035       -2943.930          43.150          43.100    95858621.225 7
  24427499.740       -2821.017          45.700


 118475165.096 8  92318339.83048  22545070.580                    22545074.500
       116.454          90.742          48.450          48.350    88471749.395 8
  22545074.760          86.978          50.150


 23  9  2  8 18  0.0000000  0 10G02G03G08G10G14G17G21G22G27G32
 109480446.229 8  85309426.50348  20833438.100                    20833434.960
       141.520         110.273          50.900          50.900



 118419272.607 7  92274788.12447  22534435.420                    22534439.780
      3242.838        2526.886          45.000          44.800    88429996.558 8
  22534441.260        2421.642          49.300


 113850187.079 8  88714427.42648  21664977.480                    21664981.020
     -2660.750       -2073.316          49.250          49.300    85017989.367 8
  21664981.420       -1986.867          53.050


 126542859.310 7  98604822.74247  24080321.780                    24080327.780
     -3259.103       -2539.570          44.100          44.100    94496270.141 7
  24080328.800       -2433.763          45.800


 120906520.972 7  94212864.59547  23007750.740                    23007753.040
      -184.721        -143.939          43.950          43.350    90287344.987 8
  23007755.740        -137.881          48.100


 129218356.984 7 100689612.07146  24589438.140                    24589438.460
      3279.078        2555.126          42.450          38.600



 109111232.892 8  85021719.38048  20763179.220                    20763177.500
      -652.787        -508.667          48.550          48.450



 125815864.468 7  98038325.64746  23941968.440                    23941968.180
      1034.701         806.260          45.050          39.450



 128480620.009 7 100114741.99147  24449066.240                    24449072.460
     -3781.851       -2946.904          42.500          42.850    95943293.497 7
  24449076.940       -2824.046          44.850


 118471967.988 8  92315848.50648  22544462.120                    22544466.080
        96.281          75.022          48.600          48.750    88469361.866 8
  22544466.920          71.871          50.000


 23  9  2  8 18 30.0000000  0 10G02G03G08G10G14G17G21G22G27G32
 109476325.419 8  85306215.43248  20832653.900                    20832650.880
       132.199         103.011          51.050          50.800



 118322104.623 7  92199072.81847  22515944.800                    22515949.700
      3234.161        2520.126          43.800          43.650    88357436.053 8
  22515950.580        2415.007          49.500


 113930174.927 8  88776755.49748  21680198.700                    21680202.260
     -2672.727       -2082.649          48.900          49.100    85077720.407 8
  21680203.000       -1995.828          53.550


 126640669.759 7  98681038.37347  24098934.660                    24098940.660
     -3262.502       -2542.220          43.800          44.100    94569310.044 7
  24098941.760       -2436.116          45.650


 120912333.159 7  94217393.52547  23008856.720                    23008859.000
      -203.657        -158.695          44.350          42.200    90291685.206 8
  23008862.180        -151.999          48.700


 129120008.289 7 100612976.62146  24570723.240                    24570723.020
      3276.492        2553.108          42.650          37.800



 109130928.959 8  85037066.91848  20766927.380                    20766925.600
      -661.313        -515.311          48.300          48.100



 125785048.872 7  98014313.48646  23936104.420                    23936104.220
      1018.641         793.746          44.700          40.600



 128594098.302 7 100203166.42946  24470660.380                    24470666.900
     -3784.342       -2948.844          42.350          41.700    96028033.551 7
  24470671.440       -2825.885          45.650


 118469348.103 8  92313806.96748  22543963.600                    22543967.480
        77.480          60.373          49.250          49.150    88467405.376 8
  22543968.740          57.952          50.250


 23  9  2  8 19  0.0000000  0 10G02G03G08G10G14G17G21G22G27G32
 109472492.249 8  85303228.50148  20831924.460                    20831921.480
       122.653          95.572          51.050          50.800



 118225217.689 7  92123576.50247  22497507.940                    22497512.800
      3224.535        2512.625          44.600          44.100    88285085.422 8
  22497513.620        2407.959          49.650


 114010532.983 8  88839372.05348  21695490.420                    21695493.900
     -2685.068       -2092.265          49.000          48.950    85137727.907 8
  21695494.900       -2005.060          53.500


 126738586.167 7  98757336.55847  24117567.560                    24117573.780
     -3266.090       -2545.016          43.850          43.600    94642429.100 7
  24117575.020       -2438.864          45.250


 120918724.875 7  94222374.04546  23010073.060                    23010074.980
      -223.102        -173.847          45.050          41.950    90296458.207 8
  23010079.120        -166.580          48.950


 129021748.666 7 100536410.58946  24552025.340                    24552024.780
      3273.465        2550.750          42.200          38.750



 109150892.137 8  85052622.59048  20770726.400                    20770724.520
      -670.197        -522.233          48.700          48.750



 125754729.559 7  97990688.02246  23930334.740                    23930334.420
      1002.013         780.789          44.900          39.200



 128707660.233 7 100291656.06847  24492270.620                    24492277.160
     -3787.083       -2950.979          42.350          42.450    96112836.054 7
  24492281.900       -2827.953          45.950


 118467300.504 8  92312211.37748  22543574.140                    22543577.820
        58.223          45.366          49.250          49.550    88465876.251 8
  22543579.360          43.574          50.100


 23  9  2  8 19 30.0000000  0 10G02G03G08G10G14G17G21G22G27G32
 109468956.223 8  85300473.09848  20831251.640                    20831248.680
       112.946          88.008          51.100          50.950



 118128622.752 7  92048307.72547  22479126.620                    22479131.640
      3214.903        2505.119          46.000          45.350    88212952.849 8
  22479132.140        2400.768          49.600


 114091269.769 8  88902283.70748  21710854.260                    21710857.820
     -2697.435       -2101.901          49.050          48.800    85198018.215 8
  21710859.080       -2014.332          53.550


 126836615.858 7  98833723.01947  24136222.060                    24136228.380
     -3269.388       -2547.585          44.550          44.750    94715632.732 7
  24136229.960       -2441.460          45.200


 120925704.915 7  94227812.97246  23011401.380                    23011402.840
      -242.458        -188.931          45.700          41.550    90301670.504 8
  23011408.000        -181.044          49.000


 128923588.981 6 100459922.38246  24533346.340                    24533345.480
      3270.768        2548.645          41.250          39.600



 109171131.470 8  85068393.44547  20774577.860                    20774576.140
      -679.226        -529.269          48.000          47.950



 125724916.602 7  97967457.11446  23924661.420                    23924660.720
       985.392         767.834          45.550          40.300



 128821313.331 7 100380216.72346  24513898.100                    24513904.780
     -3789.758       -2953.066          42.100          41.900    96197706.653 7
  24513909.360       -2830.133          44.950


 118465834.767 8  92311069.18248  22543295.380                    22543298.960
        39.126          30.485          49.700          49.800    88464781.634 8
  22543300.460          29.239          49.900


 23  9  2  8 20  0.0000000  0 10G02G03G08G10G14G17G21G22G27G32
 109465705.563 8  85297940.07148  20830633.120                    20830630.320
       103.235          80.442          50.550          50.600



 118032308.963 7  91973258.03347  22460798.980                    22460803.720
      3205.481        2497.780          45.150          44.950    88141030.228 8
  22460804.320        2393.597          50.050


 114172370.340 8  88965478.83848  21726287.320                    21726290.780
     -2709.771       -2111.515          48.300          48.100    85258580.184 8
  21726292.240       -2023.526          53.600


 126934744.870 7  98910186.87947  24154895.500                    24154901.900
     -3272.854       -2550.285          43.800          43.950    94788910.521 7
  24154904.080       -2444.046          45.050


 120933260.127 7  94233700.10147  23012839.280                    23012840.140
      -262.007        -204.163          45.550          42.200    90307312.326 8
  23012846.240        -195.521          49.050


 128825518.757 6 100383503.88546  24514684.500                    24514683.560
      3267.159        2545.832          41.850          39.600



 109191634.477 7  85084369.76747  20778479.380                    20778477.980
      -688.379        -536.401          47.400          47.250



 125695598.376 7  97944611.71246  23919082.240                    23919081.440
       968.705         754.833          44.850          39.250



 128935043.203 6 100468837.19546  24535540.180                    24535547.120
     -3792.673       -2955.337          41.050          41.000    96282634.580 7
  24535551.420       -2832.190          44.550


 118464938.608 8  92310370.82548  22543124.900                    22543128.540
        20.027          15.604          48.950          49.300    88464112.367 8
  22543129.800          14.968          49.750


 23  9  2  8 20 30.0000000  0 10G02G03G08G10G14G17G21G22G27G32
 109462749.227 8  85295636.38248  20830070.640                    20830068.100
        93.901          73.168          50.950          51.250



 117936286.935 7  91898435.67747  22442526.880                    22442531.440
      3196.069        2490.443          46.200          45.900    88069325.476 8
  22442531.960        2386.758          49.800


 114253842.355 8  89028963.40548  21741791.040                    21741794.760
     -2721.828       -2120.909          48.600          48.450    85319419.525 8
  21741796.240       -2032.394          53.300


 127032980.277 7  98986733.63447  24173589.480                    24173595.760
     -3275.993       -2552.732          44.600          44.650    94862267.777 7
  24173598.260       -2446.396          44.250


 120941398.934 7  94240041.98247  23014388.240                    23014388.820
      -280.925        -218.904          46.350          42.250    90313389.951 8
  23014395.360        -209.683          48.950


 128727549.071 6 100307163.75746  24496041.540                    24496040.700
      3264.288        2543.597          41.850          39.800



 109212409.729 7  85100558.22247  20782432.700                    20782431.580
      -696.819        -542.979          47.850          47.850



 125666785.019 7  97922159.71546  23913599.120                    23913598.380
       952.301         742.052          45.250          40.850



 129048856.966 6 100557523.03446  24557198.200                    24557205.460
     -3795.132       -2957.252          41.400          41.050    96367625.138 7
  24557209.540       -2833.851          44.800


 118464621.240 8  92310123.47348  22543064.420                    22543068.360
         1.198           0.932          48.950          48.650    88463875.309 8
  22543069.360           0.949          49.750


 23  9  2  8 21  0.0000000  0 10G02G03G08G10G14G17G21G22G27G32
 109460090.042 8  85293564.24148  20829564.660                    20829562.360
        84.138          65.560          50.900          51.000



 117840560.609 7  91823843.77047  22424310.920                    22424315.360
      3186.249        2482.792          47.100          45.800    87997841.566 8
  22424316.020        2379.407          50.350


 114335686.119 8  89092737.64648  21757365.460                    21757369.200
     -2733.973       -2130.373          48.600          48.750    85380536.490 8
  21757370.740       -2041.643          53.550


 127131322.425 7  99063363.58847  24192303.780                    24192309.700
     -3279.502       -2555.466          45.400          45.600    94935704.750 7
  24192312.520       -2448.996          43.900


 120950122.963 7  94246839.87347  23016048.580                    23016049.000
      -300.309        -234.008          46.550          42.050    90319904.599 8
  23016055.740        -224.185          48.900


 128629684.233 6 100230905.35546  24477418.520                    24477417.920
      3260.502        2540.649          41.250          39.050



 109233459.788 8  85116960.81248  20786438.400                    20786437.460
      -705.805        -549.979          48.100          48.000



 125638479.206 7  97900103.19746  23908212.620                    23908212.060
       935.323         728.821          45.250          38.950



 129162755.044 6 100646274.58646  24578872.320                    24578879.640
     -3797.617       -2959.188          41.800          41.250    96452678.671 7
  24578883.680       -2835.971          44.900


 118464885.135 8  92310329.07848  22543114.600                    22543118.800
       -18.136         -14.133          49.350          49.300    88464072.342 8
  22543119.680         -13.554          49.750


 23  9  2  8 21 30.0000000  0 10G02G03G08G10G14G17G21G22G27G32
 109457722.341 8  85291719.24048  20829114.140                    20829111.780
        74.688          58.196          51.000          50.950



 117745125.450 7  91749478.74547  22406150.340                    22406154.680
      3176.745        2475.387          46.700          45.800    87926575.078 8
  22406155.380        2372.407          50.150


 114417893.498 7  89156795.21848  21773009.080                    21773013.080
     -2745.696       -2139.509          47.900          48.200    85441924.968 8
  21773014.440       -2050.337          53.050


 127229763.633 7  99140070.71447  24211037.000                    24211042.540
     -3282.453       -2557.766          44.050          43.850    95009215.688 7
  24211045.460       -2451.135          43.050


 120959425.385 7  94254088.46047  23017818.900                    23017819.400
      -319.160        -248.697          46.350          42.250    90326851.164 8
  23017825.960        -238.295          48.850


 128531919.589 6 100154724.95646  24458814.380                    24458814.000
      3257.963        2538.667          41.500          39.850



 109254777.843 7  85133572.22247  20790495.160                    20790494.220
      -714.487        -556.746          47.850          47.700



 125610675.749 7  97878438.12046  23902921.740                    23902921.400
       918.815         715.960          44.700          40.250



 129276729.401 6 100735085.60946  24600561.100                    24600568.280
     -3799.627       -2960.755          40.750          40.900    96537789.175 7
  24600572.100       -2837.503          44.650


 118465724.283 8  92310982.92748  22543274.220                    22543278.820
       -36.887         -28.744          49.050          49.250    88464698.957 8
  22543279.440         -27.573          49.750


 23  9  2  8 22  0.0000000  0 10G02G03G08G10G14G17G21G22G27G32
 109455648.920 8  85290103.54248  20828719.580                    20828717.080
        64.170          50.001          50.850          50.750



 117649985.847 7  91675344.01447  22388045.960                    22388050.100
      3166.691        2467.553          46.950          45.400    87855529.324 8
  22388051.020        2364.470          50.650


 114500465.833 8  89221137.17948  21788722.200                    21788726.260
     -2758.400       -2149.407          48.700          48.650    85503585.988 8
  21788727.480       -2059.909          53.400


 127328304.747 7  99216855.69947  24229789.080                    24229794.360
     -3286.312       -2560.771          43.350          43.050    95082801.232 7
  24229797.320       -2454.035          43.000


 120969308.346 7  94261789.42647  23019699.560                    23019700.360
      -339.059        -264.203          45.900          42.550    90334231.256 8
  23019706.520        -253.236          49.000


 128434260.838 6 100078627.15046  24440230.400                    24440230.540
      3253.661        2535.316          40.850          40.100



 109276366.693 7  85150394.64547  20794603.380                    20794602.360
      -724.176        -564.295          47.550          47.650



 125583378.391 7  97857167.40346  23897727.220                    23897727.000
       901.353         702.351          45.200          40.000



 129390781.049 6 100823956.82946  24622264.560                    24622271.820
     -3802.937       -2963.333          40.700          40.700    96622957.372 7
  24622275.240       -2839.869          44.850


 118467141.671 8  92312087.37548  22543543.920                    22543548.760
       -56.889         -44.329          49.400          49.350    88465757.378 8
  22543549.160         -42.528          49.750


 23  9  2  8 22 30.0000000  0 10G02G03G08G10G14G17G21G22G27G32
 109453868.401 8  85288716.09048  20828380.780                    20828378.220
        54.556          42.510          51.000          50.600



 117555141.304 7  91601439.21847  22369997.680                    22370001.580
      3156.660        2459.738          46.700          45.250    87784703.888 8
  22370002.680        2357.199          50.200


 114583399.768 8  89285760.88748  21804504.120                    21804508.140
     -2770.273       -2158.658          49.250          49.300    85565517.020 8
  21804509.200       -2068.798          52.950


 127426941.915 7  99293715.51947  24248559.220                    24248564.580
     -3289.351       -2563.141          42.550          42.650    95156458.512 7
  24248567.720       -2456.316          42.800


 120979768.901 7  94269940.47747  23021690.020                    23021691.300
      -358.232        -279.143          45.000          42.600    90342042.665 8
  23021696.980        -267.522          48.850


 128336707.229 6 100002611.25346  24421666.380                    24421666.900
      3250.465        2532.825          41.500          40.500



 109298224.033 8  85167426.28548  20798762.720                    20798761.540
      -733.045        -571.205          48.400          48.550



 125556585.772 7  97836290.02046  23892628.920                    23892628.520
       884.829         689.477          45.700          39.550



 129504905.899 6 100912885.06946  24643981.920                    24643989.380
     -3805.469       -2965.308          40.550          40.750    96708180.243 7
  24643992.480       -2841.645          44.650


 118469135.182 8  92313640.76048  22543923.180                    22543928.100
       -76.013         -59.230          48.750          48.700    88467246.029 8
  22543928.260         -56.717          49.300


 23  9  2  8 23  0.0000000  0 10G02G03G08G10G14G17G21G22G27G32
 109452382.847 8  85287558.47448  20828098.180                    20828095.400
        44.432          34.620          51.350          50.850



 117460595.420 7  91527767.14847  22352006.140                    22352009.900
      3146.511        2451.826          47.000          44.650    87714101.480 8
  22352011.220        2349.640          50.300


 114666694.728 8  89350665.92248  21820354.820                    21820358.860
     -2782.635       -2168.291          48.950          49.000    85627717.645 8
  21820359.640       -2077.927          52.850


 127525675.479 7  99370650.44847  24267347.600                    24267353.180
     -3292.761       -2565.798          42.250          42.550    95230187.757 7
  24267356.800       -2458.957          42.850


 120990808.388 7  94278542.64847  23023790.500                    23023792.260
      -377.664        -294.284          44.750          42.950    90350286.392 8
  23023797.560        -282.072          48.900


 128239262.883 7  99926680.56346  24403123.220                    24403124.080
      3246.138        2529.458          42.000          40.700



 109320351.910 7  85184668.74848  20802973.580                    20802972.380
      -742.141        -578.293          47.950          48.000



 125530300.447 7  97815807.92646  23887627.180                    23887626.340
       867.556         676.018          45.950          39.050



 129619104.124 6 101001870.50646  24665713.380                    24665720.900
     -3808.210       -2967.442          41.050          41.600    96793457.912 7
  24665723.680       -2843.615          44.350


 118471706.941 8  92315644.74048  22544412.480                    22544417.400
       -95.662         -74.542          48.700          48.800    88469166.495 8
  22544417.460         -71.263          49.250


 23  9  2  8 23 30.0000000  0 10G02G03G08G10G14G17G21G22G27G32
 109451193.953 8  85286632.02548  20827872.080                    20827869.140
        34.936          27.222          51.600          50.750



 117366350.904 7  91454329.90647  22334071.880                    22334075.400
      3136.882        2444.324          47.200          44.700    87643724.139 8
  22334076.940        2342.292          50.350


 114750350.705 8  89415852.28748  21836274.220                    21836277.940
     -2794.292       -2177.374          49.400          49.450    85690187.882 8
  21836278.660       -2086.708          52.850


 127624504.606 6  99447659.86246  24286154.220                    24286160.260
     -3295.779       -2568.151          41.050          40.900    95303988.375 7
  24286164.120       -2461.101          42.850


 121002427.119 7  94287596.17247  23026001.320                    23026003.180
      -396.743        -309.150          45.400          42.800    90358962.672 8
  23026008.340        -296.278          49.100


 128141930.769 7  99850837.27346  24384601.540                    24384602.520
      3242.674        2526.756          42.600          41.750



 109342751.259 7  85202122.73848  20807236.040                    20807234.940
      -750.983        -585.184          47.950          48.550



 125504524.608 7  97795722.79046  23882722.280                    23882721.100
       850.991         663.108          45.950          38.800



 129733374.930 6 101090912.52146  24687458.620                    24687466.220
     -3809.979       -2968.821          40.600          41.000    96878789.806 7
  24687468.740       -2845.058          44.350


 118474858.165 8  92318100.24848  22545012.000                    22545016.900
      -114.473         -89.199          48.300          48.300    88471519.697 8
  22545016.980         -85.554          49.250


 23  9  2  8 24  0.0000000  0 10G02G03G08G10G14G17G21G22G27G32
 109450297.565 8  85285933.50648  20827701.600                    20827698.680
        24.963          19.450          51.300          50.750



 117272405.061 7  91381125.40447  22316194.420                    22316197.900
      3126.567        2436.289          46.500          44.850    87573569.811 8
  22316199.660        2334.729          50.600


 114834360.986 8  89481314.72148  21852260.960                    21852264.640
     -2806.291       -2186.724          49.200          49.550    85752922.681 8
  21852265.120       -2095.554          52.750


 127723423.365 6  99524739.09547  24304977.740                    24304984.540
     -3298.923       -2570.601          41.950          42.100    95377855.920 7
  24304988.180       -2463.434          43.050


 121014619.986 7  94297097.05547  23028321.560                    23028323.220
      -416.164        -324.284          45.950          42.400    90368067.661 8
  23028328.300        -310.642          49.250


 128044708.635 7  99775079.68246  24366100.860                    24366101.840
      3238.805        2523.744          42.600          40.650



 109365417.701 8  85219784.85348  20811549.300                    20811548.300
      -759.955        -592.174          48.450          48.450



 125479254.551 7  97776031.78546  23877913.560                    23877912.200
       833.864         649.764          45.650          39.200



 129847712.250 6 101180006.33146  24709216.280                    24709224.140
     -3812.642       -2970.897          40.600          40.550    96964171.312 7
  24709226.680       -2846.823          45.000


 118478584.553 7  92321003.94147  22545720.880                    22545725.760
      -134.008        -104.420          47.700          47.800    88474302.395 8
  22545725.920         -99.938          49.450


 23  9  2  8 24 30.0000000  0 10G02G03G08G10G14G17G21G22G27G32
 109449696.644 8  85285465.22248  20827587.360                    20827584.440
        15.087          11.754          51.350          51.150



 117178762.192 7  91308156.94947  22298374.660                    22298377.940
      3116.373        2428.342          46.650          45.100    87503641.724 8
  22298379.940        2327.201          50.350


 114918726.668 8  89547054.08648  21868315.180                    21868318.880
     -2818.041       -2195.881          48.550          48.450    85815922.879 8
  21868319.300       -2104.367          52.400


 127822433.136 7  99601889.27447  24323818.920                    24323826.080
     -3301.767       -2572.814          42.600          42.250    95451791.451 7
  24323829.440       -2465.569          42.950


 121027388.945 7  94307046.83346  23030751.560                    23030752.660
      -435.228        -339.141          46.650          41.950    90377602.859 8
  23030757.880        -324.945          49.100


 127947601.370 7  99699411.61646  24347622.060                    24347622.980
      3234.961        2520.746          43.500          41.200



 109388353.466 8  85237656.84348  20815913.860                    20815912.880
      -769.010        -599.229          48.300          48.100



 125454493.591 7  97756737.47746  23873201.780                    23873200.460
       816.986         636.610          45.450          37.550



 129962116.824 6 101269152.57046  24730986.780                    24730994.760
     -3814.771       -2972.555          40.100          40.050    97049603.077 7
  24730997.460       -2848.491          45.100


 118482888.902 7  92324357.99447  22546539.720                    22546544.780
      -153.196        -119.372          47.100          47.150    88477516.700 8
  22546545.180        -114.419          49.650


 23  9  2  8 25  0.0000000  0 10G02G03G08G10G14G17G21G22G27G32
 109449391.760 8  85285227.61448  20827529.300                    20827526.460
         5.081           3.958          50.900          50.900



 117085423.928 7  91235425.89647  22280612.880                    22280616.220
      3105.962        2420.230          47.150          44.950    87433941.135 8
  22280618.360        2319.516          51.100


 115003445.920 8  89613068.96748  21884436.700                    21884440.300
     -2829.904       -2205.124          48.650          48.400    85879187.110 8
  21884440.840       -2113.201          52.750


 127921531.478 7  99679108.48347  24342677.080                    24342684.180
     -3304.812       -2575.187          42.750          42.600    95525793.122 7
  24342687.580       -2467.926          43.600


 121040733.169 7  94317444.87346  23033291.160                    23033291.720
      -454.469        -354.133          46.700          41.650    90387567.639 8
  23033297.080        -339.350          49.550


 127850610.938 7  99623834.57047  24329165.540                    24329166.400
      3230.772        2517.483          42.950          42.250



 109411558.928 8  85255738.98248  20820329.800                    20820328.820
      -778.014        -606.246          48.250          48.250



 125430242.493 7  97737840.51046  23868586.920                    23868585.600
       799.785         623.209          45.400          39.250



 130076586.938 6 101358349.86746  24752769.780                    24752778.140
     -3816.861       -2974.184          40.850          40.700    97135083.769 7
  24752780.720       -2850.151          44.850


 118487771.217 7  92328162.41347  22547468.680                    22547473.880
      -172.522        -134.433          47.500          47.200    88481162.598 8
  22547474.400        -128.773          50.000


 23  9  2  8 25 30.0000000  0 10G02G03G08G10G14G17G21G22G27G32
 109449380.185 8  85285218.55248  20827526.900                    20827524.240
        -4.720          -3.680          50.050          50.000



 116992388.815 7  91162931.03747  22262908.880                    22262912.160
      3096.175        2412.606          46.650          45.800    87364466.911 8
  22262914.420        2311.858          50.700


 115088514.019 8  89679355.66648  21900624.560                    21900628.220
     -2841.526       -2214.181          48.250          48.250    85942711.846 8
  21900628.940       -2121.981          52.200


 128020714.243 7  99756393.48147  24361551.320                    24361558.300
     -3307.600       -2577.359          43.600          43.750    95599857.848 7
  24361561.800       -2469.976          43.500


 121054648.763 7  94328288.14647  23035939.500                    23035939.720
      -473.553        -369.004          46.050          42.650    90397959.105 8
  23035945.200        -353.634          49.150


 127753736.333 7  99548347.78946  24310731.080                    24310731.880
      3226.919        2514.479          43.350          40.600



 109435030.123 8  85274028.18748  20824796.340                    20824795.120
      -787.018        -613.262          48.450          48.450



 125406498.934 7  97719339.00746  23864068.640                    23864067.580
       782.888         610.040          45.400          38.000



 130191117.596 6 101447594.34746  24774564.480                    24774573.000
     -3819.082       -2975.914          39.650          39.050    97220609.692 7
  24774575.500       -2851.620          44.100


 118493228.432 7  92332414.80747  22548507.200                    22548512.340
      -191.485        -149.208          47.150          47.100    88485237.824 8
  22548512.900        -143.121          49.600


 23  9  2  8 26  0.0000000  0 10G02G03G08G10G14G17G21G22G27G32
 109449665.862 8  85285441.13148  20827581.180                    20827578.560
       -14.688         -11.446          50.600          50.650



 116899661.882 7  91090676.31647  22245263.580                    22245266.920
      3085.341        2404.162          47.600          44.800    87295222.795 8
  22245269.260        2304.180          50.750


 115173932.752 7  89745915.59748  21916879.220                    21916882.780
     -2853.232       -2223.303          47.950          48.000    86006498.417 8
  21916883.820       -2130.639          52.150


 128119983.027 7  99833745.51647  24380441.800                    24380448.840
     -3310.712       -2579.785          43.800          43.950    95673986.803 7
  24380452.260       -2472.136          43.300


 121069138.278 7  94339578.65847  23038696.900                    23038696.960
      -492.542        -383.800          45.650          42.400    90408779.166 8
  23038702.700        -367.898          49.100


 127656983.155 7  99472955.58546  24292319.740                    24292320.360
      3223.142        2511.534          43.250          40.750



 109458770.718 8  85292527.31248  20829314.060                    20829312.680
      -796.020        -620.276          48.600          48.700



 125383267.116 7  97701236.27546  23859647.780                    23859646.980
       765.648         596.607          45.650          38.750



 130305710.481 6 101536887.30046  24796370.980                    24796379.480
     -3821.220       -2977.579          39.550          39.400    97306182.075 7
  24796382.100       -2853.344          43.800


 118499263.961 8  92337117.83148  22549655.960                    22549660.880
      -210.868        -164.312          48.600          48.250    88489744.889 8
  22549661.460        -157.531          49.450


 23  9  2  8 26 30.0000000  0 10G02G03G08G10G14G17G21G22G27G32
 109450249.142 8  85285895.61048  20827692.180                    20827689.520
       -24.863         -19.375          51.000          50.850



 116807244.679 7  91018662.96047  22227677.140                    22227680.600
      3074.980        2396.091          47.300          46.250    87226210.025 8
  22227682.980        2296.318          51.050


 115259699.844 8  89812746.97948  21933200.180                    21933203.720
     -2865.155       -2232.593          48.000          48.400    86070545.135 8
  21933205.040       -2139.520          52.200


 128219336.104 7  99911163.23947  24399348.460                    24399355.560
     -3313.641       -2582.066          43.900          44.350    95748178.712 7
  24399358.760       -2474.312          43.800


 121084200.955 7  94351315.77247  23041563.340                    23041563.460
      -511.893        -398.879          45.250          43.700    90420027.226 8
  23041569.340        -382.360          49.200


 127560353.532 7  99397659.66046  24273931.780                    24273932.420
      3218.587        2507.985          42.200          41.500



 109482780.652 8  85311236.30148  20833882.920                    20833881.580
      -805.194        -627.426          48.200          48.250



 125360547.738 7  97683532.82646  23855324.500                    23855323.800
       748.352         583.131          45.900          38.750



 130420363.741 6 101626227.30646  24818188.820                    24818197.480
     -3822.963       -2978.937          39.750          38.750    97391799.542 7
  24818200.380       -2854.885          44.700


 118505877.822 8  92342271.51448  22550914.860                    22550919.520
      -230.385        -179.520          49.300          49.250    88494683.843 8
  22550919.880        -172.128          49.450


 23  9  2  8 27  0.0000000  0 10G02G03G08G10G14G17G21G22G27G32
 109451129.647 8  85286581.69348  20827859.780                    20827857.100
       -34.415         -26.818          50.900          50.800



 116715138.117 7  90946891.66047  22210149.840                    22210153.620
      3064.771        2388.136          46.600          46.050    87157429.195 8
  22210155.880        2288.735          51.450


 115345813.057 8  89879848.06148  21949587.060                    21949590.560
     -2876.399       -2241.354          48.400          48.150    86134850.314 8
  21949592.100       -2147.894          52.550


 128318770.884 7  99988644.62147  24418270.560                    24418277.940
     -3316.054       -2583.946          44.400          44.050    95822431.637 7
  24418280.600       -2476.263          44.000


 121099835.027 7  94363498.12747  23044538.400                    23044538.540
      -530.731        -413.559          45.050          43.700    90431701.969 8
  23044544.660        -396.380          49.250


 127463848.476 6  99322460.81546  24255567.660                    24255568.220
      3214.229        2504.591          41.850          41.400



 109507059.100 8  85330154.53548  20838502.900                    20838501.640
      -813.937        -634.237          48.050          48.000



 125338340.365 7  97666228.33746  23851098.460                    23851098.180
       731.586         570.065          45.400          39.100



 130535074.807 6 101715612.35046  24840017.860                    24840026.440
     -3824.913       -2980.458          40.350          39.650    97477460.148 7
  24840029.680       -2856.104          44.900


 118513069.165 8  92347875.17248  22552283.580                    22552288.240
      -249.458        -194.383          49.350          49.150    88500054.015 8
  22552288.100        -186.291          49.400


 23  9  2  8 27 30.0000000  0 10G02G03G08G10G14G17G21G22G27G32
 109452306.688 8  85287498.82748  20828083.800                    20828081.160
       -44.832         -34.936          50.600          50.600



 116623342.572 7  90875362.70247  22192681.740                    22192685.620
      3053.938        2379.692          47.050          45.900    87088880.633 8
  22192688.020        2280.527          51.650


 115432269.481 7  89947216.57647  21966039.180                    21966042.700
     -2888.365       -2250.679          47.550          47.350    86199411.789 8
  21966044.380       -2156.815          52.250


 128418284.797 7 100066187.64347  24437207.660                    24437215.480
     -3319.064       -2586.294          43.650          43.500    95896743.633 7
  24437217.380       -2478.524          44.100


 121116038.448 7  94376124.12447  23047621.780                    23047621.980
      -550.244        -428.762          45.350          42.350    90443801.861 8
  23047628.280        -410.947          49.000


 127367468.874 6  99247359.74646  24237227.400                    24237227.780
      3210.015        2501.306          41.550          40.600



 109531604.693 7  85349280.92447  20843173.740                    20843172.620
      -823.251        -641.496          47.900          47.900



 125316645.038 7  97649322.86046  23846969.940                    23846969.780
       713.944         556.321          44.400          40.150



 130649840.654 6 101805040.09846  24861857.220                    24861865.820
     -3827.194       -2982.236          39.850          39.950    97563161.685 7
  24861869.260       -2857.919          44.650


 118520836.754 8  92353927.85548  22553761.820                    22553766.440
      -269.153        -209.729          49.050          48.900    88505854.507 8
  22553765.720        -201.028          49.200


 23  9  2  8 28  0.0000000  0 10G02G03G08G10G14G17G21G22G27G32
 109453782.323 8  85288648.63648  20828364.660                    20828362.240
       -53.759         -41.892          50.900          50.850



 116531861.661 7  90804078.94747  22175273.460                    22175277.620
      3044.564        2372.390          47.900          46.150    87020567.028 8
  22175279.980        2273.480          51.700


 115519069.382 8  90014852.74248  21982556.760                    21982560.340
     -2898.560       -2258.623          48.000          48.050    86264229.761 8
  21982562.000       -2164.613          52.250


 128517878.290 7 100143792.66447  24456159.900                    24456168.140
     -3320.744       -2587.604          44.800          44.350    95971115.050 7
  24456169.220       -2479.635          43.950


 121132812.342 7  94389194.63646  23050813.760                    23050813.880
      -568.199        -442.755          46.000          41.800    90456327.755 8
  23050820.300        -424.362          48.700


 127271219.297 6  99172360.00946  24218911.900                    24218912.060
      3206.366        2498.462          41.150          39.850



 109556419.425 8  85368617.03848  20847895.900                    20847894.780
      -831.269        -647.743          48.450          48.400



 125295463.737 7  97632817.89346  23842939.220                    23842938.960
       697.896         543.813          44.600          40.300



 130764661.494 6 101894510.65446  24883707.080                    24883715.720
     -3827.659       -2982.600          38.650          38.100    97648904.285 7
  24883719.140       -2858.557          43.850


 118529182.462 8  92360431.02548  22555349.880                    22555354.580
      -287.239        -223.823          48.800          48.750    88512086.721 8
  22555353.520        -214.718          49.150


 23  9  2  8 28 30.0000000  0 10G02G03G08G10G14G17G21G22G27G32
 109455555.740 8  85290030.49248  20828702.160                    20828699.880
       -64.108         -49.956          51.050          51.050



 116440695.482 7  90733040.39947  22157925.180                    22157929.360
      3033.528        2363.791          47.150          46.550    86952488.447 8
  22157931.880        2265.294          51.700


 115606208.979 7  90082753.60247  21999138.940                    21999142.640
     -2910.271       -2267.748          47.700          47.550    86329301.401 8
  21999144.080       -2173.353          51.850


 128617547.886 7 100221457.01447  24475126.580                    24475135.000
     -3323.734       -2589.933          44.950          44.700    96045543.329 7
  24475135.660       -2481.898          44.200


 121150154.196 7  94402707.70147  23054113.840                    23054113.920
      -587.590        -457.865          45.700          42.050    90469277.754 8
  23054120.200        -438.762          48.300


 127175100.242 6  99097461.95646  24200621.240                    24200621.280
      3201.787        2494.896          41.750          39.900



 109581501.709 8  85388161.64448  20852668.960                    20852667.900
      -840.532        -654.961          48.350          48.200



 125274795.982 7  97616713.10446  23839006.260                    23839005.780
       680.334         530.129          44.700          39.450



 130879534.011 6 101984021.48846  24905566.780                    24905575.460
     -3829.726       -2984.208          39.650          39.400    97734685.494 7
  24905578.700       -2860.055          42.400


 118538104.714 8  92367383.43748  22557047.500                    22557052.480
      -306.953        -239.184          48.800          48.600    88518749.457 8
  22557051.340        -229.333          49.150


 23  9  2  8 29  0.0000000  0 10G02G03G08G10G14G17G21G22G27G32
 109457626.794 8  85291644.28048  20829096.320                    20829093.980
       -74.270         -57.873          50.900          50.800



 116349845.120 8  90662247.95947  22140636.960                    22140641.320
      3022.688        2355.342          48.100          45.900    86884645.684 8
  22140643.640        2257.261          51.700


 115693686.544 8  90150917.81748  22015785.500                    22015789.240
     -2922.022       -2276.904          48.550          48.700    86394625.403 8
  22015790.540       -2181.919          51.650


 128717291.893 7 100299179.32647  24494107.380                    24494116.140
     -3326.347       -2591.969          44.700          44.900    96120027.131 7
  24494116.620       -2483.990          44.850


 121168062.587 7  94416662.20547  23057521.620                    23057521.760
      -606.639        -472.708          45.700          42.800    90482650.807 8
  23057527.900        -453.123          48.100


 127079113.301 7  99022666.88846  24182355.820                    24182355.540
      3197.077        2491.229          42.350          40.900



 109606850.810 8  85407914.15148  20857492.820                    20857491.780
      -849.657        -662.071          48.750          48.700



 125254641.670 7  97601008.37646  23835171.020                    23835169.980
       662.919         516.556          45.150          39.950



 130994455.995 6 102073570.87746  24927435.960                    24927444.600
     -3831.717       -2985.761          40.500          40.250    97820503.601 7
  24927447.820       -2861.475          42.950


 118547602.896 8  92374784.62648  22558854.780                    22558859.720
      -326.603        -254.496          49.050          49.000    88525842.271 8
  22558859.020        -243.912          49.450


 23  9  2  8 29 30.0000000  0 10G02G03G08G10G14G17G21G22G27G32
 109459996.973 8  85293491.14448  20829547.400                    20829545.000
       -83.719         -65.236          51.250          50.950



 116259312.993 8  90591703.48547  22123409.300                    22123413.600
      3012.600        2347.481          48.250          46.000    86817040.577 8
  22123416.020        2249.735          51.400


 115781500.528 8  90219344.17548  22032496.120                    22032500.040
     -2932.468       -2285.044          48.650          48.750    86460200.653 8
  22032500.900       -2189.850          51.300


 128817109.368 7 100376958.85847  24513102.200                    24513111.280
     -3327.996       -2593.254          44.400          44.600    96194565.788 7
  24513111.680       -2485.394          44.500


 121186537.371 7  94431058.07147  23061037.160                    23061037.440
      -624.984        -487.003          46.000          42.350    90496446.823 7
  23061043.260        -466.738          47.600


 126983261.486 7  98947977.07546  24164116.080                    24164115.520
      3193.224        2488.222          42.700          39.350



 109632467.524 8  85427875.18448  20862367.580                    20862366.480
      -858.085        -668.639          48.250          48.550



 125235002.639 7  97585705.18346  23831433.940                    23831432.600
       646.308         503.615          45.250          39.400



 131109426.423 6 102163158.04846  24949314.340                    24949322.900
     -3832.766       -2986.577          40.850          41.200    97906357.912 7
  24949326.140       -2862.129          43.100


 118557677.729 8  92382635.14348  22560771.920                    22560776.640
      -345.165        -268.961          49.150          49.350    88533365.691 8
  22560776.480        -257.765          49.300


 23  9  2  8 30  0.0000000  0 10G02G03G08G10G14G17G21G22G27G32
 109462664.863 8  85295569.99448  20830055.180                    20830052.700
       -93.762         -73.062          51.050          51.000



 116169099.072 7  90521406.95147  22106242.100                    22106246.520
      3001.856        2339.110          47.150          46.450    86749673.065 8
  22106248.560        2241.724          51.150


 115869648.043 8  90288030.43248  22049270.300                    22049274.040
     -2943.654       -2293.761          48.350          48.400    86526024.955 8
  22049274.880       -2198.213          50.850


 128916996.999 7 100454793.07647  24532110.500                    24532119.620
     -3330.584       -2595.270          44.650          44.850    96269156.839 7
  24532120.000       -2487.228          44.700


 121205575.931 7  94445893.23347  23064660.120                    23064660.460
      -643.874        -501.723          45.800          42.450    90510663.842 7
  23064665.840        -480.893          47.350


 126887545.353 7  98873393.06146  24145902.000                    24145901.260
      3188.404        2484.470          42.350          38.850



 109658350.347 8  85448043.56448  20867292.960                    20867291.780
      -867.121        -675.681          48.200          48.150



 125215877.376 7  97570802.30946  23827794.560                    23827793.020
       629.048         490.166          45.300          40.650



 131224441.879 6 102252780.28646  24971201.220                    24971209.900
     -3834.927       -2988.262          39.400          39.950    97992245.810 7
  24971212.960       -2863.380          42.800


 118568327.405 8  92390933.59848  22562798.640                    22562802.900
      -364.512        -284.035          49.600          49.500    88541318.377 8
  22562803.440        -272.147          49.500


 23  9  2  8 30 30.0000000  0 10G02G03G08G10G14G17G21G22G27G32
 109465632.166 8  85297882.15048  20830619.860                    20830617.340
      -103.951         -81.002          50.650          50.600



 116079206.248 7  90451360.61447  22089135.880                    22089140.280
      2991.047        2330.688          47.250          46.250    86682545.347 8
  22089142.260        2233.520          50.950


 115958128.092 8  90356975.80048  22066107.720                    22066111.600
     -2954.897       -2302.521          48.450          48.350    86592097.588 8
  22066112.160       -2206.611          50.950


 129016954.936 7 100532682.05447  24551132.040                    24551141.360
     -3333.094       -2597.227          43.650          43.500    96343800.374 7
  24551141.760       -2488.989          44.550


 121225178.574 7  94461167.94647  23068390.540                    23068390.740
      -662.957        -516.592          45.800          42.950    90525302.085 7
  23068395.920        -494.998          47.050


 126791968.333 7  98798917.42346  24127714.360                    24127713.300
      3183.232        2480.440          42.600          40.000



 109684500.131 8  85468419.97848  20872269.200                    20872267.940
      -876.256        -682.799          48.600          48.400



 125197268.002 7  97556301.42946  23824253.400                    23824251.920
       611.575         476.548          45.450          39.950



 131339501.860 6 102342437.21446  24993096.600                    24993105.200
     -3835.979       -2989.081          40.500          39.750    98078167.023 7
  24993108.100       -2864.681          42.750


 118579553.075 8  92399680.86948  22564935.040                    22564938.760
      -383.880        -299.128          50.250          50.150    88549701.183 8
  22564940.000        -286.625          49.550


 23  9  2  8 31  0.0000000  0 10G02G03G08G10G14G17G21G22G27G32
 109468899.119 8  85300427.79348  20831241.500                    20831238.980
      -113.607         -88.526          50.800          50.700



 115989635.824 7  90381565.50247  22072090.940                    22072095.440
      2980.434        2322.415          47.100          45.350    86615658.358 8
  22072097.000        2225.858          50.950


 116046938.780 8  90426178.81148  22083007.940                    22083011.780
     -2965.414       -2310.716          48.800          48.750    86658417.114 8
  22083012.440       -2214.468          50.950


 129116980.947 7 100610624.08547  24570166.520                    24570175.880
     -3335.021       -2598.728          44.300          44.800    96418494.744 7
  24570176.260       -2490.328          44.250


 121245343.916 7  94476881.13247  23072228.040                    23072228.180
      -681.295        -530.881          46.200          42.250    90540360.545 7
  23072233.240        -508.707          47.250


 126696532.068 7  98724551.47146  24109553.460                    24109552.400
      3178.954        2477.106          43.150          41.350



 109710916.792 8  85489004.33548  20877296.280                    20877294.960
      -884.709        -689.387          49.000          48.800



 125179174.419 7  97542202.46846  23820810.380                    23820809.100
       594.859         463.524          45.200          39.600



 131454604.402 6 102432127.28446  25015000.100                    25015008.620
     -3837.151       -2989.995          40.200          40.550    98164119.973 7
  25015011.340       -2865.421          42.350


 118591354.256 8  92408876.59348  22567180.900                    22567184.060
      -402.630        -313.738          50.700          50.650    88558513.747 8
  22567185.960        -300.659          49.700


 23  9  2  8 31 30.0000000  0 10G02G03G08G10G14G17G21G22G27G32
 109472466.413 8  85303207.46848  20831920.360                    20831917.700
      -124.445         -96.972          51.250          50.850



 115900389.617 7  90312023.03047  22055107.820                    22055112.080
      2968.896        2313.426          47.650          45.650    86549013.498 8
  22055113.560        2217.066          51.250


 116136078.439 8  90495638.14848  22099970.740                    22099974.740
     -2977.334       -2320.004          48.400          48.300    86724982.290 8
  22099975.500       -2223.367          51.350


 129217074.028 7 100688618.37247  24589213.880                    24589223.140
     -3338.072       -2601.107          43.950          44.100    96493239.212 7
  24589223.340       -2492.704          44.300


 121266071.184 7  94493032.18147  23076172.460                    23076172.640
      -700.682        -545.988          46.100          42.100    90555838.631 7
  23076177.520        -523.365          47.250


 126601239.204 7  98650297.25946  24091419.760                    24091418.800
      3173.531        2472.881          43.650          41.750



 109737600.601 8  85509796.86048  20882374.220                    20882372.880
      -894.363        -696.908          49.350          49.550



 125161597.907 7  97528506.47646  23817465.580                    23817464.740
       576.762         449.426          44.550          40.400



 131569747.905 6 102521849.29346  25036911.340                    25036919.800
     -3839.230       -2991.613          41.200          40.750    98250103.504 7
  25036922.520       -2867.008          42.800


 118603730.986 8  92418520.80048  22569536.320                    22569538.980
      -422.646        -329.335          50.850          50.950    88567756.105 8
  22569541.180        -315.620          49.650


 23  9  2  8 32  0.0000000  0 10G02G03G08G10G14G17G21G22G27G32
 109476331.957 8  85306219.54348  20832655.980                    20832653.220
      -134.087        -104.484          50.900          50.650



 115811466.498 7  90242732.31447  22038186.320                    22038190.280
      2958.511        2305.334          47.850          45.600    86482609.899 8
  22038191.500        2209.265          50.850


 116225542.787 8  90565350.50647  22116995.320                    22116999.320
     -2987.895       -2328.234          48.000          47.850    86791789.940 8
  22117000.140       -2231.068          50.850


 129317229.738 7 100766661.46547  24608273.080                    24608282.340
     -3339.638       -2602.326          43.200          43.600    96568030.453 7
  24608282.400       -2493.921          43.800


 121287356.606 7  94509618.15047  23080223.080                    23080223.420
      -719.019        -560.276          45.800          43.500    90571733.498 7
  23080228.220        -536.941          47.100


 126506089.293 7  98576154.43947  24073313.280                    24073312.340
      3168.987        2469.340          44.150          42.750



 109764548.618 8  85530795.27348  20887502.440                    20887500.920
      -902.943        -703.595          49.550          49.150



 125144536.257 7  97515211.65146  23814218.640                    23814218.280
       560.069         436.416          44.700          40.350



 131684927.941 6 102611599.78046  25058829.680                    25058838.320
     -3840.058       -2992.258          41.050          41.250    98336114.352 7
  25058840.660       -2867.635          43.150


 118616680.316 8  92428611.17748  22572000.600                    22572003.040
      -441.384        -343.937          50.400          50.450    88577426.051 8
  22572005.040        -329.669          49.150


 23  9  2  8 32 30.0000000  0 10G02G03G08G10G14G17G21G22G27G32
 109480502.192 8  85309469.02848  20833449.640                    20833446.840
      -144.414        -112.532          51.350          51.050



 115722874.430 8  90173699.54047  22021327.900                    22021331.420
      2947.277        2296.580          48.450          45.850    86416453.505 8
  22021332.720        2200.814          51.350


 116315335.896 8  90635319.03248  22134082.460                    22134086.560
     -2998.842       -2336.764          48.100          48.300    86858843.094 8
  22134087.560       -2239.492          51.050


 129417452.716 7 100844756.98347  24627345.120                    24627354.340
     -3342.209       -2604.330          43.400          42.950    96642871.924 7
  24627354.280       -2495.805          43.850


 121309205.404 7  94526643.11947  23084380.800                    23084381.520
      -737.883        -574.975          45.750          44.400    90588049.092 7
  23084386.320        -551.100          47.400


 126411091.009 7  98502129.77447  24055235.560                    24055234.820
      3163.800        2465.297          43.550          42.800



 109791767.402 8  85552004.66048  20892682.140                    20892680.500
      -912.110        -710.737          49.300          49.050



 125127996.083 7  97502323.14446  23811071.080                    23811070.860
       542.348         422.606          44.300          40.200



 131800149.089 6 102701382.26946  25080755.740                    25080764.340
     -3841.813       -2993.630          40.300          40.200    98422155.848 7
  25080766.840       -2868.754          43.250


 118630208.380 8  92439152.51548  22574574.840                    22574577.460
      -460.894        -359.138          50.050          50.150    88587528.161 8
  22574578.940        -344.155          48.900


 23  9  2  8 33  0.0000000  0 10G02G03G08G10G14G17G21G22G27G32
 109484969.382 8  85312949.92148  20834299.840                    20834297.040
      -153.807        -119.851          51.400          51.100



 115634606.768 8  90104919.56947  22004531.320                    22004534.460
      2936.898        2288.492          49.000          45.600    86350539.371 8
  22004535.620        2193.074          51.350


 116405448.464 7  90705536.50447  22151230.380                    22151234.580
     -3009.086       -2344.747          47.850          47.850    86926134.816 8
  22151235.420       -2247.052          50.900


 129517733.914 7 100922897.87147  24646428.280                    24646437.400
     -3343.766       -2605.542          43.650          43.550    96717756.868 7
  24646437.320       -2496.857          43.350


 121331608.358 7  94544099.90047  23088643.920                    23088645.100
      -755.876        -588.997          45.250          44.000    90604778.497 7
  23088650.040        -564.569          47.700


 126316238.370 7  98428218.55847  24037185.540                    24037185.060
      3159.308        2461.796          43.750          42.000



 109819248.529 8  85573418.47648  20897911.540                    20897910.040
      -920.421        -717.213          49.450          49.250



 125111969.741 7  97489835.07346  23808021.320                    23808021.300
       525.620         409.573          45.200          38.700



 131915401.373 6 102791189.07046  25102687.640                    25102696.120
     -3842.148       -2993.889          40.300          40.300    98508220.661 7
  25102698.660       -2869.280          42.500


 118644306.715 8  92450138.23348  22577257.500                    22577260.480
      -479.405        -373.562          49.500          49.350    88598056.135 8
  22577261.240        -358.031          48.900


 23  9  2  8 33 30.0000000  0 10G02G03G08G10G14G17G21G22G27G32
 109489739.060 8  85316666.52848  20835207.560                    20835204.540
      -164.204        -127.952          50.900          50.650



 115546670.003 8  90036397.43347  21987797.700                    21987800.520
      2925.415        2279.545          48.800          46.050    86284872.332 8
  21987801.860        2184.575          51.750


 116495883.179 7  90776005.01147  22168439.640                    22168443.900
     -3019.955       -2353.215          47.500          47.350    86993667.095 8
  22168444.900       -2255.221          51.300


 129618076.401 7 101001086.53447  24665523.260                    24665532.140
     -3345.953       -2607.246          44.000          43.750    96792687.618 7
  24665532.200       -2498.610          43.700


 121354569.208 7  94561991.41647  23093013.280                    23093014.780
      -774.878        -603.803          45.600          44.200    90621924.516 7
  23093019.940        -578.639          47.900


 126221538.330 7  98354426.29046  24019164.620                    24019164.380
      3153.833        2457.527          44.100          41.950



 109846996.858 8  85595040.50048  20903191.780                    20903190.400
      -929.611        -724.374          48.800          48.900



 125096462.347 7  97477751.36346  23805070.480                    23805070.380
       508.074         395.900          44.800          37.800



 132030688.026 6 102881022.64146  25124626.120                    25124634.560
     -3843.610       -2995.025          40.400          40.800    98594311.098 7
  25124637.000       -2870.298          42.600


 118658979.925 8  92461571.90548  22580049.520                    22580053.160
      -498.823        -388.692          48.950          49.050    88609013.410 8
  22580053.180        -372.604          49.100


 23  9  2  8 34  0.0000000  0 10G02G03G08G10G14G17G21G22G27G32
 109494808.036 8  85320616.34748  20836172.140                    20836168.960
      -174.300        -135.819          51.100          50.500



 115459062.109 8  89968131.57047  21971126.560                    21971129.320
      2914.538        2271.069          49.200          45.450    86219450.878 8
  21971130.540        2176.413          51.750


 116586634.544 7  90846720.23547  22185709.100                    22185713.420
     -3030.519       -2361.447          47.900          47.700    87061435.838 8
  22185714.280       -2263.049          51.300


 129718475.199 7 101079319.07947  24684628.960                    24684637.520
     -3347.843       -2608.718          44.650          44.350    96867660.411 7
  24684637.940       -2499.947          44.550


 121378083.256 7  94580313.99947  23097487.860                    23097489.640
      -793.297        -618.154          45.950          43.900    90639483.652 8
  23097495.060        -592.331          48.550


 126126989.435 7  98280751.84947  24001172.460                    24001172.380
      3148.926        2453.708          43.750          42.100



 109875008.523 8  85616867.71948  20908522.200                    20908520.920
      -938.343        -731.178          49.150          49.100



 125081471.118 7  97466069.83946  23802217.840                    23802217.640
       490.678         382.345          44.900          38.500



 132146003.715 6 102970878.83046  25146570.060                    25146578.600
     -3844.574       -2995.776          39.250          39.350    98680423.232 7
  25146580.680       -2870.936          43.350


 118674224.174 8  92473450.54448  22582950.280                    22582954.400
      -517.828        -403.502          49.150          49.150    88620397.096 8
  22582954.120        -386.713          49.800


 23  9  2  8 34 30.0000000  0 10G02G03G08G10G14G17G21G22G27G32
 109500180.101 8  85324802.34548  20837194.380                    20837191.160
      -183.884        -143.287          50.950          50.750



 115371787.891 8  89900125.71247  21954518.920                    21954521.660
      2903.798        2262.701          49.200          46.000    86154278.613 8
  21954523.100        2168.447          51.700


 116677703.851 7  90917683.22947  22203039.120                    22203043.500
     -3040.641       -2369.335          47.550          47.850    87129441.998 8
  22203044.420       -2270.610          51.300


 129818931.997 7 101157596.83747  24703745.780                    24703753.960
     -3349.332       -2609.877          44.400          44.250    96942676.529 7
  24703754.860       -2501.057          44.550


 121402152.524 7  94599069.23047  23102068.020                    23102069.960
      -811.345        -632.216          45.850          42.900    90657457.402 8
  23102075.740        -605.833          48.400


 126032597.358 7  98207199.56347  23983210.280                    23983210.280
      3143.923        2449.812          43.200          42.700



 109903287.179 8  85638902.97748  20913903.460                    20913902.260
      -946.760        -737.737          49.200          49.300



 125066999.646 7  97454793.35346  23799463.980                    23799463.960
       473.703         369.120          44.250          38.150



 132261349.875 6 103060758.74246  25168519.840                    25168528.440
     -3844.977       -2996.094          39.850          39.150    98766558.128 7
  25168530.360       -2871.360          42.800


 118690042.327 8  92485776.37648  22585960.380                    22585964.480
      -536.592        -418.123          49.150          49.350    88632209.353 8
  22585964.520        -400.677          49.800


 23  9  2  8 35  0.0000000  0 10G02G03G08G10G14G17G21G22G27G32
 109505854.998 8  85329224.30848  20838274.300                    20838271.140
      -194.126        -151.269          51.050          50.750



 115284848.042 8  89832380.39047  21937974.820                    21937977.620
      2892.589        2253.966          49.300          46.050    86089356.019 8
  21937979.020        2160.028          51.300


 116769088.618 7  90988892.02647  22220429.160                    22220433.500
     -3051.200       -2377.562          47.850          47.600    87197683.736 8
  22220434.500       -2278.532          51.000


 129919444.509 7 101235917.99047  24722873.120                    24722881.040
     -3351.341       -2611.443          43.850          44.350    97017734.224 7
  24722882.440       -2502.467          44.750


 121426775.014 7  94618255.51447  23106753.420                    23106755.340
      -829.883        -646.664          45.400          42.300    90675844.253 8
  23106761.540        -619.679          48.550


 125938363.568 7  98133770.65446  23965278.180                    23965278.160
      3138.523        2445.604          43.300          41.250



 109931831.768 8  85661145.46048  20919335.360                    20919334.100
      -955.769        -744.758          49.200          49.200



 125053047.390 7  97443921.40846  23796808.880                    23796808.960
       456.401         355.635          43.350          38.850



 132376723.948 6 103150660.43846  25190475.020                    25190483.380
     -3846.188       -2997.038          40.950          40.250    98852713.863 7
  25190485.460       -2872.050          42.300


 118706433.224 8  92498548.48548  22589079.540                    22589083.560
      -555.738        -433.043          49.700          49.550    88644449.291 8
  22589084.020        -415.029          50.100


 23  9  2  8 35 30.0000000  0 10G02G03G08G10G14G17G21G22G27G32
 109511830.691 8  85333880.65548  20839411.480                    20839408.400
      -204.163        -159.089          51.250          50.850



 115198241.894 8  89764895.09447  21921494.220                    21921497.200
      2881.422        2245.264          48.950          46.300    86024682.618 8
  21921498.820        2151.610          51.550


 116860784.880 7  91060343.53448  22237878.440                    22237882.920
     -3061.682       -2385.730          47.850          48.050    87266158.068 8
  22237883.880       -2286.287          51.450


 130020008.843 7 101314279.54947  24742010.180                    24742018.160
     -3352.891       -2612.650          44.150          44.350    97092830.665 7
  24742019.720       -2503.812          44.700


 121451947.215 7  94637870.14847  23111543.420                    23111545.280
      -848.186        -660.927          45.000          42.400    90694641.603 8
  23111551.660        -633.375          48.900


 125844287.791 7  98060464.82346  23947376.260                    23947375.940
      3133.241        2441.487          43.250          41.500



 109960640.017 8  85683593.41148  20924817.360                    20924816.120
      -964.424        -751.501          48.100          48.100



 125039612.640 7  97433452.75546  23794252.200                    23794252.460
       439.146         342.191          42.700          40.600



 132492121.952 6 103240580.80746  25212434.800                    25212442.800
     -3846.863       -2997.561          40.050          39.650    98938887.497 7
  25212445.080       -2872.475          42.250


 118723394.253 8  92511764.85948  22592307.200                    22592310.920
      -574.885        -447.963          49.750          49.600    88657114.979 8
  22592312.140        -429.289          50.350


 23  9  2  8 36  0.0000000  0 10G02G03G08G10G14G17G21G22G27G32
 109518111.396 8  85338774.66848  20840606.720                    20840603.660
      -214.057        -166.799          51.100          50.950



 115111974.733 8  89697673.93247  21905078.100                    21905081.160
      2870.381        2236.660          49.100          46.250    85960262.334 8
  21905082.800        2143.502          51.550


 116952794.193 7  91132038.98247  22255387.340                    22255391.800
     -3071.739       -2393.567          47.550          47.400    87334866.178 8
  22255392.920       -2293.790          51.400


 130120627.706 7 101392683.58947  24761157.520                    24761165.740
     -3354.479       -2613.890          43.300          43.900    97167967.798 7
  24761167.160       -2504.868          44.350


 121477671.680 7  94657915.10947  23116438.560                    23116440.300
      -866.272        -675.021          44.850          42.600    90713851.323 8
  23116446.800        -646.829          49.100


 125750376.416 7  97987287.10046  23929505.580                    23929505.260
      3128.117        2437.493          43.300          41.850



 109989715.237 8  85706249.37448  20930350.120                    20930348.960
      -973.162        -758.310          48.600          48.550



 125026699.596 7  97423390.63146  23791794.800                    23791795.260
       422.134         328.934          43.600          40.150



 132607545.960 6 103330521.41346  25234399.440                    25234407.360
     -3847.456       -2998.024          38.850          39.250    99025080.570 6
  25234409.580       -2873.120          41.250


 118740928.733 8  92525428.07548  22595643.980                    22595647.440
      -593.581        -462.531          49.100          49.050    88670208.891 8
  22595649.080        -443.246          50.350


 23  9  2  8 36 30.0000000  0 10G02G03G08G10G14G17G21G22G27G32
 109524694.968 8  85343904.68948  20841859.560                    20841856.520
      -224.594        -175.009          51.050          50.900



 115026045.523 8  89630716.12648  21888726.220                    21888729.620
      2858.576        2227.463          48.700          48.900    85896094.433 8
  21888731.400        2134.696          51.850


 117045112.015 7  91203974.82247  22272955.000                    22272959.400
     -3082.374       -2401.854          47.300          47.250    87403804.670 8
  22272960.520       -2301.803          51.650


 130221296.949 7 101471126.87347  24780314.380                    24780322.900
     -3356.661       -2615.590          42.900          42.650    97243142.561 7
  24780324.120       -2506.482          44.550


 121503944.535 7  94678387.36946  23121438.060                    23121439.800
      -884.868        -689.512          44.650          41.600    90733470.569 8
  23121445.980        -660.813          49.000


 125656628.930 7  97914237.08047  23911666.040                    23911665.760
      3122.122        2432.821          42.950          42.050



 110019055.545 8  85729111.90148  20935933.320                    20935932.260
      -982.521        -765.603          48.650          48.600



 125014305.590 7  97413732.92946  23789436.320                    23789436.900
       404.508         315.199          43.700          40.500



 132722991.656 6 103420478.91846  25256367.920                    25256376.140
     -3848.602       -2998.915          38.550          38.500    99111289.793 6
  25256378.320       -2873.986          40.550


 118759033.749 8  92539535.84948  22599089.260                    22599092.680
      -613.058        -477.708          48.950          48.900    88683728.833 8
  22599094.500        -457.781          50.400


 23  9  2  8 37  0.0000000  0 10G02G03G08G10G14G17G21G22G27G32
 109531577.608 8  85349267.75148  20843169.280                    20843166.260
      -235.080        -183.181          50.950          51.050



 114940451.245 8  89564019.29048  21872437.940                    21872441.600
      2846.749        2218.245          48.400          48.600    85832176.634 8
  21872443.440        2125.974          51.700


 117137732.454 7  91276146.46847  22290580.180                    22290584.340
     -3092.939       -2410.087          47.000          46.900    87472969.133 8
  22290585.900       -2309.673          51.200


 130322010.274 7 101549604.52247  24799479.480                    24799488.300
     -3358.551       -2617.062          42.200          42.400    97318350.261 7
  24799489.520       -2507.884          43.800


 121530760.114 7  94699282.54946  23126540.980                    23126542.620
      -903.492        -704.023          44.350          40.950    90753495.071 8
  23126548.520        -674.731          48.800


 125563043.086 7  97841313.02946  23893857.260                    23893856.760
      3115.932        2427.999          43.500          40.500



 110048656.056 8  85752177.18348  20941566.120                    20941565.100
      -991.727        -772.775          49.100          49.050



 125002427.071 7  97404476.92446  23787176.080                    23787176.520
       386.866         301.451          43.750          39.700



 132838452.707 6 103510448.38646  25278339.560                    25278348.060
     -3849.563       -2999.665          39.550          40.200    99197510.501 6
  25278349.880       -2874.583          41.350


 118777704.280 8  92554084.28948  22602642.160                    22602645.720
      -632.340        -492.734          48.850          49.100    88697671.074 8
  22602647.340        -472.210          49.900


 23  9  2  8 37 30.0000000  0 10G02G03G08G10G14G17G21G22G27G32
 109538768.173 8  85354870.76248  20844537.600                    20844534.760
      -244.577        -190.580          51.350          51.000



 114855201.821 8  89497591.18448  21856215.320                    21856219.420
      2836.032        2209.896          48.200          48.200    85768516.373 8
  21856221.380        2117.876          52.050


 117230661.209 7  91348558.35947  22308264.020                    22308268.080
     -3102.483       -2417.524          46.950          47.100    87542363.838 8
  22308269.660       -2316.771          51.300


 130422775.290 7 101628122.43246  24818654.320                    24818663.400
     -3359.379       -2617.707          42.050          41.850    97393596.542 7
  24818664.680       -2508.729          43.750


 121558125.353 7  94720606.02546  23131748.460                    23131750.160
      -920.935        -717.614          45.100          41.200    90773930.047 8
  23131755.640        -687.760          48.650


 125469629.433 7  97768523.12546  23876081.200                    23876080.540
      3111.217        2424.323          43.700          40.100



 110078525.263 8  85775451.82248  20947250.080                    20947249.180
      -999.862        -779.115          49.050          49.200



 124991072.329 7  97395629.08346  23785015.620                    23785015.580
       369.882         288.221          44.650          39.400



 132953935.761 6 103600435.02646  25300315.540                    25300324.240
     -3849.667       -2999.747          40.800          40.700    99283747.659 6
  25300325.760       -2874.571          41.550


 118796948.354 8  92569079.63448  22606304.200                    22606308.080
      -650.759        -507.087          49.050          49.250    88712041.609 8
  22606309.160        -485.932          49.900


 23  9  2  8 38  0.0000000  0 10G02G03G08G10G14G17G21G22G27G32
 109546260.012 8  85360708.51748  20845963.200                    20845960.640
      -254.348        -198.194          50.600          50.300



 114770291.998 7  89431427.68647  21840057.340                    21840061.580
      2824.970        2201.274          47.750          47.600    85705109.703 8
  21840063.620        2109.501          52.150


 117323890.375 7  91421204.33847  22326004.980                    22326008.660
     -3112.341       -2425.205          46.100          45.900    87611982.870 8
  22326010.820       -2324.099          51.200


 130523583.295 7 101706673.87647  24837837.260                    24837846.600
     -3360.471       -2618.557          42.500          42.300    97468874.949 7
  24837848.100       -2509.646          43.000


 121586032.219 7  94742351.54047  23137059.100                    23137060.640
      -938.912        -731.624          45.250          42.500    90794769.482 8
  23137065.860        -701.131          48.250


 125376383.593 7  97695863.98346  23858337.180                    23858336.300
      3105.861        2420.149          43.750          41.050



 110108656.238 8  85798930.45148  20952983.820                    20952982.980
     -1008.382        -785.754          49.050          49.300



 124980235.014 7  97387184.44246  23782953.660                    23782953.300
       352.890         274.979          45.650          39.200



 133069432.389 6 103690432.22846  25322294.040                    25322302.740
     -3849.907       -2999.935          40.200          40.250    99369994.940 6
  25322304.500       -2874.753          41.350


 118816758.663 8  92584516.20648  22610074.000                    22610078.280
      -669.420        -521.628          49.350          49.200    88726834.981 8
  22610078.800        -499.943          49.550


 23  9  2  8 38 30.0000000  0 10G02G03G08G10G14G17G21G22G27G32
 109554057.441 8  85366784.39748  20847446.920                    20847444.580
      -264.682        -206.246          50.900          50.650



 114685727.066 8  89365532.96848  21823965.140                    21823969.620
      2813.353        2192.224          48.050          48.100    85641960.591 8
  21823971.720        2100.871          52.200


 117417421.796 7  91494085.83447  22343803.420                    22343807.100
     -3122.338       -2432.996          45.450          45.250    87681827.627 8
  22343809.320       -2331.797          51.250


 130624436.935 6 101785260.85346  24857029.040                    24857038.640
     -3362.292       -2619.979          40.950          40.800    97544187.410 7
  24857040.180       -2510.772          42.950


 121614483.223 7  94764521.06147  23142473.460                    23142474.880
      -957.277        -745.934          45.300          42.250    90816015.251 8
  23142479.800        -714.831          48.100


 125283311.654 7  97623340.37046  23840626.240                    23840625.420
      3099.746        2415.387          44.050          40.600



 110139052.648 8  85822615.92248  20958768.100                    20958767.180
     -1017.343        -792.734          48.850          48.850



 124969919.219 7  97379146.15546  23780990.980                    23780990.160
       335.128         261.138          45.600          39.000



 133184944.661 6 103780441.61346  25344275.500                    25344283.960
     -3850.585       -3000.463          38.750          38.150    99456253.898 6
  25344286.060       -2875.279          41.500


 118837138.552 8  92600396.58848  22613952.160                    22613956.780
      -688.559        -536.541          49.300          49.350    88742053.676 8
  22613956.700        -514.259          49.600


 23  9  2  8 39  0.0000000  0 10G02G03G08G10G14G17G21G22G27G32
 109562157.419 8  85373096.03348  20848988.260                    20848985.960
      -274.751        -214.093          51.150          51.050



 114601504.644 8  89299905.11348  21807938.080                    21807942.500
      2801.751        2183.183          48.350          48.450    85579067.232 8
  21807944.680        2092.255          52.450


 117511249.492 7  91567198.19547  22361658.280                    22361661.740
     -3132.273       -2440.736          46.350          46.550    87751893.597 8
  22361664.400       -2339.038          51.150


 130725330.920 7 101863879.27547  24876228.560                    24876238.360
     -3363.452       -2620.878          43.150          43.000    97619530.003 7
  24876239.840       -2511.806          42.550


 121643473.047 7  94787110.45047  23147990.300                    23147991.720
      -975.189        -759.891          46.150          42.200    90837663.388 8
  23147996.440        -728.132          48.000


 125190412.049 7  97550951.02546  23822948.140                    23822947.380
      3094.011        2410.917          44.700          40.800



 110169710.433 8  85846505.05648  20964602.100                    20964601.260
     -1025.999        -799.482          49.050          49.200



 124960121.313 7  97371511.40246  23779126.660                    23779125.480
       318.265         248.000          46.050          37.800



 133300466.910 6 103870458.75146  25366258.840                    25366267.260
     -3850.543       -3000.432          39.800          39.550    99542520.305 6
  25366269.640       -2875.531          41.050


 118858083.539 8  92616717.30448  22617937.820                    22617942.660
      -707.360        -551.192          49.150          49.100    88757694.352 8
  22617942.380        -528.210          49.400


 23  9  2  8 39 30.0000000  0 10G02G03G08G10G14G17G21G22G27G32
 109570562.998 8  85379645.78648  20850587.860                    20850585.500
      -285.608        -222.554          50.850          50.850



 114517628.963 8  89234547.47048  21791977.100                    21791981.440
      2789.798        2173.868          48.300          48.300    85516432.824 8
  21791983.700        2083.257          52.450


 117605374.529 7  91640542.23747  22379569.800                    22379573.360
     -3142.692       -2448.856          46.250          46.150    87822181.607 8
  22379575.940       -2346.830          51.450


 130826266.428 7 101942530.05647  24895436.140                    24895446.200
     -3365.373       -2622.376          42.650          42.850    97694903.625 6
  24895447.280       -2513.073          41.750


 121673003.112 7  94810120.79447  23153609.940                    23153611.240
      -993.565        -774.210          45.900          43.700    90859714.948 8
  23153615.860        -741.993          48.000


 125097690.049 7  97478700.06247  23805303.900                    23805303.240
      3087.529        2405.863          44.950          42.100



 110200632.597 8  85870600.18748  20970486.480                    20970485.720
     -1035.457        -806.852          49.100          49.000



 124950844.289 7  97364282.54846  23777361.360                    23777359.840
       300.362         234.049          45.050          38.650



 133416000.184 6 103960484.51946  25388244.260                    25388252.740
     -3851.578       -3001.233          40.050          39.750    99628794.938 7
  25388255.260       -2876.129          42.200


 118879595.915 8  92633480.13748  22622031.400                    22622036.160
      -726.741        -566.294          48.900          48.900    88773758.726 8
  22622035.840        -542.763          49.250


 23  9  2  8 40  0.0000000  0 10G02G03G08G10G14G17G21G22G27G32
 109579274.565 8  85386433.96848  20852245.720                    20852243.360
      -294.887        -229.784          50.850          50.750



 114434101.798 8  89169461.40648  21776082.480                    21776086.660
      2778.925        2165.396          48.350          48.050    85454058.673 8
  21776088.880        2075.164          52.600


 117699794.947 7  91714116.45947  22397537.540                    22397541.260
     -3151.773       -2455.932          46.700          46.850    87892690.197 8
  22397543.880       -2353.580          51.400


 130927242.412 7 102021212.38347  24914651.400                    24914661.820
     -3365.998       -2622.864          42.950          42.600    97770307.465 7
  24914662.680       -2513.554          42.250


 121703072.241 7  94833551.19447  23159332.100                    23159333.500
     -1010.614        -787.494          45.950          42.800    90882169.082 7
  23159337.840        -754.876          47.700


 125005148.002 7  97406589.31747  23787693.900                    23787693.380
      3082.234        2401.738          45.200          42.950



 110231819.409 8  85894901.53348  20976421.280                    20976420.420
     -1043.459        -813.087          49.300          49.300



 124942088.330 7  97357459.70546  23775695.080                    23775693.600
       283.748         221.103          44.950          38.250



 133531543.016 6 104050517.71746  25410231.480                    25410240.240
     -3851.121       -3000.881          40.400          40.500    99715076.724 6
  25410242.880       -2875.692          41.850


 118901675.441 8  92650684.89948  22626232.880                    22626237.640
      -744.883        -580.430          48.300          48.100    88790246.611 8
  22626237.300        -556.262          49.200


 23  9  2  8 40 30.0000000  0 10G02G03G08G10G14G17G21G22G27G32
 109588290.348 8  85393459.20148  20853961.520                    20853959.080
      -305.803        -238.289          50.700          50.800



 114350921.980 7  89104645.99747  21760253.960                    21760257.780
      2766.672        2155.850          47.750          47.700    85391943.908 8
  21760260.060        2066.005          52.000


 117794506.682 7  91787917.67447  22415560.760                    22415564.720
     -3162.235       -2464.085          47.050          47.300    87963416.329 8
  22415567.060       -2361.322          50.850


 131028255.101 7 102099923.30147  24933873.780                    24933884.600
     -3367.711       -2624.198          42.850          42.900    97845738.706 6
  24933885.260       -2514.993          41.650


 121733676.448 7  94857398.54747  23165156.020                    23165157.540
     -1029.222        -801.994          45.900          42.300    90905022.773 7
  23165161.660        -768.631          47.150


 124912785.856 7  97334618.75047  23770118.120                    23770117.780
      3075.496        2396.488          44.700          43.050



 110263268.273 8  85919407.07548  20982405.960                    20982404.980
     -1052.916        -820.456          49.150          49.050



 124933851.341 7  97351041.23546  23774127.500                    23774126.320
       265.591         206.952          45.000          39.050



 133647091.115 6 104140555.05446  25432219.780                    25432228.580
     -3851.859       -3001.454          40.000          40.150    99801362.443 6
  25432231.560       -2876.497          41.900


 118924318.853 8  92668329.06048  22630541.740                    22630546.220
      -764.426        -595.657          48.650          48.450    88807155.574 8
  22630546.200        -570.780          48.750


 23  9  2  8 41  0.0000000  0 10G02G03G08G10G14G17G21G22G27G32
 109597613.750 8  85400724.14348  20855735.820                    20855733.300
      -316.315        -246.481          50.900          50.750



 114268094.187 8  89040104.89248  21744492.400                    21744496.020
      2754.649        2146.481          48.250          48.600    85330092.018 8
  21744498.200        2057.100          52.350


 117889510.387 7  91861946.38647  22433639.600                    22433643.960
     -3171.944       -2471.649          47.250          47.300    88034360.489 8
  22433645.880       -2368.588          51.100


 131129306.206 7 102178664.15847  24953103.400                    24953114.620
     -3369.188       -2625.351          43.050          42.800    97921198.637 6
  24953115.160       -2516.034          41.300


 121764817.441 7  94881664.18847  23171081.960                    23171083.540
     -1047.295        -816.076          45.850          42.700    90928277.321 7
  23171087.560        -782.067          47.100


 124820608.971 7  97262792.53647  23752577.560                    23752577.380
      3069.060        2391.473          44.250          43.400



 110294982.376 8  85944119.29948  20988441.080                    20988439.960
     -1061.730        -827.324          49.450          49.450



 124926136.473 7  97345029.61546  23772659.240                    23772658.560
       248.399         193.556          45.200          38.700



 133762646.002 6 104230597.60546  25454209.320                    25454218.200
     -3852.414       -3001.887          39.200          39.550    99887653.191 6
  25454221.240       -2876.608          41.700


 118947528.702 8  92686414.61648  22634958.520                    22634962.720
      -783.377        -610.425          48.850          48.900    88824487.547 8
  22634963.000        -584.967          48.950


 23  9  2  8 41 30.0000000  0 10G02G03G08G10G14G17G21G22G27G32
 109607240.697 8  85408225.60648  20857567.760                    20857565.200
      -326.025        -254.048          51.350          50.950



 114185615.225 8  88975835.60848  21728797.200                    21728800.580
      2743.550        2137.832          48.200          48.550    85268500.625 8
  21728802.680        2048.726          52.250


 117984799.980 7  91936197.88547  22451772.760                    22451777.360
     -3180.996       -2478.703          47.350          47.200    88105518.141 8
  22451778.860       -2375.468          50.700


 131230389.806 7 102257430.34247  24972339.100                    24972350.620
     -3369.857       -2625.870          43.700          43.300    97996682.840 6
  24972351.400       -2516.523          41.350


 121796489.109 7  94906343.34047  23177108.800                    23177110.520
     -1064.607        -829.566          45.550          42.050    90951928.165 7
  23177114.420        -795.052          46.800


 124728614.927 7  97191108.81447  23735071.640                    23735071.640
      3063.496        2387.140          43.800          43.700



 110326956.847 8  85969034.39748  20994525.780                    20994524.560
     -1070.092        -833.840          49.150          49.050



 124918939.442 7  97339421.46946  23771289.660                    23771289.380
       231.193         180.147          45.450          39.900



 133878201.224 6 104320640.45746  25476198.840                    25476207.640
     -3851.710       -3001.339          38.550          38.050    99973944.198 7
  25476210.840       -2876.304          42.250


 118971299.768 8  92704937.46848  22639482.140                    22639486.080
      -801.666        -624.676          49.050          48.950    88842238.603 8
  22639486.660        -598.698          48.800


 23  9  2  8 42  0.0000000  0 10G02G03G08G10G14G17G21G22G27G32
 109617174.335 8  85415966.06348  20859458.100                    20859455.580
      -336.586        -262.276          51.250          50.950



 114103489.203 8  88911841.33748  21713169.060                    21713172.300
      2731.349        2128.325          48.650          48.600    85207172.786 8
  21713174.240        2039.574          52.050


 118080375.756 7  92010672.36147  22469960.300                    22469965.480
     -3191.102       -2486.578          47.500          47.350    88176889.495 8
  22469966.260       -2382.928          50.300


 131331507.194 7 102336222.86147  24991581.260                    24991593.020
     -3371.328       -2627.018          43.300          43.400    98072192.312 6
  24991593.680       -2517.644          41.100


 121828692.681 7  94931436.95747  23183236.800                    23183238.500
     -1082.642        -843.619          45.350          42.300    90975976.202 7
  23183242.560        -808.521          46.700


 124636808.632 7  97119571.36647  23717601.380                    23717601.580
      3056.888        2381.987          43.600          42.800



 110359194.597 8  85994154.66148  21000660.500                    21000659.360
     -1079.359        -841.062          49.750          49.600



 124912263.027 7  97334218.99246  23770019.220                    23770019.240
       213.521         166.377          45.400          38.000



 133993757.767 6 104410684.30346  25498188.620                    25498197.300
     -3852.096       -3001.638          40.500          40.050   100060236.230 6
  25498200.720       -2876.779          39.350


 118995634.085 8  92723899.21448  22644112.920                    22644116.860
      -820.872        -639.643          49.150          49.250    88860410.253 8
  22644117.440        -613.023          48.550


 23  9  2  8 42 30.0000000  0 10G02G03G08G10G14G17G21G22G27G32
 109627416.759 8  85423947.11548  20861407.200                    20861404.840
      -346.203        -269.771          51.000          50.950



 114021719.398 7  88848124.64147  21697608.620                    21697611.980
      2720.093        2119.554          47.950          47.900    85146110.950 8
  21697613.780        2031.307          52.450


 118176238.147 7  92085370.19947  22488202.380                    22488207.700
     -3199.628       -2493.221          47.000          46.950    88248474.878 8
  22488208.080       -2389.363          50.300


 131432658.859 7 102415042.12247  25010829.920                    25010841.640
     -3371.541       -2627.182          42.550          42.900    98147727.396 6
  25010842.160       -2518.022          40.650


 121861428.473 7  94956945.28647  23189466.040                    23189467.700
     -1099.810        -856.997          45.100          42.650    91000421.661 7
  23189472.160        -821.138          47.000


 124545194.364 7  97048183.58647  23700167.720                    23700168.060
      3050.973        2377.380          43.800          43.650



 110391697.262 8  86019481.34148  21006845.580                    21006844.580
     -1087.352        -847.290          49.200          49.200



 124906109.291 7  97329423.79546  23768848.220                    23768848.600
       196.864         153.398          45.050          38.650



 134109315.852 6 104500729.43646  25520178.720                    25520187.200
     -3851.693       -3001.322          41.100          41.300   100146529.403 7
  25520190.680       -2876.024          42.300


 119020532.848 8  92743300.76948  22648851.080                    22648855.200
      -838.905        -653.694          49.250          49.200    88879003.385 8
  22648855.420        -626.453          48.650


 23  9  2  8 43  0.0000000  0 10G02G03G08G10G14G17G21G22G27G32
 109637962.711 8  85432164.69148  20863414.120                    20863411.780
      -356.787        -278.018          51.400          51.200



 113940301.339 7  88784682.01848  21682115.100                    21682118.580
      2707.800        2109.975          47.850          48.000    85085311.787 8
  21682120.120        2022.032          52.450


 118272379.221 7  92160285.16547  22506497.520                    22506503.220
     -3209.498       -2500.911          46.950          47.150    88320268.376 8
  22506502.920       -2396.781          50.000


 131533837.518 7 102493882.43447  25030083.720                    25030095.200
     -3373.336       -2628.580          42.200          42.800    98223282.607 6
  25030095.920       -2519.059          40.250


 121894689.021 7  94982862.50746  23195795.160                    23195796.680
     -1117.683        -870.926          44.900          41.150    91025259.003 7
  23195801.740        -834.632          47.000


 124453768.529 7  96976942.64747  23682769.920                    23682770.380
      3044.195        2372.100          43.900          43.300



 110424458.830 8  86045009.77248  21013079.840                    21013079.020
     -1096.576        -854.478          48.900          48.900



 124900472.128 7  97325031.11246  23767775.520                    23767776.020
       178.943         139.434          44.650          40.650



 134224867.779 6 104590769.70746  25542167.680                    25542176.000
     -3851.688       -3001.321          41.100          41.000   100232818.019 6
  25542179.720       -2876.468          41.150


 119045989.432 8  92763136.99948  22653695.340                    22653699.580
      -858.050        -668.613          48.800          48.850    88898013.084 8
  22653699.360        -640.848          48.400


 23  9  2  8 43 30.0000000  0 10G02G03G08G10G14G17G21G22G27G32
 109648818.640 8  85440623.80348  20865480.000                    20865477.600
      -367.512        -286.374          51.200          51.200



 113859242.422 7  88721519.26547  21666689.920                    21666693.600
      2695.521        2100.407          47.750          47.750    85024780.823 8
  21666694.960        2012.928          52.150


 118368802.802 7  92235420.29747  22524846.440                    22524852.080
     -3219.175       -2508.452          46.950          46.850    88392272.830 8
  22524851.580       -2403.905          49.800


 131635047.717 6 102572747.27746  25049343.460                    25049355.000
     -3374.588       -2629.559          41.050          41.000    98298861.396 6
  25049355.600       -2519.902          40.300


 121928478.747 7  95009192.08846  23202225.120                    23202226.400
     -1135.537        -884.836          44.850          41.550    91050491.502 7
  23202232.080        -848.040          47.000


 124362539.702 7  96905855.22347  23665409.640                    23665410.280
      3037.138        2366.600          43.900          43.000



 110457485.658 8  86070744.89148  21019364.540                    21019364.020
     -1105.774        -861.646          49.050          49.000



 124895357.741 7  97321045.80846  23766802.220                    23766802.740
       161.313         125.696          44.500          38.900



 134340417.882 6 104680808.63046  25564156.120                    25564164.520
     -3852.068       -3001.614          38.050          37.550   100319105.235 6
  25564168.220       -2876.575          41.150


 119072009.147 8  92783412.01548  22658646.760                    22658651.120
      -877.164        -683.507          49.050          48.950    88917443.284 8
  22658650.680        -654.962          48.550


 23  9  2  8 44  0.0000000  0 10G02G03G08G10G14G17G21G22G27G32
 109659980.506 8  85449321.30348  20867604.040                    20867601.620
      -377.446        -294.116          51.000          50.700



 113778539.468 7  88658633.87148  21651332.620                    21651336.440
      2683.962        2091.399          47.800          48.200    84964515.669 8
  21651337.560        2004.172          52.250


 118465501.858 7  92310770.05547  22543247.720                    22543253.600
     -3228.242       -2515.519          46.700          46.350    88464482.988 8
  22543252.760       -2410.646          49.600


 131736283.550 6 102651632.13146  25068608.160                    25068619.540
     -3374.987       -2629.868          40.550          40.100    98374459.326 6
  25068620.460       -2520.483          40.550


 121962791.433 7  95035929.15346  23208754.740                    23208755.760
     -1152.702        -898.213          44.550          41.950    91076114.506 7
  23208762.040        -860.817          47.250


 124271505.451 7  96834919.42447  23648086.400                    23648087.040
      3031.150        2361.938          43.600          43.600



 110490772.469 8  86096682.60248  21025698.900                    21025698.440
     -1114.145        -868.166          49.300          49.400



 124890761.380 7  97317464.14646  23765927.520                    23765927.920
       144.197         112.359          43.500          40.150



 134455959.748 6 104770841.06646  25586143.060                    25586151.480
     -3851.814       -3001.421          37.800          37.500   100405386.275 6
  25586155.000       -2876.150          41.650


 119098586.586 8  92804121.63848  22663704.320                    22663708.600
      -895.529        -697.818          48.800          48.850    88937289.985 8
  22663708.260        -668.711          48.750


 23  9  2  8 44 30.0000000  0 10G02G03G08G10G14G17G21G22G27G32
 109671450.175 8  85458258.65948  20869786.680                    20869784.280
      -387.112        -301.648          50.900          50.900



 113698195.646 8  88596028.31348  21636043.760                    21636047.600
      2672.518        2082.480          48.250          48.600    84904518.685 8
  21636048.500        1995.680          52.350


 118562477.489 7  92386335.33647  22561701.700                    22561707.480
     -3236.758       -2522.154          46.550          46.550    88536899.694 8
  22561706.700       -2417.116          49.800


 131837545.734 6 102730537.52446  25087877.900                    25087889.100
     -3375.363       -2630.159          41.200          41.000    98450076.940 6
  25087890.180       -2520.715          40.750


 121997627.284 7  95063073.88647  23215383.940                    23215385.000
     -1169.599        -911.378          44.800          42.550    91102128.200 7
  23215391.460        -873.422          47.550


 124180669.706 7  96764138.30247  23630800.920                    23630801.600
      3024.753        2356.949          44.150          42.950



 110524321.131 8  86122824.36548  21032083.200                    21032082.640
     -1122.332        -874.546          49.550          49.500



 124886685.056 7  97314287.71246  23765151.920                    23765151.820
       127.319          99.209          44.500          40.250



 134571493.444 6 104860867.15446  25608128.320                    25608136.960
     -3850.897       -3000.706          37.650          36.400   100491661.267 6
  25608140.160       -2875.512          40.850


 119125722.788 8  92825266.65548  22668868.240                    22668872.420
      -913.574        -711.878          48.600          48.350    88957553.945 8
  22668872.440        -682.255          49.150


 23  9  2  8 45  0.0000000  0 10G02G03G08G10G14G17G21G22G27G32
 109683227.183 8  85467435.49348  20872027.800                    20872025.400
      -398.029        -310.154          51.100          50.650



 113618211.339 8  88533702.90248  21620823.340                    21620827.280
      2659.871        2072.627          48.400          48.300    84844790.179 8
  21620827.940        1986.263          52.200


 118659725.846 7  92462113.12547  22580207.640                    22580213.500
     -3246.479       -2529.729          46.700          46.700    88609520.042 8
  22580212.640       -2424.276          49.750


 131938831.958 6 102809461.61146  25107152.300                    25107163.560
     -3376.788       -2631.273          41.050          40.650    98525712.488 6
  25107164.460       -2521.724          40.650


 122032983.740 7  95090624.28047  23222112.340                    23222113.540
     -1187.546        -925.364          44.800          43.150    91128530.649 7
  23222119.960        -886.737          47.650


 124090034.315 7  96693513.31347  23613553.460                    23613554.260
      3017.499        2351.297          43.900          43.200



 110558131.086 8  86149169.72348  21038517.160                    21038516.480
     -1131.701        -881.848          49.500          49.650



 124883127.928 7  97311515.84446  23764475.120                    23764474.600
       109.887          85.625          44.750          38.050



 134687016.274 6 104950884.80846  25630111.600                    25630120.140
     -3850.801       -3000.628          39.350          38.700   100577928.123 6
  25630123.500       -2875.609          41.800


 119153416.036 8  92846845.71448  22674138.180                    22674142.180
      -932.782        -726.846          48.700          48.700    88978233.853 8
  22674142.800        -696.477          49.400


 23  9  2  8 45 30.0000000  0 10G02G03G08G10G14G17G21G22G27G32
 109695313.121 8  85476853.04748  20874327.720                    20874325.300
      -407.992        -317.918          51.250          51.100



 113538589.052 7  88471659.58447  21605671.720                    21605675.800
      2648.028        2063.399          47.700          47.700    84785332.001 8
  21605676.260        1977.472          52.250


 118757246.277 7  92538102.92047  22598765.300                    22598770.940
     -3255.168       -2536.500          46.900          47.100    88682343.560 8
  22598770.400       -2430.828          49.700


 132040142.118 6 102888404.41046  25126431.220                    25126442.220
     -3377.404       -2631.751          40.850          40.250    98601365.942 6
  25126443.180       -2522.095          41.100


 122068860.227 7  95118579.89647  23228939.660                    23228941.180
     -1204.436        -938.524          45.400          42.700    91155321.428 7
  23228947.340        -899.453          47.700


 123999602.388 7  96623046.85447  23596344.680                    23596345.620
      3011.035        2346.261          43.850          42.950



 110592203.498 8  86175719.59848  21045000.960                    21045000.340
     -1140.102        -888.394          48.950          49.150



 124880091.135 7  97309149.43446  23763897.340                    23763896.800
        92.646          72.189          44.600          40.300



 134802527.642 6 105040893.50246  25652092.840                    25652101.220
     -3850.197       -3000.159          38.900          38.500   100664186.447 6
  25652104.760       -2875.173          39.950


 119181666.579 8  92868859.03148  22679514.260                    22679518.140
      -950.965        -741.015          50.000          49.800    88999329.935 8
  22679519.280        -710.155          49.750


 23  9  2  8 46  0.0000000  0 10G02G03G08G10G14G17G21G22G27G32
 109707707.992 8  85486511.33748  20876686.460                    20876684.120
      -418.626        -326.204          51.600          50.900



 113459329.546 7  88409898.95247  21590589.060                    21590593.520
      2635.635        2053.742          47.350          47.350    84726144.737 8
  21590593.680        1968.220          52.150


 118855035.798 7  92614302.38547  22617374.220                    22617379.760
     -3264.566       -2543.824          47.000          47.250    88755368.013 8
  22617379.420       -2437.690          49.650


 132141474.058 6 102967364.17147  25145714.300                    25145725.220
     -3378.326       -2632.468          41.900          42.750    98677035.675 6
  25145726.400       -2522.712          40.650


 122105254.441 7  95146938.92547  23235865.480                    23235867.180
     -1222.040        -952.243          46.600          42.100    91182498.819 7
  23235873.160        -912.547          47.650


 123909375.634 7  96552740.28046  23579175.020                    23579175.940
      3003.880        2340.686          44.350          41.800



 110626537.023 8  86202472.94248  21051534.460                    21051533.840
     -1149.148        -895.441          49.650          49.400



 124877573.800 7  97307187.80746  23763418.340                    23763418.040
        75.002          58.438          45.250          39.150



 134918025.413 6 105130891.66346  25674071.480                    25674079.960
     -3849.871       -2999.901          37.850          38.150   100750434.659 6
  25674083.220       -2874.991          38.750


 119210473.009 8  92891305.50648  22684996.120                    22684999.840
      -969.748        -755.651          50.300          50.450    89020841.115 8
  22685001.520        -724.146          49.750


 23  9  2  8 46 30.0000000  0 11G02G03G08G10G14G17G19G21G22G27G32
 109720412.484 8  85496410.89648  20879104.160                    20879101.760
      -428.346        -333.776          51.300          51.100



 113380434.647 7  88348422.43347  21575575.740                    21575580.500
      2624.003        2044.678          47.600          47.550    84667229.743 8
  21575580.520        1959.458          52.450


 118953093.469 7  92690710.80447  22636034.120                    22636039.300
     -3272.630       -2550.105          46.800          46.900    88828592.715 8
  22636039.500       -2443.940          49.750


 132242827.002 6 103046340.33246  25165001.400                    25165012.280
     -3378.142       -2632.322          41.950          41.500    98752721.123 6
  25165013.520       -2522.935          41.750


 122142165.245 7  95175700.50646  23242889.520                    23242891.580
     -1238.762        -965.271          46.400          41.650    91210061.964 8
  23242897.240        -925.046          48.050


 123819356.682 7  96482595.63846  23562044.900                    23562045.800
      2997.641        2335.822          44.200          41.850



 134578158.797 6                  25609373.220
      3882.018                          36.300



 110661132.372 8  86229430.29648  21058117.720                    21058117.060
     -1157.277        -901.776          49.800          49.400



 124875576.206 7  97305631.19346  23763038.360                    23763038.180
        58.246          45.385          45.100          40.000



 135033508.356 6 105220878.26846  25696047.140                    25696056.000
     -3848.660       -2998.956          36.750          36.050   100836671.771 6
  25696058.760       -2874.073          38.450


 119239834.984 8  92914184.85948  22690583.640                    22690587.360
      -987.650        -769.602          49.850          49.600    89042767.149 8
  22690589.320        -737.603          50.150


 23  9  2  8 47  0.0000000  0 11G02G03G08G10G14G17G19G21G22G27G32
 109733426.692 8  85506551.79548  20881580.800                    20881578.240
      -438.994        -342.075          51.400          51.200



 113301905.394 7  88287230.83347  21560632.040                    21560636.920
      2611.536        2034.962          47.850          47.600    84608587.808 8
  21560637.080        1950.046          52.600


 119051417.143 7  92767326.49047  22654744.620                    22654749.580
     -3281.836       -2557.280          46.600          46.550    88902016.052 8
  22654750.040       -2450.798          49.650


 132344199.443 6 103125331.66146  25184292.180                    25184303.140
     -3379.424       -2633.321          41.650          41.700    98828421.094 6
  25184304.320       -2523.521          41.100


 122179590.606 7  95204863.02747  23250011.400                    23250013.540
     -1256.079        -978.767          46.650          42.300    91238009.371 8
  23250019.220        -938.021          48.100


 123729547.319 7  96412614.30247  23544954.740                    23544955.640
      2990.002        2329.870          43.950          42.850



 134461713.630 6 104775354.13345  25587214.000                    25587211.740
      3881.046        3024.195          39.550          35.900



 110695989.235 8  86256591.42248  21064750.780                    21064750.020
     -1166.254        -908.772          49.200          49.200



 124874098.253 7  97304479.48646  23762757.220                    23762757.300
        40.554          31.600          45.550          39.700



 135148974.400 6 105310851.69846  25718019.700                    25718028.800
     -3848.588       -2998.901          37.850          37.550   100922896.330 6
  25718030.880       -2874.052          38.150


 119269751.336 8  92937496.19548  22696276.600                    22696280.420
     -1006.378        -784.195          49.800          49.900    89065107.158 8
  22696282.640        -751.595          50.100


 23  9  2  8 47 30.0000000  0 11G02G03G08G10G14G17G19G21G22G27G32
 109746747.537 8  85516931.62348  20884115.700                    20884113.060
      -449.279        -350.090          51.400          51.050



 113223739.485 8  88226322.36748  21545757.600                    21545762.580
      2599.437        2025.536          48.550          48.450    84550217.181 8
  21545762.780        1941.199          52.850


 119150000.594 7  92844144.60247  22673504.540                    22673509.260
     -3290.265       -2563.848          46.150          46.200    88975633.372 8
  22673510.220       -2457.064          49.600


 132445586.529 6 103204334.44046  25203585.600                    25203596.700
     -3379.605       -2633.464          41.300          41.200    98904132.073 6
  25203597.720       -2523.771          41.200


 122217525.136 7  95234422.31946  23257230.180                    23257232.260
     -1272.858        -991.841          46.650          41.950    91266336.994 8
  23257238.060        -950.553          48.050


 123639947.377 7  96342796.20647  23527904.520                    23527905.420
      2982.982        2324.402          44.250          42.450



 134345298.373 6 104684641.04846  25565060.700                    25565058.780
      3880.225        3023.563          38.050          37.250



 110731104.228 8  86283953.68948  21071432.900                    21071432.000
     -1174.779        -915.414          49.350          49.150



 124873135.891 7  97303729.57346  23762574.280                    23762574.560
        23.490          18.304          45.700          40.350



 135264418.196 6 105400807.81446  25739987.920                    25739997.180
     -3847.813       -2998.298          37.050          38.150   101009104.255 6
  25739998.640       -2873.206          37.650


 119300217.494 8  92961235.94848  22702074.120                    22702078.080
     -1024.604        -798.396          49.550          49.150    89087857.733 8
  22702080.140        -765.141          49.750


 23  9  2  8 48  0.0000000  0 11G02G03G08G10G14G17G19G21G22G27G32
 109760379.583 8  85527553.94948  20886709.780                    20886707.100
      -459.511        -358.062          51.350          50.850



 113145942.292 8  88165701.19548  21530953.380                    21530958.100
      2587.205        2016.005          48.700          48.850    84492121.906 8
  21530958.700        1931.881          53.050


 119248846.004 7  92921166.84347  22692314.340                    22692318.760
     -3299.317       -2570.901          46.350          46.250    89049446.314 8
  22692319.980       -2463.735          49.550


 132546991.243 6 103283350.96646  25222882.360                    25222893.320
     -3380.388       -2634.072          40.300          40.250    98979856.210 6
  25222894.340       -2524.421          40.750


 122255971.178 7  95264380.18046  23264546.280                    23264548.100
     -1289.937       -1005.149          46.300          41.300    91295046.597 8
  23264554.160        -963.365          48.200


 123550562.605 7  96273145.74147  23510895.240                    23510896.100
      2975.866        2318.856          44.600          42.950



 134228919.395 6 104593956.22945  25542914.820                    25542913.440
      3878.660        3022.334          37.350          34.300



 110766481.103 8  86311520.02048  21078164.820                    21078163.760
     -1183.653        -922.329          49.100          48.700



 124872693.065 7  97303384.51046  23762490.280                    23762490.540
         6.120           4.771          45.800          39.650



 135379842.270 6 105490748.60446  25761952.440                    25761961.780
     -3847.043       -2997.695          38.200          38.900   101095297.495 6
  25761962.920       -2872.642          39.250


 119331236.633 8  92985406.59748  22707976.980                    22707980.960
     -1043.233        -812.913          49.800          49.900    89111021.246 8
  22707982.780        -779.041          49.800


 23  9  2  8 48 30.0000000  0 11G02G03G08G10G14G17G19G21G22G27G32
 109774320.461 8  85538416.91848  20889362.600                    20889360.080
      -470.487        -366.615          50.600          50.500



 113068512.716 8  88105366.48648  21516219.100                    21516223.660
      2574.273        2005.930          48.700          48.650    84434301.148 8
  21516224.620        1922.348          52.800


 119347948.650 7  92998389.50247  22711173.020                    22711177.560
     -3308.353       -2577.943          46.150          46.100    89123451.317 8
  22711178.940       -2470.442          49.250


 132648409.350 6 103362377.92046  25242181.640                    25242192.580
     -3381.321       -2634.802          39.750          39.000    99055590.351 6
  25242193.380       -2525.060          40.850


 122294924.462 7  95294733.29846  23271958.880                    23271960.320
     -1307.453       -1018.798          46.100          41.350    91324134.966 7
  23271966.700        -976.376          47.650


 123461392.778 7  96203662.75747  23493926.860                    23493927.720
      2968.226        2312.903          44.650          43.050



 134112575.259 5 104503298.45445  25520775.000                    25520773.120
      3876.646        3020.765          35.300          35.950



 110802117.309 8  86339288.43048  21084946.160                    21084945.040
     -1192.834        -929.483          49.100          48.850



 124872767.576 7  97303442.56446  23762504.620                    23762504.900
       -11.740          -9.146          45.800          39.950



 135495242.342 6 105580670.70346  25783912.480                    25783921.700
     -3847.146       -2997.775          37.100          37.150   101181472.806 6
  25783922.640       -2872.586          38.500


 119362805.347 8  93010005.48548  22713984.300                    22713988.260
     -1062.047        -827.572          49.500          49.650    89134595.147 8
  22713989.740        -793.090          48.750


 23  9  2  8 49  0.0000000  0 11G02G03G08G10G14G17G19G21G22G27G32
 109788573.168 8  85549522.87048  20892074.740                    20892072.520
      -479.887        -373.939          50.650          50.650



 112991454.420 8  88045321.09048  21501555.420                    21501559.880
      2562.780        1996.973          49.050          49.200    84376757.651 8
  21501561.080        1913.690          52.900


 119447309.470 7  93075813.36147  22730080.880                    22730085.260
     -3316.027       -2583.923          46.000          45.900    89197649.151 8
  22730086.740       -2476.219          48.800


 132749842.207 6 103441416.37846  25261483.760                    25261494.600
     -3380.790       -2634.384          39.100          39.850    99131335.512 6
  25261495.420       -2524.808          40.850


 122334385.627 7  95325482.16246  23279468.200                    23279469.140
     -1323.605       -1031.385          46.050          40.900    91353602.590 7
  23279475.900        -988.336          47.500


 123372442.768 7  96134351.04047  23477000.260                    23477001.160
      2961.559        2307.708          44.600          43.250



 133996271.947 5 104412672.59645  25498643.020                    25498641.560
      3876.323        3020.500          35.000          31.750



 110838015.010 8  86367260.59848  21091777.300                    21091776.200
     -1200.638        -935.564          49.250          49.200



 124873361.287 7  97303905.20246  23762617.740                    23762617.860
       -28.061         -21.864          45.900          40.900



 135610619.208 6 105670574.72446  25805868.120                    25805877.000
     -3845.104       -2996.185          38.550          38.850   101267630.843 6
  25805877.820       -2871.462          38.900


 119394925.057 8  93035033.72348  22720096.620                    22720100.640
     -1079.392        -841.087          49.450          49.500    89158580.528 8
  22720101.380        -806.155          48.400


 23  9  2  8 49 30.0000000  0 11G02G03G08G10G14G17G19G21G22G27G32
 109803135.620 8  85560870.19548  20894845.860                    20894843.840
      -490.478        -382.191          51.350          50.800



 112914766.111 8  87985564.00148  21486962.260                    21486966.360
      2550.315        1987.261          49.400          49.500    84319490.446 8
  21486967.820        1904.377          53.100


 119546923.849 7  93153434.76847  22749036.900                    22749041.520
     -3324.608       -2590.610          46.050          45.950    89272036.298 8
  22749042.920       -2482.649          49.550


 132851285.974 6 103520463.32746  25280787.880                    25280798.860
     -3381.458       -2634.906          40.000          40.500    99207088.805 7
  25280799.820       -2525.197          42.200


 122374350.235 7  95356623.33546  23287073.180                    23287073.740
     -1340.443       -1044.505          45.850          39.250    91383446.192 7
  23287080.720       -1000.974          47.550


 123283712.325 7  96065210.42147  23460115.400                    23460116.440
      2954.164        2301.945          44.600          43.800



 133880008.551 6 104322077.79445  25476518.860                    25476517.560
      3874.966        3019.450          38.350          34.900



 110874171.759 8  86395434.62248  21098657.740                    21098656.840
     -1209.429        -942.414          49.150          49.200



 124874471.440 7  97304770.22846  23762829.020                    23762828.760
       -45.502         -35.456          45.650          39.250



 135725968.579 6 105760457.29746  25827818.500                    25827827.080
     -3844.430       -2995.662          38.300          37.950   101353768.292 6
  25827828.240       -2870.780          40.250


 119427592.301 8  93060488.60948  22726313.020                    22726316.940
     -1097.910        -855.519          49.100          49.300    89182974.748 8
  22726317.560        -819.791          48.650


 23  9  2  8 50  0.0000000  0 11G02G03G08G10G14G17G19G21G22G27G32
 109818009.018 8  85572459.80848  20897676.200                    20897674.220
      -500.576        -390.061          50.550          50.600



 112838450.182 8  87926097.07048  21472439.940                    21472443.760
      2537.933        1977.611          49.500          49.550    84262501.308 8
  21472445.400        1895.200          53.300


 119646790.357 7  93231252.66447  22768040.920                    22768045.520
     -3332.792       -2596.985          46.150          46.300    89346611.743 8
  22768046.980       -2488.687          49.350


 132952740.761 6 103599518.84646  25300094.140                    25300105.240
     -3381.665       -2635.070          40.000          40.000    99282850.291 7
  25300106.440       -2525.283          43.100


 122414817.584 7  95388156.24446  23294773.860                    23294774.260
     -1356.968       -1057.380          45.700          39.600    91413665.211 7
  23294781.200       -1013.278          47.700


 123195204.513 7  95996243.27047  23443273.040                    23443274.020
      2946.847        2296.242          44.350          43.700



 133763788.429 6 104231516.55746  25454402.940                    25454401.640
      3873.550        3018.353          38.000          36.750



 110910588.498 8  86423811.23048  21105587.660                    21105586.980
     -1217.792        -948.932          49.300          49.300



 124876099.008 7  97306038.42446  23763138.580                    23763138.200
       -62.366         -48.597          45.650          40.550



 135841290.119 6 105850318.21646  25849763.460                    25849772.080
     -3843.214       -2994.713          39.000          38.900   101439885.029 6
  25849773.760       -2870.087          40.900


 119460807.071 8  93086370.14348  22732633.700                    22732637.740
     -1115.938        -869.566          49.450          49.400    89207777.862 8
  22732637.940        -833.359          48.700


 23  9  2  8 50 30.0000000  0 11G02G03G08G10G14G17G19G21G22G27G32
 109833192.781 8  85584291.25448  20900565.520                    20900563.620
      -511.244        -398.374          50.350          50.300



 112762506.664 8  87866920.32348  21457988.460                    21457991.920
      2525.415        1967.857          49.750          49.800    84205790.263 8
  21457993.560        1885.806          52.900


 119746905.753 7  93309264.47747  22787092.360                    22787096.980
     -3341.297       -2603.615          45.900          46.200    89421373.038 8
  22787098.360       -2495.080          49.200


 133054203.788 6 103678580.76246  25319401.780                    25319413.220
     -3381.798       -2635.172          40.350          39.950    99358617.965 7
  25319414.640       -2525.615          43.500


 122455784.579 7  95420078.49246  23302569.500                    23302570.020
     -1373.805       -1070.499          45.350          40.050    91444257.334 7
  23302576.860       -1025.851          47.050


 123106920.827 7  95927450.77347  23426473.300                    23426474.220
      2939.041        2290.160          45.350          44.050



 133647612.461 5 104140989.78445  25432295.620                    25432293.980
      3871.729        3016.932          35.550          34.600



 110947264.368 8  86452389.76748  21112566.980                    21112566.260
     -1226.765        -955.922          49.250          49.400



 124878242.450 7  97307708.59246  23763546.280                    23763545.780
       -79.933         -62.288          45.350          39.800



 135956580.700 6 105940155.04845  25871702.580                    25871711.320
     -3842.391       -2994.071          36.500          35.350   101525978.652 6
  25871713.300       -2869.313          38.200


 119494567.135 8  93112676.56748  22739058.020                    22739062.260
     -1134.188        -883.786          49.400          49.250    89232988.167 8
  22739062.440        -847.086          48.400


 23  9  2  8 51  0.0000000  0 11G02G03G08G10G14G17G19G21G22G27G32
 109848689.626 8  85596366.67748  20903514.400                    20903512.600
      -521.335        -406.236          50.300          50.650



 112686939.099 8  87808036.52648  21443608.420                    21443611.600
      2513.142        1958.293          49.200          49.150    84149359.962 8
  21443613.260        1876.609          52.700


 119847271.048 7  93387471.03247  22806191.360                    22806195.880
     -3349.261       -2609.818          45.800          46.100    89496320.949 8
  22806197.360       -2501.024          49.150


 133155676.360 6 103757650.14846  25338711.440                    25338723.020
     -3381.740       -2635.128          40.500          40.650    99434392.747 7
  25338724.760       -2525.586          43.500


 122497251.628 7  95452390.38246  23310460.360                    23310461.200
     -1390.078       -1083.182          45.200          41.300    91475222.881 7
  23310467.700       -1038.069          47.150


 123018866.225 7  95858836.74047  23409717.260                    23409718.000
      2931.786        2284.506          45.200          44.150



 133531485.676 6 104050501.28046  25410197.600                    25410195.400
      3870.938        3016.313          37.950          36.100



 110984201.400 8  86481171.81648  21119596.080                    21119595.240
     -1235.257        -962.540          49.700          49.650



 124880903.469 7  97309782.08646  23764052.520                    23764052.080
       -96.805         -75.433          45.800          38.850



 136071841.027 5 106029968.36045  25893635.780                    25893644.780
     -3841.334       -2993.242          35.350          33.350   101612049.752 6
  25893646.620       -2868.398          36.550


 119528873.785 8  93139408.92648  22745586.440                    22745590.820
     -1152.166        -897.795          48.300          48.300    89258606.639 8
  22745590.980        -860.453          48.250


 23  9  2  8 51 30.0000000  0 11G02G03G08G10G14G17G19G21G22G27G32
 109864498.013 8  85608684.85548  20906522.600                    20906520.840
      -531.787        -414.381          50.300          50.250



 112611746.691 8  87749445.05848  21429299.620                    21429302.660
      2500.397        1948.362          48.750          48.400    84093209.808 8
  21429304.340        1867.281          52.200


 119947881.292 7  93465868.45647  22825337.000                    22825341.540
     -3357.333       -2616.109          45.650          45.550    89571451.790 8
  22825342.900       -2507.176          48.700


 133257155.239 6 103836724.43546  25358022.440                    25358033.940
     -3382.547       -2635.756          40.700          40.350    99510172.215 7
  25358036.100       -2525.815          43.500


 122539214.770 7  95485088.84846  23318445.680                    23318446.800
     -1406.561       -1096.025          45.450          41.400    91506558.884 7
  23318453.040       -1050.458          46.450


 122931040.917 7  95790401.39247  23393004.760                    23393005.400
      2923.934        2278.389          45.900          43.700



 133415408.356 6 103960051.24645  25388108.800                    25388107.020
      3868.637        3014.521          37.700          35.900



 111021397.645 8  86510155.84648  21126674.460                    21126673.580
     -1243.871        -969.252          49.950          49.400



 124884080.432 7  97312257.60346  23764656.900                    23764656.600
      -114.044         -88.869          45.800          39.850



 136187067.383 5 106119755.16145  25915562.520                    25915571.620
     -3840.209       -2992.370          33.550          32.750   101698095.449 5
  25915573.200       -2867.631          35.750


 119563723.911 8  93166564.75248  22752218.200                    22752222.940
     -1170.258        -911.893          49.100          49.400    89284630.962 7
  22752222.900        -873.966          47.850


 23  9  2  8 52  0.0000000  0 11G02G03G08G10G14G17G19G21G22G27G32
 109880615.580 8  85621243.94348  20909589.700                    20909587.880
      -542.743        -422.919          50.000          50.000



 112536928.480 8  87691145.17948  21415061.960                    21415064.920
      2487.229        1938.103          48.450          48.450    84037339.098 8
  21415066.400        1857.339          52.350


 120048733.059 7  93544454.08847  22844528.580                    22844532.880
     -3366.182       -2623.003          45.700          45.350    89646762.968 8
  22844534.580       -2513.667          49.000


 133358636.684 6 103915800.73647  25377333.900                    25377345.300
     -3383.287       -2636.333          41.900          42.200    99585953.636 7
  25377347.820       -2526.423          44.750


 122581669.879 7  95518170.65746  23326524.740                    23326526.120
     -1423.800       -1109.458          45.900          41.900    91538262.258 7
  23326531.940       -1063.248          46.550


 122843444.901 7  95722144.70847  23376335.900                    23376336.440
      2915.712        2271.982          45.550          43.500



 133299380.276 6 103869639.61646  25366029.520                    25366027.400
      3866.726        3013.029          40.700          40.000



 111058850.275 8  86539339.64048  21133801.580                    21133800.560
     -1253.077        -976.427          50.000          49.350



 124887770.447 7  97315132.90646  23765359.080                    23765359.120
      -132.034        -102.886          45.200          40.200



 136302256.255 5 106209512.73245  25937481.980                    25937491.160
     -3839.711       -2991.982          35.300          35.000   101784113.142 6
  25937492.860       -2867.117          40.500


 119599114.208 8  93194141.51648  22758952.840                    22758957.600
     -1189.204        -926.656          48.450          48.400    89311058.647 8
  22758957.760        -887.954          48.100


 23  9  2  8 52 30.0000000  0 12G02G03G04G08G10G14G17G19G21G22G27G32
 109897048.549 8  85634048.80748  20912716.900                    20912714.880
      -552.909        -430.840          50.500          50.350



 112462491.308 8  87633142.21148  21400896.860                    21400899.860
      2474.960        1928.541          48.550          48.450    83981752.937 8
  21400901.220        1848.173          52.050


 135435689.217 5                  25772554.760
      3750.294                          31.550                   101137088.660 5
  25772567.400        2799.584          34.800


 120149828.974 7  93623229.94847  22863766.600                    22863771.160
     -3373.970       -2629.072          45.900          46.000    89722256.469 8
  22863772.580       -2519.438          48.850


 133460125.308 6 103994882.62546  25396646.900                    25396658.040
     -3383.143       -2636.221          41.250          40.400    99661740.378 7
  25396660.600       -2526.186          43.700


 122624620.632 7  95551638.67847  23334698.140                    23334699.820
     -1439.919       -1122.019          45.700          42.550    91570335.774 7
  23334705.160       -1075.257          46.200


 122756086.064 7  95654072.84347  23359712.040                    23359712.680
      2908.191        2266.121          45.250          43.150



 133183409.116 6 103779272.35646  25343961.100                    25343959.020
      3864.566        3011.350          38.750          37.100



 111096564.739 8  86568727.45848  21140978.500                    21140977.280
     -1261.430        -982.935          49.850          49.400



 124891978.653 7  97318411.98946  23766159.960                    23766160.000
      -148.752        -115.913          45.650          38.850



 136417411.143 5 106299243.78945  25959395.120                    25959404.200
     -3837.755       -2990.460          33.950          33.750   101870105.358 6
  25959406.500       -2866.030          40.300


 119635049.133 8  93222142.66048  22765791.120                    22765796.140
     -1206.838        -940.396          49.150          49.200    89337893.068 7
  22765795.960        -901.144          47.900


 23  9  2  8 53  0.0000000  0 13G02G03G04G08G10G14G17G19G21G22G27G28
                                G32
 109913792.705 8  85647096.15448  20915903.320                    20915901.160
      -563.315        -438.948          50.650          50.350



 112388431.730 8  87575433.49548  21386803.660                    21386806.760
      2462.285        1918.663          49.250          49.600    83926448.741 8
  21386807.800        1838.740          52.050



                                                                 101053055.567 6
  25751153.780        2802.444          37.350


 120251162.916 7  93702191.29147  22883049.880                    22883054.360
     -3381.736       -2635.126          45.000          45.300    89797927.721 8
  22883056.180       -2525.372          48.600


 133561615.348 7 104073965.61847  25415959.960                    25415971.040
     -3382.978       -2636.092          43.150          42.650    99737528.232 7
  25415973.560       -2526.373          43.950


 122668060.423 7  95585487.75947  23342964.620                    23342966.420
     -1456.203       -1134.708          46.050          42.450    91602774.466 7
  23342971.340       -1087.332          45.700


 122668961.961 7  95586183.89747  23343132.720                    23343133.600
      2900.138        2259.847          44.300          43.500



 133067492.950 6 103688947.88646  25321903.140                    25321901.060
      3862.707        3009.895          37.850          36.150



 111134536.766 8  86598315.98348  21148204.280                    21148203.100
     -1270.077        -989.673          50.200          48.950



 124896700.103 7  97322090.99446  23767058.560                    23767058.420
      -166.027        -129.373          45.550          40.000



 136532526.263 5 106388943.82945  25981300.820                    25981310.120
     -3836.204       -2989.250          33.850          34.700   101956067.948 6
  25981312.700       -2864.926          38.100


                                  25755061.380                    25755070.020
      2740.229        2135.256          34.100          32.500   101068446.642 6
  25755080.740        2046.238          38.000


 119671522.960 8  93250563.71448  22772731.900                    22772737.020
     -1224.694        -954.311          48.250          48.200    89365129.899 7
  22772736.900        -914.574          47.750


 23  9  2  8 53 30.0000000  0 13G02G03G04G08G10G14G17G19G21G22G27G28
                                G32
 109930850.587 8  85660387.95748  20919149.460                    20919147.240
      -573.813        -447.129          51.250          50.850



 112314752.914 8  87518021.46148  21372783.060                    21372786.220
      2449.405        1908.629          49.400          49.450    83871428.885 8
  21372787.060        1829.126          52.150



                                                                 100968949.982 5
  25729720.080        2804.820          33.950


 120352734.572 7  93781337.87047  22902378.560                    22902383.160
     -3389.851       -2641.447          46.000          45.700    89873776.482 8
  22902384.760       -2531.293          48.700


 133663107.433 6 104153050.21246  25435273.400                    25435284.400
     -3383.154       -2636.229          41.650          41.750    99813317.605 7
  25435286.800       -2526.396          42.650


 122711989.270 7  95619717.94147  23351324.140                    23351325.980
     -1472.448       -1147.364          45.800          42.550    91635578.380 7
  23351330.760       -1099.552          45.950


 122582077.396 7  95518481.59247  23326598.980                    23326600.200
      2892.086        2253.570          44.150          43.550



 132951636.368 6 103598669.77845  25299856.560                    25299854.480
      3860.664        3008.304          37.900          35.550



 111172768.177 8  86628106.62548  21155479.460                    21155478.420
     -1278.871        -996.525          49.850          49.700



 124901936.496 7  97326171.24946  23768055.100                    23768054.940
      -183.223        -142.772          45.600          39.600



 136647601.673 5 106478613.03345  26003198.840                    26003208.540
     -3835.229       -2988.487          34.450          34.900   102042000.894 6
  26003211.220       -2863.967          38.350


 135261610.856 5 105398700.19645  25739428.660                    25739439.900
      2736.185        2132.096          35.750          33.650   101007099.533 6
  25739447.760        2043.198          39.900


 119708536.516 8  93279405.35848  22779775.500                    22779780.740
     -1242.965        -968.547          48.800          48.950    89392769.786 7
  22779780.280        -928.162          47.600


 23  9  2  8 54  0.0000000  0 13G02G03G04G08G10G14G17G19G21G22G27G28
                                G32
 109948216.395 8  85673919.70948  20922454.200                    20922451.940
      -584.240        -455.253          51.050          50.700



 112241450.199 8  87460902.48648  21358834.080                    21358837.260
      2436.715        1898.739          49.150          49.200    83816689.869 8
  21358837.980        1819.734          52.650



                                                                 100884763.102 5
  25708266.760        2807.273          33.900


 120454535.954 7  93860663.43247  22921750.900                    22921755.580
     -3397.447       -2647.367          45.900          45.900    89949796.789 8
  22921757.340       -2537.093          48.900


 133764594.788 7 104232131.12247  25454585.760                    25454596.740
     -3383.100       -2636.186          43.000          43.100    99889103.455 7
  25454599.120       -2526.386          43.300


 122756399.272 7  95654323.04047  23359775.200                    23359777.080
     -1488.574       -1159.932          45.200          42.400    91668741.592 7
  23359781.700       -1111.694          45.950


 122495428.493 7  95450962.96647  23310110.060                    23310111.660
      2883.853        2247.159          44.050          43.800



 132835835.757 6 103508435.36046  25277820.460                    25277818.880
      3858.691        3006.759          38.500          37.650



 111211253.143 8  86658094.83748  21162802.900                    21162802.040
     -1287.244       -1003.051          49.450          49.350



 124907681.582 7  97330647.86646  23769148.400                    23769148.260
      -200.315        -156.093          45.750          39.350



 136762630.138 6 106568245.55246  26025087.900                    26025098.000
     -3833.685       -2987.284          37.300          37.800   102127898.734 6
  26025100.620       -2862.959          40.250


 135179579.981 5 105334780.15045  25723818.760                    25723830.160
      2731.711        2128.623          35.700          32.350   100945842.744 6
  25723837.920        2040.121          40.400


 119746082.741 7  93308662.03347  22786920.240                    22786925.780
     -1260.779        -982.430          47.750          47.850    89420807.417 7
  22786925.020        -941.453          47.850


 23  9  2  8 54 30.0000000  0 13G02G03G04G08G10G14G17G19G21G22G27G28
                                G32
 109965899.135 8  85687698.43648  20925819.240                    20925816.920
      -594.381        -463.155          51.100          50.800



 112168533.418 8  87404084.25748  21344958.560                    21344961.880
      2424.376        1889.126          49.250          49.250    83762239.072 8
  21344962.420        1810.298          52.750


 134984966.214 6 105183110.78945  25686784.540                    25686789.440
      3763.308        2932.440          37.850          33.700   100800506.780 6
  25686795.980        2809.868          40.000


 120556573.519 7  93940173.05547  22941168.280                    22941172.880
     -3404.899       -2653.176          45.900          46.200    90025993.470 8
  22941174.700       -2542.707          48.750


 133866084.751 6 104311214.08246  25473898.700                    25473909.660
     -3382.669       -2635.853          41.350          40.700    99964891.270 7
  25473911.980       -2526.068          42.500


 122801297.097 7  95689308.26647  23368318.940                    23368320.900
     -1504.324       -1172.204          44.200          42.400    91702269.077 7
  23368325.420       -1123.519          45.950


 122409026.435 7  95383636.66247  23293668.200                    23293670.020
      2876.171        2241.170          42.800          42.350



 132720102.183 6 103418253.15945  25255797.320                    25255795.800
      3856.926        3005.386          36.600          35.100



 111250000.082 8  86688287.18848  21170176.140                    21170175.360
     -1295.688       -1009.631          49.400          49.300



 124913943.327 7  97335527.06446  23770339.880                    23770339.900
      -216.966        -169.067          44.750          39.050



 136877618.877 6 106657847.09746  26046969.540                    26046979.660
     -3831.819       -2985.845          36.750          37.400   102213766.860 6
  26046982.480       -2861.550          41.300


 135097681.801 6 105270963.36445  25708234.000                    25708245.200
      2727.971        2125.692          37.150          33.300   100884685.032 6
  25708253.060        2037.157          39.500


 119784169.073 8  93338339.61148  22794167.960                    22794173.600
     -1278.460        -996.206          48.400          48.600    89449248.398 7
  22794172.720        -954.562          47.750


 23  9  2  8 55  0.0000000  0 13G02G03G04G08G10G14G17G19G21G22G27G28
                                G32
 109983894.518 8  85701720.75948  20929243.700                    20929241.400
      -604.979        -471.413          50.850          50.850



 112095998.959 8  87347563.94448  21331155.760                    21331159.040
      2411.457        1879.061          49.550          49.100    83708073.784 8
  21331159.780        1800.706          53.000


 134872040.484 6 105095116.44945  25665295.440                    25665300.880
      3765.989        2934.532          38.400          31.400   100716178.773 6
  25665306.640        2812.077          37.250


 120658840.695 7  94019861.58047  22960629.260                    22960634.180
     -3412.671       -2659.229          46.550          46.500    90102361.610 8
  22960635.760       -2548.536          48.900


 133967571.179 7 104390294.34147  25493210.920                    25493222.000
     -3382.715       -2635.885          42.200          42.000   100040676.474 6
  25493224.200       -2526.091          41.800


 122846675.921 7  95724668.29246  23376954.020                    23376956.220
     -1520.756       -1185.009          44.600          41.350    91736155.729 7
  23376960.680       -1135.550          46.000


 122322868.649 7  95316500.69547  23277272.780                    23277274.740
      2867.793        2234.643          44.250          44.250



 132604433.058 6 103328121.16745  25233786.360                    25233784.440
      3854.692        3003.647          37.900          35.900



 111289004.419 8  86718680.10248  21177598.480                    21177597.680
     -1304.384       -1016.405          50.050          49.100



 124920716.866 7  97340805.08446  23771628.640                    23771628.940
      -234.417        -182.663          44.350          40.000



                                  26068842.380                    26068848.900
     -3830.689       -2984.952          32.100          31.650   102299601.283 5
  26068855.680       -2860.610          34.200


 135015914.976 6 105207249.01645  25692674.040                    25692685.520
      2723.513        2122.223          36.000          33.500   100823625.482 6
  25692693.360        2033.547          40.300


 119822789.566 8  93368433.39148  22801517.240                    22801522.980
     -1296.189       -1010.021          48.300          48.550    89478088.263 8
  22801522.020        -967.937          48.000


 23  9  2  8 55 30.0000000  0 13G02G03G04G08G10G14G17G19G21G22G27G28
                                G32
 110002202.991 8  85715987.05748  20932727.720                    20932725.460
      -615.251        -479.417          50.800          50.850



 112023848.011 8  87291342.45948  21317425.920                    21317429.140
      2398.853        1869.237          49.600          49.450    83654194.865 8
  21317430.000        1791.353          53.050


 134759020.841 6 105007048.93546  25643788.480                    25643794.400
      3768.712        2936.644          38.200          36.000   100631780.674 6
  25643799.460        2814.650          38.700


 120761335.264 7  94099727.31247  22980133.620                    22980138.420
     -3420.203       -2665.101          46.200          46.300    90178899.542 8
  22980140.040       -2553.905          48.300


 134069053.373 6 104469371.32346  25512522.380                    25512533.700
     -3382.507       -2635.721          41.250          41.950   100116458.549 6
  25512535.620       -2525.829          41.500


 122892533.714 7  95760401.54346  23385680.340                    23385682.640
     -1536.064       -1196.938          43.800          41.850    91770400.072 7
  23385687.180       -1147.280          45.600


 122236957.748 7  95249557.10447  23260924.460                    23260926.500
      2859.813        2228.426          44.100          44.300



 132488831.109 6 103238041.47446  25211788.200                    25211786.520
      3852.350        3001.821          37.950          36.650



 111328266.071 8  86749273.53348  21185069.840                    21185068.900
     -1312.951       -1023.081          49.750          49.500



 124928001.543 7  97346481.40346  23773014.780                    23773015.340
      -251.120        -195.679          44.350          39.850



 137107586.591 5 106837107.93945  26090706.520                    26090717.280
     -3828.760       -2983.445          34.200          33.850   102385400.374 6
  26090719.860       -2859.308          40.150


 134934282.551 5 105143639.38145  25677140.000                    25677151.640
      2718.513        2118.324          35.650          32.900   100762666.191 6
  25677159.280        2030.427          39.100


 119861942.983 8  93398942.46148  22808968.020                    22808973.520
     -1313.700       -1023.666          48.550          48.600    89507326.098 8
  22808973.440        -981.069          48.350


 23  9  2  8 56  0.0000000  0 12G02G03G04G08G10G14G17G19G21G22G28G32
 110020819.745 8  85730493.57148  20936270.380                    20936268.200
      -625.880        -487.700          50.550          50.550



 111952076.599 8  87235416.73548  21303768.280                    21303771.500
      2385.891        1859.137          49.700          49.750    83600599.389 8
  21303772.640        1781.612          53.150


 134645904.300 6 104918905.99446  25622263.680                    25622268.820
      3771.955        2939.183          37.550          36.150   100547310.296 6
  25622274.120        2816.574          38.850


 120864050.017 7  94179764.59147  22999679.860                    22999684.820
     -3427.709       -2670.948          45.650          45.700    90255601.915 8
  22999686.280       -2559.666          48.750


 134170524.924 6 104548439.97946  25531831.860                    25531843.420
     -3382.592       -2635.785          40.900          40.250   100192232.671 6
  25531845.160       -2525.759          41.100


 122938863.308 7  95796502.42546  23394496.560                    23394498.960
     -1552.497       -1209.742          43.950          41.000    91804996.713 7
  23394503.600       -1159.267          45.550


 122151290.680 7  95182803.52447  23244622.720                    23244624.560
      2851.244        2221.749          44.800          44.550



 132373293.841 6 103148012.28746  25189802.420                    25189800.860
      3849.875        2999.900          38.500          37.250



 111367779.285 8  86780062.97948  21192589.080                    21192587.960
     -1321.448       -1029.702          49.600          49.350



 124935791.679 7  97352551.58346  23774497.160                    23774498.000
      -268.288        -209.058          44.650          39.750



 134852782.432 6 105080132.86445  25661630.940                    25661642.700
      2714.367        2115.104          37.950          32.200   100701805.846 6
  25661650.040        2026.771          39.200


 119901622.978 8  93429861.85048  22816518.900                    22816524.480
     -1331.718       -1037.705          48.750          48.800    89536957.147 8
  22816524.920        -994.464          48.000


 23  9  2  8 56 30.0000000  0 12G02G03G04G08G10G14G17G19G21G22G28G32
 110039754.607 8  85745247.95648  20939873.600                    20939871.640
      -636.414        -495.909          51.350          51.050



 111880695.335 8  87179795.00748  21290184.820                    21290187.880
      2372.936        1849.042          49.550          49.650    83547295.245 8
  21290189.460        1771.977          53.600


 134532703.190 6 104830697.00145  25600722.440                    25600727.720
      3774.469        2941.130          38.400          32.800   100462776.670 6
  25600733.040        2818.895          38.650


 120966992.607 7  94259979.42847  23019269.200                    23019274.380
     -3435.067       -2676.682          45.850          45.850    90332474.422 8
  23019275.840       -2565.189          48.550


 134271994.227 6 104627506.89746  25551140.960                    25551152.360
     -3382.252       -2635.523          38.950          38.300   100268005.164 6
  25551153.960       -2525.761          37.750


 122985672.055 7  95832976.69046  23403404.140                    23403406.300
     -1568.050       -1221.858          44.300          41.450    91839951.195 7
  23403411.220       -1171.040          45.550


 122065879.529 7  95116249.36147  23228369.760                    23228371.320
      2842.794        2215.163          45.450          44.600



 132257832.717 6 103058042.45745  25167831.300                    25167829.520
      3847.777        2998.260          37.900          34.650



 111407553.907 8  86811056.11948  21200158.100                    21200156.720
     -1330.094       -1036.439          50.600          49.000



 124944096.540 7  97359022.84646  23776077.540                    23776078.340
      -285.287        -222.303          45.200          39.100



 134771427.099 6 105016739.14645  25646149.540                    25646161.180
      2709.251        2111.106          39.400          35.600   100641053.562 6
  25646168.740        2023.334          41.700


 119941837.741 7  93461197.95747  22824171.560                    22824176.980
     -1349.216       -1051.339          47.800          47.550    89566987.568 8
  22824178.160       -1007.610          48.800


 23  9  2  8 57  0.0000000  0 12G02G03G04G08G10G14G17G19G21G22G28G32
 110059006.771 8  85760249.59548  20943537.180                    20943535.400
      -647.107        -504.242          50.750          50.750



 111809703.960 8  87124477.08148  21276675.520                    21276678.620
      2359.973        1838.941          49.400          49.000    83494282.256 8
  21276680.380        1762.188          53.600


 134419418.209 6 104742422.77545  25579165.320                    25579170.740
      3777.433        2943.448          39.850          33.850   100378180.406 6
  25579176.120        2820.848          39.100


 121070159.534 7  94340369.05747  23038901.320                    23038906.760
     -3442.638       -2682.581          45.750          45.550    90409514.464 8
  23038908.240       -2570.756          48.850


 134373458.683 6 104706570.07346  25570449.040                    25570460.360
     -3382.146       -2635.442          40.200          40.150   100343774.027 6
  25570461.780       -2525.532          38.150


 123032956.541 7  95869821.65646  23412402.420                    23412404.140
     -1583.900       -1234.211          44.600          40.700    91875260.944 7
  23412409.560       -1182.893          45.750


 121980725.350 7  95049895.44547  23212165.640                    23212166.960
      2834.185        2208.455          46.150          44.100



 132142449.156 6 102968133.06246  25145874.720                    25145872.760
      3844.773        2995.919          38.550          37.300



 111447588.523 8  86842251.85448  21207776.600                    21207775.120
     -1338.842       -1043.255          51.100          48.450



 124952914.092 7  97365893.63146  23777755.640                    23777756.520
      -302.402        -235.640          45.100          38.800



 134690218.012 6 104953459.43046  25630695.920                    25630707.480
      2704.509        2107.412          38.800          37.100   100580410.536 7
  25630714.940        2019.599          43.250


 119982584.679 7  93492948.71547  22831925.420                    22831930.780
     -1367.066       -1065.249          47.700          47.200    89597415.339 8
  22831932.720       -1020.854          48.700


 23  9  2  8 57 30.0000000  0 12G02G03G04G08G10G14G17G19G21G22G28G32
 110078572.477 8  85775495.55748  20947260.340                    20947258.660
      -657.197        -512.104          50.650          50.650



 111739099.957 8  87069461.01848  21263239.900                    21263243.020
      2347.023        1828.852          48.900          48.850    83441558.529 8
  21263244.940        1752.752          53.400


 134306047.837 6 104654082.00645  25557591.760                    25557597.680
      3780.573        2945.896          37.650          30.600   100293520.402 6
  25557603.200        2823.164          37.300


 121173544.351 7  94420928.48147  23058574.820                    23058580.400
     -3449.610       -2688.014          45.900          45.850    90486717.186 8
  23058582.220       -2575.971          48.850


 134474913.775 6 104785626.03446  25589755.380                    25589766.640
     -3381.279       -2634.763          39.800          39.500   100419536.014 6
  25589768.040       -2525.331          38.400


 123080710.919 7  95907032.78046  23421490.040                    23421491.420
     -1599.585       -1246.431          44.050          41.650    91910921.591 7
  23421497.280       -1194.326          45.750


 121895826.587 7  94983740.56847  23196010.060                    23196011.160
      2826.037        2202.105          45.950          44.200



 132027141.875 6 102878283.08145  25123932.760                    25123930.800
      3842.506        2994.153          39.050          35.600



 111487879.203 8  86873647.12348  21215443.860                    21215442.380
     -1347.146       -1049.727          50.600          49.600



 124962239.781 7  97373160.37546  23779530.380                    23779531.380
      -319.228        -248.749          44.900          40.000



 134609154.975 6 104890293.59746  25615270.060                    25615281.620
      2699.863        2103.797          40.500          37.350   100519876.648 7
  25615289.260        2016.023          44.350


 120023858.763 7  93525110.25747  22839779.620                    22839785.040
     -1384.364       -1078.728          46.550          46.450    89628236.813 8
  22839787.160       -1033.862          48.650


 23  9  2  8 58  0.0000000  0 12G02G03G04G08G10G14G17G19G21G22G28G32
 110098451.201 8  85790985.42748  20951043.120                    20951041.380
      -667.811        -520.373          50.600          50.650



 111668883.482 8  87014746.92648  21249878.000                    21249881.080
      2334.001        1818.704          48.900          48.950    83389124.209 8
  21249883.080        1742.924          53.500


 134192593.613 6 104565675.85545  25536002.180                    25536008.620
      3783.284        2948.014          38.300          32.550   100208797.831 6
  25536014.300        2825.208          39.400


 121277144.380 7  94501655.59247  23078289.200                    23078295.180
     -3456.801       -2693.618          44.800          44.900    90564080.656 8
  23078296.960       -2581.477          48.950


 134576357.340 6 104864672.94946  25609059.420                    25609070.580
     -3381.246       -2634.736          38.700          39.700   100495289.286 6
  25609071.980       -2524.952          37.550


 123128932.129 7  95944607.67847  23430666.360                    23430667.640
     -1615.181       -1258.583          43.600          42.100    91946930.853 7
  23430673.920       -1206.161          46.300


 121811184.674 7  94917785.84747  23179903.280                    23179904.140
      2817.125        2195.163          46.000          42.650



 131911912.440 6 102788493.74746  25102005.500                    25102003.440
      3839.397        2991.730          38.550          37.000



 111528424.933 8  86905241.11748  21223159.520                    21223158.180
     -1355.841       -1056.502          50.150          49.300



 124972072.341 7  97380822.07746  23781401.660                    23781402.660
      -336.135        -261.925          45.700          39.300



 134528239.807 6 104827242.97045  25599872.360                    25599884.080
      2694.712        2099.780          38.800          34.850   100459453.168 7
  25599891.520        2012.123          43.150


 120065657.786 7  93557680.81647  22847733.640                    22847739.020
     -1402.037       -1092.499          47.300          47.300    89659450.243 8
  22847741.620       -1046.997          49.000


 23  9  2  8 58 30.0000000  0 12G02G03G04G08G10G14G17G19G21G22G28G32
 110118647.335 8  85806722.63148  20954886.340                    20954884.560
      -678.341        -528.579          50.950          50.800



 111599059.465 8  86960338.65348  21236590.880                    21236594.000
      2321.161        1808.698          49.700          49.900    83336982.959 8
  21236595.740        1733.187          52.950


 134079061.436 6 104477208.95345  25514397.940                    25514404.760
      3785.781        2949.945          38.900          31.150   100124017.048 6
  25514410.180        2827.056          37.400


 121380961.620 7  94582551.96947  23098045.040                    23098051.020
     -3463.860       -2699.117          45.750          46.100    90641606.301 8
  23098053.280       -2586.825          49.250


 134677792.005 6 104943712.98046  25628361.700                    25628372.920
     -3380.476       -2634.135          37.200          37.350   100571035.983 5
  25628374.280       -2524.731          35.800


 123177621.843 7  95982547.62146  23439931.800                    23439933.240
     -1630.718       -1270.691          42.850          41.500    91983289.961 7
  23439939.600       -1217.714          46.400


 121726806.125 7  94852036.31847  23163846.640                    23163847.220
      2808.424        2188.382          45.550          43.350



 131796767.697 6 102698770.43646  25080094.340                    25080092.380
      3836.798        2989.709          38.850          36.350



 111569229.115 8  86937036.51848  21230924.360                    21230923.200
     -1364.330       -1063.115          50.150          49.800



 124982415.286 7  97388881.48746  23783369.980                    23783370.900
      -353.054        -275.108          45.800          38.800



 134447479.460 6 104764312.92646  25584504.160                    25584515.920
      2689.634        2095.823          39.800          38.600   100399145.247 7
  25584523.380        2008.438          43.850


 120107984.177 7  93590662.34847  22855788.240                    22855793.480
     -1419.493       -1106.102          46.700          46.850    89691057.544 8
  22855796.200       -1060.062          48.350


 23  9  2  8 59  0.0000000  0 12G02G03G04G08G10G14G17G19G21G22G28G32
 110139156.438 8  85822703.70148  20958789.160                    20958787.380
      -688.691        -536.645          50.850          50.700



 111529624.456 8  86906233.49848  21223377.800                    21223380.880
      2307.888        1798.356          49.700          49.850    83285132.181 8
  21223382.360        1723.550          52.800


 133965449.566 6 104388680.06445  25492778.380                    25492785.440
      3788.412        2951.997          37.750          32.950   100039176.766 6
  25492791.220        2829.159          38.250


 121484989.351 7  94663612.36247  23117840.980                    23117847.020
     -3470.939       -2704.635          44.800          44.850    90719289.123 8
  23117849.240       -2591.960          48.700


 134779212.637 6 105022741.98146  25647661.380                    25647672.860
     -3380.463       -2634.130          38.300          38.550   100646772.079 6
  25647674.120       -2524.253          36.850


 123226773.293 7  96020847.38946  23449284.840                    23449286.680
     -1646.020       -1282.614          42.650          41.300    92019993.883 7
  23449293.020       -1229.077          46.750


 121642688.641 7  94786490.22247  23147839.680                    23147839.980
      2799.635        2181.533          45.550          43.400



 131681705.027 6 102609111.05745  25058198.700                    25058196.820
      3834.428        2987.857          39.200          34.500



 111610287.613 8  86969030.08148  21238737.480                    21238736.680
     -1372.773       -1069.696          50.350          49.350



 124993263.308 7  97397334.46846  23785434.320                    23785435.000
      -369.787        -288.146          45.600          39.300



 134366872.579 6 104701502.52546  25569165.160                    25569176.660
      2684.417        2091.766          40.100          37.650   100338951.953 7
  25569184.380        2004.649          43.150


 120150832.055 7  93624050.21047  22863941.980                    22863947.100
     -1436.853       -1119.628          47.900          47.800    89723054.240 8
  22863949.960       -1072.878          48.750


 23  9  2  8 59 30.0000000  0 12G02G03G04G08G10G14G17G19G21G22G28G32
 110159984.729 8  85838933.48948  20962752.720                    20962750.940
      -699.817        -545.314          50.400          50.400



 111460585.224 8  86852436.74748  21210240.080                    21210243.160
      2294.813        1788.169          49.600          49.800    83233576.989 8
  21210244.340        1713.596          52.600


 133851766.088 6 104300095.34945  25471145.040                    25471152.320
      3790.436        2953.582          37.350          35.750    99954283.062 6
  25471158.460        2830.479          40.150


 121589230.881 7  94744839.35047  23137677.660                    23137683.720
     -3478.278       -2710.352          45.450          45.300    90797131.641 8
  23137685.920       -2597.475          49.100


 134880623.507 6 105101763.38346  25666959.320                    25666970.840
     -3380.022       -2633.785          38.600          38.800   100722500.901 6
  25666972.240       -2523.959          36.750


 123276390.029 7  96059509.72746  23458726.480                    23458728.780
     -1661.564       -1294.726          42.800          41.650    92057045.297 7
  23458734.940       -1240.978          46.800


 121558840.188 7  94721153.77647  23131883.820                    23131883.900
      2790.563        2174.464          45.350          42.850



 131566732.634 6 102519522.04845  25036320.360                    25036318.080
      3830.997        2985.190          39.400          34.900



 111651605.871 8  87001226.05948  21246600.040                    21246599.560
     -1381.648       -1076.611          50.100          49.400



 125004621.387 7  97406184.89346  23787595.580                    23787596.100
      -386.838        -301.432          44.550          39.200



 134286428.073 6 104638818.62546  25553857.060                    25553868.400
      2678.575        2087.205          39.050          38.300   100278879.916 7
  25553876.280        2000.354          43.850


 120194205.775 7  93657847.82047  22872195.940                    22872200.940
     -1454.532       -1133.404          47.300          47.100    89755443.606 8
  22872204.000       -1086.163          48.300


                            4  1
RINEX FILE SPLICE; other post-header comments skipped       COMMENT
 23  9  2  9  0  0.0000000  0 12G02G03G04G08G10G14G17G19G21G22G28G32
 110181125.513 8  85855406.76648  20966775.720                    20966774.000
      -709.874        -553.150          50.600          50.250



 111391935.945 8  86798943.84148  21197176.600                    21197179.780
      2281.799        1778.025          49.650          49.850    83182312.956 8
  21197180.520        1703.950          52.650


 133738006.216 6 104211451.18846  25449497.300                    25449504.840
      3793.059        2955.622          37.900          36.000    99869332.351 6
  25449511.620        2832.525          40.200


 121693677.314 7  94826226.01147  23157553.180                    23157559.220
     -3485.169       -2715.723          45.000          44.850    90875127.123 8
  23157561.680       -2602.412          48.800


 134982017.123 5 105180771.31145  25686254.080                    25686265.740
     -3379.329       -2633.246          31.150          31.150   100798429.854 5
  25686267.020       -2523.619          31.500


 123326462.932 7  96098527.52446  23468254.940                    23468257.540
     -1676.550       -1306.403          43.300          40.700    92094437.331 7
  23468263.460       -1252.037          47.150


 121475256.106 7  94656023.34147  23115978.240                    23115978.160
      2781.685        2167.547          45.650          42.600



 131451846.389 6 102430000.10245  25014458.320                    25014456.220
      3827.926        2982.792          39.850          35.150



 111693176.633 8  87033618.79748  21254510.720                    21254510.420
     -1389.879       -1083.025          50.200          49.700



 125016481.781 7  97415426.69946  23789852.300                    23789852.880
      -403.626        -314.518          43.950          38.700



 134206141.983 6 104576258.19346  25538578.940                    25538590.320
      2673.401        2083.177          39.300          37.750   100218926.186 7
  25538598.220        1996.411          44.650


 120238097.006 7  93692048.68147  22880548.260                    22880553.280
     -1471.588       -1146.695          47.600          47.650    89788219.433 7
  22880556.100       -1098.967          47.750


 23  9  2  9  0 30.0000000  0 11G02G03G04G08G14G17G19G21G22G28G32
 110202584.012 8  85872127.62748  20970859.200                    20970857.480
      -721.099        -561.896          50.550          50.650



 111323682.477 8  86745759.36648  21184188.420                    21184191.660
      2268.187        1767.420          49.950          49.700    83131344.513 8
  21184192.240        1693.763          52.700


 133624177.187 6 104122753.22145  25427836.400                    25427844.060
      3794.961        2957.111          37.500          34.950    99784330.097 6
  25427851.460        2833.918          41.650


 121798331.296 7  94907774.38647  23177468.360                    23177474.340
     -3492.171       -2721.179          44.950          44.850    90953277.636 8
  23177476.480       -2607.859          48.450


 123376994.641 7  96137902.82146  23477870.880                    23477873.760
     -1692.329       -1318.699          43.500          40.500    92132171.968 7
  23477879.380       -1263.804          47.300


 121391943.906 7  94591104.77247  23100124.400                    23100124.180
      2772.247        2160.193          45.600          44.200



 131337053.429 6 102340550.78845  24992613.980                    24992611.680
      3824.542        2980.154          39.900          34.000



 111735004.640 8  87066211.97548  21262470.280                    21262470.120
     -1398.942       -1090.087          49.200          49.200



 125028848.569 7  97425063.12246  23792205.480                    23792206.040
      -421.050        -328.093          44.400          38.950



 134126022.233 6 104513827.38146  25523332.500                    25523343.980
      2667.433        2078.526          39.550          39.050   100159096.683 7
  25523351.940        1991.971          45.100


 120282509.160 7  93726655.45648  22888999.680                    22889004.500
     -1489.448       -1160.613          47.950          48.000    89821384.248 7
  22889007.280       -1112.223          47.450


 23  9  2  9  1  0.0000000  0 11G02G03G04G08G14G17G19G21G22G28G32
 110224358.795 8  85889094.93148  20975002.800                    20975001.080
      -731.193        -569.763          50.550          50.400



 111255824.251 8  86692882.88648  21171275.440                    21171278.720
      2255.196        1757.298          50.550          50.550    83080671.219 8
  21171279.220        1684.123          52.800


 133510279.832 6 104034001.91946  25406162.620                    25406170.020
      3797.697        2959.242          40.900          37.300    99699276.791 6
  25406177.960        2835.839          41.750


 121903189.270 7  94989481.73147  23197422.180                    23197428.200
     -3498.654       -2726.229          44.900          44.500    91031580.452 8
  23197430.460       -2612.654          48.650


 123427981.176 7  96177632.50046  23487573.300                    23487576.420
     -1707.144       -1330.246          43.800          40.800    92170246.236 7
  23487581.780       -1274.759          47.300


 121308904.290 7  94526398.58647  23084322.520                    23084322.180
      2763.266        2153.195          45.800          43.850



 131222354.826 6 102251174.98345  24970787.540                    24970785.500
      3821.762        2977.989          39.450          35.800



 111777088.553 8  87099004.55548  21270478.400                    21270478.360
     -1407.118       -1096.458          49.400          48.850



 125041719.602 7  97435092.43346  23794654.800                    23794655.300
      -437.480        -340.895          44.250          39.850



 134046070.378 6 104451527.34946  25508118.120                    25508129.320
      2662.147        2074.408          38.750          37.150   100099392.485 7
  25508137.300        1987.980          44.800


 120327439.185 8  93761665.77748  22897549.740                    22897554.480
     -1506.480       -1173.884          48.300          48.200    89854935.799 7
  22897556.860       -1124.883          46.900


 23  9  2  9  1 30.0000000  0 11G02G03G04G08G14G17G19G21G22G28G32
 110246449.785 8  85906308.63648  20979206.580                    20979204.960
      -741.836        -578.056          50.900          50.400



 111188361.767 8  86640314.76148  21158437.800                    21158441.020
      2241.937        1746.966          50.600          50.700    83030293.441 8
  21158441.640        1674.211          52.700


 133396316.087 6 103945198.95245  25384476.180                    25384483.620
      3799.387        2960.560          39.650          34.750    99614173.905 6
  25384491.580        2837.327          41.000


 122008247.952 7  95071345.45947  23217414.320                    23217420.380
     -3505.381       -2731.472          44.350          44.550    91110033.162 7
  23217422.520       -2617.683          47.850


 123479419.838 7  96217714.49946  23497361.860                    23497365.120
     -1722.070       -1341.878          44.250          40.500    92208658.148 7
  23497370.220       -1286.125          47.000


 121226138.990 7  94461906.17147  23068572.720                    23068572.480
      2754.052        2146.015          46.400          43.900



 131107752.886 6 102161874.62346  24948979.680                    24948977.740
      3818.688        2975.596          40.950          36.050



 111819427.609 8  87131995.95247  21278535.160                    21278535.120
     -1415.779       -1103.207          50.000          47.900



 125055093.740 7  97445513.79246  23797200.020                    23797200.380
      -454.313        -354.012          44.950          39.650



 133966289.040 6 104389360.18346  25492936.120                    25492947.640
      2656.097        2069.688          39.200          37.600   100039815.658 7
  25492955.380        1983.632          43.800


 120372885.103 7  93797078.10047  22906197.980                    22906202.620
     -1523.662       -1187.271          47.850          47.900    89888872.611 7
  22906204.400       -1137.722          46.050


 23  9  2  9  2  0.0000000  0 11G02G03G04G08G14G17G19G21G22G28G32
 110268855.800 8  85923767.80948  20983470.400                    20983468.940
      -752.364        -586.260          50.800          50.750



 111121294.642 8  86588054.72148  21145675.340                    21145678.460
      2228.782        1736.715          50.300          50.350    82980210.930 8
  21145679.300        1664.246          53.050


 133282286.847 6 103856344.99245  25362777.120                    25362784.660
      3801.919        2962.534          39.200          34.850    99529022.224 7
  25362792.780        2838.871          43.450


 122113504.941 7  95153363.69947  23237444.220                    23237450.120
     -3511.971       -2736.606          44.900          45.200    91188633.952 8
  23237452.340       -2622.663          48.200


 123531306.926 7  96258145.89146  23507235.820                    23507238.760
     -1736.923       -1353.451          44.100          40.400    92247404.889 7
  23507244.140       -1297.358          47.050


 121143648.601 7  94397627.95847  23052875.360                    23052875.180
      2744.793        2138.800          46.450          44.700



 130993248.519 6 102072650.22846  24927190.320                    24927188.520
      3814.904        2972.644          41.150          36.700



 111862020.570 8  87165185.19848  21286640.240                    21286640.140
     -1424.220       -1109.785          49.050          48.550



 125068968.836 7  97456325.50446  23799840.600                    23799840.900
      -471.097        -367.090          45.450          40.000



 133886679.984 6 104327327.19645  25477786.880                    25477798.120
      2650.647        2065.439          38.300          34.800    99980367.428 7
  25477805.940        1979.226          44.100


 120418844.045 7  93832890.19047  22914943.840                    22914948.500
     -1540.874       -1200.683          47.950          47.850    89923192.526 7
  22914949.520       -1150.581          46.050


 23  9  2  9  2 30.0000000  0 11G02G03G04G08G14G17G19G21G22G28G32
 110291575.565 8  85941471.46148  20987794.020                    20987792.500
      -762.916        -594.481          51.450          50.700



 111054622.076 8  86536102.11548  21132987.960                    21132991.000
      2215.567        1726.418          50.450          50.400    82930423.024 8
  21132992.020        1654.438          53.050


 133168192.846 6 103767440.54345  25341065.860                    25341072.760
      3803.694        2963.915          37.850          33.100    99443822.135 6
  25341081.440        2840.588          41.900


 122218955.034 7  95235532.43747  23257510.860                    23257516.720
     -3518.524       -2741.713          44.250          44.050    91267378.959 7
  23257519.080       -2627.522          47.850


 123583638.358 7  96298923.53146  23517194.400                    23517197.020
     -1751.839       -1365.075          44.150          40.550    92286483.431 7
  23517202.560       -1308.372          46.700


 121061433.986 7  94333564.64747  23037230.440                    23037230.380
      2735.612        2131.646          46.250          44.650



 130878842.369 6 101983502.36446  24905419.660                    24905417.980
      3811.681        2970.135          40.750          37.250



 111904865.043 8  87198570.42248  21294793.280                    21294793.000
     -1432.656       -1116.358          49.400          48.600



 125083341.997 7  97467525.30846  23802575.920                    23802576.340
      -487.679        -380.013          45.750          40.600



 133807244.490 6 104265429.50045  25462670.740                    25462682.080
      2644.562        2060.699          39.300          35.600    99921048.799 7
  25462689.680        1974.824          43.850


 120465312.742 7  93869099.49648  22923786.620                    22923791.500
     -1557.846       -1213.908          47.950          48.150    89957893.108 7
  22923791.560       -1163.230          45.750


 23  9  2  9  3  0.0000000  0 11G02G03G04G08G14G17G19G21G22G28G32
 110314617.550 8  85959426.20348  20992178.940                    20992177.240
      -773.176        -602.477          51.100          50.700



 110988353.577 8  86484464.37148  21120377.480                    21120380.480
      2202.354        1716.123          50.900          50.850    82880936.852 8
  21120381.680        1644.598          53.200


 133054045.004 5 103678494.16745  25319343.900                    25319350.640
      3805.838        2965.584          35.350          33.100    99358581.850 7
  25319359.720        2842.260          42.350


 122324605.015 7  95317856.92447  23277615.480                    23277621.280
     -3524.850       -2746.641          45.050          45.600    91346273.222 7
  23277623.800       -2632.204          47.750


 123636420.310 7  96340052.21246  23527238.740                    23527241.160
     -1766.508       -1376.505          44.150          41.450    92325898.421 7
  23527246.560       -1319.333          46.200


 120979506.110 7  94269724.75747  23021640.060                    23021640.240
      2726.228        2124.334          46.350          44.650



 130764545.595 6 101894439.76046  24883669.960                    24883668.180
      3808.228        2967.442          40.700          36.150



 111947969.755 8  87232158.44448  21302996.060                    21302995.640
     -1441.036       -1122.887          50.500          48.350



 125098221.307 7  97479119.51446  23805407.600                    23805408.020
      -504.357        -393.007          46.150          40.300



 133727994.009 6 104203675.94046  25447589.840                    25447601.280
      2638.733        2056.160          38.900          37.800    99861868.322 7
  25447608.460        1970.383          43.550


 120512298.182 8  93905711.48548  22932727.580                    22932732.680
     -1574.668       -1227.016          48.350          48.200    89992979.585 7
  22932732.120       -1175.898          45.950


 23  9  2  9  3 30.0000000  0 11G02G03G04G08G14G17G19G21G22G28G32
 110337971.947 8  85977624.38048  20996623.220                    20996621.400
      -784.032        -610.936          51.400          50.200



 110922479.950 8  86433134.30748  21107842.120                    21107845.180
      2188.843        1705.593          50.700          50.850    82831745.552 8
  21107846.500        1634.525          53.400


 132939835.482 6 103589499.71345  25297610.680                    25297617.360
      3808.050        2967.308          37.300          30.650    99273295.556 6
  25297626.340        2843.405          40.200


 122430442.696 7  95400327.67047  23297755.860                    23297761.420
     -3531.477       -2751.806          44.200          44.300    91425307.638 7
  23297764.360       -2637.016          47.800


 123689640.262 7  96381522.20346  23537366.460                    23537368.760
     -1781.706       -1388.346          44.250          41.450    92365640.469 7
  23537373.940       -1330.364          46.250


 120897857.113 7  94206102.16547  23006102.640                    23006103.140
      2716.518        2116.768          45.800          44.200



 130650350.920 6 101805456.72746  24861939.700                    24861938.040
      3804.438        2964.495          40.850          36.850



 111991324.494 8  87265941.29248  21311246.480                    21311246.080
     -1449.663       -1129.610          50.950          48.100



 125113595.615 7  97491099.43146  23808333.480                    23808333.980
      -521.048        -406.013          46.400          40.650



 133648921.622 6 104142061.11146  25432542.860                    25432554.180
      2632.362        2051.191          38.650          38.350    99802820.781 7
  25432561.420        1965.762          42.950


 120559788.653 7  93942717.00347  22941764.680                    22941769.880
     -1591.843       -1240.398          47.900          47.900    90028443.189 7
  22941769.240       -1188.698          46.200


 23  9  2  9  4  0.0000000  0 11G02G03G04G08G14G17G19G21G22G28G32
 110361646.579 8  85996072.09148  21001128.340                    21001126.460
      -794.379        -618.997          50.550          50.500



 110857009.504 8  86382118.41848  21095383.440                    21095386.600
      2175.882        1695.493          50.400          50.350    82782855.336 9
  21095388.120        1624.736          54.050


 132825574.349 6 103500464.99146  25275867.780                    25275873.980
      3809.672        2968.574          40.500          39.200    99187970.592 7
  25275883.160        2844.916          42.700


 122536473.195 7  95482948.66547  23317933.000                    23317938.480
     -3537.267       -2756.315          44.800          44.500    91504486.077 7
  23317941.360       -2641.522          47.950


 123743303.278 7  96423337.43047  23547578.340                    23547580.640
     -1796.075       -1399.541          44.000          42.200    92405713.375 7
  23547585.720       -1341.086          46.250


 120816496.728 7  94142704.47447  22990620.100                    22990620.940
      2707.438        2109.692          45.250          45.000



 130536267.947 6 101716560.76046  24840230.540                    24840229.060
      3801.113        2961.902          40.350          38.000



 112034936.225 8  87299924.39348  21319545.760                    21319545.500
     -1457.871       -1136.006          50.400          49.350



 125129471.531 7  97503470.20346  23811354.640                    23811355.320
      -537.296        -418.674          45.400          40.900



 133570037.843 6 104080593.31446  25417531.760                    25417543.180
      2626.319        2046.487          38.150          37.200    99743914.122 7
  25417550.000        1961.325          43.200


 120607789.946 7  93980120.57247  22950898.900                    22950904.220
     -1608.253       -1253.186          47.900          47.650    90064288.258 7
  22950903.720       -1201.024          46.950


 23  9  2  9  4 30.0000000  0 11G02G03G04G08G14G17G19G21G22G28G32
 110385639.431 8  86014767.76748  21005693.940                    21005692.080
      -805.041        -627.307          50.150          50.200



 110791941.537 8  86331416.15548  21083001.360                    21083004.540
      2162.202        1684.834          50.450          50.350    82734265.665 9
  21083006.300        1614.685          54.150


 132711261.970 6 103411390.38346  25254114.960                    25254121.100
      3811.394        2969.915          39.950          36.950    99102607.365 7
  25254130.380        2846.253          42.000


 122642692.793 7  95565717.01447  23338146.060                    23338151.320
     -3543.727       -2761.351          44.400          43.950    91583805.704 8
  23338154.440       -2646.284          48.100


 123797405.174 7  96465494.65647  23557873.620                    23557876.060
     -1810.484       -1410.771          43.600          42.900    92446114.036 7
  23557881.020       -1352.001          46.550


 120735425.220 7  94079531.86947  22975192.560                    22975193.600
      2697.423        2101.889          45.250          44.700



 130422297.552 6 101627752.52746  24818542.860                    24818541.700
      3797.255        2958.894          40.200          36.900



 112078802.631 8  87334105.95348  21327893.460                    21327893.320
     -1466.406       -1142.656          50.100          49.300



 125145846.500 7  97516229.85246  23814470.520                    23814471.720
      -554.160        -431.815          43.600          41.800



 133491343.960 6 104019273.46446  25402556.780                    25402568.300
      2619.801        2041.408          36.900          36.950    99685149.298 7
  25402575.160        1956.595          42.300


 120656298.811 7  94017919.66447  22960129.720                    22960134.980
     -1625.244       -1266.426          47.800          47.750    90100512.353 7
  22960134.940       -1213.705          47.250


 23  9  2  9  5  0.0000000  0 11G02G03G04G08G14G17G19G21G22G28G32
 110409949.136 8  86033710.33748  21010319.860                    21010318.020
      -815.624        -635.553          50.650          50.250



 110727274.529 8  86281026.32848  21070695.540                    21070698.740
      2148.957        1674.514          50.300          50.300    82685975.425 9
  21070700.700        1604.726          54.300


 132596898.509 6 103322275.93945  25232352.340                    25232358.320
      3812.974        2971.145          39.550          34.000    99017206.015 7
  25232367.820        2847.410          42.300


 122749096.867 7  95648629.10547  23358394.220                    23358399.480
     -3549.882       -2766.148          44.200          43.850    91663263.090 7
  23358402.680       -2650.885          47.950


 123851941.207 7  96507990.16847  23568251.400                    23568254.220
     -1824.893       -1421.998          43.500          42.100    92486838.883 7
  23568259.080       -1362.836          46.850


 120654642.978 7  94016584.67547  22959820.160                    22959821.300
      2687.993        2094.539          45.800          44.050



 130308440.091 6 101539032.27046  24796876.520                    24796875.400
      3793.460        2955.938          40.250          39.250



 112122921.828 8  87368484.48448  21336289.060                    21336289.060
     -1474.733       -1149.146          49.800          48.450



 125162716.864 7  97529375.52046  23817680.400                    23817682.220
      -570.645        -444.660          42.600          41.550



 133412840.657 6 103958102.06545  25387618.040                    25387629.660
      2613.947        2036.842          36.850          30.650    99626526.779 6
  25387636.180        1951.703          41.300


 120705311.237 7  94056111.12847  22969456.420                    22969461.860
     -1642.172       -1279.616          47.500          47.300    90137112.480 7
  22969462.000       -1226.266          47.700


 23  9  2  9  5 30.0000000  0 11G02G03G04G08G14G17G19G21G22G28G32
 110434576.360 8  86052900.33048  21015006.220                    21015004.340
      -826.177        -643.775          50.600          50.100



 110663010.130 8  86230950.22448  21058466.360                    21058469.500
      2135.421        1663.965          50.150          50.250    82637985.834 9
  21058471.540        1594.723          54.350


 132482487.199 6 103233124.20345  25210580.600                    25210586.480
      3814.533        2972.357          38.850          31.500    98931768.929 7
  25210596.120        2848.450          43.450


 122855684.137 7  95731683.94247  23378677.180                    23378682.540
     -3556.123       -2771.010          44.300          44.300    91742857.266 7
  23378685.460       -2655.307          47.950


 123906909.648 7  96550822.63947  23578711.420                    23578714.660
     -1839.529       -1433.402          43.400          42.350    92527886.631 7
  23578719.400       -1373.554          47.200


 120574153.100 7  93953865.29247  22944503.540                    22944504.740
      2677.864        2086.647          46.100          44.250



 130194699.021 6 101450402.80946  24775232.240                    24775231.580
      3789.392        2952.765          39.950          38.550



 112167293.889 8  87403060.04347  21344732.580                    21344732.600
     -1483.319       -1155.835          49.350          47.900



 125180082.828 7  97542907.37046  23820984.640                    23820986.840
      -587.290        -457.631          43.050          41.500



 133334531.810 5 103897082.26245  25372716.380                    25372727.880
      2606.914        2031.363          35.350          33.400    99568049.435 7
  25372734.720        1946.896          42.200


 120754826.296 7  94094694.24047  22978878.780                    22978884.620
     -1658.969       -1292.705          47.650          47.650    90174087.937 8
  22978884.760       -1238.729          48.050


 23  9  2  9  6  0.0000000  0 11G02G03G04G08G14G17G19G21G22G28G32
 110459523.146 8  86072339.34148  21019753.420                    21019751.420
      -836.604        -651.900          50.950          49.650



 110599150.776 8  86181189.75248  21046314.300                    21046317.360
      2122.220        1653.680          50.650          50.400    82590298.732 9
  21046319.360        1584.718          54.050


 132368031.919 6 103143938.24646  25188800.480                    25188806.500
      3816.078        2973.567          39.000          37.650    98846299.040 7
  25188815.940        2849.747          42.850


 122962453.391 7  95814880.61247  23398994.940                    23399000.240
     -3561.810       -2775.441          44.700          44.350    91822587.378 8
  23399003.220       -2659.814          48.150


 123962309.730 7  96593991.46846  23589253.640                    23589256.960
     -1853.754       -1444.486          44.500          41.700    92569256.699 7
  23589262.060       -1384.168          47.200


 120493959.175 7  93891376.51747  22929243.320                    22929244.340
      2668.479        2079.335          46.850          43.400



 130081078.306 6 101361867.04646  24753610.820                    24753610.140
      3785.488        2949.727          40.700          38.750



 112211920.722 8  87437834.14947  21353224.620                    21353224.580
     -1491.528       -1162.231          49.850          47.350



 125197944.788 7  97556825.71346  23824383.540                    23824385.500
      -603.296        -470.102          43.850          40.000



 133256422.119 6 103836217.62345  25357852.500                    25357864.320
      2600.477        2026.343          37.950          35.850    99509720.844 7
  25357870.820        1941.933          42.500


 120804843.939 8  94133668.98048  22988396.800                    22988402.900
     -1675.403       -1305.512          48.600          48.400    90211438.712 7
  22988403.120       -1251.160          47.900


 23  9  2  9  6 30.0000000  0 11G02G03G04G08G14G17G19G21G22G28G32
 110484786.866 8  86092025.30348  21024561.000                    21024559.020
      -847.744        -660.581          50.600          50.250



 110535694.935 8  86131743.68148  21034239.100                    21034241.980
      2108.392        1642.904          50.650          50.650    82542912.928 9
  21034243.900        1574.259          54.000


 132253532.829 6 103054718.13046  25167012.080                    25167018.260
      3817.083        2974.350          38.650          36.850    98760796.405 7
  25167027.420        2850.315          43.550


 123069400.060 7  95898215.48947  23419346.260                    23419351.780
     -3567.968       -2780.240          43.850          43.750    91902449.927 8
  23419354.780       -2664.465          48.050


 124018136.465 7  96637492.75146  23599877.140                    23599880.600
     -1867.946       -1455.544          44.500          41.050    92610945.394 7
  23599885.820       -1395.103          47.700


 120414061.377 7  93829118.49547  22914039.440                    22914040.180
      2658.201        2071.326          46.450          44.250



 129967577.917 6 101273425.04546  24732012.320                    24732011.660
      3780.948        2946.188          39.800          38.800



 112256799.006 8  87472804.17947  21361764.580                    21361764.560
     -1500.342       -1169.100          49.350          47.400



 125216299.418 7  97571127.94946  23827876.380                    23827878.100
      -620.098        -483.197          43.800          39.900



 133178512.230 6 103775508.72746  25343026.780                    25343038.500
      2593.498        2020.909          37.500          37.650    99451541.493 7
  25343045.240        1936.445          42.600


 120855360.062 8  94173032.15347  22998009.840                    22998015.900
     -1692.395       -1318.750          48.250          47.950    90249161.731 7
  22998016.140       -1263.878          47.950


 23  9  2  9  7  0.0000000  0 11G02G03G04G08G14G17G19G21G22G28G32
 110510368.962 8  86111959.35748  21029429.140                    21029427.360
      -858.241        -668.761          50.350          50.400



 110472644.657 8  86082613.63348  21022241.080                    21022243.740
      2094.725        1632.256          50.850          50.850    82495829.971 9
  21022245.500        1564.229          54.000


 132138993.500 6 102965466.59545  25145215.960                    25145221.760
      3818.448        2975.406          39.600          35.800    98675263.723 7
  25145231.460        2851.418          43.600


 123176523.632 7  95981688.24047  23439731.380                    23439736.940
     -3574.016       -2784.953          44.500          44.550    91982444.600 8
  23439739.820       -2668.834          48.200


 124074388.614 7  96681325.49646  23610581.680                    23610585.040
     -1882.209       -1466.657          44.250          41.450    92652951.745 7
  23610590.440       -1405.650          47.250


 120334462.984 7  93767093.77147  22898892.460                    22898893.020
      2648.068        2063.430          46.450          44.400



 129854201.583 6 101185079.72946  24710437.380                    24710436.840
      3776.879        2943.017          39.100          36.750



 112301930.347 8  87507971.39647  21370352.860                    21370352.680
     -1508.860       -1175.737          49.700          47.700



 125235147.107 7  97585814.41946  23831463.220                    23831464.400
      -636.740        -496.163          44.900          39.950



 133100806.451 6 103714958.89546  25328239.760                    25328251.500
      2586.438        2015.409          38.900          37.250    99393514.584 7
  25328258.220        1931.524          43.650


 120906374.175 8  94212783.35748  23007717.760                    23007723.720
     -1709.146       -1331.804          48.900          48.750    90287256.602 8
  23007724.020       -1276.220          48.600


 23  9  2  9  7 30.0000000  0 11G02G03G04G08G14G17G19G21G22G28G32
 110536268.477 8  86132140.76148  21034357.640                    21034356.120
      -868.383        -676.663          49.900          49.500



 110409999.513 8  86033799.29548  21010320.160                    21010322.600
      2081.735        1622.134          50.750          51.100    82449049.576 8
  21010324.220        1554.517          53.600


 132024415.142 6 102876184.72946  25123412.500                    25123418.180
      3820.008        2976.629          40.650          37.050    98589701.882 7
  25123427.960        2852.737          42.050


 123283819.719 7  96065295.39747  23460149.260                    23460155.000
     -3579.208       -2789.000          43.700          43.900    92062568.082 7
  23460157.880       -2672.738          47.850


 124131062.356 7  96725486.75546  23621366.540                    23621369.800
     -1895.955       -1477.372          44.150          41.600    92695272.911 7
  23621375.300       -1415.732          46.900


 120255164.954 7  93705303.10247  22883802.580                    22883802.820
      2638.590        2056.044          46.600          44.550



 129740951.304 6 101096832.65646  24688886.460                    24688886.100
      3772.836        2939.867          38.400          38.000



 112347313.668 8  87543334.97047  21378989.220                    21378988.700
     -1516.768       -1181.898          50.100          47.400



 125254485.386 7  97600883.14846  23835143.420                    23835144.240
      -652.734        -508.625          45.050          40.350



 133023306.433 6 103654569.42045  25313491.920                    25313503.620
      2579.801        2010.239          40.500          35.500    99335641.353 7
  25313510.560        1926.652          42.750


 120957883.265 8  94252920.23748  23017519.940                    23017525.740
     -1724.987       -1344.148          49.250          49.250    90325721.098 8
  23017526.240       -1288.149          48.550


 23  9  2  9  8  0.0000000  0 11G02G03G04G08G14G17G19G21G22G28G32
 110562489.481 8  86152572.66748  21039347.280                    21039346.000
      -879.419        -685.263          49.850          49.900



 110347764.278 8  85985304.36448  20998477.160                    20998479.460
      2067.776        1611.257          50.600          50.500    82402575.290 8
  20998480.940        1543.989          53.500


 131909804.101 6 102786877.36145  25101602.780                    25101608.080
      3820.767        2977.224          38.150          31.400    98504115.695 6
  25101618.300        2853.074          41.650


 123391290.649 7  96149038.81147  23480600.420                    23480606.200
     -3585.335       -2793.772          43.800          43.250    92142822.146 7
  23480609.120       -2677.282          47.650


 124188159.159 7  96769977.66446  23632231.820                    23632234.780
     -1910.270       -1488.525          44.350          40.500    92737910.017 7
  23632240.580       -1426.447          46.850


 120176173.644 7  93643751.44047  22868770.940                    22868771.060
      2627.949        2047.755          46.550          44.500



 129627833.145 6 101008688.53646  24667360.760                    24667360.360
      3768.435        2936.441          38.650          37.650



 112392952.241 8  87578897.42047  21387674.100                    21387673.400
     -1525.463       -1188.676          49.850          47.900



 125274316.825 7  97616336.19146  23838917.520                    23838918.220
      -669.249        -521.492          45.100          38.900



 132946019.300 6 103594345.84145  25298784.680                    25298796.060
      2572.632        2004.652          40.150          35.700    99277927.185 7
  25298803.180        1921.116          42.850


 121009889.603 8  94293444.59148  23027416.740                    23027422.320
     -1741.805       -1357.254          50.150          50.250    90364556.925 8
  23027422.880       -1300.764          48.550


 23  9  2  9  8 30.0000000  0 11G02G03G04G08G14G17G19G21G22G28G32
 110589027.426 8  86173251.53648  21044397.200                    21044396.080
      -890.042        -693.540          49.800          49.750



 110285934.994 8  85937125.75248  20986711.360                    20986713.580
      2054.033        1600.547          50.300          50.200    82356404.127 8
  20986714.860        1533.782          53.150


 131795158.158 6 102697542.84446  25079786.180                    25079792.320
      3822.087        2978.246          37.700          36.950    98418503.442 6
  25079801.840        2854.121          41.200


 123498929.675 7  96232913.19247  23501083.520                    23501089.520
     -3590.745       -2797.990          43.350          42.800    92223201.722 7
  23501092.120       -2681.580          47.250


 124245671.702 7  96814792.51446  23643176.200                    23643178.980
     -1924.479       -1499.599          44.100          40.600    92780857.571 7
  23643185.000       -1436.979          46.300


 120097486.508 7  93582436.81147  22853797.180                    22853797.240
      2617.553        2039.652          46.350          44.300



 129514845.024 6 100920645.74046  24645859.880                    24645859.220
      3763.859        2932.872          39.500          39.250



 112438841.044 8  87614654.86247  21396406.540                    21396405.900
     -1534.042       -1195.360          49.950          47.950



 125294636.056 7  97632169.32746  23842784.400                    23842785.180
      -685.471        -534.134          44.850          40.300



 132868943.311 6 103534286.83845  25284117.520                    25284128.760
      2565.228        1998.883          39.400          34.750    99220370.685 7
  25284135.980        1915.726          42.250


 121062386.619 8  94334351.30748  23037406.860                    23037412.460
     -1758.241       -1370.061          49.600          49.600    90403759.179 8
  23037412.920       -1313.037          48.700


 23  9  2  9  9  0.0000000  0 11G02G03G04G08G14G17G19G21G22G28G32
 110615883.841 8  86194178.55348  21049507.860                    21049506.560
      -900.507        -701.695          49.850          49.900



 110224513.548 8  85889264.94548  20975023.080                    20975025.460
      2040.693        1590.151          50.100          50.000    82310537.539 8
  20975026.440        1523.816          53.250


 131680480.804 6 102608183.87846  25057963.920                    25057970.100
      3822.900        2978.880          39.200          36.550    98332867.722 7
  25057979.040        2854.900          44.250


 123606735.085 7  96316917.21947  23521598.340                    23521604.420
     -3596.306       -2802.322          43.800          43.550    92303705.548 7
  23521606.780       -2685.550          47.050


 124303598.476 7  96859930.14346  23654199.460                    23654201.660
     -1937.862       -1510.026          44.500          40.100    92824114.473 7
  23654208.340       -1447.062          46.850


 120019106.995 7  93521361.88647  22838882.060                    22838882.020
      2607.432        2031.766          46.400          44.550



 129401990.736 6 100832707.22546  24624384.500                    24624383.920
      3759.648        2929.594          39.450          37.950



 112484980.920 8  87650607.93548  21405186.620                    21405186.340
     -1542.224       -1201.735          49.900          48.100



 125315442.906 7  97648382.42546  23846743.980                    23846744.860
      -701.642        -546.733          44.850          39.700



 132792082.595 6 103474395.66045  25269491.200                    25269502.380
      2558.232        1993.435          39.900          34.150    99162974.988 6
  25269509.340        1910.387          41.650


 121115373.720 8  94375639.88748  23047490.060                    23047495.880
     -1774.450       -1382.690          49.450          49.400    90443327.390 8
  23047496.420       -1325.029          49.250


 23  9  2  9  9 30.0000000  0 11G02G03G04G08G14G17G19G21G22G28G32
 110643060.982 8  86215355.50248  21054679.600                    21054678.040
      -911.321        -710.122          50.200          49.800



 110163503.044 8  85841724.34748  20963413.000                    20963415.620
      2026.869        1579.380          49.750          49.500    82264977.800 8
  20963416.320        1513.589          53.300


 131565776.577 6 102518804.05645  25036136.400                    25036143.060
      3824.104        2979.822          39.150          35.900    98247212.051 7
  25036151.420        2855.676          43.200


 123714707.230 7  96401051.19247  23542144.880                    23542151.080
     -3601.876       -2806.663          43.800          43.650    92384333.894 7
  23542153.280       -2689.717          47.000


 124361939.286 7  96905390.41846  23665301.500                    23665303.040
     -1951.636       -1520.758          43.750          38.900    92867680.551 7
  23665310.400       -1457.347          46.750


 119941039.659 7  93460530.21747  22824026.380                    22824026.140
      2596.977        2023.618          46.450          44.300



 129289275.136 6 100744876.77646  24602935.680                    24602934.860
      3754.839        2925.845          38.800          38.350



 112531374.016 8  87686758.32547  21414014.920                    21414014.960
     -1550.585       -1208.250          50.150          47.900



 125336738.491 7  97664976.35446  23850796.480                    23850797.740
      -718.050        -559.521          45.050          39.800



 132715442.461 6 103414676.34946  25254906.920                    25254917.760
      2550.626        1987.510          38.150          37.300    99105744.053 6
  25254925.060        1905.056          41.950


 121168851.368 8  94417310.72248  23057666.540                    23057672.500
     -1790.711       -1395.361          49.200          49.100    90483261.934 8
  23057673.260       -1337.261          49.300


 23  9  2  9 10  0.0000000  0 11G02G03G04G08G14G17G19G21G22G28G32
 110670557.966 8  86236781.68848  21059912.280                    21059910.480
      -922.107        -718.526          50.800          49.600



 110102903.194 8  85794503.72048  20951881.020                    20951884.040
      2013.032        1568.598          49.350          49.400    82219724.706 8
  20951884.460        1503.260          53.550


 131451047.180 6 102429404.51345  25014304.300                    25014310.860
      3824.508        2980.136          40.100          33.950    98161537.461 7
  25014318.860        2856.002          43.400


 123822842.678 7  96485312.39847  23562722.640                    23562728.920
     -3607.313       -2810.899          43.050          43.150    92465084.179 7
  23562730.600       -2693.759          46.550


 124420690.469 7  96951170.45746  23676481.520                    23676482.720
     -1965.424       -1531.502          43.600          37.800    92911553.070 7
  23676490.660       -1467.549          46.900


 119863285.642 7  93399942.67547  22809230.240                    22809229.880
      2586.326        2015.319          46.750          44.400



 129176699.456 6 100657155.37046  24581513.520                    24581512.460
      3749.941        2922.027          39.900          39.250



 112578019.051 8  87723105.02348  21422891.280                    21422891.580
     -1559.181       -1214.949          50.550          48.250



 125358520.550 7  97681949.35046  23854941.520                    23854942.860
      -734.198        -572.104          44.800          40.050



 132639024.899 6 103355130.46846  25240364.820                    25240375.200
      2543.392        1981.874          38.150          36.100    99048679.358 6
  25240382.740        1899.093          41.950


 121222816.704 8  94459361.57448  23067935.760                    23067941.840
     -1807.045       -1408.088          49.400          49.250    90523560.648 8
  23067942.880       -1349.461          49.650


 23  9  2  9 10 30.0000000  0 11G02G03G04G08G14G17G19G21G22G28G32
 110698372.827 8  86258455.56248  21065205.480                    21065203.540
      -932.620        -726.719          51.100          49.400



 110042712.772 8  85747602.14148  20940426.960                    20940430.340
      1999.425        1557.994          49.600          49.750    82174777.366 8
  20940430.720        1493.043          53.550


 131336292.886 6 102339985.52745  24992467.500                    24992473.040
      3825.129        2980.622          40.200          31.350    98075844.337 7
  24992481.960        2856.577          43.850


 123931137.335 7  96569697.64847  23583330.480                    23583336.980
     -3612.711       -2815.105          44.050          44.100    92545953.332 7
  23583338.080       -2697.749          46.100


 124479847.431 7  96997266.71146  23687738.660                    23687739.880
     -1978.903       -1542.001          42.850          40.050    92955728.613 7
  23687748.180       -1477.627          46.850


 119785845.372 7  93339599.62847  22794493.780                    22794493.380
      2575.897        2007.194          47.000          43.350



 129064264.262 6 100569543.40346  24560118.020                    24560116.860
      3745.311        2918.421          39.850          38.350



 112624914.010 8  87759646.47447  21431815.220                    21431815.660
     -1567.483       -1221.418          50.500          47.900



 125380785.862 7  97699298.88646  23859178.520                    23859179.840
      -750.405        -584.734          45.650          38.600



 132562830.937 6 103295758.83345  25225865.320                    25225875.580
      2535.989        1976.102          39.250          34.400    98991781.604 7
  25225882.980        1893.668          42.600


 121277265.934 8  94501789.46448  23078297.120                    23078303.200
     -1823.389       -1420.825          48.650          48.750    90564220.681 8
  23078304.560       -1361.440          49.400


 23  9  2  9 11  0.0000000  0 11G02G03G04G08G14G17G19G21G22G28G32
 110726510.349 8  86280380.86548  21070560.020                    21070558.060
      -942.941        -734.762          50.550          50.200



 109982936.945 8  85701023.62848  20929051.840                    20929055.500
      1986.046        1547.569          49.750          49.750    82130139.631 8
  20929056.020        1483.165          53.600


 131221520.536 6 102250552.51346  24970627.000                    24970632.540
      3826.318        2981.543          39.950          36.200    97990137.716 7
  24970641.520        2857.350          42.100


 124039592.951 7  96654208.34447  23603969.020                    23603975.700
     -3617.584       -2818.904          43.100          42.950    92626942.707 7
  23603976.540       -2701.315          45.950


 124539411.968 7  97043680.52746  23699073.340                    23699074.680
     -1991.724       -1551.995          42.250          39.400    93000208.495 7
  23699083.200       -1487.368          46.950


 119708725.390 7  93279506.14647  22779818.200                    22779817.800
      2565.677        1999.229          46.550          43.400



 128951977.366 6 100482047.00146  24538750.720                    24538749.440
      3741.008        2915.069          39.950          38.950



 112672062.889 8  87796385.78948  21440787.440                    21440787.800
     -1575.533       -1227.691          50.250          48.250



 125403538.024 7  97717027.78946  23863508.160                    23863509.460
      -766.331        -597.144          45.700          37.950



 132486867.883 6 103236567.17946  25211409.640                    25211419.940
      2528.430        1970.213          38.700          37.150    98935056.296 7
  25211427.440        1888.345          42.250


 121332201.604 8  94544596.40648  23088751.060                    23088756.860
     -1838.974       -1432.969          49.050          48.850    90605243.974 8
  23088758.700       -1373.143          49.350


 23  9  2  9 11 30.0000000  0 11G02G03G04G08G14G17G19G21G22G28G32
 110754966.458 8  86302554.41448  21075975.080                    21075973.220
      -953.989        -743.370          50.500          49.850



 109923572.313 8  85654765.52248  20917755.020                    20917758.860
      1971.679        1536.374          49.900          49.850    82085808.961 9
  20917759.560        1472.423          54.000


 131106728.574 6 102161104.24446  24948782.720                    24948788.600
      3826.054        2981.341          38.100          37.950    97904416.427 6
  24948797.320        2857.396          41.950


 124148203.133 7  96738839.45847  23624636.920                    23624643.880
     -3623.040       -2823.153          43.500          43.750    92708047.505 7
  23624644.240       -2705.576          45.800


 124599377.422 7  97090406.74446  23710484.260                    23710486.140
     -2005.604       -1562.812          42.100          40.650    93044987.757 7
  23710494.240       -1497.706          46.850


 119631923.914 7  93219660.85847  22765203.220                    22765202.880
      2554.678        1990.659          46.800          43.400



 128839837.074 6 100394664.85946  24517411.140                    24517409.920
      3735.099        2910.462          39.950          39.250



 112719461.565 8  87833319.75447  21449807.160                    21449807.300
     -1584.284       -1234.510          50.300          47.400



 125426771.537 7  97735131.73346  23867929.440                    23867930.400
      -782.572        -609.800          45.900          38.000



 132411134.674 6 103177554.62346  25196997.520                    25197007.940
      2520.658        1964.160          38.750          38.250    98878502.681 7
  25197015.440        1882.086          44.150


 121387617.795 8  94587777.77248  23099296.500                    23099301.960
     -1855.181       -1445.599          48.950          48.900    90646626.104 8
  23099304.260       -1385.467          49.650


 23  9  2  9 12  0.0000000  0 11G02G03G04G08G14G17G19G21G22G28G32
 110783741.091 8  86324976.16748  21081450.740                    21081449.000
      -964.825        -751.812          50.650          50.200



 109864619.315 8  85608828.16848  20906536.700                    20906540.460
      1957.815        1525.572          49.950          50.050    82041785.675 9
  20906541.300        1461.994          54.100


 130991919.119 6 102071642.35746  24926935.240                    24926941.400
      3826.587        2981.761          39.050          36.550    97818682.089 7
  24926949.780        2857.694          42.600


 124256965.722 7  96823589.35947  23645333.960                    23645340.920
     -3628.390       -2827.322          43.350          43.300    92789266.127 7
  23645340.820       -2709.528          45.750


 124659740.743 7  97137442.98146  23721971.120                    23721973.260
     -2019.072       -1573.307          42.700          41.200    93090064.124 7
  23721980.940       -1507.743          46.800


 119555442.861 7  93160065.24247  22750649.260                    22750648.940
      2543.705        1982.108          46.700          42.950



 128727845.607 6 100307398.64846  24496100.060                    24496098.880
      3730.336        2906.744          40.150          40.050



 112767109.471 8  87870447.91948  21458874.320                    21458874.320
     -1592.780       -1241.130          50.200          48.250



 125450484.769 7  97753609.47746  23872442.000                    23872442.660
      -798.980        -622.586          45.950          36.900



 132335634.069 6 103118723.29546  25182629.980                    25182640.260
      2512.206        1957.573          37.850          37.500    98822122.702 7
  25182648.160        1876.151          44.550


 121443512.360 8  94631331.89848  23109932.860                    23109938.080
     -1871.410       -1458.244          48.600          48.900    90688365.436 8
  23109940.620       -1397.554          49.500


 23  9  2  9 12 30.0000000  0 11G02G03G04G08G14G17G19G21G22G28G32
 110812837.326 8  86347648.51748  21086987.640                    21086985.820
      -974.979        -759.726          50.550          49.850



 109806081.759 8  85563214.54448  20895397.480                    20895401.060
      1944.481        1515.183          50.250          50.250    81998072.640 9
  20895402.000        1452.018          54.200


 130877097.634 6 101982171.04746  24905085.560                    24905092.000
      3827.521        2982.484          40.900          37.950    97732938.745 7
  24905099.960        2858.387          43.650


 124365881.416 7  96908458.53747  23666059.940                    23666067.240
     -3632.832       -2830.784          42.950          42.300    92870599.033 7
  23666066.940       -2712.925          45.700


 124720502.345 7  97184789.58646  23733533.860                    23733536.340
     -2031.755       -1583.188          43.550          41.550    93135437.936 7
  23733543.340       -1517.404          46.450


 119479287.649 7  93100723.54747  22736157.360                    22736157.080
      2533.092        1973.838          46.250          43.550



 128616008.381 6 100220252.63346  24474818.340                    24474817.200
      3725.520        2902.994          40.650          38.950



 112815009.132 8  87907772.26347  21467989.400                    21467989.320
     -1600.699       -1247.301          50.250          47.900



 125474679.656 7  97772462.55046  23877046.220                    23877046.440
      -814.676        -634.813          44.900          38.400



 132260372.123 6 103060077.92246  25168307.700                    25168318.000
      2504.865        1951.857          38.700          37.050    98765920.941 7
  25168326.320        1870.486          45.250


 121499886.418 8  94675259.63747  23120660.580                    23120665.720
     -1887.015       -1470.405          48.050          47.950    90730462.833 8
  23120668.040       -1409.125          49.500


 23  9  2  9 13  0.0000000  0 11G02G03G04G08G14G17G19G21G22G28G32
 110842252.834 8  86370569.65148  21092585.180                    21092583.380
      -985.499        -767.924          50.200          49.650



 109747957.759 8  85517923.17448  20884336.920                    20884340.320
      1930.878        1504.582          50.650          50.650    81954668.421 9
  20884341.280        1441.896          54.300


 130762264.055 6 101892690.34946  24883233.420                    24883240.000
      3828.393        2983.162          41.100          37.250    97647186.378 7
  24883247.860        2858.853          44.150


 124474945.557 7  96993443.40247  23686814.420                    23686821.660
     -3637.665       -2834.550          43.300          43.300    92952042.832 7
  23686821.420       -2716.426          45.400


 124781657.074 7  97232442.52046  23745171.460                    23745174.180
     -2044.718       -1593.290          44.550          41.000    93181105.309 7
  23745180.500       -1526.956          46.750


 119403458.047 7  93041635.55447  22721727.460                    22721727.260
      2522.489        1965.576          46.550          44.100



 128504325.777 6 100133227.08846  24453566.020                    24453564.540
      3720.463        2899.055          41.250          37.250



 112863157.698 8  87945290.56147  21477151.860                    21477151.660
     -1608.790       -1253.604          50.300          47.800



 125499352.300 7  97791687.89346  23881741.320                    23881741.380
      -830.079        -646.817          44.950          38.350



 132185349.282 6 103001618.79546  25154031.060                    25154041.620
      2496.901        1945.646          38.300          36.550    98709897.685 7
  25154049.980        1864.747          45.650


 121556735.538 8  94719557.55348  23131478.680                    23131483.760
     -1902.489       -1482.464          48.400          48.450    90772914.980 8
  23131485.960       -1420.777          49.550


 23  9  2  9 13 30.0000000  0 11G02G03G04G08G14G17G19G21G22G28G32
 110871987.821 8  86393739.72648  21098243.540                    21098241.700
      -996.813        -776.739          50.600          49.400



 109690248.086 8  85472954.63348  20873355.260                    20873358.380
      1916.384        1493.287          50.900          50.850    81911573.579 9
  20873359.420        1431.021          54.100


 130647420.952 6 101803202.13045  24861379.420                    24861385.760
      3827.680        2982.603          39.700          32.650    97561426.903 7
  24861394.120        2858.434          44.700


 124584155.140 7  97078541.59147  23707596.440                    23707603.680
     -3643.108       -2838.793          42.650          42.800    93033595.228 7
  23707603.460       -2720.475          45.400


 124843202.247 7  97280399.69946  23756883.440                    23756886.180
     -2058.394       -1603.946          44.400          40.700    93227064.245 7
  23756891.940       -1537.126          46.350


 119327955.991 7  92982802.80447  22707359.940                    22707359.840
      2510.917        1956.559          46.750          44.350



 128392800.445 6 100046324.09946  24432343.680                    24432342.380
      3714.503        2894.408          41.200          38.200



 112911554.896 8  87983002.59348  21486361.600                    21486361.380
     -1617.866       -1260.678          50.000          48.100



 125524501.208 7  97811284.35246  23886527.020                    23886527.340
      -846.607        -659.697          44.850          38.500



 132110568.559 6 102943348.31646  25139800.540                    25139810.880
      2488.089        1938.779          38.650          38.150    98654055.185 7
  25139819.740        1857.976          45.500


 121614057.938 8  94764224.24848  23142386.780                    23142391.820
     -1919.188       -1495.476          48.050          48.050    90815720.521 8
  23142393.800       -1433.081          49.200


 23  9  2  9 14  0.0000000  0 11G02G03G04G08G14G17G19G21G22G28G32
 110902046.806 8  86417162.27248  21103963.560                    21103961.660
     -1007.143        -784.787          50.550          50.000



 109632957.850 8  85428312.94248  20862453.380                    20862456.220
      1902.912        1482.791          51.100          51.050    81868791.972 9
  20862457.400        1421.024          54.150


 130532575.160 6 101713711.86046  24839525.040                    24839531.340
      3828.457        2983.211          40.650          37.850    97475665.375 7
  24839539.980        2859.016          43.800


 124693512.993 7  97163755.32347  23728406.760                    23728414.000
     -3647.437       -2842.164          43.350          42.850    93115258.352 7
  23728414.000       -2723.765          45.700


 124905139.679 7  97328662.52746  23768670.020                    23768672.740
     -2070.968       -1613.745          44.400          41.100    93273316.096 7
  23768678.060       -1546.372          46.250


 119252788.668 7  92924230.88447  22693056.220                    22693056.260
      2500.222        1948.226          47.200          44.500



 128281439.953 6  99959549.56546  24411152.660                    24411151.220
      3709.653        2890.633          41.700          38.050



 112960206.046 8  88020912.50448  21495619.580                    21495619.520
     -1625.743       -1266.815          50.050          48.000



 125550130.152 7  97831254.86046  23891404.040                    23891404.760
      -861.745        -671.494          44.150          38.800



 132036037.365 6 102885272.25046  25125617.700                    25125627.620
      2480.434        1932.813          39.250          38.200    98598399.008 7
  25125637.020        1852.241          45.600


 121671856.063 8  94809261.63548  23153385.440                    23153390.540
     -1934.323       -1507.269          48.650          48.850    90858881.327 8
  23153392.220       -1444.439          49.100


