     2.11           OBSERVATION DATA    G (GPS)             RINEX VERSION / TYPE
teqc  2019Feb25                         20230902 15:05:52UTCPGM / RUN BY / DATE
Linux 2.6.32-573.12.1.x86_64|x86_64|gcc|Linux 64|=+         COMMENT
teqc  2019Feb25                         20230902 15:05:51UTCCOMMENT
     2.11           OBSERVATION DATA    M (MIXED)           COMMENT
teqc  2019Feb25     IGN-RGP             20230902 09:04:19UTCCOMMENT
teqc  2019Feb25     Administrateur RGP  20230902 09:04:19UTCCOMMENT
teqc  2019Feb25     IGN-RGP             20230902 09:04:19UTCCOMMENT
teqc  2019Feb25     IGN-RGP             20230902 09:04:18UTCCOMMENT
BIT 2 OF LLI FLAGS DATA COLLECTED UNDER A/S CONDITION       COMMENT
PANA                                                        MARKER NAME
10001M008                                                   MARKER NUMBER
Automatic           Lycee Dorian - Paris 11                 OBSERVER / AGENCY
1700671             LEICA GR10          2.00/4.007          REC # / TYPE / VERS
11311010            LEIAS10         NONE                    ANT # / TYPE
  4201030.6890   175603.7900  4780030.2470                  APPROX POSITION XYZ
        0.0000        0.0000        0.0000                  ANTENNA: DELTA H/E/N
     1     1                                                WAVELENGTH FACT L1/2
    21    L1    L2    C1    P1    P2    D1    D2    S1    S2# / TYPES OF OBSERV
          L5    C5    D5    S5    L7    C7    D7    S7    L8# / TYPES OF OBSERV
          C8    D8    S8                                    # / TYPES OF OBSERV
    30.0000                                                 INTERVAL
DefaultJobName                                              COMMENT
DefaultUserDiscription                                      COMMENT
Project creator:                                            COMMENT
 SNR is mapped to RINEX snr flag value [0-9]                COMMENT
  L1 & L2: min(max(int(snr_dBHz/6), 0), 9)                  COMMENT
    18                                                      LEAP SECONDS
Forced Modulo Decimation to 30 seconds                      COMMENT
teqc_2019 edited: all GLONASS satellites excluded           COMMENT
teqc_2019 edited: all SBAS satellites excluded              COMMENT
teqc_2019 edited: all Galileo satellites excluded           COMMENT
  2023     9     2     8     0    0.0000000     GPS         TIME OF FIRST OBS
                                                            END OF HEADER
 23  9  2  8  0  0.0000000  0  9G02G03G08G10G14G21G22G27G32
 109817757.935 8  85572257.37247  20897626.340                    20897620.400
                                        49.800          47.650



 122089873.719 7  95134974.464 7  23232926.480                    23232927.840
                                        46.100          45.700



 111238635.645 8  86679448.929 7  21168014.140                    21168013.700
                                        49.100          47.650



 123116351.101 7  95934804.349 7  23428274.020                    23428275.800
                                        45.800          42.500



 121077473.810 7  94346071.871 7  23040281.260                    23040278.240
                                        45.300          45.550



 108584066.654 8  84610929.49947  20662862.280                    20662857.580
                                        48.750          46.300



 127238515.606 7  99146888.69746  24212686.140                    24212682.760
                                        43.950          38.250



 124479967.742 7  96997357.082 7  23687764.100                    23687766.380
                                        44.350          45.200



 118955805.207 8  92692856.409 7  22636531.700                    22636532.040
                                        48.850          46.200



 23  9  2  8  0 30.0000000  0  9G02G03G08G10G14G21G22G27G32
 109803393.004 8  85561063.87848  20894892.800                    20894886.900
                                        49.850          48.000



 121983555.907 7  95052129.407 7  23212694.960                    23212696.300
                                        45.950          45.800



 111304081.928 8  86730445.944 7  21180468.220                    21180467.780
                                        49.350          47.900



 123208934.846 7  96006947.327 7  23445892.240                    23445894.080
                                        45.550          42.850



 121062086.015 7  94334081.347 7  23037353.060                    23037350.100
                                        45.600          45.550



 108593911.735 8  84618600.95547  20664735.760                    20664731.040
                                        48.400          46.750



 127190406.245 7  99109400.89546  24203531.220                    24203527.880
                                        44.200          38.800



 124589041.256 7  97082349.239 7  23708520.240                    23708522.580
                                        44.800          45.750



 118932754.766 8  92674894.990 7  22632145.380                    22632145.720
                                        48.300          46.200



 23  9  2  8  1  0.0000000  0  9G02G03G08G10G14G21G22G27G32
 109789310.124 8  85550090.16047  20892212.960                    20892207.060
                                        50.100          47.400



 121877462.742 7  94969459.388 7  23192506.180                    23192507.520
                                        45.750          45.500



 111369960.332 8  86781779.678 8  21193004.520                    21193004.100
                                        49.350          48.300



 123301700.755 7  96079232.230 7  23463545.160                    23463547.020
                                        45.450          43.300



 121047288.314 7  94322550.621 7  23034537.180                    23034534.260
                                        45.650          44.750



 108604037.268 8  84626490.93947  20666662.620                    20666657.880
                                        48.650          47.000



 127142756.274 7  99072271.02546  24194463.780                    24194460.420
                                        44.750          37.600



 124698271.299 7  97167463.397 7  23729306.160                    23729308.520
                                        44.800          46.150



 118910258.482 8  92657365.364 7  22627864.520                    22627864.860
                                        48.600          46.000



 23  9  2  8  1 30.0000000  0  9G02G03G08G10G14G21G22G27G32
 109775505.198 8  85539333.01647  20889586.020                    20889580.120
                                        50.050          47.200



 121771591.544 7  94886962.341 7  23172359.640                    23172360.940
                                        45.200          45.200



 111436265.337 8  86833445.795 8  21205622.040                    21205621.640
                                        49.500          48.400



 123394641.927 7  96151653.687 7  23481231.440                    23481233.360
                                        45.750          43.800



 121033076.546 7  94311476.461 7  23031832.780                    23031829.920
                                        44.550          44.500



 108614438.494 8  84634595.74347  20668641.940                    20668637.180
                                        48.550          46.750



 127095562.440 7  99035496.54646  24185483.160                    24185479.800
                                        44.700          38.650



 124807651.546 7  97252694.551 7  23750120.700                    23750123.120
                                        44.350          46.200



 118888312.963 8  92640264.921 7  22623688.420                    22623688.800
                                        48.700          46.250



 23  9  2  8  2  0.0000000  0  9G02G03G08G10G14G21G22G27G32
 109761982.660 8  85528795.93447  20887012.800                    20887006.900
                                        50.000          47.400



 121665948.408 7  94804643.040 7  23152256.440                    23152257.720
                                        44.850          44.800



 111502999.369 8  86885446.239 8  21218321.200                    21218320.800
                                        49.600          48.450



 123487760.573 7  96224213.445 7  23498951.480                    23498953.460
                                        45.850          43.800



 121019455.326 7  94300862.433 7  23029240.780                    23029238.000
                                        45.600          44.550



 108625119.611 8  84642918.64047  20670674.500                    20670669.760
                                        48.550          46.350



 127048830.458 7  98999082.01046  24176590.420                    24176587.000
                                        43.900          38.800



 124917184.515 7  97338044.720 7  23770964.280                    23770966.760
                                        43.650          45.700



 118866923.552 8  92623597.809 7  22619618.160                    22619618.560
                                        48.350          46.100



 23  9  2  8  2 30.0000000  0  9G02G03G08G10G14G21G22G27G32
 109748740.633 8  85518477.40647  20884492.980                    20884487.100
                                        50.000          47.300



 121560532.919 7  94722501.083 7  23132196.580                    23132197.860
                                        44.950          45.050



 111570159.054 8  86937778.360 8  21231101.360                    21231100.980
                                        49.450          48.750



 123581052.605 7  96296908.300 7  23516704.540                    23516706.560
                                        46.100          44.500



 121006422.570 7  94290706.949 7  23026760.760                    23026758.040
                                        46.050          44.550



 108636077.682 8  84651457.34147  20672759.780                    20672755.060
                                        48.850          46.750



 127002559.516 7  98963026.71446  24167785.380                    24167781.940
                                        44.250          36.950



 125026866.055 7  97423510.646 7  23791836.140                    23791838.680
                                        43.400          45.350



 118846088.976 8  92607363.023 7  22615653.500                    22615653.900
                                        48.050          46.100



 23  9  2  8  3  0.0000000  0  9G02G03G08G10G14G21G22G27G32
 109735781.460 8  85508379.29847  20882026.960                    20882021.100
                                        49.850          47.450



 121455348.836 7  94640539.453 7  23112180.740                    23112182.000
                                        45.050          45.000



 111637745.181 8  86990442.775 8  21243962.660                    21243962.320
                                        49.200          48.950



 123674517.804 7  96369738.083 7  23534490.560                    23534492.620
                                        46.300          44.050



 120993980.590 7  94281011.835 7  23024393.140                    23024390.480
                                        44.950          43.850



 108647314.561 8  84660213.29447  20674898.140                    20674893.420
                                        48.900          47.000



 126956752.929 7  98927333.24846  24159068.720                    24159065.220
                                        44.250          37.350



 125136696.296 7  97509092.485 7  23812736.240                    23812738.860
                                        43.600          44.550



 118825812.264 8  92591562.942 7  22611794.960                    22611795.420
                                        48.350          45.850



 23  9  2  8  3 30.0000000  0  9G02G03G08G10G14G21G22G27G32
 109723102.466 8  85498499.50147  20879614.280                    20879608.420
                                        50.100          47.250



 121350395.183 7  94558757.395 7  23092208.720                    23092210.000
                                        45.100          45.050



 111705753.704 8  87043436.316 8  21256904.340                    21256904.060
                                        49.150          48.800



 123768151.338 7  96442699.035 7  23552308.620                    23552310.740
                                        46.250          44.100



 120982126.796 7  94271775.022 7  23022137.480                    23022134.840
                                        44.900          43.300



 108658827.379 8  84669184.27247  20677089.000                    20677084.260
                                        48.700          47.000



 126911409.501 7  98892000.67646  24150440.160                    24150436.680
                                        45.050          36.100



 125246670.659 7  97594786.593 7  23833663.780                    23833666.480
                                        42.750          43.600



 118806091.590 8  92576196.130 7  22608042.260                    22608042.740
                                        48.000          45.850



 23  9  2  8  4  0.0000000  0  9G02G03G08G10G14G21G22G27G32
 109710705.876 8  85488839.76547  20877255.320                    20877249.480
                                        50.250          47.350



 121245675.506 7  94477157.630 7  23072281.260                    23072282.540
                                        45.750          43.500



 111774184.032 8  87096758.537 8  21269926.280                    21269926.060
                                        49.800          48.800



 123861952.932 7  96515790.955 7  23570158.660                    23570160.800
                                        46.200          43.900



 120970863.053 7  94262998.020 7  23019994.060                    23019991.440
                                        45.950          42.950



 108670617.758 8  84678371.52747  20679332.680                    20679327.940
                                        48.750          46.650



 126866532.223 7  98857031.34045  24141900.340                    24141896.820
                                        45.450          35.950



 125356788.947 7  97680592.908 7  23854618.660                    23854621.420
                                        43.300          43.250



 118786929.621 8  92561264.672 7  22604395.880                    22604396.380
                                        48.350          46.000



 23  9  2  8  4 30.0000000  0  9G02G03G08G10G14G21G22G27G32
 109698590.912 8  85479399.49347  20874949.960                    20874944.120
                                        50.050          47.250



 121141190.479 7  94395740.724 7  23052398.420                    23052399.700
                                        46.250          43.950



 111843034.327 8  87150408.013 8  21283028.160                    21283027.960
                                        49.800          48.550



 123955919.806 7  96589011.650 7  23588040.160                    23588042.340
                                        45.950          43.900



 120960188.458 7  94254680.086 7  23017962.800                    23017960.120
                                        45.650          43.750



 108682684.728 8  84687774.30947  20681629.000                    20681624.260
                                        48.700          47.100



 126822121.362 7  98822425.42646  24133449.280                    24133445.720
                                        44.850          38.050



 125467048.262 7  97766509.038 7  23875600.420                    23875603.260
                                        43.400          44.600



 118768326.170 8  92546768.440 7  22600855.780                    22600856.280
                                        48.350          45.700



 23  9  2  8  5  0.0000000  0  9G02G03G08G10G14G21G22G27G32
 109686758.175 8  85470179.13147  20872698.300                    20872692.480
                                        50.050          47.700



 121036942.237 7  94314508.331 7  23032560.660                    23032561.900
                                        46.350          43.900



 111912303.193 8  87204383.651 8  21296209.680                    21296209.520
                                        49.650          48.650



 124050050.011 7  96662359.606 7  23605952.760                    23605954.980
                                        45.100          44.150



 120950103.488 7  94246821.575 7  23016043.760                    23016041.060
                                        45.700          44.950



 108695027.753 8  84697392.19547  20683977.840                    20683973.120
                                        48.550          47.250



 126778178.823 7  98788184.42246  24125087.360                    24125083.780
                                        44.700          36.000



 125577447.106 7  97852533.929 7  23896608.740                    23896611.620
                                        43.850          44.350



 118750282.546 8  92532708.416 7  22597422.220                    22597422.740
                                        48.600          46.100



 23  9  2  8  5 30.0000000  0  9G02G03G08G10G14G21G22G27G32
 109675209.969 8  85461180.48847  20870500.780                    20870494.960
                                        49.950          47.650



 120932934.207 7  94233463.111 7  23012768.600                    23012769.800
                                        46.250          43.650



 111981991.322 8  87258685.991 7  21309471.000                    21309470.840
                                        49.150          47.950



 124144343.081 7  96735834.475 7  23623896.340                    23623898.600
                                        45.200          43.550



 120940609.901 7  94239423.885 7  23014237.260                    23014234.580
                                        45.650          44.500



 108707648.354 8  84707226.38147  20686379.500                    20686374.780
                                        48.200          47.300



 126734707.691 7  98754310.77346  24116815.120                    24116811.520
                                        44.550          36.700



 125687985.267 7  97938667.370 7  23917643.580                    23917646.520
                                        43.900          44.600



 118732801.239 8  92519086.584 7  22594095.640                    22594096.180
                                        48.250          46.050



 23  9  2  8  6  0.0000000  0  9G02G03G08G10G14G21G22G27G32
 109663946.198 8  85452403.48447  20868357.400                    20868351.580
                                        50.050          47.500



 120829168.368 7  94152606.603 7  22993022.640                    22993023.780
                                        46.400          44.400



 112052096.843 8  87313313.577 7  21322811.720                    21322811.580
                                        49.050          47.600



 124238797.398 7  96809434.980 7  23641870.600                    23641872.900
                                        45.300          43.650



 120931708.015 7  94232487.308 7  23012543.340                    23012540.640
                                        45.550          43.750



 108720546.691 8  84717276.98447  20688834.000                    20688829.320
                                        48.400          47.100



 126691708.878 7  98720805.15446  24108632.760                    24108629.180
                                        44.350          37.150



 125798661.080 7  98024908.088 7  23938704.620                    23938707.600
                                        44.000          43.700



 118715883.360 8  92505903.763 7  22590876.300                    22590876.840
                                        48.400          46.050



 23  9  2  8  6 30.0000000  0  9G02G03G08G10G14G21G22G27G32
 109652967.533 8  85443848.64347  20866268.260                    20866262.460
                                        50.100          47.850



 120725646.440 7  94071940.180 7  22973323.080                    22973324.160
                                        45.600          43.800



 112122618.465 8  87368265.384 7  21336231.620                    21336231.520
                                        48.300          47.400



 124333410.849 7  96883159.483 7  23659875.160                    23659877.500
                                        45.400          43.750



 120923397.752 7  94226011.756 7  23010961.980                    23010959.260
                                        44.650          44.100



 108733722.689 8  84727543.92847  20691341.360                    20691336.700
                                        48.450          47.500



 126649184.411 7  98687669.17346  24100540.660                    24100537.080
                                        43.900          37.900



 125909472.646 7  98111254.595 7  23959791.480                    23959794.500
                                        44.100          43.850



 118699529.624 8  92493160.543 7  22587764.320                    22587764.860
                                        48.600          46.250



 23  9  2  8  7  0.0000000  0  9G02G03G08G10G14G21G22G27G32
 109642272.702 8  85435514.97548  20864233.120                    20864227.340
                                        50.200          48.150



 120622368.634 7  93991463.957 7  22953669.980                    22953671.020
                                        44.300          44.250



 112193553.283 8  87423539.172 7  21349730.120                    21349730.040
                                        48.050          47.400



 124428179.796 7  96957005.168 7  23677909.280                    23677911.660
                                        45.550          43.050



 120915677.603 7  94219996.024 7  23009492.900                    23009490.180
                                        42.850          44.850



 108747174.297 8  84738025.63547  20693901.160                    20693896.540
                                        48.100          47.950



 126607133.662 7  98654902.34946  24092538.680                    24092535.120
                                        43.950          37.550



 126020416.514 7  98197704.182 7  23980903.520                    23980906.580
                                        43.850          44.950



 118683739.293 8  92480856.346 7  22584759.540                    22584760.100
                                        48.850          46.550



 23  9  2  8  7 30.0000000  0  9G02G03G08G10G14G21G22G27G32
 109631862.785 8  85427403.31848  20862252.200                    20862246.440
                                        50.150          48.200



 120519337.536 7  93911180.015 7  22934063.760                    22934064.780
                                        43.550          44.550



 112264900.918 8  87479134.627 7  21363307.160                    21363307.140
                                        48.450          47.350



 124523103.428 7  97030971.394 7  23695972.840                    23695975.240
                                        45.600          43.150



 120908548.551 7  94214440.862 7  23008136.280                    23008133.620
                                        43.550          44.950



 108760902.179 8  84748722.63647  20696513.540                    20696508.960
                                        48.350          47.950



 126565558.859 7  98622506.33946  24084627.300                    24084623.780
                                        44.650          37.050



 126131491.728 7  98284256.119 7  24002040.560                    24002043.680
                                        43.550          45.850



 118668514.068 8  92468992.467 7  22581862.340                    22581862.880
                                        49.000          46.150



 23  9  2  8  8  0.0000000  0  9G02G03G08G10G14G21G22G27G32
 109621737.500 8  85419513.44548  20860325.460                    20860319.700
                                        50.050          48.050



 120416554.374 7  93831089.258 7  22914504.700                    22914505.740
                                        44.100          44.400



 112336658.853 8  87535049.780 7  21376962.300                    21376962.320
                                        48.700          47.400



 124618179.003 7  97105055.999 7  23714065.320                    23714067.780
                                        45.950          43.050



 120902009.889 7  94209345.733 7  23006891.980                    23006889.440
                                        44.950          44.850



 108774905.653 8  84759634.38147  20699178.340                    20699173.820
                                        48.350          47.750



 126524460.622 7  98590481.71246  24076806.580                    24076803.080
                                        43.800          37.550



 126242695.859 7  98370908.471 7  24023202.140                    24023205.360
                                        42.300          44.400



 118653854.177 8  92457569.097 7  22579072.720                    22579073.280
                                        48.450          46.800



 23  9  2  8  8 30.0000000  0  9G02G03G08G10G14G21G22G27G32
 109611895.770 8  85411844.52347  20858452.680                    20858446.920
                                        50.300          47.850



 120314019.349 7  93751191.852 7  22894992.860                    22894993.940
                                        44.300          44.800



 112408824.022 8  87591282.287 7  21390694.920                    21390694.980
                                        48.900          47.700



 124713402.979 7  97179256.239 7  23732186.040                    23732188.540
                                        46.150          43.100



 120896060.072 7  94204709.477 7  23005759.760                    23005757.280
                                        45.200          45.050



 108789182.946 8  84770759.48947  20701895.260                    20701890.800
                                        48.550          47.550



 126483838.787 7  98558828.28146  24069076.540                    24069073.060
                                        43.850          36.900



 126354025.483 7  98457658.612 7  24044387.620                    24044390.900
                                        42.550          43.200



 118639758.727 8  92446585.579 7  22576390.500                    22576391.040
                                        48.100          46.850



 23  9  2  8  9  0.0000000  0  9G02G03G08G10G14G21G22G27G32
 109602338.555 8  85404397.30647  20856634.020                    20856628.280
                                        50.150          47.850



 120211735.341 7  93671489.999 7  22875528.840                    22875529.940
                                        43.950          45.000



 112481395.993 8  87647831.759 8  21404505.000                    21404505.080
                                        48.700          48.350



 124808774.668 7  97253571.587 7  23750334.880                    23750337.420
                                        46.200          43.050



 120890700.123 7  94200532.834 7  23004739.820                    23004737.400
                                        46.000          44.600



 108803735.463 8  84782099.06647  20704664.540                    20704660.140
                                        48.250          47.550



 126443695.658 7  98527547.88846  24061437.540                    24061434.140
                                        43.400          36.950



 126465479.835 7  98544505.967 7  24065596.800                    24065600.140
                                        43.050          42.400



 118626229.593 7  92436043.319 7  22573816.020                    22573816.620
                                        47.700          46.900



 23  9  2  8  9 30.0000000  0  9G02G03G08G10G14G21G22G27G32
 109593066.926 8  85397172.63347  20854869.700                    20854863.960
                                        50.400          47.400



 120109704.316 7  93591985.319 7  22856112.900                    22856114.040
                                        43.800          45.000



 112554373.982 8  87704697.609 8  21418392.320                    21418392.440
                                        49.300          48.650



 124904292.139 7  97328000.540 7  23768511.440                    23768514.040
                                        46.300          42.900



 120885930.248 7  94196816.013 7  23003832.180                    23003829.760
                                        46.800          44.700



 108818562.409 8  84793652.48747  20707486.040                    20707481.680
                                        48.300          46.950



 126404032.626 7  98496641.60546  24053889.900                    24053886.560
                                        44.100          37.150



 126577057.299 7  98631449.313 7  24086829.360                    24086832.700
                                        42.950          42.050



 118613267.749 7  92425943.113 7  22571349.480                    22571350.140
                                        47.900          46.850



 23  9  2  8 10  0.0000000  0  9G02G03G08G10G14G21G22G27G32
 109584080.870 8  85390170.46747  20853159.740                    20853154.000
                                        50.200          47.800



 120007927.727 7  93512678.879 7  22836745.400                    22836746.600
                                        44.150          45.300



 112627756.035 8  87761878.316 8  21432356.560                    21432356.720
                                        49.350          48.650



 124999953.392 7  97402541.497 7  23786715.400                    23786718.060
                                        45.900          43.150



 120881750.048 7  94193558.654 7  23003036.820                    23003034.360
                                        45.900          44.800



 108833663.621 8  84805419.61447  20710359.740                    20710355.440
                                        48.400          47.750



 126364850.635 7  98466110.15746  24046433.800                    24046430.540
                                        44.200          39.250



 126688755.698 6  98718486.837 7  24108084.980                    24108088.340
                                        41.300          43.700



 118600873.558 7  92416285.232 7  22568990.960                    22568991.680
                                        47.750          47.100



 23  9  2  8 10 30.0000000  0  9G02G03G08G10G14G21G22G27G32
 109575384.393 8  85383393.95647  20851504.880                    20851499.140
                                        50.200          47.950



 119906410.912 7  93433574.905 7  22817427.300                    22817428.520
                                        44.300          44.800



 112701543.688 8  87819375.075 8  21446398.000                    21446398.180
                                        49.300          48.650



 125095759.911 7  97477195.659 7  23804947.020                    23804949.720
                                        45.900          43.750



 120878162.982 7  94190763.478 7  23002354.320                    23002351.820
                                        45.700          44.750



 108849042.359 8  84817402.99347  20713286.240                    20713281.980
                                        48.850          47.500



 126326154.672 7  98435957.43446  24039070.220                    24039067.000
                                        44.900          36.750



 126800576.914 6  98805620.022 7  24129364.000                    24129367.420
                                        40.900          44.400



 118589051.352 8  92407073.038 7  22566741.280                    22566742.080
                                        48.350          47.200



 23  9  2  8 11  0.0000000  0  9G02G03G08G10G14G21G22G27G32
 109566971.399 8  85376838.33848  20849903.980                    20849898.220
                                        50.200          48.050



 119805149.408 7  93354669.822 7  22798157.840                    22798159.080
                                        45.000          44.950



 112775729.226 8  87877181.878 8  21460515.160                    21460515.340
                                        49.000          48.750



 125191703.635 7  97551956.707 7  23823204.760                    23823207.500
                                        45.550          43.800



 120875162.625 7  94188425.512 7  23001783.440                    23001780.860
                                        46.400          45.600



 108864692.616 8  84829597.95447  20716264.420                    20716260.180
                                        48.750          47.650



 126287939.563 7  98406179.38746  24031798.160                    24031794.980
                                        44.400          38.350



 126912512.754 6  98892842.512 7  24150664.800                    24150668.320
                                        41.000          44.500



 118577795.505 8  92398302.162 7  22564599.400                    22564600.260
                                        48.850          47.250



 23  9  2  8 11 30.0000000  0  9G02G03G08G10G14G21G22G27G32
 109558844.445 8  85370505.60148  20848357.500                    20848351.760
                                        50.050          48.000



 119704147.138 7  93275966.771 7  22778937.680                    22778938.940
                                        45.400          44.850



 112850313.669 8  87935299.492 8  21474708.240                    21474708.440
                                        48.800          48.350



 125287784.722 7  97626824.790 7  23841488.620                    23841491.440
                                        45.700          43.600



 120872751.016 7  94186546.277 7  23001324.640                    23001322.020
                                        46.250          46.100



 108880616.070 8  84842005.78447  20719294.600                    20719290.360
                                        48.650          47.400



 126250208.602 7  98376778.60246  24024618.240                    24024615.060
                                        44.750          37.050



 127024563.558 7  98980154.593 7  24171987.500                    24171991.120
                                        42.950          43.500



 118567108.852 8  92389974.799 7  22562565.860                    22562566.780
                                        48.900          47.150



 23  9  2  8 12  0.0000000  0  9G02G03G08G10G14G21G22G27G32
 109551004.124 8  85364396.21348  20846865.580                    20846859.840
                                        49.800          48.000



 119603406.092 7  93197467.233 7  22759767.280                    22759768.540
                                        45.600          45.000



 112925295.305 8  87993726.620 8  21488976.880                    21488977.100
                                        48.650          48.200



 125384001.618 7  97701798.684 7  23859798.360                    23859801.220
                                        45.450          43.750



 120870928.167 7  94185125.790 7  23000977.880                    23000975.260
                                        45.100          45.950



 108896812.896 8  84854626.63747  20722376.800                    20722372.560
                                        48.300          47.100



 126212963.205 7  98347756.13746  24017530.740                    24017527.560
                                        43.950          36.950



 127136727.713 7  99067555.074 7  24193331.740                    24193335.380
                                        43.600          42.050



 118556992.175 8  92382091.595 7  22560640.800                    22560641.740
                                        49.050          46.950



 23  9  2  8 12 30.0000000  0  9G02G03G08G10G14G21G22G27G32
 109543456.874 8  85358515.19647  20845429.380                    20845423.700
                                        50.200          47.600



 119502934.002 7  93119177.313 7  22740648.020                    22740649.300
                                        45.250          45.200



 113000678.829 8  88052466.895 7  21503322.000                    21503322.240
                                        49.000          47.750



 125480358.237 7  97776881.457 7  23878134.660                    23878137.580
                                        45.300          43.250



 120869699.921 7  94184168.659 7  23000744.200                    23000741.620
                                        45.650          45.000



 108913288.974 8  84867465.09047  20725512.140                    20725507.900
                                        48.650          46.850



 126176210.698 7  98319117.82846  24010536.960                    24010533.760
                                        44.350          37.100



 127249009.389 7  99155047.117 7  24214698.380                    24214702.020
                                        43.150          42.700



 118547452.171 8  92374657.725 7  22558825.500                    22558826.480
                                        49.100          46.850



 23  9  2  8 13  0.0000000  0  9G02G03G08G10G14G21G22G27G32
 109536194.591 8  85352856.22047  20844047.440                    20844041.780
                                        50.200          47.850



 119402724.026 7  93041091.615 7  22721578.660                    22721579.960
                                        43.950          44.900



 113076454.398 8  88111512.669 7  21517741.700                    21517741.960
                                        48.550          47.500



 125576844.656 7  97852065.372 7  23896495.660                    23896498.660
                                        44.700          43.050



 120869057.519 7  94183668.045 7  23000621.980                    23000619.420
                                        45.550          44.850



 108930035.577 8  84880514.34247  20728698.960                    20728694.700
                                        48.450          47.250



 126139943.578 7  98290857.68746  24003635.600                    24003632.360
                                        44.550          36.350



 127361398.275 6  99242622.672 7  24236085.440                    24236089.080
                                        41.950          42.350



 118538480.795 8  92367666.957 7  22557118.400                    22557119.380
                                        48.850          46.450



 23  9  2  8 13 30.0000000  0 10G02G03G08G10G14G17G21G22G27G32
 109529225.754 8  85347425.90947  20842721.340                    20842715.680
                                        50.600          47.400



 119302786.200 7  92963218.011 7  22702561.040                    22702562.380
                                        44.550          44.750



 113152627.764 8  88170868.421 7  21532237.100                    21532237.380
                                        48.800          47.100



 125673466.881 7  97927355.106 7  23914882.520                    23914885.560
                                        44.650          42.950



 120869008.928 7  94183630.117 7  23000612.780                    23000610.220
                                        44.450          45.100



 130095394.468 6 101373021.899 6  24756330.680                    24756327.260
                                        41.700          41.650



 108947060.791 8  84893780.69347  20731938.780                    20731934.520
                                        48.800          46.300



 126104171.264 7  98262983.13446  23996828.380                    23996825.120
                                        44.000          37.400



 127473900.673 6  99330286.700 7  24257494.080                    24257497.720
                                        41.250          42.300



 118530086.917 8  92361126.165 7  22555521.220                    22555522.200
                                        48.850          45.850



 23  9  2  8 14  0.0000000  0 10G02G03G08G10G14G17G21G22G27G32
 109522542.686 8  85342218.27547  20841449.640                    20841443.980
                                        50.600          47.600



 119203114.184 7  92885551.517 7  22683594.000                    22683595.400
                                        45.200          44.600



 113229190.714 8  88230527.750 7  21546806.640                    21546806.900
                                        48.900          46.550



 125770214.934 7  98002742.876 7  23933293.320                    23933296.420
                                        44.550          42.600



 120869545.835 7  94184048.404 7  23000714.980                    23000712.440
                                        44.700          45.450



 129996303.402 7 101295808.011 6  24737475.140                    24737471.100
                                        42.250          41.150



 108964356.274 8  84907257.64647  20735230.040                    20735225.780
                                        49.050          46.400



 126068886.546 7  98235488.46946  23990113.980                    23990110.720
                                        44.550          36.900



 127586506.769 6  99418031.484 7  24278922.460                    24278926.140
                                        41.200          42.450



 118522262.941 8  92355029.432 7  22554032.500                    22554033.460
                                        49.050          46.550



 23  9  2  8 14 30.0000000  0 10G02G03G08G10G14G17G21G22G27G32
 109516146.575 8  85337234.24547  20840232.540                    20840226.880
                                        50.500          47.750



 119103710.653 7  92808094.236 7  22664678.100                    22664679.500
                                        45.950          44.250



 113306141.197 8  88290489.039 7  21561449.940                    21561450.180
                                        48.650          46.550



 125867088.124 7  98078228.181 7  23951727.900                    23951731.060
                                        43.600          42.300



 120870668.829 7  94184923.425 7  23000928.660                    23000926.180
                                        45.200          45.500



 129897286.226 7 101218651.687 6  24718633.240                    24718628.980
                                        43.200          41.300



 108981922.741 8  84920945.75547  20738572.880                    20738568.580
                                        48.850          46.400



 126034091.572 7  98208375.45146  23983492.740                    23983489.500
                                        44.550          37.100



 127699215.653 6  99505856.394 7  24300370.360                    24300374.080
                                        41.500          42.800



 118515010.359 8  92349377.969 7  22552652.460                    22552653.440
                                        49.200          46.350



 23  9  2  8 15  0.0000000  0 10G02G03G08G10G14G17G21G22G27G32
 109510038.025 8  85332474.29247  20839070.160                    20839064.500
                                        50.500          47.750



 119004577.651 7  92730847.752 7  22645813.680                    22645815.100
                                        46.150          44.800



 113383478.863 8  88350752.051 7  21576166.880                    21576167.120
                                        48.700          46.250



 125964084.767 7  98153809.672 7  23970185.980                    23970189.200
                                        43.650          42.750



 120872377.926 7  94186255.122 7  23001253.920                    23001251.500
                                        44.350          46.050



 129798345.490 7 101141554.909 6  24699805.680                    24699801.280
                                        42.300          40.850



 108999760.615 8  84934845.35447  20741967.360                    20741963.060
                                        48.700          46.900



 125999787.938 7  98181645.27946  23976965.020                    23976961.800
                                        44.300          37.900



 127812025.717 6  99593760.128 6  24321837.520                    24321841.300
                                        41.900          41.850



 118508329.922 8  92344172.327 7  22551381.320                    22551382.300
                                        49.050          46.650



 23  9  2  8 15 30.0000000  0 10G02G03G08G10G14G17G21G22G27G32
 109504220.151 8  85327940.83748  20837963.120                    20837957.420
                                        50.350          48.150



 118905719.380 7  92653815.337 7  22627001.600                    22627002.980
                                        46.000          44.600



 113461203.670 8  88411316.717 7  21590957.520                    21590957.720
                                        48.600          47.150



 126061205.768 7  98229488.067 7  23988667.700                    23988671.000
                                        43.150          43.100



 120874675.362 7  94188045.225 7  23001691.160                    23001688.820
                                        44.100          46.350



 129699485.774 7 101064521.258 6  24680993.440                    24680988.900
                                        42.750          41.250



 109017872.488 8  84948958.45947  20745413.980                    20745409.680
                                        48.600          47.350



 125965979.121 7  98155300.69946  23970531.460                    23970528.240
                                        44.500          37.550



 127924937.711 7  99681743.303 6  24343324.080                    24343327.880
                                        42.250          41.950



 118502224.632 8  92339414.858 7  22550219.620                    22550220.600
                                        49.450          46.300



 23  9  2  8 16  0.0000000  0 10G02G03G08G10G14G17G21G22G27G32
 109498692.461 8  85323633.51148  20836911.260                    20836905.560
                                        50.550          48.400



 118807136.662 7  92576997.618 7  22608241.980                    22608243.320
                                        45.050          44.550



 113539313.600 8  88472181.464 7  21605821.440                    21605821.640
                                        48.850          47.550



 126158448.231 7  98305261.116 7  24007172.540                    24007175.920
                                        43.150          42.650



 120877559.720 7  94190292.723 7  23002240.040                    23002237.780
                                        44.650          45.700



 129600707.774 7 100987551.287 6  24662196.700                    24662192.100
                                        42.950          41.750



 109036256.757 8  84963283.82247  20748912.440                    20748908.140
                                        48.600          47.400



 125932665.215 7  98129341.75046  23964192.100                    23964188.880
                                        44.250          37.400



 128037948.907 6  99769803.788 6  24364829.520                    24364833.340
                                        41.850          41.650



 118496694.030 8  92335105.208 7  22549167.260                    22549168.240
                                        49.300          46.500



 23  9  2  8 16 30.0000000  0 10G02G03G08G10G14G17G21G22G27G32
 109493455.687 8  85319552.86148  20835914.780                    20835909.080
                                        50.400          48.800



 118708831.754 7  92500396.414 7  22589535.180                    22589536.500
                                        44.700          44.250



 113617808.002 8  88533345.808 7  21620758.520                    21620758.740
                                        48.900          47.700



 126255810.888 7  98381127.825 7  24025700.220                    24025703.700
                                        42.900          42.600



 120881031.296 7  94192997.817 7  23002900.660                    23002898.440
                                        43.200          45.300



 129502013.643 7 100910646.696 6  24643415.900                    24643411.260
                                        43.350          40.550



 109054913.970 8  84977821.85947  20752462.820                    20752458.560
                                        48.600          47.500



 125899847.852 7  98103769.70946  23957947.220                    23957943.980
                                        43.750          38.100



 128151058.064 6  99857940.604 6  24386353.620                    24386357.440
                                        41.000          41.950



 118491739.173 8  92331244.186 7  22548224.480                    22548225.440
                                        49.250          46.450



 23  9  2  8 17  0.0000000  0 10G02G03G08G10G14G17G21G22G27G32
 109488508.746 8  85315698.06348  20834973.460                    20834967.760
                                        50.400          48.200



 118610804.771 7  92424011.744 7  22570881.300                    22570882.560
                                        45.300          45.000



 113696683.005 8  88594806.737 7  21635768.040                    21635768.240
                                        49.300          47.550



 126353290.209 7  98457085.434 7  24044250.120                    24044253.700
                                        43.300          42.300



 120885088.000 7  94196158.823 7  23003672.620                    23003670.460
                                        43.600          46.500



 129403404.227 7 100833808.059 6  24624651.240                    24624646.600
                                        44.350          40.650



 109073842.203 8  84992571.09047  20756064.780                    20756060.540
                                        48.900          47.350



 125867526.444 7  98078584.12546  23951796.740                    23951793.460
                                        43.750          37.850



 128264261.675 7  99946150.985 7  24407895.760                    24407899.560
                                        42.100          42.950



 118487358.767 8  92327830.787 7  22547391.020                    22547391.960
                                        49.300          46.600



 23  9  2  8 17 30.0000000  0 10G02G03G08G10G14G17G21G22G27G32
 109483853.618 8  85312070.64748  20834087.660                    20834081.980
                                        50.550          48.150



 118513058.742 7  92347846.031 7  22552280.840                    22552282.060
                                        45.250          45.450



 113775938.501 8  88656564.137 7  21650849.960                    21650850.160
                                        48.950          47.850



 126450885.832 7  98533133.683 7  24062822.140                    24062825.800
                                        43.300          42.050



 120889730.721 7  94199776.477 7  23004556.100                    23004554.020
                                        45.250          46.800



 129304882.985 7 100757038.180 6  24605903.340                    24605898.680
                                        44.000          39.900



 109093043.104 8  85007532.78047  20759718.640                    20759714.400
                                        48.700          47.250



 125835703.368 7  98053786.90446  23945741.020                    23945737.720
                                        44.100          37.400



 128377559.242 7 100034434.602 6  24429455.760                    24429459.540
                                        42.850          41.600



 118483554.579 8  92324866.394 7  22546667.180                    22546668.140
                                        48.900          46.850



 23  9  2  8 18  0.0000000  0 10G02G03G08G10G14G17G21G22G27G32
 109479487.721 8  85308668.60548  20833256.900                    20833251.220
                                        50.750          48.200



 118415593.184 7  92271898.865 7  22533733.760                    22533734.960
                                        45.200          46.150



 113855570.424 8  88718614.857 8  21666003.540                    21666003.740
                                        48.700          48.300



 126548593.817 7  98609269.485 7  24081415.520                    24081419.300
                                        43.200          42.400



 120894956.783 7  94203848.698 7  23005550.600                    23005548.580
                                        45.100          46.050



 129206449.268 7 100680336.466 6  24587172.080                    24587167.440
                                        43.200          39.050



 109112514.251 8  85022705.06447  20763423.900                    20763419.700
                                        48.800          47.050



 125804377.426 7  98029377.06346  23939779.920                    23939776.580
                                        44.500          37.850



 128490946.774 7 100122788.352 6  24451032.860                    24451036.640
                                        42.650          41.950



 118480324.745 8  92322349.564 7  22546052.620                    22546053.600
                                        49.050          46.600



 23  9  2  8 18 30.0000000  0 10G02G03G08G10G14G17G21G22G27G32
 109475416.080 8  85305495.85347  20832482.140                    20832476.460
                                        50.550          47.550



 118318413.894 7  92196174.760 7  22515241.140                    22515242.340
                                        45.650          45.450



 113935581.931 8  88780961.349 8  21681229.340                    21681229.560
                                        48.600          48.300



 126646416.403 7  98685494.554 6  24100030.760                    24100034.640
                                        43.950          41.750



 120900769.893 7  94208378.355 7  23006656.840                    23006654.840
                                        44.700          45.200



 129108109.141 6 100603707.693 6  24568458.620                    24568453.980
                                        41.950          38.550



 109132259.400 8  85038090.83947  20767181.320                    20767177.120
                                        49.000          46.650



 125773553.558 7  98005358.43446  23933914.360                    23933911.020
                                        45.200          37.200



 128604426.538 7 100211213.951 7  24472627.540                    24472631.300
                                        42.550          42.400



 118477673.705 8  92320283.756 7  22545548.200                    22545549.180
                                        48.950          46.400



 23  9  2  8 19  0.0000000  0 10G02G03G08G10G14G17G21G22G27G32
 109471632.807 8  85302547.79647  20831762.240                    20831756.580
                                        50.550          47.700



 118221516.368 7  92120670.227 7  22496802.120                    22496803.320
                                        46.650          45.450



 114015964.101 8  88843596.667 7  21696525.700                    21696525.920
                                        48.200          47.950



 126744345.641 7  98761802.759 6  24118666.260                    24118670.240
                                        43.350          41.750



 120907163.203 7  94213360.127 7  23007873.460                    23007871.500
                                        44.600          45.800



 129009858.749 6 100527148.870 6  24549762.180                    24549757.560
                                        41.750          39.000



 109152272.314 8  85053685.26547  20770989.700                    20770985.500
                                        48.900          47.050



 125743226.664 7  97981727.04146  23928143.400                    23928140.060
                                        45.200          37.550



 128717990.455 6 100299705.131 7  24494238.220                    24494242.000
                                        41.700          42.050



 118475595.562 8  92318664.368 7  22545152.780                    22545153.780
                                        48.750          46.550



 23  9  2  8 19 30.0000000  0 10G02G03G08G10G14G17G21G22G27G32
 109468143.029 8  85299828.43647  20831098.220                    20831092.540
                                        50.400          47.850



 118124907.263 7  92045390.395 7  22478418.060                    22478419.240
                                        47.250          44.500



 114096721.143 7  88906524.107 7  21711893.360                    21711893.620
                                        47.950          47.900



 126842384.526 7  98838196.397 6  24137322.640                    24137326.740
                                        43.050          41.850



 120914141.188 7  94218797.467 7  23009201.360                    23009199.440
                                        44.600          46.100



 128911704.750 7 100450665.113 6  24531084.140                    24531079.540
                                        42.300          38.650



 109172557.671 8  85069491.98947  20774849.920                    20774845.720
                                        48.800          47.200



 125713402.399 7  97958487.30346  23922468.100                    23922464.740
                                        44.550          36.050



 128831641.694 6 100388264.339 7  24515865.540                    24515869.320
                                        41.100          42.850



 118474095.573 8  92317495.492 7  22544867.380                    22544868.420
                                        48.650          46.750



 23  9  2  8 20  0.0000000  0 10G02G03G08G10G14G17G21G22G27G32
 109464947.014 8  85297337.98647  20830490.080                    20830484.400
                                        50.650          47.550



 118028587.712 7  91970336.210 7  22460089.080                    22460090.200
                                        47.200          43.600



 114177850.120 7  88969741.350 7  21727331.780                    21727332.100
                                        47.850          47.600



 126940531.134 7  98914673.992 6  24155999.520                    24156003.700
                                        43.800          41.650



 120921702.782 7  94224689.569 7  23010640.320                    23010638.460
                                        44.050          45.900



 128813648.591 7 100374257.572 6  24512424.740                    24512420.140
                                        42.750          39.700



 109193115.047 8  85085510.67647  20778761.900                    20778757.700
                                        49.100          46.800



 125684081.267 7  97935639.64746  23916888.500                    23916885.140
                                        44.800          37.250



 128945377.919 6 100476889.756 7  24537509.000                    24537512.820
                                        41.300          42.950



 118473173.495 8  92316776.949 7  22544691.940                    22544693.020
                                        48.700          46.700



 23  9  2  8 20 30.0000000  0 10G02G03G08G10G14G17G21G22G27G32
 109462041.925 8  85295074.22548  20829937.300                    20829931.620
                                        50.550          48.050



 117932556.598 7  91895506.770 7  22441815.020                    22441816.020
                                        46.750          43.650



 114259346.960 7  89033245.232 7  21742840.220                    21742840.580
                                        47.850          47.200



 127038780.728 7  98991231.810 6  24174696.020                    24174700.300
                                        43.800          41.600



 120929844.645 7  94231033.800 7  23012189.740                    23012187.900
                                        44.100          45.300



 128715689.670 7 100297925.814 6  24493783.880                    24493779.240
                                        43.600          41.100



 109213941.199 8  85101738.78547  20782725.040                    20782720.840
                                        48.850          47.150



 125655261.533 7  97913182.69946  23911404.320                    23911400.940
                                        44.300          38.050



 129059194.498 6 100565577.787 7  24559167.760                    24559171.620
                                        41.600          42.750



 118472826.763 8  92316506.711 7  22544626.000                    22544627.120
                                        48.750          47.000



 23  9  2  8 21  0.0000000  0 10G02G03G08G10G14G17G21G22G27G32
 109459432.044 8  85293040.51048  20829440.700                    20829435.000
                                        50.650          48.200



 117836819.269 7  91820906.256 7  22423596.860                    22423597.740
                                        46.650          44.100



 114341213.365 8  89097037.138 7  21758418.920                    21758419.340
                                        48.400          46.600



 127137135.188 7  99067871.357 7  24193412.460                    24193416.840
                                        42.900          42.650



 120938569.841 7  94237832.609 7  23013850.120                    23013848.280
                                        44.500          44.650



 128617833.710 7 100221674.330 6  24475162.580                    24475157.940
                                        42.700          41.600



 109235040.174 8  85118179.49647  20786740.080                    20786735.880
                                        48.900          47.050



 125626947.396 7  97891119.72746  23906016.320                    23906012.980
                                        44.400          38.650



 129173093.270 7 100654329.900 6  24580842.120                    24580846.000
                                        42.700          41.750



 118473059.274 8  92316687.873 7  22544670.260                    22544671.420
                                        48.900          47.550



 23  9  2  8 21 30.0000000  0 10G02G03G08G10G14G17G21G22G27G32
 109457116.149 8  85291235.87848  20829000.040                    20828994.320
                                        50.350          48.200



 117741375.633 7  91746534.616 7  22405434.560                    22405435.340
                                        46.450          45.500



 114423445.642 8  89161114.143 7  21774067.260                    21774067.680
                                        48.800          46.600



 127235591.136 7  99144589.987 6  24212148.220                    24212152.700
                                        43.000          41.750



 120947875.917 7  94245084.068 7  23015621.020                    23015619.160
                                        45.450          45.100



 128520080.431 7 100145502.819 7  24456560.840                    24456556.240
                                        42.650          42.250



 109256409.568 8  85134830.91947  20790806.600                    20790802.380
                                        49.000          46.750



 125599138.159 7  97869450.14246  23900724.440                    23900721.140
                                        44.950          38.850



 129287070.630 6 100743143.251 7  24602531.420                    24602535.340
                                        41.300          42.650



 118473869.485 8  92317319.193 7  22544824.440                    22544825.660
                                        48.900          47.200



 23  9  2  8 22  0.0000000  0 10G02G03G08G10G14G17G21G22G27G32
 109455092.680 8  85289659.10147  20828615.020                    20828609.320
                                        50.250          47.650



 117646225.751 7  91672391.888 7  22387328.120                    22387328.860
                                        46.750          46.100



 114506040.808 8  89225473.906 7  21789784.680                    21789785.100
                                        48.650          46.950



 127334145.193 7  99221385.045 6  24230902.680                    24230907.260
                                        42.450          41.700



 120957760.684 7  94252786.449 7  23017502.080                    23017500.180
                                        46.050          44.900



 128422431.162 7 100069412.410 7  24437978.860                    24437974.300
                                        42.100          43.000



 109278047.836 8  85151691.85847  20794924.280                    20794920.060
                                        48.950          46.600



 125571833.155 7  97848173.48346  23895528.500                    23895525.220
                                        44.850          36.950



 129401123.290 6 100832015.227 6  24624235.080                    24624239.040
                                        39.850          41.400



 118475255.990 8  92318399.595 7  22545088.280                    22545089.540
                                        48.300          46.850



 23  9  2  8 22 30.0000000  0 10G02G03G08G10G14G17G21G22G27G32
 109453361.808 8  85288310.32147  20828285.680                    20828279.980
                                        50.450          47.350



 117551370.658 7  91598478.859 7  22369277.780                    22369278.520
                                        46.650          46.400



 114588997.029 8  89290114.990 7  21805570.820                    21805571.280
                                        48.800          47.350



 127432794.995 7  99298254.721 7  24249675.340                    24249680.040
                                        42.750          42.400



 120968222.787 7  94260938.688 7  23019493.060                    23019491.100
                                        44.750          43.850



 128324886.755 7  99993403.697 7  24419416.840                    24419412.360
                                        42.300          43.100



 109299954.237 8  85168761.73147  20799092.960                    20799088.760
                                        48.700          46.350



 125545032.616 7  97827289.92046  23890428.560                    23890425.300
                                        44.700          37.300



 129515248.742 6 100920943.931 7  24645952.580                    24645956.580
                                        39.900          42.000



 118477218.267 8  92319928.632 7  22545461.680                    22545463.000
                                        48.100          46.900



 23  9  2  8 23  0.0000000  0 10G02G03G08G10G14G17G21G22G27G32
 109451927.398 8  85287192.56847  20828012.740                    20828007.020
                                        50.550          47.100



 117456815.791 7  91524799.807 7  22351284.540                    22351285.280
                                        46.500          46.200



 114672315.583 8  89355038.422 7  21821425.920                    21821426.380
                                        48.350          47.600



 127531542.687 6  99375200.669 7  24268466.620                    24268471.460
                                        41.800          42.850



 120979265.408 7  94269543.272 7  23021594.500                    23021592.460
                                        43.050          42.100



 128227453.129 6  99917481.340 7  24400875.860                    24400871.460
                                        41.400          42.850



 109322132.644 8  85186043.56447  20803313.420                    20803309.200
                                        48.400          46.200



 125518740.795 7  97806802.76246  23885425.420                    23885422.160
                                        44.900          36.950



 129629448.842 6 101009930.822 6  24667684.260                    24667688.300
                                        40.650          41.550



 118479760.249 7  92321909.409 7  22545945.360                    22545946.780
                                        47.700          47.350



 23  9  2  8 23 30.0000000  0 10G02G03G08G10G14G17G21G22G27G32
 109450787.124 8  85286304.01247  20827795.780                    20827790.040
                                        50.500          47.600



 117362559.840 7  91451353.640 7  22333348.220                    22333348.980
                                        46.500          45.750



 114755992.437 8  89420241.037 7  21837349.200                    21837349.700
                                        48.100          47.750



 127630383.401 6  99452219.108 7  24287275.600                    24287280.560
                                        41.900          42.500



 120990884.778 7  94278597.282 7  23023805.620                    23023803.500
                                        45.000          43.150



 128130129.291 7  99841644.498 7  24382355.820                    24382351.480
                                        42.600          42.900



 109344579.920 8  85203534.90247  20807585.020                    20807580.800
                                        48.450          46.200



 125492955.979 7  97786710.66546  23880518.760                    23880515.500
                                        45.250          36.700



 129743718.874 6 101098972.214 7  24689429.240                    24689433.340
                                        41.750          42.700



 118482879.144 7  92324339.725 7  22546538.820                    22546540.320
                                        47.800          46.900



 23  9  2  8 24  0.0000000  0 10G02G03G08G10G14G17G21G22G27G32
 109449938.123 8  85285642.42248  20827634.260                    20827628.480
                                        50.400          48.100



 117268601.330 7  91378139.264 7  22315468.480                    22315469.220
                                        46.250          45.300



 114840022.136 8  89485718.591 7  21853339.640                    21853340.180
                                        48.100          47.950



 127729312.562 7  99529306.470 7  24306101.400                    24306106.500
                                        42.400          42.300



 121003077.033 7  94288097.693 7  23026125.760                    23026123.580
                                        45.900          44.550



 128032914.194 6  99765892.404 7  24363856.460                    24363852.200
                                        41.550          43.050



 109367292.997 8  85221233.34947  20811907.220                    20811903.000
                                        48.450          46.550



 125467675.693 7  97767011.68146  23875708.160                    23875704.880
                                        44.750          39.400



 129858053.902 7 101188064.240 6  24711186.640                    24711190.760
                                        43.000          41.650



 118486571.891 7  92327217.203 7  22547241.460                    22547243.080
                                        47.700          46.900



 23  9  2  8 24 30.0000000  0 10G02G03G08G10G14G17G21G22G27G32
 109449386.809 8  85285212.79947  20827529.360                    20827523.580
                                        50.400          47.950



 117174948.129 7  91305162.773 7  22297646.840                    22297647.560
                                        46.350          44.550



 114924409.269 7  89551474.678 7  21869398.080                    21869398.680
                                        47.850          47.900



 127828334.972 6  99606466.498 7  24324944.960                    24324950.180
                                        41.700          42.650



 121015847.705 7  94298048.782 7  23028556.020                    23028553.800
                                        45.150          44.300



 127935816.204 6  99690231.574 7  24345379.360                    24345375.160
                                        41.250          42.550



 109390277.561 8  85239143.36447  20816281.040                    20816276.840
                                        48.350          46.900



 125442906.761 7  97747711.17846  23870994.820                    23870991.540
                                        45.250          37.800



 129972458.305 7 101277210.350 6  24732957.240                    24732961.340
                                        43.350          41.150



 118490844.769 7  92330546.754 7  22548054.480                    22548056.200
                                        47.800          46.350



 23  9  2  8 25  0.0000000  0 10G02G03G08G10G14G17G21G22G27G32
 109449131.620 8  85285013.91947  20827480.820                    20827475.040
                                        50.400          47.950



 117081599.681 7  91232423.772 7  22279883.180                    22279883.860
                                        45.750          44.650



 115009149.866 7  89617506.189 8  21885523.780                    21885524.420
                                        47.850          48.000



 127927446.068 6  99683695.627 7  24343805.420                    24343810.740
                                        41.800          42.550



 121029193.766 7  94308448.267 7  23031095.740                    23031093.480
                                        44.600          44.250



 127838835.203 7  99614661.886 6  24326924.540                    24326920.420
                                        42.400          41.350



 109413531.865 8  85257263.56247  20820706.200                    20820702.040
                                        48.300          46.700



 125418647.796 7  97728808.08246  23866378.520                    23866375.220
                                        45.300          37.050



 130086928.212 7 101366407.512 6  24754740.300                    24754744.380
                                        43.150          40.300



 118495695.710 8  92334326.727 7  22548977.540                    22548979.300
                                        48.200          46.000



 23  9  2  8 25 30.0000000  0 10G02G03G08G10G14G17G21G22G27G32
 109449172.007 8  85285045.35348  20827488.520                    20827482.760
                                        50.450          48.000



 116988556.667 7  91159922.764 7  22262177.640                    22262178.280
                                        46.050          45.600



 115094241.335 7  89683811.112 8  21901716.220                    21901716.940
                                        47.950          48.100



 128026643.859 6  99760992.320 7  24362682.360                    24362687.760
                                        41.650          42.450



 121043113.482 7  94319294.783 7  23033744.580                    23033742.300
                                        43.850          44.700



 127741972.395 7  99539184.265 6  24308492.240                    24308488.200
                                        42.950          41.700



 109437054.077 8  85275592.52547  20825182.320                    20825178.220
                                        48.100          46.850



 125394898.622 7  97710302.20846  23861859.260                    23861855.920
                                        44.500          38.450



 130201460.790 7 101455653.478 6  24776535.360                    24776539.380
                                        42.950          40.000



 118501123.747 8  92338556.391 7  22550010.400                    22550012.220
                                        48.200          45.700



 23  9  2  8 26  0.0000000  0 10G02G03G08G10G14G17G21G22G27G32
 109449509.265 8  85285308.11447  20827552.720                    20827546.960
                                        50.550          47.850



 116895821.479 7  91087661.628 7  22244530.660                    22244531.280
                                        46.500          45.350



 115179682.849 8  89750388.784 7  21917975.300                    21917976.080
                                        48.100          47.400



 128125927.260 6  99838355.727 7  24381575.580                    24381581.080
                                        41.550          42.200



 121057606.810 7  94330588.227 7  23036502.580                    23036500.340
                                        44.150          45.550



 127645230.571 7  99463800.893 6  24290082.980                    24290079.000
                                        43.100          40.750



 109460845.251 8  85294131.05847  20829709.640                    20829705.580
                                        48.250          46.750



 125371660.832 7  97692194.77346  23857437.320                    23857433.980
                                        44.900          36.200



 130316054.973 7 101544947.454 6  24798342.120                    24798346.100
                                        42.150          38.650



 118507129.651 8  92343236.320 7  22551153.280                    22551155.100
                                        48.350          45.400



 23  9  2  8 26 30.0000000  0 10G02G03G08G10G14G17G21G22G27G32
 109450143.414 8  85285802.23348  20827673.420                    20827667.640
                                        50.650          48.050



 116803395.463 7  91015641.415 7  22226942.520                    22226943.120
                                        47.050          45.550



 115265471.818 8  89817237.219 7  21934300.500                    21934301.320
                                        48.050          47.500



 128225294.292 7  99915784.303 6  24400484.720                    24400490.300
                                        42.250          41.750



 121072672.615 7  94342327.767 7  23039369.500                    23039367.340
                                        45.500          45.400



 127548611.641 7  99388513.282 6  24271697.120                    24271693.200
                                        43.900          41.500



 109484904.985 8  85312878.86547  20834288.040                    20834284.020
                                        48.550          46.050



 125348934.735 7  97674486.11246  23853112.700                    23853109.360
                                        45.100          36.600



 130430708.736 6 101634287.884 6  24820160.180                    24820164.120
                                        41.950          39.100



 118513713.154 8  92348366.369 7  22552406.040                    22552407.820
                                        48.450          45.450



 23  9  2  8 27  0.0000000  0 10G02G03G08G10G14G17G21G22G27G32
 109451076.592 8  85286529.36147  20827851.040                    20827845.240
                                        50.550          47.850



 116711281.912 7  90943864.675 7  22209413.880                    22209414.460
                                        47.400          45.450



 115351608.489 7  89884356.593 7  21950691.840                    21950692.700
                                        47.900          47.350



 128324744.845 7  99993277.961 7  24419409.760                    24419415.400
                                        42.050          42.250



 121088311.659 7  94354514.012 7  23042345.520                    23042343.400
                                        45.000          44.950



 127452119.137 7  99313324.209 6  24253335.280                    24253331.420
                                        43.350          41.150



 109509234.987 8  85331837.26547  20838917.900                    20838913.920
                                        48.550          46.800



 125326722.480 7  97657177.79646  23848885.920                    23848882.580
                                        45.350          37.500



 130545421.935 6 101723674.559 6  24841989.580                    24841993.520
                                        40.950          40.850



 118520875.898 8  92353947.756 7  22553769.060                    22553770.820
                                        48.800          45.400



 23  9  2  8 27 30.0000000  0 10G02G03G08G10G14G17G21G22G27G32
 109452305.320 8  85287486.78048  20828084.880                    20828079.080
                                        50.600          48.100



 116619478.531 7  90872329.586 7  22191944.300                    22191944.860
                                        47.400          45.600



 115438087.218 8  89951742.472 7  21967148.320                    21967149.220
                                        48.300          47.700



 128424273.577 7 100070832.523 6  24438349.680                    24438355.380
                                        42.850          41.750



 121104519.171 7  94367143.187 7  23045429.740                    23045427.660
                                        44.250          45.450



 127355751.143 7  99238232.186 7  24234997.120                    24234993.300
                                        43.700          42.200



 109533831.107 8  85351003.02647  20843598.400                    20843594.460
                                        48.650          46.900



 125305021.291 7  97640267.74445  23844756.340                    23844753.000
                                        44.650          35.200



 130660188.833 6 101813103.108 6  24863829.180                    24863833.120
                                        41.850          40.850



 118528613.922 8  92359977.385 7  22555241.580                    22555243.280
                                        48.700          45.300



 23  9  2  8 28  0.0000000  0 10G02G03G08G10G14G17G21G22G27G32
 109453831.931 8  85288676.32548  20828375.400                    20828369.620
                                        50.650          48.100



 116527989.160 7  90801039.189 7  22174534.460                    22174535.020
                                        47.050          45.900



 115524908.536 7  90019395.347 7  21983669.940                    21983670.900
                                        47.750          47.550



 128523881.169 7 100148448.550 6  24457304.600                    24457310.360
                                        43.050          41.350



 121121296.492 7  94380216.369 7  23048622.400                    23048620.360
                                        45.900          45.750



 127259512.504 7  99163240.961 7  24216683.560                    24216679.800
                                        44.100          42.450



 109558695.609 8  85370377.93447  20848329.980                    20848326.060
                                        48.850          46.550



 125283833.461 7  97623757.70346  23840724.440                    23840721.120
                                        44.250          36.700



 130775009.881 6 101902573.838 6  24885679.040                    24885683.060
                                        40.550          40.900



 118536929.325 8  92366456.938 7  22556823.980                    22556825.600
                                        48.750          45.100



 23  9  2  8 28 30.0000000  0 10G02G03G08G10G14G17G21G22G27G32
 109455654.672 8  85290096.60148  20828722.300                    20828716.520
                                        50.550          48.050



 116436812.902 7  90729992.795 7  22157184.200                    22157184.740
                                        46.850          46.900



 115612067.685 7  90087311.425 7  22000255.880                    22000256.900
                                        47.800          47.300



 128623563.228 7 100226122.576 6  24476273.700                    24476279.540
                                        43.050          41.900



 121138640.148 7  94393730.838 7  23051922.860                    23051920.860
                                        46.550          45.650



 127163402.785 7  99088350.172 7  24198394.560                    24198390.860
                                        44.650          42.450



 109583825.954 8  85389959.97447  20853112.160                    20853108.260
                                        48.950          46.650



 125263157.518 7  97607646.53046  23836789.960                    23836786.660
                                        44.800          36.450



 130889880.805 6 101992083.444 6  24907538.400                    24907542.480
                                        41.200          40.600



 118545819.584 8  92373384.412 7  22558515.760                    22558517.300
                                        48.700          45.950



 23  9  2  8 29  0.0000000  0 10G02G03G08G10G14G17G21G22G27G32
 109457775.680 8  85291749.30448  20829125.940                    20829120.160
                                        50.350          48.200



 116345953.176 7  90659193.045 7  22139894.140                    22139894.720
                                        46.200          47.400



 115699565.247 8  90155491.213 7  22016906.220                    22016907.280
                                        48.300          46.800



 128723320.380 7 100303855.115 6  24495257.100                    24495263.000
                                        43.300          41.700



 121156551.032 7  94407687.278 7  23055331.320                    23055329.320
                                        45.450          45.650



 127067425.847 7  99013562.913 7  24180130.760                    24180127.120
                                        44.450          42.800



 109609223.650 8  85409750.34647  20857945.220                    20857941.320
                                        48.950          46.150



 125242995.639 7  97591935.94046  23832953.280                    23832950.020
                                        45.650          36.050



 131004801.636 7 102081631.949 7  24929407.260                    24929411.380
                                        42.600          42.200



 118555286.375 8  92380761.147 7  22560317.260                    22560318.720
                                        48.700          45.850



 23  9  2  8 29 30.0000000  0 10G02G03G08G10G14G17G21G22G27G32
 109460197.878 8  85293636.70548  20829586.880                    20829581.140
                                        50.400          48.550



 116255413.836 7  90588642.960 7  22122665.020                    22122665.700
                                        46.750          47.350



 115787401.128 8  90223934.642 7  22033620.920                    22033622.000
                                        48.550          46.300



 128823153.074 7 100381646.530 6  24514254.880                    24514260.820
                                        43.400          40.950



 121175030.446 7  94422086.768 7  23058847.920                    23058845.920
                                        44.900          46.000



 126971586.163 7  98938882.581 7  24161893.120                    24161889.520
                                        44.300          43.350



 109634890.980 8  85429750.82047  20862829.580                    20862825.700
                                        49.000          46.400



 125223351.195 7  97576628.53046  23829215.100                    23829211.880
                                        45.100          37.000



 131119772.860 7 102171219.711 7  24951285.720                    24951289.900
                                        42.650          42.550



 118565331.888 8  92388588.819 7  22562228.880                    22562230.280
                                        48.850          45.950



 23  9  2  8 30  0.0000000  0 10G02G03G08G10G14G17G21G22G27G32
 109462916.269 8  85295754.89548  20830104.200                    20830098.500
                                        50.400          48.700



 116165191.248 7  90518339.692 7  22105496.180                    22105496.940
                                        47.200          46.900



 115875568.771 7  90292636.613 7  22050398.740                    22050399.820
                                        47.250          46.350



 128923054.381 7 100459491.391 6  24533265.720                    24533271.700
                                        43.900          41.250



 121194072.172 7  94436924.403 7  23062471.520                    23062469.560
                                        45.950          45.800



 126875880.687 7  98864306.877 7  24143680.980                    24143677.420
                                        43.900          42.900



 109660822.833 8  85449957.40747  20867764.300                    20867760.420
                                        48.950          46.850



 125204219.001 7  97561720.23045  23825574.440                    23825571.260
                                        45.050          35.700



 131234787.514 7 102260841.292 7  24973172.480                    24973176.700
                                        42.500          42.650



 118575950.722 8  92396863.238 7  22564249.600                    22564250.940
                                        49.100          45.650



 23  9  2  8 30 30.0000000  0 10G02G03G08G10G14G17G21G22G27G32
 109465932.680 8  85298105.31048  20830678.200                    20830672.560
                                        50.300          48.550



 116075288.485 7  90448285.632 7  22088388.200                    22088389.060
                                        47.950          46.000



 115964067.378 8  90361596.456 7  22067239.560                    22067240.640
                                        48.250          46.850



 129023024.649 7 100537389.971 6  24552289.680                    24552295.720
                                        43.500          41.000



 121213676.647 7  94452200.541 7  23066202.220                    23066200.300
                                        46.650          44.650



 126780312.933 7  98789838.480 7  24125495.040                    24125491.520
                                        43.400          42.800



 109687020.191 8  85470370.88847  20872749.520                    20872745.680
                                        48.850          46.350



 125185601.327 7  97547212.89145  23822031.660                    23822028.480
                                        44.950          35.500



 131349845.144 7 102350496.365 7  24995067.420                    24995071.680
                                        42.700          42.400



 118587144.137 8  92405585.373 7  22566379.660                    22566380.940
                                        48.900          45.250



 23  9  2  8 31  0.0000000  0  9G02G03G08G10G14G17G21G22G32
 109469245.583 8  85300686.76648  20831308.640                    20831303.060
                                        50.400          48.850



 115985705.084 7  90378480.402 7  22071341.040                    22071341.940
                                        47.850          46.200



 116052893.342 7  90430811.350 7  22084142.700                    22084143.780
                                        47.900          47.100



 129123059.856 7 100615339.197 6  24571325.980                    24571332.040
                                        43.500          41.550



 121233840.767 7  94467912.789 7  23070039.420                    23070037.460
                                        45.350          44.750



 126684882.842 7  98715477.332 7  24107335.300                    24107331.820
                                        44.200          43.600



 109713481.244 8  85490989.84347  20877784.940                    20877781.100
                                        48.850          46.900



 125167496.279 7  97533105.00645  23818586.440                    23818583.260
                                        45.000          35.000



 118598909.909 8  92414753.505 7  22568618.620                    22568619.840
                                        49.050          45.550



 23  9  2  8 31 30.0000000  0  9G02G03G08G10G14G17G21G22G32
 109472864.831 8  85303506.93548  20831997.360                    20831991.840
                                        50.400          48.650



 115896451.990 7  90308932.543 7  22054356.740                    22054357.640
                                        47.950          46.250



 116142054.031 7  90500287.073 7  22101109.500                    22101110.640
                                        46.550          46.750



 129223168.122 7 100693345.306 6  24590376.220                    24590382.320
                                        43.900          40.800



 121254572.872 7  94484067.607 7  23073984.680                    23073982.700
                                        44.300          45.350



 126589602.212 7  98641232.685 7  24089203.980                    24089200.540
                                        44.550          43.150



 109740215.357 8  85511821.57647  20882872.280                    20882868.480
                                        48.800          46.700



 125149914.386 7  97519404.82246  23815240.760                    23815237.540
                                        44.050          37.350



 118611257.190 8  92424374.773 7  22570968.240                    22570969.400
                                        49.350          45.400



 23  9  2  8 32  0.0000000  0  9G02G03G08G10G14G17G21G22G32
 109476785.322 8  85306561.82248  20832743.440                    20832737.960
                                        50.300          48.550



 115807525.056 7  90239638.846 7  22037434.520                    22037435.400
                                        47.400          46.650



 116231542.220 7  90570018.022 7  22118138.580                    22118139.780
                                        46.800          46.700



 129323342.038 7 100771402.620 6  24609438.920                    24609445.000
                                        43.350          40.700



 121275866.153 7  94500659.704 7  23078036.700                    23078034.760
                                        44.500          45.700



 126494467.549 7  98567101.758 7  24071100.460                    24071097.060
                                        43.200          42.800



 109767216.639 8  85532861.48547  20888010.480                    20888006.720
                                        48.750          46.900



 125132850.369 7  97506108.10946  23811993.640                    23811990.420
                                        43.850          37.250



 118624180.077 8  92434444.540 7  22573427.400                    22573428.520
                                        49.400          45.450



 23  9  2  8 32 30.0000000  0  9G02G03G08G10G14G17G21G22G32
 109481004.534 8  85309849.48148  20833546.340                    20833540.920
                                        50.100          48.600



 115718923.334 7  90170598.562 7  22020574.160                    22020575.040
                                        46.850          46.600



 116321353.075 7  90640000.388 7  22135229.080                    22135230.320
                                        47.200          46.950



 129423577.318 7 100849507.720 6  24628513.340                    24628519.400
                                        43.250          40.950



 121297716.961 7  94517686.244 7  23082194.780                    23082192.920
                                        45.750          44.950



 126399478.636 7  98493084.383 6  24053024.680                    24053021.320
                                        43.700          41.500



 109794482.666 8  85554107.68547  20893199.080                    20893195.340
                                        48.850          46.800



 125116301.884 7  97493213.13846  23808844.580                    23808841.380
                                        45.100          36.750



 118637675.749 8  92444960.653 7  22575995.540                    22575996.620
                                        49.350          45.750



 23  9  2  8 33  0.0000000  0  9G02G03G08G10G14G17G21G22G32
 109485523.781 8  85313370.93748  20834406.360                    20834400.960
                                        50.200          48.200



 115630649.175 7  90101813.542 7  22003776.120                    22003777.000
                                        46.750          46.650



 116411486.245 7  90710233.908 7  22152380.920                    22152382.200
                                        47.650          46.750



 129523873.887 7 100927660.577 6  24647599.400                    24647605.480
                                        43.200          41.200



 121320125.055 7  94535147.047 7  23086458.920                    23086457.080
                                        45.400          44.050



 126304638.449 7  98419182.887 7  24034977.200                    24034973.900
                                        43.800          42.000



 109822014.039 8  85575560.64947  20898438.140                    20898434.440
                                        49.150          46.950



 125100270.313 7  97480721.00346  23805793.860                    23805790.660
                                        44.800          37.550



 118651744.758 8  92455923.525 7  22578672.800                    22578673.840
                                        49.300          45.900



 23  9  2  8 33 30.0000000  0  9G02G03G08G10G14G17G21G22G32
 109490343.523 8  85317126.54648  20835323.520                    20835318.160
                                        50.100          48.700



 115542704.028 7  90033284.879 7  21987040.680                    21987041.580
                                        46.900          46.600



 116501939.429 7  90780716.794 7  22169593.680                    22169594.980
                                        47.350          46.950



 129624229.822 7 101005859.704 6  24666696.760                    24666702.840
                                        43.050          41.500



 121343089.163 7  94553041.090 7  23090828.920                    23090827.020
                                        44.600          44.050



 126209948.979 7  98345398.848 6  24016958.400                    24016955.120
                                        43.800          41.600



 109849810.580 8  85597220.23447  20903727.700                    20903724.020
                                        48.900          46.800



 125084755.822 7  97468631.73246  23802841.600                    23802838.400
                                        44.750          38.100



 118666386.680 8  92467332.813 7  22581459.080                    22581460.100
                                        49.050          45.750



 23  9  2  8 34  0.0000000  0  9G02G03G08G10G14G17G21G22G32
 109495465.764 8  85321117.86748  20836298.280                    20836292.940
                                        50.400          48.450



 115455091.094 7  89965015.095 7  21970368.440                    21970369.360
                                        47.500          46.650



 116592712.310 7  90851448.780 7  22186867.280                    22186868.620
                                        47.250          47.050



 129724645.281 7 101084105.236 6  24685805.420                    24685811.520
                                        43.250          41.050



 121366609.745 7  94571368.751 7  23095304.800                    23095302.860
                                        44.600          45.000



 126115413.903 7  98271735.148 7  23998968.960                    23998965.700
                                        45.300          42.200



 109877873.589 8  85619087.46947  20909067.960                    20909064.280
                                        49.150          46.300



 125069760.705 7  97456947.17446  23799988.140                    23799984.980
                                        45.450          37.300



 118681602.845 8  92479189.569 7  22584354.620                    22584355.640
                                        49.050          46.000



 23  9  2  8 34 30.0000000  0  9G02G03G08G10G14G17G21G22G32
 109500889.762 8  85325344.32948  20837330.460                    20837325.140
                                        50.550          48.250



 115367810.622 7  89897004.348 7  21953759.500                    21953760.440
                                        47.550          46.900



 116683801.629 7  90922427.341 7  22204201.120                    22204202.480
                                        47.100          46.900



 129825117.402 7 101162394.906 6  24704924.860                    24704930.980
                                        43.050          41.950



 121390684.266 7  94590128.077 7  23099886.080                    23099884.100
                                        45.100          45.300



 126021034.338 7  98198192.617 6  23981009.120                    23981005.880
                                        44.850          41.400



 109906202.187 8  85641161.64847  20914458.760                    20914455.080
                                        49.150          46.050



 125055284.062 7  97445666.64446  23797233.360                    23797230.180
                                        45.450          38.350



 118697391.607 8  92491492.492 7  22587359.140                    22587360.160
                                        49.050          46.050



 23  9  2  8 35  0.0000000  0  9G02G03G08G10G14G17G21G22G32
 109506615.231 8  85329805.70448  20838420.000                    20838414.700
                                        50.550          48.250



 115280863.291 7  89829253.176 7  21937213.980                    21937214.920
                                        47.650          46.850



 116775204.888 7  90993650.527 7  22221594.680                    22221596.060
                                        47.400          46.450



 129925643.927 7 101240726.982 6  24724054.640                    24724060.800
                                        42.850          41.350



 121415310.763 7  94609317.506 7  23104572.400                    23104570.400
                                        44.300          45.300



 125926811.815 7  98124772.451 7  23963079.180                    23963075.960
                                        44.300          42.050



 109934795.313 8  85663441.95547  20919899.920                    20919896.200
                                        49.050          46.550



 125041325.324 7  97434789.66746  23794577.140                    23794573.960
                                        45.300          38.550



 118713751.783 8  92504240.663 7  22590472.400                    22590473.420
                                        49.050          46.200



 23  9  2  8 35 30.0000000  0  8G02G03G08G14G17G21G22G32
 109512652.415 8  85334509.96948  20839568.880                    20839563.580
                                        50.550          48.050



 115194260.677 7  89761770.622 7  21920734.040                    21920735.000
                                        47.550          47.050



 116866930.353 7  91065124.806 7  22239049.560                    22239050.940
                                        46.950          46.500



 121440497.980 7  94628943.818 7  23109365.460                    23109363.460
                                        44.300          45.000



 125832758.249 7  98051483.942 6  23945181.360                    23945178.180
                                        44.400          41.750



 109963662.976 8  85685936.19047  20925393.300                    20925389.580
                                        49.100          46.200



 125027895.077 7  97424324.53746  23792021.440                    23792018.280
                                        44.950          38.350



 118730693.009 8  92517441.610 7  22593696.200                    22593697.260
                                        48.950          46.350



 23  9  2  8 36  0.0000000  0  8G02G03G08G14G17G21G22G32
 109518982.387 8  85339442.38147  20840773.480                    20840768.180
                                        50.350          47.800



 115107984.960 7  89694542.826 7  21904316.320                    21904317.260
                                        47.550          47.100



 116958956.529 7  91136833.390 7  22256561.660                    22256563.060
                                        46.550          46.500



 121466225.296 7  94648991.000 7  23114261.260                    23114259.280
                                        43.850          44.150



 125738856.900 7  97978314.017 7  23927312.540                    23927309.380
                                        45.500          42.550



 109992785.326 8  85708628.88647  20930935.160                    20930931.420
                                        49.250          46.250



 125014974.346 7  97414256.44346  23789562.700                    23789559.560
                                        44.950          37.100



 118748195.530 8  92531079.927 7  22597026.840                    22597027.920
                                        48.950          46.050



 23  9  2  8 36 30.0000000  0  8G02G03G08G14G17G21G22G32
 109525616.068 8  85344611.44747  20842035.860                    20842030.540
                                        50.400          47.850



 115022048.130 7  89627579.095 7  21887963.080                    21887964.020
                                        47.050          47.100



 117051291.871 7  91208782.875 7  22274132.580                    22274134.020
                                        46.700          46.550



 121492501.918 7  94669466.218 7  23119261.600                    23119259.600
                                        44.700          43.750



 125645120.386 7  97905272.540 7  23909475.100                    23909471.960
                                        45.300          42.850



 110022173.536 8  85731528.73547  20936527.600                    20936523.880
                                        49.250          46.600



 125002573.547 7  97404593.41946  23787202.940                    23787199.840
                                        45.200          38.900



 118766269.404 8  92545163.450 7  22600466.180                    22600467.300
                                        48.900          46.350



 23  9  2  8 37  0.0000000  0  8G02G03G08G14G17G21G22G32
 109532551.474 8  85350015.62148  20843355.660                    20843350.340
                                        50.400          48.100



 114936448.994 7  89560878.498 7  21871674.100                    21871675.060
                                        47.700          47.200



 117143932.311 7  91280970.085 7  22291761.580                    22291763.060
                                        47.150          45.600



 121519323.969 7  94690366.438 7  23124365.740                    23124363.720
                                        44.800          44.750



 125551548.176 7  97832359.110 7  23891668.900                    23891665.780
                                        45.650          43.100



 110051824.551 8  85754633.37047  20942170.060                    20942166.360
                                        49.150          46.550



 124990690.908 7  97395334.21446  23784941.740                    23784938.680
                                        45.350          37.700



 118784911.482 8  92559689.710 7  22604013.680                    22604014.820
                                        48.750          45.900



 23  9  2  8 37 30.0000000  0  8G02G03G08G14G17G21G22G32
 109539792.579 8  85355658.00748  20844733.640                    20844728.300
                                        50.500          48.100



 114851192.649 8  89494445.007 7  21855450.360                    21855451.320
                                        48.000          46.600



 117236878.678 7  91353395.719 7  22309448.780                    22309450.260
                                        46.750          45.200



 121546693.589 7  94711693.310 7  23129574.080                    23129572.080
                                        44.800          45.350



 125458146.043 7  97759578.202 7  23873895.060                    23873891.980
                                        45.450          42.700



 110081741.970 8  85777945.59347  20947863.220                    20947859.520
                                        48.900          46.150



 124979329.900 7  97386481.49546  23782779.800                    23782776.780
                                        44.700          37.050



 118804124.904 8  92574661.160 7  22607669.900                    22607671.100
                                        48.600          46.700



 23  9  2  8 38  0.0000000  0  8G02G03G08G14G17G21G22G32
 109547336.128 8  85361536.04848  20846169.180                    20846163.820
                                        50.650          48.100



 114766277.220 8  89428277.132 7  21839291.520                    21839292.480
                                        48.550          45.650



 117330126.481 7  91426056.228 7  22327193.360                    22327194.820
                                        46.950          45.650



 121574606.101 7  94733443.217 7  23134885.740                    23134883.760
                                        44.550          44.150



 125364912.938 7  97686928.986 7  23856153.420                    23856150.360
                                        45.700          42.850



 110111922.272 8  85801462.65947  20953606.380                    20953602.700
                                        48.950          46.000



 124968487.535 7  97378032.90346  23780716.540                    23780713.580
                                        45.400          39.550



 118823905.764 8  92590074.768 7  22611434.100                    22611435.340
                                        48.750          46.950



 23  9  2  8 38 30.0000000  0  8G02G03G08G14G17G21G22G32
 109555185.009 8  85367652.02147  20847662.820                    20847657.440
                                        50.600          47.900



 114681706.565 8  89362377.908 7  21823198.300                    21823199.220
                                        48.250          46.000



 117423676.131 7  91498951.951 7  22344995.360                    22344996.800
                                        47.150          46.600



 121603062.570 7  94755617.009 7  23140300.880                    23140298.940
                                        44.150          43.600



 125271853.554 7  97614415.139 7  23838444.820                    23838441.780
                                        45.100          42.050



 110142367.727 8  85825186.33547  20959399.980                    20959396.320
                                        49.050          45.900



 124958166.487 7  97369990.53046  23778752.500                    23778749.580
                                        44.750          39.200



 118844255.962 8  92605932.022 7  22615306.620                    22615307.940
                                        48.800          47.100



 23  9  2  8 39  0.0000000  0  8G02G03G08G14G17G21G22G32
 109563337.708 8  85374004.73247  20849214.280                    20849208.880
                                        50.450          47.800



 114597479.800 7  89296746.683 7  21807170.500                    21807171.360
                                        47.650          46.550



 117517523.148 7  91572079.363 7  22362853.980                    22362855.420
                                        46.900          46.700



 121632059.207 7  94778211.730 7  23145818.780                    23145816.820
                                        44.750          43.700



 125178967.783 7  97542036.586 6  23820769.240                    23820766.220
                                        44.750          41.950



 110173075.753 8  85849114.61547  20965243.560                    20965239.900
                                        49.150          46.050



 124948364.653 7  97362352.72746  23776887.260                    23776884.400
                                        45.300          37.950



 118865172.582 8  92622230.648 7  22619286.960                    22619288.340
                                        48.800          46.900



 23  9  2  8 39 30.0000000  0  8G02G03G08G14G17G21G22G32
 109571795.441 8  85380595.12847  20850823.760                    20850818.360
                                        50.200          47.750



 114513599.391 7  89231385.356 7  21791208.560                    21791209.400
                                        47.150          47.300



 117611666.809 7  91645437.917 7  22380769.060                    22380770.500
                                        46.050          46.700



 121661595.636 7  94801227.034 7  23151439.420                    23151437.460
                                        44.900          43.850



 125086259.151 7  97469796.057 7  23803127.380                    23803124.380
                                        44.600          42.250



 110204047.531 8  85873248.42247  20971137.320                    20971133.680
                                        49.100          46.200



 124939083.186 7  97355120.41546  23775121.040                    23775118.220
                                        45.100          37.750



 118886656.108 8  92638971.013 7  22623375.160                    22623376.600
                                        48.700          46.750



 23  9  2  8 40  0.0000000  0  8G02G03G08G14G17G21G22G32
 109580558.367 8  85387423.33147  20852491.320                    20852485.940
                                        50.500          47.800



 114430066.845 7  89166295.116 7  21775312.800                    21775313.620
                                        47.550          47.550



 117706104.936 7  91719025.932 7  22398740.120                    22398741.620
                                        45.300          46.800



 121691670.493 7  94824661.902 7  23157162.520                    23157160.560
                                        45.000          44.750



 124993729.761 7  97397695.190 7  23785519.620                    23785516.640
                                        44.800          42.150



 110235283.115 8  85897587.77047  20977081.300                    20977077.680
                                        49.200          45.900



 124930322.112 7  97348293.60246  23773453.860                    23773451.040
                                        45.600          37.550



 118908706.019 8  92656152.706 7  22627571.160                    22627572.660
                                        49.000          46.650



 23  9  2  8 40 30.0000000  0  8G02G03G08G14G17G21G22G32
 109589628.790 8  85394491.14447  20854217.400                    20854212.020
                                        50.400          47.600



 114346885.088 7  89101478.197 7  21759483.820                    21759484.640
                                        47.750          47.200



 117800837.518 7  91792843.367 7  22416767.200                    22416768.820
                                        45.400          46.550



 121722283.775 7  94848516.318 7  23162988.080                    23162986.140
                                        44.700          45.150



 124901383.572 7  97325737.070 6  23767946.740                    23767943.780
                                        43.850          41.650



 110266783.989 8  85922133.83247  20983075.780                    20983072.160
                                        49.000          45.900



 124922083.309 7  97341873.72546  23771886.080                    23771883.240
                                        45.400          38.050



 118931323.145 8  92673776.384 7  22631875.100                    22631876.640
                                        48.650          46.350



 23  9  2  8 41  0.0000000  0  8G02G03G08G14G17G21G22G32
 109599003.923 8  85401796.39547  20856001.460                    20855996.080
                                        50.550          47.900



 114264052.597 8  89036933.419 7  21743721.280                    21743722.140
                                        48.250          47.150



 117895859.006 7  91866885.958 7  22434849.240                    22434850.940
                                        46.000          46.400



 121753430.998 7  94872786.793 7  23168915.260                    23168913.340
                                        44.250          45.300



 124809219.835 7  97253921.081 6  23750408.600                    23750405.680
                                        44.700          41.350



 110298547.111 8  85946884.26547  20989120.140                    20989116.540
                                        49.300          46.150



 124914363.862 7  97335858.51446  23770417.160                    23770414.320
                                        45.600          38.150



 118954503.868 8  92691839.222 7  22636286.280                    22636287.880
                                        48.400          46.600



 23  9  2  8 41 30.0000000  0  8G02G03G08G14G17G21G22G32
 109608681.906 8  85409337.63847  20857843.160                    20857837.780
                                        50.350          47.850



 114181568.383 8  88972660.045 7  21728025.040                    21728025.880
                                        48.450          46.500



 117991165.554 7  91941150.682 7  22452985.540                    22452987.280
                                        45.850          46.350



 121785108.331 7  94897470.366 7  23174943.280                    23174941.400
                                        44.200          45.150



 124717238.337 7  97182247.119 7  23732905.120                    23732902.220
                                        43.950          42.300



 110330569.854 8  85971836.99747  20995213.900                    20995210.320
                                        49.200          45.800



 124907161.578 7  97330246.27946  23769046.680                    23769043.820
                                        46.150          37.900



 118978245.175 8  92710338.886 7  22640804.140                    22640805.760
                                        48.350          46.250



 23  9  2  8 42  0.0000000  0  8G02G03G08G14G17G21G22G32
 109618666.705 8  85417117.94148  20859743.240                    20859737.860
                                        50.550          48.250



 114099437.355 7  88908661.866 7  21712396.000                    21712396.840
                                        47.650          46.600



 118086758.243 7  92015638.322 7  22471176.340                    22471178.140
                                        46.050          47.150



 121817317.765 7  94922568.542 7  23181072.560                    23181070.740
                                        44.750          44.700



 124625444.731 7  97110719.550 7  23715437.420                    23715434.540
                                        44.150          43.150



 110362855.962 8  85996994.92747  21001357.800                    21001354.220
                                        49.250          45.900



 124900480.082 7  97325039.84946  23767775.300                    23767772.420
                                        46.100          36.550



 119002549.872 8  92729277.543 7  22645429.200                    22645430.860
                                        48.650          46.700



 23  9  2  8 42 30.0000000  0  8G02G03G08G14G17G21G22G32
 109628956.146 8  85425135.63647  20861701.300                    20861695.920
                                        50.550          47.950



 114017658.569 7  88844938.173 7  21696833.980                    21696834.820
                                        47.000          46.800



 118182633.291 7  92090345.994 7  22489420.860                    22489422.720
                                        46.100          46.950



 121850055.378 7  94948078.327 7  23187302.340                    23187300.540
                                        44.950          44.900



 124533839.103 7  97039338.512 7  23698005.440                    23698002.600
                                        43.300          43.900



 110395402.785 8  86022356.01847  21007551.300                    21007547.760
                                        49.100          46.100



 124894317.220 7  97320237.53946  23766602.620                    23766599.740
                                        45.250          36.550



 119027414.958 8  92748652.863 7  22650160.920                    22650162.620
                                        48.500          46.750



 23  9  2  8 43  0.0000000  0  8G02G03G08G14G17G21G22G32
 109639553.773 8  85433393.48147  20863718.000                    20863712.640
                                        50.550          47.900



 113936236.327 7  88781492.322 7  21681339.800                    21681340.640
                                        47.600          46.700



 118278791.531 7  92165274.361 7  22507719.260                    22507721.180
                                        46.200          46.250



 121883322.519 7  94974000.713 7  23193632.900                    23193631.140
                                        45.350          46.050



 124442426.652 7  96968107.998 7  23680610.220                    23680607.440
                                        44.550          43.950



 110428213.106 8  86047922.43347  21013794.960                    21013791.420
                                        49.300          46.050



 124888675.709 7  97315841.45046  23765529.180                    23765526.280
                                        46.000          36.400



 119052842.561 8  92768466.514 7  22654999.680                    22655001.420
                                        48.250          46.700



 23  9  2  8 43 30.0000000  0  8G02G03G08G14G17G21G22G32
 109650459.401 8  85441891.32147  20865793.320                    20865787.940
                                        50.350          47.800



 113855171.480 7  88718324.929 7  21665913.640                    21665914.480
                                        47.800          46.350



 118375230.184 7  92240421.222 7  22526071.040                    22526073.000
                                        46.150          45.350



 121917117.024 7  95000334.004 7  23200063.880                    23200062.140
                                        45.200          46.150



 124351209.357 7  96897029.554 7  23663252.160                    23663249.420
                                        44.750          44.050



 110461286.654 8  86073693.97347  21020088.700                    21020085.160
                                        49.150          46.050



 124883555.052 7  97311851.25846  23764554.820                    23764551.920
                                        46.500          36.900



 119078831.405 8  92788717.481 7  22659945.240                    22659947.020
                                        48.100          46.400



 23  9  2  8 44  0.0000000  0  8G02G03G08G14G17G21G22G32
 109661671.198 8  85450627.73147  20867926.920                    20867921.520
                                        50.350          47.650



 113774462.950 7  88655435.174 7  21650555.280                    21650556.140
                                        47.750          46.250



 118471944.395 7  92315782.802 7  22544475.280                    22544477.260
                                        46.250          45.350



 121951434.823 7  95027075.060 7  23206594.420                    23206592.720
                                        45.100          45.400



 124260186.927 7  96826102.960 7  23645931.160                    23645928.500
                                        44.400          44.200



 110494620.382 8  86099668.24547  21026431.940                    21026428.400
                                        49.100          46.250



 124878952.726 7  97308264.94246  23763679.120                    23763676.200
                                        45.850          37.650



 119105378.293 8  92809403.264 7  22664997.020                    22664998.840
                                        48.700          46.300



 23  9  2  8 44 30.0000000  0  8G02G03G08G14G17G21G22G32
 109673191.544 8  85459604.56547  20870119.200                    20870113.800
                                        50.450          47.950



 113694114.483 7  88592825.997 7  21635265.440                    21635266.280
                                        47.200          46.300



 118568935.817 7  92391360.401 7  22562932.260                    22562934.220
                                        46.250          45.000



 121986276.651 7  95054224.463 7  23213224.680                    23213223.020
                                        45.500          44.250



 124169363.784 7  96755331.657 7  23628648.100                    23628645.480
                                        44.800          43.850



 110528216.662 8  86125847.10147  21032825.160                    21032821.600
                                        49.250          45.800



 124874871.282 7  97305084.48646  23762902.580                    23762899.620
                                        45.700          36.350



 119132484.760 8  92830525.096 7  22670155.280                    22670157.120
                                        48.850          46.600



 23  9  2  8 45  0.0000000  0  8G02G03G08G14G17G21G22G32
 109685020.747 8  85468822.06947  20872370.280                    20872364.860
                                        50.350          47.800



 113614127.241 7  88530498.290 7  21620044.340                    21620045.160
                                        47.050          46.700



 118666201.377 7  92467151.620 7  22581441.380                    22581443.340
                                        44.250          44.750



 122021640.704 7  95081780.823 7  23219954.300                    23219952.640
                                        45.050          44.750



 124078742.584 7  96684717.725 7  23611403.440                    23611400.900
                                        44.800          43.250



 110562075.702 8  86152230.70347  21039268.360                    21039264.800
                                        49.050          45.550



 124871310.667 7  97302309.90746  23762225.080                    23762222.100
                                        45.450          36.800



 119160149.873 8  92852082.227 7  22675419.860                    22675421.720
                                        48.550          46.900



 23  9  2  8 45 30.0000000  0  8G02G03G08G14G17G21G22G32
 109697161.598 8  85478282.42647  20874680.640                    20874675.220
                                        50.650          47.550



 113534504.875 8  88468454.921 7  21604892.660                    21604893.460
                                        48.000          47.250



 118763741.617 7  92543156.845 7  22600002.780                    22600004.760
                                        44.200          45.800



 122057527.667 7  95109744.588 7  23226783.460                    23226781.820
                                        45.050          45.850



 123988327.712 7  96614264.556 7  23594198.060                    23594195.580
                                        44.700          43.000



 110596199.866 8  86178820.89347  21045762.040                    21045758.460
                                        49.200          45.100



 124868273.188 7  97299942.96646  23761647.140                    23761644.160
                                        45.550          37.900



 119188375.065 8  92874075.791 7  22680791.000                    22680792.880
                                        48.350          46.850



 23  9  2  8 46  0.0000000  0  8G02G03G08G14G17G21G22G32
 109709608.909 8  85487981.58347  20877049.320                    20877043.880
                                        50.600          47.700



 113455243.004 8  88406692.463 7  21589809.580                    21589810.380
                                        48.200          47.500



 118861548.321 7  92619369.677 7  22618614.860                    22618616.920
                                        44.900          46.400



 122093930.021 7  95138109.908 7  23233710.760                    23233709.140
                                        44.850          46.200



 123898115.630 7  96543969.424 7  23577031.260                    23577028.820
                                        45.000          43.250



 110630582.609 8  86205612.58447  21052304.900                    21052301.300
                                        49.050          45.300



 124865752.760 7  97297978.93546  23761167.560                    23761164.580
                                        44.700          37.350



 119217153.749 8  92896500.641 7  22686267.480                    22686269.400
                                        48.400          46.850



 23  9  2  8 46 30.0000000  0  8G02G03G08G14G17G21G22G32
 109722364.123 8  85497920.66747  20879476.600                    20879471.160
                                        50.400          47.600



 113376344.209 7  88345212.911 7  21574795.620                    21574796.400
                                        47.950          47.400



 118959621.351 7  92695790.072 7  22637277.600                    22637279.760
                                        45.050          46.950



 122130847.315 7  95166876.527 7  23240735.980                    23240734.420
                                        45.300          45.850



 123808109.674 7  96473834.886 7  23559903.720                    23559901.300
                                        44.800          43.350



 110665225.398 8  86232606.90347  21058897.240                    21058893.620
                                        49.200          45.350



 124863750.466 7  97296418.65046  23760786.560                    23760783.620
                                        45.000          38.250



 119246486.332 8  92919357.105 7  22691849.340                    22691851.320
                                        48.450          46.650



 23  9  2  8 47  0.0000000  0  8G02G03G08G14G17G21G22G32
 109735426.267 8  85508098.90948  20881962.280                    20881956.860
                                        50.400          48.000



 113297808.440 7  88284016.236 7  21559850.740                    21559851.500
                                        47.600          47.250



 119057957.434 7  92772415.438 7  22655990.400                    22655992.660
                                        45.000          46.800



 122168276.494 7  95196042.039 7  23247858.620                    23247857.080
                                        45.300          44.900



 123718310.582 7  96403861.568 7  23542815.520                    23542813.140
                                        45.000          42.600



 110700126.852 8  86259802.78147  21065538.800                    21065535.180
                                        49.300          46.000



 124862265.101 7  97295261.18046  23760503.940                    23760500.980
                                        45.400          36.650



 119276370.589 8  92942643.421 7  22697536.200                    22697538.240
                                        48.750          46.800



 23  9  2  8 47 30.0000000  0  8G02G03G08G14G17G21G22G32
 109748796.368 8  85518517.12248  20884506.560                    20884501.160
                                        50.400          48.050



 113219637.554 7  88223103.890 7  21544975.280                    21544976.040
                                        47.900          47.400



 119156554.585 7  92849244.215 7  22674752.920                    22674755.280
                                        45.200          46.200



 122206216.324 7  95225605.467 7  23255078.400                    23255076.880
                                        44.600          44.300



 123628722.340 7  96334052.575 7  23525767.420                    23525765.040
                                        45.300          42.550



 110735287.722 8  86287200.79947  21072229.740                    21072226.100
                                        49.450          46.050



 124861296.761 7  97294506.62946  23760319.660                    23760316.700
                                        45.450          37.500



 119306806.099 8  92966359.288 7  22703327.960                    22703330.040
                                        48.750          46.800



 23  9  2  8 48  0.0000000  0  8G02G03G08G14G17G21G22G32
 109762480.049 8  85529179.68148  20887110.520                    20887105.140
                                        50.250          48.250



 113141837.941 8  88162480.832 7  21530170.500                    21530171.220
                                        48.450          47.500



 119255415.909 7  92926278.847 7  22693565.700                    22693568.160
                                        44.650          46.600



 122244670.156 7  95255569.381 7  23262396.020                    23262394.500
                                        43.350          45.050



 123539351.728 7  96264413.133 7  23508760.780                    23508758.400
                                        45.350          43.150



 110770712.767 8  86314804.66547  21078970.960                    21078967.320
                                        49.550          46.000



 124860850.432 7  97294158.82046  23760234.760                    23760231.760
                                        44.650          38.200



 119337797.030 8  92990507.948 7  22709225.420                    22709227.540
                                        48.600          46.950



 23  9  2  8 48 30.0000000  0  8G02G03G08G14G17G21G22G32
 109776473.063 8  85540083.27747  20889773.340                    20889767.980
                                        50.250          47.850



 113064406.641 8  88102144.791 7  21515435.800                    21515436.500
                                        48.550          47.150



 119354534.862 7  93003514.204 7  22712427.540                    22712430.080
                                        45.400          46.500



 122283631.906 7  95285929.053 7  23269810.280                    23269808.780
                                        44.400          45.300



 123450196.675 7  96194941.661 7  23491795.160                    23491792.760
                                        45.100          43.500



 110806397.645 8  86342610.99447  21085761.640                    21085757.980
                                        49.700          45.850



 124860922.080 7  97294214.62546  23760248.400                    23760245.400
                                        44.000          37.800



 119369338.171 8  93015085.340 7  22715227.600                    22715229.760
                                        48.800          46.750



 23  9  2  8 49  0.0000000  0  8G02G03G08G14G17G21G22G32
 109790773.759 8  85551226.63247  20892494.720                    20892489.380
                                        50.200          47.650



 112987342.660 8  88042094.958 7  21500771.020                    21500771.680
                                        48.250          47.450



 119453907.753 7  93080947.458 7  22731337.680                    22731340.300
                                        46.100          45.300



 122323097.454 7  95316681.350 7  23277320.380                    23277318.920
                                        44.100          44.800



 123361257.375 7  96125638.311 7  23474870.600                    23474868.180
                                        44.750          44.150



 110842339.799 8  86370617.80247  21092601.280                    21092597.600
                                        49.700          45.550



 124861508.870 7  97294671.86446  23760360.040                    23760357.060
                                        45.000          37.300



 119401426.266 8  93040088.936 7  22721333.840                    22721336.060
                                        48.850          46.550



 23  9  2  8 49 30.0000000  0  8G02G03G08G14G17G21G22G32
 109805384.523 8  85562611.60047  20895275.080                    20895269.760
                                        50.350          47.600



 112910649.183 8  87982333.829 7  21486176.720                    21486177.360
                                        48.550          47.550



 119553534.374 7  93158578.441 7  22750296.120                    22750298.760
                                        45.750          45.400



 122363066.899 7  95347826.317 7  23284926.340                    23284924.900
                                        43.700          43.850



 123272538.033 7  96056506.323 7  23457987.920                    23457985.500
                                        44.600          43.750



 110878541.261 8  86398826.66947  21099490.260                    21099486.560
                                        49.400          45.800



 124862612.448 7  97295531.80146  23760570.040                    23760567.060
                                        44.750          37.950



 119434062.280 8  93065519.485 7  22727544.360                    22727546.600
                                        49.350          46.350



 23  9  2  8 50  0.0000000  0  8G02G03G08G14G17G21G22G32
 109820306.486 8  85574239.06047  20898114.660                    20898109.360
                                        50.250          47.850



 112834328.518 8  87922863.196 7  21471653.360                    21471654.020
                                        48.350          47.150



 119653413.288 7  93236406.020 7  22769302.600                    22769305.220
                                        44.650          45.800



 122403539.508 7  95379363.315 7  23292628.060                    23292626.660
                                        43.500          44.000



 123184041.686 7  95987548.106 7  23441147.660                    23441145.220
                                        43.850          43.650



 110915002.925 8  86427238.29247  21106428.760                    21106425.040
                                        49.350          46.250



 124864233.887 7  97296795.24646  23760878.580                    23760875.620
                                        43.900          39.200



 119467246.176 8  93091376.965 7  22733859.140                    22733861.400
                                        49.200          46.300



 23  9  2  8 50 30.0000000  0  8G02G03G08G14G17G21G22G32
 109835541.979 8  85586110.82447  20901013.900                    20901008.620
                                        50.400          47.300



 112758383.655 8  87863685.380 7  21457201.520                    21457202.200
                                        48.200          47.500



 119753544.182 7  93314429.916 7  22788357.020                    22788359.660
                                        44.650          45.300



 122444515.064 7  95411292.238 7  23300425.460                    23300424.080
                                        45.400          44.950



 123095772.679 7  95918767.059 7  23424350.640                    23424348.180
                                        43.750          42.900



 110951726.828 8  86455854.25547  21113417.140                    21113413.420
                                        49.600          45.950



 124866374.410 7  97298463.15146  23761285.900                    23761282.980
                                        44.400          37.800



 119500978.672 8  93117661.918 7  22740278.340                    22740280.580
                                        49.150          46.050



 23  9  2  8 51  0.0000000  0  8G02G03G08G14G17G21G22G32
 109851088.006 8  85598224.56847  20903972.240                    20903967.000
                                        50.300          47.100



 112682812.367 8  87804798.679 7  21442820.780                    21442821.460
                                        48.450          47.750



 119853922.338 7  93392646.449 7  22807458.520                    22807461.200
                                        45.950          45.300



 122485988.208 7  95443608.886 7  23308317.580                    23308316.220
                                        45.700          46.000



 123007730.301 7  95850162.572 7  23407596.760                    23407594.300
                                        43.750          43.250



 110988709.303 8  86484671.70147  21120454.740                    21120451.040
                                        49.750          46.050



 124869030.100 7  97300532.47945  23761791.260                    23761788.360
                                        45.250          35.800



 119535255.287 8  93144370.862 7  22746801.080                    22746803.280
                                        49.100          46.350



 23  9  2  8 51 30.0000000  0  8G02G03G08G14G17G21G22G32
 109866946.079 8  85610581.45147  20906989.960                    20906984.740
                                        50.300          47.150



 112607616.976 8  87746204.880 8  21428511.540                    21428512.260
                                        48.300          48.050



 119954545.883 7  93471054.238 7  22826606.700                    22826609.380
                                        46.250          45.300



 122527958.109 7  95476312.600 7  23316304.260                    23316302.920
                                        45.050          46.350



 122919917.822 7  95781737.223 7  23390886.640                    23390884.180
                                        44.600          43.350



 111025951.461 8  86513691.49247  21127541.760                    21127538.080
                                        49.900          46.200



 124872202.357 7  97303004.33146  23762394.940                    23762392.060
                                        45.050          36.450



 119570075.996 8  93171503.769 7  22753427.340                    22753429.540
                                        49.150          46.300



 23  9  2  8 52  0.0000000  0  8G02G03G08G14G17G21G22G32
 109883112.297 8  85623178.46547  20910066.300                    20910061.100
                                        49.950          47.150



 112532794.948 7  87687902.036 8  21414273.340                    21414274.100
                                        47.400          48.450



 120055409.760 7  93549649.313 7  22845800.600                    22845803.280
                                        45.950          45.600



 122570419.079 7  95509398.968 7  23324384.380                    23324383.080
                                        44.250          46.100



 122832333.704 7  95713489.846 7  23374219.940                    23374217.460
                                        44.700          43.250



 111063448.890 8  86542910.21747  21134677.320                    21134673.680
                                        49.800          46.650



 124875886.744 7  97305875.23946  23763096.080                    23763093.200
                                        45.450          37.200



 119605435.944 8  93199056.888 7  22760156.200                    22760158.400
                                        48.850          46.300



 23  9  2  8 52 30.0000000  0  8G02G03G08G14G17G21G22G32
 109899592.698 8  85636020.28747  20913202.440                    20913197.280
                                        49.850          47.550



 112458352.983 7  87629895.343 8  21400107.440                    21400108.280
                                        47.150          48.100



 120156516.495 7  93628433.614 7  22865040.760                    22865043.420
                                        46.650          46.250



 122613374.638 7  95542870.750 7  23332558.600                    23332557.360
                                        44.850          45.550



 122744985.695 7  95645426.403 7  23357598.200                    23357595.740
                                        44.550          43.200



 111101206.901 8  86572331.97447  21141862.500                    21141858.860
                                        49.400          47.000



 124880088.242 7  97309149.08046  23763895.640                    23763892.760
                                        45.100          37.650



 119641339.463 8  93227033.545 7  22766988.520                    22766990.720
                                        48.800          45.800



 23  9  2  8 53  0.0000000  0  8G02G03G08G14G17G21G22G32
 109916383.916 8  85649104.29947  20916397.720                    20916392.600
                                        50.000          47.750



 112384288.408 7  87572182.732 8  21386013.340                    21386014.240
                                        47.750          48.150



 120257860.776 7  93707403.018 7  22884326.120                    22884328.780
                                        45.850          46.200



 122656818.978 7  95576723.400 7  23340825.840                    23340824.640
                                        45.550          45.250



 122657872.118 7  95577545.659 7  23341021.060                    23341018.580
                                        44.300          43.150



 111139222.046 8  86601954.08947  21149096.620                    21149093.000
                                        49.300          47.000



 124884802.726 7  97312822.64546  23764792.840                    23764789.920
                                        44.800          36.800



 119677781.563 8  93255429.900 7  22773923.300                    22773925.480
                                        48.900          45.800



 23  9  2  8 53 30.0000000  0  8G02G03G08G14G17G21G22G32
 109933491.300 8  85662434.66747  20919653.180                    20919648.080
                                        50.150          47.850



 112310607.256 8  87514768.876 8  21371992.220                    21371993.180
                                        48.100          48.250



 120359445.105 7  93786559.449 7  22903657.160                    22903659.840
                                        45.350          46.500



 122700755.005 7  95610959.159 7  23349186.720                    23349185.500
                                        44.550          45.400



 122571000.588 7  95509853.535 7  23324489.980                    23324487.480
                                        44.800          43.100



 111177498.978 8  86631780.19447  21156380.540                    21156376.980
                                        49.200          47.000



 124890034.705 7  97316899.44046  23765788.520                    23765785.540
                                        44.950          36.700



 119714765.993 8  93284248.826 7  22780961.300                    22780963.460
                                        48.950          45.950



 23  9  2  8 54  0.0000000  0  8G02G03G08G14G17G21G22G32
 109950915.668 8  85676012.05247  20922968.960                    20922963.880
                                        50.200          47.550



 112237311.493 8  87457655.327 8  21358044.440                    21358045.440
                                        48.100          48.100



 120461268.173 7  93865901.915 7  22923033.600                    22923036.340
                                        44.350          46.300



 122745181.464 7  95645577.040 7  23357640.940                    23357639.700
                                        43.350          45.200



 122484373.914 7  95442352.202 7  23308005.480                    23308002.980
                                        44.750          43.200



 111216038.486 8  86661810.91047  21163714.420                    21163710.900
                                        49.350          46.750



 124895784.605 7  97321379.80346  23766882.760                    23766879.740
                                        46.200          36.300



 119752292.238 8  93313489.968 7  22788102.400                    22788104.540
                                        48.950          45.550



 23  9  2  8 54 30.0000000  0  8G02G03G08G14G17G21G22G32
 109968648.451 8  85689829.75247  20926343.440                    20926338.360
                                        50.250          47.350



 112164393.359 8  87400836.037 8  21344168.540                    21344169.560
                                        48.400          48.250



 120563318.799 7  93945421.691 7  22942453.340                    22942456.140
                                        45.250          45.600



 122790087.276 7  95680568.492 7  23366186.300                    23366185.080
                                        44.750          45.800



 122397985.658 7  95375036.649 7  23291566.380                    23291563.880
                                        45.000          43.400



 111254831.365 8  86692039.05447  21171096.500                    21171093.040
                                        49.400          46.650



 124902042.724 7  97326256.19445  23768073.700                    23768070.640
                                        46.150          35.650



 119790350.216 8  93343145.429 7  22795344.680                    22795346.820
                                        49.000          45.650



 23  9  2  8 55  0.0000000  0  8G02G03G08G14G17G21G22G32
 109986693.802 8  85703891.02147  20929777.400                    20929772.340
                                        50.250          47.750



 112091857.729 8  87344314.811 7  21330365.440                    21330366.460
                                        48.300          47.950



 120665598.915 7  94025120.291 7  22961916.720                    22961919.600
                                        45.100          45.550



 122835474.187 7  95715934.834 7  23374823.200                    23374822.020
                                        45.950          45.900



 122311841.701 7  95307911.447 7  23275173.760                    23275171.260
                                        45.600          43.850



 111293881.562 8  86722467.69747  21178527.560                    21178524.160
                                        49.600          46.850



 124908812.718 7  97331531.45946  23769362.080                    23769358.940
                                        45.550          37.250



 119828942.456 8  93373217.224 7  22802688.600                    22802690.720
                                        49.400          45.850



 23  9  2  8 55 30.0000000  0  8G02G03G08G14G17G21G22G32
 110005050.655 8  85718195.01547  20933270.620                    20933265.580
                                        50.100          47.700



 112019704.247 8  87288091.354 8  21316635.060                    21316636.080
                                        48.000          48.350



 120768104.767 7  94104994.798 7  22981423.060                    22981425.980
                                        45.050          45.350



 122881338.636 7  95751673.284 7  23383551.000                    23383549.860
                                        45.350          46.900



 122225943.170 7  95240977.467 7  23258827.860                    23258825.380
                                        45.450          43.800



 111333187.436 8  86753095.57947  21186007.280                    21186003.920
                                        49.350          46.550



 124916092.395 7  97337203.86346  23770747.420                    23770744.280
                                        45.550          38.250



 119868066.166 8  93403703.142 7  22810133.680                    22810135.780
                                        49.350          46.050



 23  9  2  8 56  0.0000000  0  8G02G03G08G14G17G21G22G32
 110023721.701 8  85732743.83947  20936823.640                    20936818.620
                                        50.250          47.200



 111947936.428 8  87232168.417 8  21302978.060                    21302979.100
                                        48.350          48.650



 120870836.646 7  94185045.431 7  23000972.440                    23000975.360
                                        45.200          45.000



 122927680.947 7  95787784.065 7  23392369.780                    23392368.660
                                        44.500          46.550



 122140294.439 7  95174238.176 7  23242529.460                    23242527.000
                                        45.000          44.000



 111372750.748 8  86783924.06047  21193535.980                    21193532.660
                                        49.550          46.400



 124923883.553 7  97343274.86846  23772230.060                    23772226.920
                                        46.550          37.350



 119907722.490 8  93434604.086 7  22817680.100                    22817682.200
                                        49.150          45.600



 23  9  2  8 56 30.0000000  0  8G02G03G08G14G17G21G22G32
 110042708.512 8  85747538.71247  20940436.740                    20940431.720
                                        50.250          47.300



 111876556.661 8  87176547.870 8  21289394.900                    21289395.980
                                        48.250          48.400



 120973793.892 7  94265271.696 7  23020564.680                    23020567.600
                                        45.300          45.000



 122974500.236 7  95824266.528 7  23401279.280                    23401278.240
                                        43.750          45.650



 122054899.380 7  95107696.580 7  23226279.300                    23226276.860
                                        45.550          44.200



 111412573.047 8  86814954.37147  21201113.960                    21201110.660
                                        49.300          46.400



 124932187.195 7  97349745.20845  23773810.260                    23773807.100
                                        45.300          35.900



 119947911.393 8  93465920.028 7  22825327.880                    22825329.960
                                        49.050          45.350



 23  9  2  8 57  0.0000000  0  8G02G03G08G14G17G21G22G32
 110062009.761 8  85762578.59747  20944109.680                    20944104.660
                                        50.150          47.300



 111805564.109 8  87121229.037 7  21275885.400                    21275886.540
                                        48.350          47.650



 121076972.535 7  94345670.455 7  23040199.080                    23040202.000
                                        45.750          45.650



 123021792.523 7  95861117.581 7  23410278.760                    23410277.780
                                        43.550          45.000



 121969758.546 7  95041353.066 7  23210077.540                    23210075.120
                                        45.850          44.100



 111452652.425 8  86846184.98447  21208740.860                    21208737.600
                                        49.350          45.950



 124941000.819 7  97356612.92646  23775487.480                    23775484.300
                                        44.150          37.750



 119988629.673 8  93497648.462 7  22833076.380                    22833078.460
                                        49.200          45.200



 23  9  2  8 57 30.0000000  0  8G02G03G08G14G17G21G22G32
 110081626.070 8  85777863.99047  20947842.580                    20947837.560
                                        50.150          46.900



 111734960.681 8  87066213.416 7  21262449.980                    21262451.120
                                        48.900          47.600



 121180370.526 7  94426240.154 7  23059875.200                    23059878.120
                                        45.250          45.400



 123069556.347 7  95898336.092 7  23419367.920                    23419367.000
                                        43.550          45.200



 121884874.764 7  94975209.870 7  23193924.700                    23193922.280
                                        45.450          44.000



 111492989.354 8  86877616.28847  21216416.780                    21216413.540
                                        49.300          45.950



 124950324.230 7  97363877.88046  23777261.680                    23777258.520
                                        45.850          36.650



 120029876.780 8  93529788.989 7  22840925.520                    22840927.560
                                        49.050          45.400



 23  9  2  8 58  0.0000000  0  8G02G03G08G14G17G21G22G32
 110101558.380 8  85793395.60247  20951635.620                    20951630.600
                                        50.000          47.250



 111664748.005 8  87011502.271 7  21249088.940                    21249090.060
                                        49.050          47.850



 121283986.643 7  94506979.789 7  23079592.860                    23079595.800
                                        45.000          44.850



 123117790.158 7  95935920.781 7  23428546.540                    23428545.680
                                        43.350          45.900



 121800250.924 7  94909269.209 7  23177821.340                    23177818.920
                                        45.050          44.000



 111533584.248 8  86909248.59947  21224141.780                    21224138.580
                                        49.050          46.250



 124960157.641 7  97371540.25246  23779132.920                    23779129.800
                                        45.200          39.350



 120071651.924 8  93562340.957 7  22848875.140                    22848877.180
                                        48.600          45.300



 23  9  2  8 58 30.0000000  0  8G02G03G08G14G17G21G22G32
 110121806.521 8  85809173.33147  20955488.720                    20955483.720
                                        49.800          47.750



 111594926.496 8  86957095.959 7  21235802.320                    21235803.400
                                        48.650          47.700



 121387818.343 7  94587887.485 7  23099351.460                    23099354.420
                                        42.750          44.600



 123166491.068 7  95973869.476 7  23437814.020                    23437813.240
                                        44.700          45.800



 121715888.980 7  94843532.659 7  23161767.780                    23161765.340
                                        44.500          43.650



 111574436.019 8  86941081.07447  21231915.640                    21231912.500
                                        48.750          46.950



 124970500.037 7  97379599.22546  23781101.020                    23781097.960
                                        44.500          37.300



 120113953.070 8  93595302.825 7  22856924.820                    22856926.840
                                        48.450          45.750



 23  9  2  8 59  0.0000000  0  8G02G03G08G14G17G21G22G32
 110142367.830 8  85825195.07947  20959401.440                    20959396.460
                                        50.000          47.200



 111525494.379 8  86902993.058 7  21222589.840                    21222590.820
                                        48.250          47.150



 121491860.662 7  94668959.231 7  23119150.180                    23119153.180
                                        43.200          43.800



 123215654.087 7  96012178.251 7  23447169.460                    23447168.740
                                        44.650          45.650



 121631788.389 7  94777999.740 7  23145763.960                    23145761.520
                                        44.300          43.450



 111615542.218 8  86973111.80747  21239737.900                    21239734.840
                                        49.350          46.400



 124981347.836 7  97388052.00046  23783165.320                    23783162.300
                                        45.200          36.750



 120156776.010 8  93628671.274 7  22865073.780                    22865075.820
                                        48.550          45.700



 23  9  2  8 59 30.0000000  0  8G02G03G08G14G17G21G22G32
 110163243.132 8  85841461.48547  20963373.920                    20963368.980
                                        49.900          47.850



 111456453.174 7  86849194.776 7  21209451.700                    21209452.620
                                        47.650          47.800



 121596111.574 7  94750193.506 7  23138988.580                    23138991.660
                                        43.750          45.400



 123265277.413 7  96050845.708 7  23456612.520                    23456611.820
                                        43.350          45.600



 121547951.768 7  94712672.532 7  23129810.360                    23129807.900
                                        44.750          44.000



 111656902.973 8  87005340.89547  21247608.640                    21247605.620
                                        49.400          46.900



 124992700.665 7  97396898.33046  23785325.700                    23785322.680
                                        46.100          36.150



 120200119.800 8  93662445.572 7  22873321.880                    22873323.940
                                        48.350          45.750



                            4  1
RINEX FILE SPLICE; other post-header comments skipped       COMMENT
 23  9  2  9  0  0.0000000  0  8G02G03G08G14G17G21G22G32
 110184432.673 8  85857972.76247  20967406.180                    20967401.280
                                        49.850          47.200



 111387803.850 8  86795701.831 7  21196388.120                    21196389.020
                                        48.050          47.500



 121700569.020 7  94831588.738 7  23158866.280                    23158869.440
                                        44.500          45.400



 123315358.824 7  96089870.098 7  23466142.760                    23466142.100
                                        43.550          44.600



 121464381.385 7  94647552.751 7  23113907.420                    23113904.980
                                        44.800          43.600



 111698517.935 8  87037768.07547  21255527.740                    21255524.780
                                        49.050          46.250



 125004557.628 7  97406137.50346  23787582.040                    23787578.980
                                        46.150          36.600



 120243983.003 8  93696624.603 7  22881668.820                    22881670.880
                                        48.450          45.350



 23  9  2  9  0 30.0000000  0  8G02G03G08G14G17G21G22G32
 110205939.344 8  85874731.16747  20971498.800                    20971493.920
                                        50.000          47.100



 111319549.993 8  86742517.065 7  21183399.800                    21183400.640
                                        48.050          47.400



 121805233.393 7  94913145.224 7  23178783.360                    23178786.580
                                        44.850          45.350



 123365898.570 7  96129251.659 7  23475760.180                    23475759.560
                                        44.350          44.500



 121381082.384 7  94582644.465 7  23098056.120                    23098053.660
                                        45.100          43.900



 111740389.485 8  87070395.17847  21263495.680                    21263492.760
                                        49.300          46.250



 125016920.564 7  97415770.92545  23789934.700                    23789931.620
                                        45.950          35.950



 120288366.664 8  93731209.201 7  22890114.800                    22890116.880
                                        48.700          45.650



 23  9  2  9  1  0.0000000  0  8G02G03G08G14G17G21G22G32
 110227763.317 8  85891736.81147  20975651.800                    20975646.960
                                        50.200          46.800



 111251692.674 8  86689641.289 7  21170486.920                    21170487.740
                                        48.650          47.400



 121910102.697 7  94994861.407 7  23198739.440                    23198742.700
                                        45.450          45.600



 123416894.328 7  96168988.535 7  23485464.400                    23485463.800
                                        45.050          43.700



 121298057.127 7  94517949.476 7  23082256.900                    23082254.460
                                        46.150          44.150



 111782517.919 8  87103222.46247  21271512.480                    21271509.640
                                        49.700          45.650



 125029788.945 7  97425798.19246  23792383.540                    23792380.420
                                        45.750          36.050



 120333269.400 8  93766198.268 7  22898659.580                    22898661.640
                                        48.900          46.000



 23  9  2  9  1 30.0000000  0  8G02G03G08G14G17G21G22G32
 110249900.464 8  85908986.48147  20979864.400                    20979859.560
                                        50.050          46.700



 111184228.324 8  86637071.705 7  21157648.840                    21157649.640
                                        49.050          47.500



 122015169.619 7  95076731.574 7  23218733.140                    23218736.440
                                        45.000          45.050



 123468339.367 7  96209075.526 7  23495254.100                    23495253.480
                                        44.950          43.950



 121215303.251 7  94453465.963 7  23066509.320                    23066506.900
                                        45.900          44.500



 111824898.438 8  87136246.16747  21279577.280                    21279574.460
                                        49.250          46.000



 125043157.579 7  97436215.26446  23794927.560                    23794924.440
                                        46.050          36.900



 120378685.164 8  93801587.105 7  22907301.980                    22907304.040
                                        48.450          46.200



 23  9  2  9  2  0.0000000  0  8G02G03G08G14G17G21G22G32
 110272354.537 8  85926483.10347  20984137.320                    20984132.480
                                        50.200          46.600



 111117161.504 8  86584811.902 7  21144886.440                    21144887.160
                                        49.200          47.550



 122120436.711 7  95158757.710 7  23238764.960                    23238768.260
                                        44.500          45.100



 123520234.884 7  96249513.488 7  23505129.580                    23505128.940
                                        45.000          44.200



 121132826.331 7  94389198.248 7  23050814.460                    23050812.060
                                        46.150          44.900



 111867534.713 8  87169469.15947  21287690.760                    21287687.960
                                        49.150          45.650



 125057029.199 7  97447024.24546  23797567.340                    23797564.200
                                        45.300          36.650



 120424616.000 8  93837377.295 7  22916042.400                    22916044.460
                                        48.350          46.150



 23  9  2  9  2 30.0000000  0  8G02G03G08G14G17G21G22G32
 110295127.194 8  85944227.98447  20988470.860                    20988466.000
                                        49.950          47.000



 111050494.327 8  86532863.504 7  21132200.080                    21132200.740
                                        48.550          47.550



 122225901.705 7  95240938.040 7  23258834.440                    23258837.760
                                        43.950          45.250



 123572579.775 7  96290301.610 7  23515090.580                    23515089.900
                                        45.300          44.900



 121050630.106 7  94325149.278 7  23035173.000                    23035170.620
                                        46.350          44.600



 111910427.277 8  87202891.87347  21295852.980                    21295850.220
                                        49.100          46.000



 125071403.915 7  97458225.24746  23800302.840                    23800299.700
                                        44.600          38.350



 120471061.588 7  93873568.620 7  22924880.740                    22924882.800
                                        47.950          46.350



 23  9  2  9  3  0.0000000  0  8G02G03G08G14G17G21G22G32
 110318217.200 8  85962220.13947  20992864.780                    20992859.900
                                        49.900          46.600



 110984226.580 8  86481226.323 7  21119589.740                    21119590.380
                                        48.450          47.650



 122331561.645 7  95323270.289 7  23278941.000                    23278944.340
                                        43.650          45.750



 123625370.440 7  96331437.105 7  23525136.420                    23525135.720
                                        44.900          44.950



 120968715.904 7  94261320.021 7  23019585.260                    23019582.880
                                        46.650          44.900



 111953575.167 8  87236513.53647  21304063.780                    21304061.040
                                        49.150          45.800



 125086280.003 7  97469816.93446  23803133.720                    23803130.640
                                        45.400          37.050



 120518019.208 8  93910158.920 7  22933816.520                    22933818.600
                                        48.100          45.950



 23  9  2  9  3 30.0000000  0  8G02G03G08G14G17G21G22G32
 110341624.507 8  85980459.54047  20997319.080                    20997314.200
                                        50.100          46.650



 110918358.869 8  86429900.869 7  21107055.520                    21107056.120
                                        48.650          47.500



 122437414.160 7  95405752.582 7  23299084.200                    23299087.600
                                        43.300          46.050



 123678604.154 7  96372917.834 7  23535266.580                    23535265.860
                                        45.100          44.900



 120887085.575 7  94197711.963 7  23004051.520                    23004049.180
                                        46.700          44.900



 111996977.935 8  87270333.80847  21312323.100                    21312320.360
                                        49.200          45.550



 125101656.121 7  97481798.29745  23806059.720                    23806056.660
                                        45.650          35.500



 120565486.932 7  93947146.711 7  22942849.360                    22942851.480
                                        47.950          45.900



 23  9  2  9  4  0.0000000  0  8G02G03G08G14G17G21G22G32
 110365349.389 8  85998946.41247  21001833.800                    21001828.920
                                        50.050          46.900



 110852891.963 8  86378887.726 7  21094597.560                    21094598.140
                                        48.350          47.600



 122543456.816 7  95488383.049 7  23319263.540                    23319267.020
                                        43.050          46.450



 123732278.505 7  96414741.912 7  23545480.560                    23545479.840
                                        45.000          43.700



 120805741.331 7  94134326.839 7  22988572.240                    22988569.900
                                        46.650          44.900



 112040635.014 8  87304352.24247  21320630.800                    21320628.080
                                        49.250          45.650



 125117531.415 7  97494168.56946  23809080.760                    23809077.680
                                        44.150          36.250



 120613463.012 7  93984530.627 7  22951978.940                    22951981.080
                                        47.800          45.600



 23  9  2  9  4 30.0000000  0  8G02G03G08G14G17G21G22G32
 110389392.220 8  86017681.03647  21006409.040                    21006404.160
                                        50.100          46.300



 110787827.493 8  86328188.213 7  21082216.140                    21082216.680
                                        48.850          47.550



 122649688.233 7  95571160.592 7  23339478.800                    23339482.400
                                        43.400          46.550



 123786391.650 7  96456907.943 7  23555778.000                    23555777.260
                                        45.200          43.400



 120724685.783 7  94071166.670 7  22973147.880                    22973145.560
                                        46.650          45.000



 112084546.445 8  87338568.88547  21328986.900                    21328984.180
                                        49.350          45.900



 125133905.620 7  97506927.57946  23812196.740                    23812193.680
                                        45.100          39.050



 120661946.558 7  94022309.978 7  22961205.080                    22961207.220
                                        47.900          45.550



 23  9  2  9  5  0.0000000  0  8G02G03G08G14G17G21G22G32
 110413751.301 8  86036662.08547  21011044.460                    21011039.560
                                        50.100          46.700



 110723163.680 8  86277800.879 7  21069910.980                    21069911.480
                                        48.850          47.650



 122756103.474 7  95654081.375 7  23359729.020                    23359732.780
                                        43.350          45.650



 123840938.540 7  96499411.929 7  23566158.020                    23566157.220
                                        44.950          43.350



 120643919.038 7  94008231.538 7  22957778.500                    22957776.200
                                        46.150          44.550



 112128710.018 8  87372982.00147  21337390.980                    21337388.280
                                        49.300          46.000



 125150774.791 7  97520072.32846  23815406.860                    23815403.860
                                        46.050          36.950



 120710933.247 7  94060481.369 7  22970526.960                    22970529.120
                                        47.400          45.250



 23  9  2  9  5 30.0000000  0  8G02G03G08G14G17G21G22G32
 110438426.617 8  86055889.55647  21015740.060                    21015735.120
                                        50.000          46.900



 110658901.475 8  86227726.491 7  21057682.260                    21057682.720
                                        48.400          47.550



 122862700.607 7  95737143.894 7  23380013.880                    23380017.740
                                        43.300          44.900



 123895916.723 7  96542251.966 7  23576620.100                    23576619.300
                                        43.950          44.800



 120563443.514 7  93945523.315 7  22942464.520                    22942462.280
                                        46.150          44.150



 112173125.121 8  87407591.10647  21345842.940                    21345840.260
                                        48.950          46.000



 125168138.445 7  97533602.37346  23818711.120                    23818708.160
                                        44.550          36.600



 120760421.448 7  94099043.559 7  22979944.260                    22979946.460
                                        47.100          45.250



 23  9  2  9  6  0.0000000  0  8G02G03G08G14G17G21G22G32
 110463421.786 8  86075366.26847  21020496.520                    21020491.560
                                        50.250          46.600



 110595044.890 8  86177968.157 8  21045530.720                    21045531.140
                                        48.900          48.100



 122969479.991 7  95820348.452 7  23400333.420                    23400337.360
                                        44.200          44.850



 123951327.013 7  96585428.714 7  23587164.400                    23587163.620
                                        43.600          45.250



 120483264.366 7  93883046.069 7  22927206.920                    22927204.700
                                        46.550          43.750



 112217795.263 8  87442398.95047  21354343.420                    21354340.760
                                        49.100          45.850



 125185998.558 7  97547519.30546  23822109.820                    23822106.920
                                        43.550          38.800



 120810412.745 7  94137997.763 7  22989457.320                    22989459.540
                                        47.150          45.850



 23  9  2  9  6 30.0000000  0  8G02G03G08G14G17G21G22G32
 110488737.701 8  86095092.90047  21025314.040                    21025309.060
                                        50.200          46.250



 110531595.915 8  86128527.440 8  21033456.740                    21033457.140
                                        49.250          48.100



 123076440.557 7  95903694.209 7  23420687.440                    23420691.420
                                        44.100          44.250



 124007168.010 7  96628941.069 7  23597790.640                    23597789.920
                                        44.200          45.550



 120403385.268 7  93820802.622 7  22912006.420                    22912004.200
                                        46.650          44.200



 112262720.656 8  87477405.68247  21362892.480                    21362889.840
                                        49.200          45.550



 125204355.364 7  97561823.24846  23825603.020                    23825600.180
                                        44.150          37.500



 120860906.547 7  94177343.515 7  22999065.980                    22999068.260
                                        47.200          46.050



 23  9  2  9  7  0.0000000  0  8G02G03G08G14G17G21G22G32
 110514369.646 8  86115065.80847  21030191.680                    21030186.680
                                        49.900          46.600



 110468550.411 8  86079401.118 8  21021459.580                    21021459.940
                                        49.000          48.400



 123183575.630 7  95987175.922 7  23441074.680                    23441078.700
                                        43.300          44.200



 124063432.169 7  96672783.189 7  23608497.400                    23608496.740
                                        44.550          45.400



 120323803.337 7  93758790.742 7  22896862.440                    22896860.260
                                        47.400          43.950



 112307896.685 8  87512607.72447  21371489.240                    21371486.620
                                        49.250          45.300



 125223203.045 7  97576509.67946  23829189.640                    23829186.860
                                        44.500          38.300



 120911896.135 7  94217075.592 7  23008768.980                    23008771.340
                                        47.100          46.200



 23  9  2  9  7 30.0000000  0  8G02G03G08G14G17G21G22G32
 110540319.067 8  86135286.07447  21035129.740                    21035124.740
                                        49.850          46.400



 110405910.368 8  86030590.760 7  21009539.540                    21009539.880
                                        49.000          47.950



 123290883.228 6  96070792.057 7  23461494.760                    23461498.840
                                        41.450          45.250



 124120118.132 7  96716953.979 7  23619284.420                    23619283.820
                                        43.300          45.600



 120244521.943 7  93697013.023 7  22881775.700                    22881773.520
                                        47.100          44.250



 112353324.712 8  87548006.11847  21380133.960                    21380131.340
                                        49.100          45.650



 125242541.489 7  97591578.54346  23832869.620                    23832866.900
                                        43.650          39.750



 120963380.934 7  94257193.531 7  23018566.220                    23018568.680
                                        47.050          46.250



 23  9  2  9  8  0.0000000  0  8G02G03G08G14G17G21G22G32
 110566590.184 8  86155757.03447  21040129.000                    21040124.000
                                        49.900          46.800



 110343680.745 8  85982100.198 8  20997697.620                    20997697.920
                                        49.550          48.250



 123398365.935 6  96154544.606 7  23481948.140                    23481952.320
                                        40.800          45.100



 124177227.614 7  96761454.771 7  23630152.080                    23630151.520
                                        43.100          45.750



 120165547.610 7  93635474.597 7  22866747.360                    22866745.180
                                        46.950          44.200



 112399008.154 8  87583603.53447  21388827.280                    21388824.680
                                        49.150          45.800



 125262373.525 7  97607032.04946  23836643.520                    23836640.880
                                        43.300          39.400



 121015363.372 7  94297699.265 7  23028458.140                    23028460.700
                                        47.650          46.650



 23  9  2  9  8 30.0000000  0  8G02G03G08G14G17G21G22G32
 110593178.523 8  86176475.16447  21045188.620                    21045183.660
                                        49.700          46.100



 110281857.625 8  85933926.390 7  20985933.040                    20985933.320
                                        49.200          47.750



 123506016.955 6  96238428.336 7  23502433.500                    23502437.820
                                        41.650          45.000



 124234753.333 7  96806279.879 7  23641098.960                    23641098.440
                                        42.750          45.550



 120086877.887 7  93574173.529 7  22851777.000                    22851774.820
                                        46.900          44.150



 112444942.083 8  87619396.13247  21397568.260                    21397565.680
                                        49.200          45.600



 125282693.783 7  97622866.00846  23840510.300                    23840507.740
                                        42.800          38.850



 121067837.003 7  94338587.737 7  23038443.560                    23038446.220
                                        47.300          46.250



 23  9  2  9  9  0.0000000  0  8G02G03G08G14G17G21G22G32
 110620082.044 8  86197438.90047  21050308.220                    21050303.280
                                        49.650          46.650



 110220439.372 8  85886068.086 8  20974245.500                    20974245.740
                                        49.200          48.250



 123613831.062 6  96322439.148 7  23522949.940                    23522954.360
                                        41.950          44.300



 124292690.191 7  96851425.351 7  23652124.060                    23652123.580
                                        43.800          45.750



 120008512.646 7  93513109.725 7  22836864.600                    22836862.380
                                        46.500          44.500



 112491123.749 8  87655381.77747  21406356.380                    21406353.840
                                        49.150          46.050



 125303498.621 7  97639077.53546  23844469.280                    23844466.840
                                        42.900          38.450



 121120797.631 7  94379855.696 7  23048521.640                    23048524.380
                                        47.300          46.350



 23  9  2  9  9 30.0000000  0  8G02G03G08G14G17G21G22G32
 110647305.004 8  86218651.55547  21055488.600                    21055483.680
                                        50.050          46.250



 110159431.058 8  85838529.184 8  20962636.000                    20962636.200
                                        49.200          48.000



 123721810.603 7  96406578.879 7  23543497.860                    23543502.360
                                        43.200          44.050



 124351039.995 7  96896892.612 7  23663227.760                    23663227.300
                                        44.550          45.750



 119930458.409 7  93452288.266 7  22822011.360                    22822009.140
                                        46.550          44.500



 112537557.319 8  87691563.70747  21415192.460                    21415189.940
                                        49.500          45.950



 125324791.081 7  97655669.00846  23848521.080                    23848518.760
                                        43.200          37.600



 121174247.732 7  94421505.054 7  23058692.860                    23058695.720
                                        47.500          46.400



 23  9  2  9 10  0.0000000  0  8G02G03G08G14G17G21G22G32
 110674849.612 8  86240114.85547  21060730.180                    21060725.260
                                        49.900          46.400



 110098835.486 8  85791311.892 8  20951105.040                    20951105.200
                                        49.350          48.200



 123829955.221 7  96490847.232 7  23564077.240                    23564081.800
                                        43.100          44.800



 124409802.157 7  96942681.203 7  23674409.920                    23674409.480
                                        43.900          45.650



 119852719.445 7  93391712.456 7  22807218.120                    22807215.900
                                        46.700          43.950



 112584244.586 8  87727943.31847  21424076.820                    21424074.320
                                        49.400          45.800



 125346571.966 7  97672641.11346  23852665.800                    23852663.560
                                        42.900          39.050



 121228187.487 7  94463535.966 7  23068957.280                    23068960.220
                                        47.400          46.250



 23  9  2  9 10 30.0000000  0  8G02G03G08G14G17G21G22G32
 110702713.980 8  86261827.30347  21066032.640                    21066027.740
                                        49.600          46.600



 110038651.502 8  85744415.317 8  20939652.400                    20939652.520
                                        48.750          48.250



 123938260.872 7  96575241.067 7  23584687.260                    23584691.860
                                        43.600          45.550



 124468972.206 7  96988787.618 7  23685669.700                    23685669.280
                                        43.150          45.700



 119775296.253 7  93331382.698 7  22792484.980                    22792482.740
                                        46.900          43.750



 112631183.645 8  87764519.12247  21433009.100                    21433006.620
                                        49.250          45.800



 125368838.121 7  97689991.33146  23856902.880                    23856900.740
                                        43.150          39.250



 121282613.206 7  94505945.545 7  23079314.180                    23079317.180
                                        47.150          46.350



 23  9  2  9 11  0.0000000  0  8G02G03G08G14G17G21G22G32
 110730899.786 8  86283790.22547  21071396.240                    21071391.360
                                        49.600          46.550



 109978881.177 8  85697841.118 8  20928278.440                    20928278.540
                                        48.850          48.300



 124046726.278 7  96659759.381 7  23605327.680                    23605332.360
                                        43.050          45.800



 124528548.803 7  97035210.836 7  23697006.800                    23697006.440
                                        43.150          45.250



 119698192.197 7  93271301.628 7  22777812.560                    22777810.300
                                        47.100          43.950



 112678375.343 8  87801291.80447  21441989.440                    21441987.000
                                        49.050          46.000



 125391590.152 7  97707720.13146  23861232.460                    23861230.400
                                        43.350          38.250



 121337524.372 7  94548733.387 7  23089763.440                    23089766.540
                                        47.350          46.350



 23  9  2  9 11 30.0000000  0  8G02G03G08G14G17G21G22G32
 110759403.508 8  86306000.88347  21076820.320                    21076815.480
                                        49.850          46.000



 109919521.721 8  85651587.031 8  20916982.680                    20916982.780
                                        49.300          48.600



 124155345.583 7  96744397.616 7  23625997.360                    23626002.120
                                        42.600          45.400



 124588525.797 7  97081946.044 7  23708420.100                    23708419.820
                                        44.300          44.700



 119621406.152 7  93211468.385 7  22763200.620                    22763198.340
                                        46.600          43.900



 112725816.140 8  87838258.57947  21451017.200                    21451014.760
                                        49.150          45.650



 125414823.058 7  97725823.59246  23865653.580                    23865651.580
                                        42.950          37.200



 121392915.617 7  94591895.304 7  23100304.080                    23100307.260
                                        47.350          46.050



 23  9  2  9 12  0.0000000  0  9G02G03G08G14G17G19G21G22G32
 110788228.100 8  86328461.56947  21082305.480                    21082300.620
                                        49.900          45.900



 109860576.553 8  85605655.766 8  20905765.780                    20905765.880
                                        49.050          48.600



 124264119.646 6  96829156.430 7  23646696.500                    23646701.360
                                        41.800          44.850



 124648903.212 7  97128993.286 7  23719909.600                    23719909.360
                                        45.650          43.800



 119544943.024 7  93151886.745 7  22748650.140                    22748647.860
                                        46.600          43.250



 128716298.959 6 100298403.50046  24493897.100                    24493894.380
                                        41.150          37.750



 112773508.498 8  87875421.37647  21460092.800                    21460090.400
                                        49.000          45.600



 125438538.218 7  97744302.81946  23870166.480                    23870164.520
                                        43.100          36.950



 121448787.782 7  94635431.958 7  23110936.260                    23110939.480
                                        47.900          45.550



 23  9  2  9 12 30.0000000  0  9G02G03G08G14G17G19G21G22G32
 110817370.551 8  86351169.93847  21087851.140                    21087846.280
                                        49.850          46.600



 109802043.335 8  85560045.530 8  20894627.220                    20894627.340
                                        48.950          48.900



 124373043.023 6  96914031.621 7  23667424.000                    23667428.960
                                        41.200          44.250



 124709675.309 7  97176348.111 7  23731474.200                    23731473.960
                                        46.000          44.000



 119468802.108 7  93092556.176 7  22734161.000                    22734158.680
                                        47.250          43.750



 128604465.533 7 100211260.44046  24472616.260                    24472613.180
                                        42.000          38.800



 112821448.797 8  87912777.38347  21469215.600                    21469213.200
                                        49.050          45.550



 125462731.419 7  97763154.60046  23874770.300                    23874768.320
                                        44.550          36.000



 121505135.893 7  94679339.483 7  23121659.000                    23121662.260
                                        47.800          45.450



 23  9  2  9 13  0.0000000  0  9G02G03G08G14G17G19G21G22G32
 110846832.608 8  86374127.34047  21093457.620                    21093452.760
                                        50.000          46.650



 109743924.369 8  85514758.071 8  20883567.500                    20883567.640
                                        49.250          49.000



 124482115.226 7  96999022.776 7  23688179.820                    23688184.860
                                        42.000          44.150



 124770841.147 7  97224009.699 7  23743113.800                    23743113.540
                                        44.600          44.600



 119392987.296 7  93033479.720 7  22719733.920                    22719731.560
                                        47.150          44.350



 128492787.203 7 100124238.19946  24451364.640                    24451361.540
                                        43.550          38.100



 112869638.342 8  87950327.60447  21478385.800                    21478383.420
                                        48.750          45.600



 125487402.988 7  97782379.10546  23879465.220                    23879463.180
                                        45.600          37.250



 121561959.653 8  94723617.633 7  23132472.280                    23132475.540
                                        48.050          45.600



 23  9  2  9 13 30.0000000  0  9G02G03G08G14G17G19G21G22G32
 110876616.023 8  86397335.16347  21099125.240                    21099120.400
                                        50.000          46.850



 109686221.899 8  85469795.146 8  20872587.060                    20872587.240
                                        49.000          48.650



 124591334.727 7  97084128.710 7  23708963.700                    23708968.820
                                        42.000          44.300



 124832399.536 7  97271977.166 7  23754828.080                    23754827.820
                                        44.100          43.500



 119317502.078 7  92974660.085 7  22705369.540                    22705367.180
                                        46.900          44.400



 128381268.183 7 100037340.11746  24430143.400                    24430140.240
                                        43.100          37.500



 112918078.363 8  87988072.99747  21487603.680                    21487601.320
                                        48.850          45.450



 125512552.905 7  97801976.33745  23884251.200                    23884249.120
                                        44.150          35.950



 121619258.771 8  94768266.183 7  23143376.020                    23143379.280
                                        48.250          45.650



 23  9  2  9 14  0.0000000  0  9G02G03G08G14G17G19G21G22G32
 110906720.253 8  86420792.97447  21104853.940                    21104849.100
                                        50.050          46.950



 109628935.979 8  85425156.829 8  20861685.840                    20861686.040
                                        49.250          48.600



 124700699.348 7  97169347.724 7  23729775.200                    23729780.380
                                        43.250          44.900



 124894347.187 7  97320247.954 7  23766616.420                    23766616.160
                                        43.600          43.150



 119242348.518 7  92916098.890 7  22691068.300                    22691065.940
                                        46.800          44.550



 128269910.970 7  99950568.17146  24408952.920                    24408949.760
                                        43.600          37.400



 112966769.120 8  88026013.76747  21496869.260                    21496866.940
                                        49.200          45.050



 125538179.863 7  97821945.30146  23889127.960                    23889125.880
                                        44.500          36.950



 121677030.665 8  94813283.131 7  23154369.760                    23154373.020
                                        48.650          46.150



 23  9  2  9 14 30.0000000  0  9G02G03G08G14G17G19G21G22G32
 110937143.640 8  86444499.45647  21110643.360                    21110638.540
                                        49.850          46.750



 109572065.481 8  85380842.196 8  20850863.720                    20850863.920
                                        49.050          48.450



 124810205.123 7  97254676.706 7  23750613.600                    23750618.840
                                        42.250          44.650



 124956679.554 7  97368818.505 7  23778477.980                    23778477.680
                                        43.800          43.050



 119167526.802 7  92857796.265 7  22676830.180                    22676827.840
                                        46.300          44.000



 128158715.949 7  99863922.61245  24387793.260                    24387790.120
                                        43.000          35.750



 113015707.586 8  88064147.55947  21506181.980                    21506179.680
                                        49.250          45.250



 125564280.376 7  97842283.25246  23894094.820                    23894092.760
                                        45.650          37.050



 121735271.580 8  94858665.547 7  23165452.760                    23165456.000
                                        48.350          46.000



 23  9  2  9 15  0.0000000  0  9G02G03G08G14G17G19G21G22G32
 110967888.175 8  86468456.19147  21116493.920                    21116489.120
                                        50.150          46.950



 109515613.016 8  85336853.323 8  20840121.120                    20840121.340
                                        49.000          48.850



 124919851.238 6  97340115.072 7  23771478.700                    23771483.980
                                        41.700          45.200



 125019395.882 7  97417688.277 7  23790412.560                    23790412.260
                                        44.000          42.750



 119093041.031 7  92799755.429 7  22662655.980                    22662653.640
                                        46.450          44.500



 128047687.604 7  99777406.89045  24366665.360                    24366662.200
                                        43.000          35.050



 113064895.496 8  88102475.73547  21515542.160                    21515539.880
                                        49.350          45.000



 125590855.001 7  97862990.66646  23899151.900                    23899149.820
                                        45.750          37.400



 121793981.587 8  94904413.503 7  23176625.020                    23176628.240
                                        48.400          46.050



 23  9  2  9 15 30.0000000  0  9G02G03G08G14G17G19G21G22G32
 110998954.620 8  86492663.76447  21122405.720                    21122400.940
                                        50.050          47.150



 109459579.905 8  85293191.200 8  20829458.320                    20829458.560
                                        48.950          48.600



 125029636.094 6  97425661.504 7  23792370.240                    23792375.580
                                        41.750          44.350



 125082494.155 7  97466855.656 6  23802419.860                    23802419.540
                                        44.150          41.650



 119018894.225 7  92741978.713 7  22648546.280                    22648543.980
                                        46.450          44.500



 127936829.635 7  99691023.93845  24345569.860                    24345566.680
                                        42.550          35.150



 113114333.461 8  88140998.74547  21524949.960                    21524947.680
                                        49.050          45.300



 125617903.031 7  97884066.97246  23904299.100                    23904296.980
                                        44.700          36.600



 121853159.369 8  94950525.944 7  23187886.300                    23187889.520
                                        48.300          45.650



 23  9  2  9 16  0.0000000  0  9G02G03G08G14G17G19G21G22G32
 111030342.729 8  86517121.99047  21128378.720                    21128373.980
                                        49.800          47.150



 109403966.319 8  85249856.003 8  20818875.340                    20818875.600
                                        48.800          48.350



 125139557.453 7  97511314.341 7  23813287.720                    23813293.080
                                        42.250          44.150



 125145971.168 7  97516318.188 6  23814499.200                    23814498.840
                                        44.400          41.050



 118945088.067 7  92684467.427 7  22634501.400                    22634499.140
                                        46.700          44.650



 127826144.292 6  99604775.54346  24324507.160                    24324503.980
                                        41.600          36.500



 113164021.206 8  88179716.40547  21534405.260                    21534402.980
                                        49.200          44.650



 125645422.795 7  97905510.88446  23909536.020                    23909533.880
                                        43.550          38.500



 121912802.519 8  94997001.025 7  23199236.100                    23199239.320
                                        48.100          45.850



 23  9  2  9 16 30.0000000  0  9G02G03G08G14G17G19G21G22G32
 111062049.995 8  86541828.90947  21134412.460                    21134407.740
                                        49.800          46.900



 109348770.285 8  85206846.142 8  20808371.840                    20808372.100
                                        49.150          48.650



 125249609.942 7  97597069.331 7  23834230.160                    23834235.560
                                        42.800          43.750



 125209821.562 7  97566071.664 6  23826649.600                    23826649.180
                                        43.350          40.800



 118871622.279 7  92627221.361 7  22620521.300                    22620519.080
                                        46.650          44.350



 127715631.803 6  99518661.80045  24303477.400                    24303474.240
                                        41.750          34.000



 113213954.648 8  88218625.51747  21543907.320                    21543905.020
                                        49.100          45.200



 125673410.215 7  97927319.15346  23914861.940                    23914859.840
                                        44.000          38.700



 121972906.438 8  95043835.133 7  23210673.600                    23210676.820
                                        48.000          45.700



 23  9  2  9 17  0.0000000  0 10G02G03G04G08G14G17G19G21G22G32
 111094080.910 8  86566788.02547  21140507.780                    21140503.080
                                        49.800          46.850



 109293996.724 8  85164165.500 8  20797948.720                    20797949.000
                                        48.700          48.650



                                  24709262.100
                                        39.750



 125359795.952 7  97682928.404 7  23855198.000                    23855203.400
                                        42.050          43.050



 125274046.911 7  97616117.320 6  23838871.360                    23838870.860
                                        42.650          39.650



 118798503.361 7  92570245.576 7  22606607.220                    22606605.040
                                        46.750          44.650



 127605298.852 7  99432687.94145  24282481.800                    24282478.660
                                        42.200          34.000



 113264138.673 8  88257729.88547  21553457.080                    21553454.760
                                        49.000          45.200



 125701868.069 7  97949494.02846  23920277.320                    23920275.300
                                        44.350          38.200



 122033473.415 7  95091030.078 7  23222199.200                    23222202.420
                                        47.900          45.800



 23  9  2  9 17 30.0000000  0 10G02G03G04G08G14G17G19G21G22G32
 111126435.015 8  86591998.97547  21146664.580                    21146659.900
                                        49.650          46.850



 109239645.958 8  85121814.293 8  20787606.040                    20787606.360
                                        49.100          48.600



 129733232.051 6 101090845.841 6  24687413.480                    24687418.700
                                        40.250          40.650



 125470112.531 6  97768889.166 7  23876190.720                    23876196.140
                                        41.900          43.650



 125338644.172 6  97666452.738 6  23851163.900                    23851163.340
                                        41.000          40.700



 118725733.183 7  92513541.525 7  22592759.520                    22592757.380
                                        47.350          44.500



 127495147.467 6  99346855.60845  24261520.720                    24261517.580
                                        41.750          35.750



 113314573.432 8  88297029.62547  21563054.560                    21563052.220
                                        48.950          45.550



 125730794.874 7  97972034.28546  23925782.000                    23925780.040
                                        44.750          38.450



 122094501.151 7  95138584.055 7  23233812.460                    23233815.700
                                        47.650          45.800



 23  9  2  9 18  0.0000000  0 10G02G03G04G08G14G17G19G21G22G32
 111159103.582 8  86617454.96447  21152881.240                    21152876.560
                                        49.800          46.750



 109185709.674 8  85079786.073 8  20777342.240                    20777342.580
                                        49.800          48.750



 129618423.552 6 101001384.547 6  24665566.480                    24665571.380
                                        39.950          40.850



 125580549.041 7  97854943.401 7  23897206.260                    23897211.680
                                        42.600          44.250



 125403601.539 7  97717068.786 6  23863524.940                    23863524.340
                                        42.700          41.700



 118653305.055 7  92457104.019 7  22578976.920                    22578974.780
                                        46.950          44.200



 127385172.090 7  99261160.42046  24240593.140                    24240590.000
                                        42.250          38.800



 113365248.267 8  88336516.45647  21572697.700                    21572695.360
                                        49.500          45.200



 125760179.882 7  97994931.63746  23931373.840                    23931371.920
                                        44.650          37.100



 122155978.749 7  95186488.589 7  23245511.340                    23245514.560
                                        47.800          45.700



 23  9  2  9 18 30.0000000  0 10G02G03G04G08G14G17G19G21G22G32
 111192097.755 8  86643164.66747  21159159.840                    21159155.200
                                        50.150          46.300



 109132199.374 8  85038089.778 8  20767159.540                    20767159.860
                                        50.100          48.600



 129503635.397 6 100911939.142 6  24643723.260                    24643728.120
                                        40.050          41.000



 125691112.898 7  97941096.869 7  23918246.020                    23918251.480
                                        42.650          44.000



 125468927.242 7  97767971.835 7  23875956.080                    23875955.460
                                        43.350          42.250



 118581232.372 7  92400943.470 7  22565261.960                    22565259.840
                                        47.050          43.400



 127275386.669 7  99175613.32046  24219701.660                    24219698.500
                                        42.350          40.150



 113416174.301 8  88376199.03547  21582388.640                    21582386.300
                                        49.600          44.950



 125790032.982 7  98018193.73746  23937054.740                    23937052.860
                                        43.850          37.250



 122217915.076 8  95234750.551 7  23257297.520                    23257300.740
                                        48.350          45.000



 23  9  2  9 19  0.0000000  0 10G02G03G04G08G14G17G19G21G22G32
 111225412.013 8  86669123.78147  21165499.380                    21165494.740
                                        50.050          46.800



 109079110.216 8  84996721.633 8  20757057.000                    20757057.300
                                        50.100          48.900



 129388864.816 6 100822507.420 6  24621883.280                    24621888.120
                                        39.900          41.850



 125801797.611 7  98027344.470 7  23939308.820                    23939314.300
                                        43.350          44.700



 125534613.091 7  97819155.503 7  23888455.780                    23888455.140
                                        42.900          43.000



 118509511.918 7  92345057.396 7  22551614.020                    22551611.880
                                        47.350          44.150



 127165788.130 7  99090211.82546  24198845.780                    24198842.600
                                        42.850          40.200



 113467346.168 8  88416073.16247  21592126.380                    21592124.060
                                        49.300          45.700



 125820347.174 7  98041815.10246  23942823.420                    23942821.540
                                        44.650          37.300



 122280302.696 7  95283364.173 7  23269169.600                    23269172.800
                                        47.950          45.400



 23  9  2  9 19 30.0000000  0 10G02G03G04G08G14G17G19G21G22G32
 111259048.055 8  86695333.64647  21171900.160                    21171895.520
                                        49.900          46.250



 109026444.284 8  84955683.286 8  20747035.020                    20747035.280
                                        49.600          48.600



 129274115.685 6 100733092.435 7  24600047.400                    24600052.200
                                        38.100          42.000



 125912601.834 7  98113685.233 7  23960394.340                    23960399.860
                                        42.950          44.350



 125600657.731 7  97870618.754 7  23901023.720                    23901023.100
                                        42.600          42.850



 118438147.092 7  92289448.453 7  22538033.740                    22538031.580
                                        46.700          44.300



 127056380.680 6  99004959.25046  24178026.240                    24178023.080
                                        41.350          40.550



 113518765.195 8  88456139.89547  21601911.120                    21601908.820
                                        49.050          45.400



 125851122.377 7  98065795.71846  23948679.800                    23948677.920
                                        45.550          37.650



 122343141.034 7  95332329.007 7  23281127.440                    23281130.620
                                        47.400          45.100



 23  9  2  9 20  0.0000000  0 10G02G03G04G08G14G17G19G21G22G32
 111293006.730 8  86721794.91447  21178362.320                    21178357.700
                                        49.750          46.250



 108974202.973 8  84914975.812 8  20737093.840                    20737094.040
                                        49.700          48.800



 129159391.429 6 100643696.880 7  24578216.160                    24578220.940
                                        36.600          42.350



 126023524.589 7  98200118.323 7  23981502.420                    23981508.000
                                        42.100          43.850



 125667059.305 7  97922360.151 7  23913659.580                    23913658.980
                                        43.550          43.200



 118367141.218 7  92234119.225 7  22524521.760                    22524519.560
                                        46.950          44.550



 126947168.026 6  98919858.46046  24157243.760                    24157240.620
                                        40.600          40.100



 113570432.846 8  88496400.34947  21611743.200                    21611740.920
                                        48.850          45.650



 125882358.043 7  98090135.14946  23954623.820                    23954621.940
                                        45.200          37.750



 122406428.903 7  95381644.100 7  23293170.840                    23293174.020
                                        47.300          45.150



 23  9  2  9 20 30.0000000  0 10G02G03G04G08G14G17G19G21G22G32
 111327285.808 8  86748505.84847  21184885.460                    21184880.840
                                        49.900          45.900



 108922384.479 8  84874597.804 8  20727233.100                    20727233.280
                                        49.900          48.750



 129044692.201 6 100554320.831 7  24556389.560                    24556394.440
                                        37.200          42.550



 126134560.903 6  98286639.946 7  24002632.080                    24002637.700
                                        41.900          43.350



 125733812.439 7  97974375.520 7  23926362.320                    23926361.740
                                        44.500          43.800



 118296494.084 7  92179069.531 7  22511078.040                    22511075.840
                                        47.550          44.700



 126838150.602 6  98834909.85946  24136498.380                    24136495.280
                                        40.050          38.950



 113622344.338 8  88536850.82147  21621621.640                    21621619.420
                                        49.200          44.900



 125914050.032 7  98114830.16246  23960654.680                    23960652.780
                                        43.800          37.600



 122470161.807 7  95431305.999 7  23305298.920                    23305302.060
                                        47.550          45.200



 23  9  2  9 21  0.0000000  0 10G02G03G04G08G14G17G19G21G22G32
 111361888.968 8  86775469.30947  21191470.260                    21191465.640
                                        49.800          46.400



 108870993.146 8  84834552.648 8  20717453.640                    20717453.800
                                        49.850          48.700



 128930024.260 6 100464969.237 7  24534568.880                    24534573.920
                                        36.350          42.300



 126245712.423 6  98373251.297 7  24023783.700                    24023789.360
                                        40.900          43.200



 125800918.288 7  98026665.727 7  23939132.180                    23939131.640
                                        44.350          44.750



 118226211.661 7  92124304.027 7  22497703.740                    22497701.540
                                        47.750          44.700



 126729334.701 6  98750118.25446  24115791.360                    24115788.340
                                        40.700          38.650



 113674504.498 8  88577495.06547  21631547.420                    21631545.220
                                        48.850          45.000



 125946200.794 7  98139882.65046  23966772.840                    23966770.940
                                        44.200          37.100



 122534341.526 7  95481316.047 7  23317512.020                    23317515.160
                                        47.200          45.550



 23  9  2  9 21 30.0000000  0 10G02G03G04G08G14G17G19G21G22G32
 111396812.181 8  86802682.15547  21198115.960                    21198111.380
                                        49.550          46.500



 108820025.106 8  84794837.321 8  20707754.740                    20707754.860
                                        49.650          48.850



 128815386.040 6 100375640.753 7  24512753.800                    24512759.020
                                        36.850          42.350



 126356972.507 6  98459947.253 7  24044955.920                    24044961.660
                                        41.850          43.300



 125868369.627 7  98079225.103 7  23951967.860                    23951967.340
                                        44.800          44.300



 118156291.958 8  92069821.168 7  22484398.460                    22484396.240
                                        48.150          44.250



 126620718.323 6  98665482.05046  24095122.360                    24095119.420
                                        39.850          39.050



 113726908.653 8  88618329.42247  21641519.620                    21641517.460
                                        48.850          45.300



 125978804.334 7  98165287.96846  23972977.120                    23972975.220
                                        44.250          38.300



 122598961.615 7  95531669.228 7  23329808.900                    23329812.080
                                        47.100          45.400



 23  9  2  9 22  0.0000000  0 10G02G03G04G08G14G17G19G21G22G32
 111432057.628 8  86830146.11147  21204822.960                    21204818.400
                                        49.850          46.450



 108769483.142 8  84755454.003 8  20698136.920                    20698137.020
                                        49.700          49.100



 128700782.048 6 100286339.046 7  24490945.200                    24490950.600
                                        37.500          42.000



 126468340.718 6  98546727.455 7  24066148.760                    24066154.540
                                        41.750          44.200



 125936165.715 7  98132053.152 7  23964869.100                    23964868.620
                                        45.250          44.550



 118086739.270 7  92015624.299 7  22471163.020                    22471160.780
                                        47.700          43.800



 126512307.632 6  98581006.19546  24074492.440                    24074489.560
                                        41.050          38.700



 113779558.653 8  88659355.37047  21651538.580                    21651536.480
                                        49.050          45.750



 126011861.292 7  98191046.61046  23979267.680                    23979265.760
                                        44.600          36.350



 122664022.215 7  95582365.683 7  23342189.600                    23342192.820
                                        47.250          45.050



 23  9  2  9 22 30.0000000  0 10G02G03G04G08G14G17G19G21G22G32
 111467622.794 8  86857859.18447  21211590.820                    21211586.300
                                        49.750          46.300



 108719365.199 8  84716401.085 8  20688599.780                    20688599.860
                                        49.550          48.950



 128586212.296 6 100197063.988 6  24469143.140                    24469148.660
                                        38.500          41.750



 126579812.822 7  98633588.617 7  24087361.340                    24087367.220
                                        42.200          44.150



 126004301.264 7  98185145.716 7  23977834.940                    23977834.500
                                        43.750          43.700



 118017553.110 7  91961713.020 7  22457997.360                    22457995.080
                                        47.650          43.800



 126404102.371 6  98496690.37146  24053901.660                    24053898.840
                                        41.850          37.350



 113832451.760 8  88700570.73747  21661603.820                    21661601.760
                                        49.350          45.000



 126045367.341 7  98217155.16045  23985643.740                    23985641.800
                                        43.850          35.250



 122729518.615 7  95633401.720 7  23354653.240                    23354656.480
                                        46.900          44.250



 23  9  2  9 23  0.0000000  0 10G02G03G04G08G14G17G19G21G22G32
 111503510.503 8  86885823.58647  21218420.060                    21218415.560
                                        49.400          46.400



 108669674.561 8  84677681.132 8  20679143.960                    20679144.040
                                        49.750          49.200



 128471682.182 6 100107819.817 6  24447348.660                    24447354.220
                                        39.550          41.400



 126691388.704 6  98720530.646 7  24108593.720                    24108599.620
                                        41.250          44.800



 126072776.200 7  98238502.696 7  23990865.380                    23990865.020
                                        43.050          43.600



 117948738.573 7  91908091.329 7  22444902.380                    22444900.100
                                        47.750          44.050



 126296107.898 6  98412538.79646  24033350.980                    24033348.220
                                        41.150          36.150



 113885590.177 8  88741977.25847  21671715.740                    21671713.720
                                        49.300          45.400



 126079323.914 7  98243614.73146  23992105.540                    23992103.600
                                        42.950          36.850



 122795451.506 7  95684777.886 7  23367199.920                    23367203.200
                                        47.050          44.500



 23  9  2  9 23 30.0000000  0 10G02G03G04G08G14G17G19G21G22G32
 111539717.976 8  86914037.15447  21225310.140                    21225305.680
                                        49.150          46.650



 108620408.787 8  84639292.234 8  20669769.000                    20669769.080
                                        49.900          49.150



 128357191.300 6 100018606.231 6  24425561.740                    24425567.220
                                        40.200          41.700



 126803063.731 6  98807549.898 7  24129844.980                    24129850.920
                                        41.300          44.300



 126141584.694 7  98292119.604 7  24003959.260                    24003958.980
                                        43.900          43.200



 117880294.658 7  91854758.431 7  22431877.940                    22431875.660
                                        47.750          43.600



 126188324.277 7  98328551.52445  24012840.420                    24012837.720
                                        42.400          35.200



 113938970.748 8  88783572.46847  21681873.760                    21681871.760
                                        49.350          44.900



 126113726.342 7  98270421.71846  23998652.140                    23998650.300
                                        43.200          37.300



 122861815.796 7  95736490.209 7  23379828.680                    23379831.980
                                        47.150          44.050



 23  9  2  9 24  0.0000000  0 10G02G03G04G08G14G17G19G21G22G32
 111576248.426 8  86942502.39747  21232261.660                    21232257.240
                                        49.100          46.300



 108571571.551 8  84601237.251 8  20660475.580                    20660475.680
                                        49.800          48.850



 128242745.348 6  99929427.708 6  24403783.360                    24403788.740
                                        40.950          40.950



 126914838.365 6  98894646.794 7  24151115.180                    24151121.160
                                        40.600          44.300



 126210727.003 7  98345996.667 7  24017116.640                    24017116.420
                                        43.850          42.200



 117812227.064 7  91801718.755 7  22418925.120                    22418922.820
                                        47.550          43.650



 126080757.340 7  98244733.05045  23992371.160                    23992368.500
                                        43.250          35.900



 113992596.953 8  88825359.06447  21692078.520                    21692076.560
                                        49.300          45.350



 126148575.969 7  98297577.17545  24005283.840                    24005282.060
                                        44.350          34.550



 122928612.591 7  95788539.568 7  23392539.760                    23392543.060
                                        46.950          43.650



 23  9  2  9 24 30.0000000  0 10G02G03G04G08G14G17G19G21G22G32
 111613101.185 8  86971218.79247  21239274.500                    21239270.140
                                        48.800          46.200



 108523162.890 8  84563516.234 8  20651263.700                    20651263.800
                                        49.700          48.450



 128128346.458 6  99840285.832 6  24382013.960                    24382019.180
                                        40.900          41.600



 127026709.825 6  98981819.133 7  24172403.820                    24172409.800
                                        40.700          43.850



 126280199.938 7  98400131.354 7  24030336.940                    24030336.760
                                        43.600          42.600



 117744537.325 7  91748973.529 7  22406044.160                    22406041.880
                                        47.200          43.500



 125973409.507 7  98161085.28346  23971943.600                    23971940.980
                                        42.650          40.150



 114046467.178 8  88867335.81247  21702329.720                    21702327.780
                                        49.300          45.350



 126183870.908 7  98325079.65145  24012000.280                    24011998.520
                                        44.350          33.550



 122995839.272 7  95840923.915 7  23405332.620                    23405335.920
                                        46.750          43.400



 23  9  2  9 25  0.0000000  0 10G02G03G04G08G14G17G19G21G22G32
 111650277.267 8  87000187.11247  21246348.880                    21246344.600
                                        48.900          46.500



 108475183.875 8  84526130.017 8  20642133.580                    20642133.680
                                        49.850          48.750



 128013997.766 6  99751183.093 6  24360254.120                    24360259.200
                                        41.550          41.800



 127138676.897 6  99069065.985 7  24193710.640                    24193716.620
                                        41.550          43.550



 126350001.182 7  98454521.809 7  24043619.760                    24043619.620
                                        44.700          42.450



 117677228.405 7  91696525.031 7  22393235.680                    22393233.400
                                        47.800          43.700



 125866284.453 7  98077611.15446  23951558.420                    23951555.800
                                        42.950          39.850



 114100582.046 8  88909503.18647  21712627.480                    21712625.580
                                        49.200          45.050



 126219609.963 7  98352928.19345  24018801.280                    24018799.460
                                        44.400          35.200



 123063494.314 7  95893642.037 7  23418207.020                    23418210.300
                                        46.900          43.950



 23  9  2  9 25 30.0000000  0 10G02G03G04G08G14G17G19G21G22G32
 111687775.245 8  87029406.25247  21253484.500                    21253480.300
                                        48.750          46.600



 108427633.555 8  84489077.845 8  20633085.020                    20633085.120
                                        49.400          48.700



 127899700.416 6  99662120.370 6  24338504.040                    24338508.980
                                        40.550          41.950



 127250735.560 6  99156384.178 7  24215034.920                    24215040.900
                                        41.700          43.200



 126420126.385 7  98509164.712 7  24056964.240                    24056964.120
                                        44.000          42.550



 117610300.844 7  91644373.665 7  22380499.800                    22380497.500
                                        47.600          44.350



 125759382.937 6  97994311.16746  23931215.820                    23931213.220
                                        41.450          40.150



 114154940.824 8  88951860.59947  21722971.680                    21722969.780
                                        49.150          44.500



 126255790.527 7  98381120.72846  24025686.300                    24025684.460
                                        42.650          38.550



 123131574.087 7  95946691.125 7  23431162.220                    23431165.500
                                        46.850          43.700



 23  9  2  9 26  0.0000000  0 10G02G03G04G08G14G17G19G21G22G32
 111725594.810 8  87058875.99647  21260681.320                    21260677.200
                                        48.950          45.950



 108380512.343 8  84452360.064 8  20624118.100                    20624118.200
                                        49.300          48.050



 127785457.017 6  99573099.702 6  24316764.240                    24316769.040
                                        40.600          41.600



 127362883.892 6  99243772.292 6  24236376.200                    24236382.180
                                        41.600          40.500



 126490572.684 7  98564057.827 6  24070369.820                    24070369.720
                                        43.000          40.750



 117543757.018 7  91592521.352 7  22367836.920                    22367834.600
                                        47.300          44.850



 125652708.395 6  97911188.05346  23910916.400                    23910913.780
                                        41.200          39.250



 114209541.815 8  88994406.77747  21733361.940                    21733360.040
                                        49.300          44.000



 126292410.476 7  98409655.64046  24032654.940                    24032653.100
                                        42.850          37.350



 123200076.494 7  96000069.552 7  23444197.860                    23444201.100
                                        47.050          43.500



 23  9  2  9 26 30.0000000  0 10G02G03G04G08G14G17G19G21G22G32
 111763738.159 8  87088598.02147  21267939.780                    21267935.720
                                        48.950          46.350



 108333822.724 8  84415978.547 8  20615233.340                    20615233.440
                                        49.950          48.800



 127671272.080 6  99484124.574 6  24295035.480                    24295040.180
                                        39.950          41.750



 127475121.328 6  99331229.836 6  24257734.440                    24257740.400
                                        41.350          41.550



 126561339.183 7  98619200.480 6  24083836.300                    24083836.200
                                        44.050          41.350



 117477601.014 7  91540971.211 7  22355247.820                    22355245.580
                                        47.650          45.100



 125546265.612 6  97828245.61546  23890661.000                    23890658.360
                                        41.150          40.050



 114264387.182 8  89037143.35547  21743798.720                    21743796.800
                                        49.550          44.600



 126329469.948 7  98438533.05745  24039707.180                    24039705.360
                                        43.850          35.000



 123269001.308 7  96053777.103 7  23457313.880                    23457317.140
                                        47.300          44.100



 23  9  2  9 27  0.0000000  0 10G02G03G04G08G14G17G19G21G22G32
 111802203.403 8  87118570.87447  21275259.480                    21275255.480
                                        48.700          46.700



 108287562.939 8  84379931.988 8  20606430.360                    20606430.460
                                        49.900          49.050



 127557146.116 6  99395195.416 7  24273317.940                    24273322.580
                                        39.200          42.700



 127587443.292 6  99418753.248 6  24279108.760                    24279114.700
                                        41.150          41.500



 126632420.866 7  98674588.704 7  24097362.780                    24097362.660
                                        43.350          42.200



 117411832.797 7  91489723.229 7  22342732.540                    22342730.340
                                        47.000          44.950



 125440055.481 6  97745484.39146  23870449.940                    23870447.280
                                        41.750          40.950



 114319475.273 8  89080069.07647  21754281.700                    21754279.740
                                        49.400          44.750



 126366965.466 7  98467750.27346  24046842.420                    24046840.600
                                        43.750          36.350



 123338344.207 7  96107810.430 7  23470509.480                    23470512.740
                                        47.250          44.250



 23  9  2  9 27 30.0000000  0 10G02G03G04G08G14G17G19G21G22G32
 111840992.486 8  87148796.06447  21282640.820                    21282636.860
                                        48.800          46.550



 108241735.748 8  84344222.515 8  20597709.700                    20597709.820
                                        49.950          49.200



 127443083.928 6  99306315.962 7  24251612.500                    24251617.080
                                        38.950          42.850



 127699850.282 6  99506342.907 6  24300499.240                    24300505.200
                                        41.050          41.350



 126703817.089 7  98730222.018 7  24110949.120                    24110949.000
                                        42.900          42.850



 117346457.339 7  91438781.308 7  22330291.980                    22330289.840
                                        47.050          44.700



 125334082.756 7  97662908.20146  23850284.040                    23850281.340
                                        42.850          40.700



 114374807.322 8  89123184.88847  21764811.120                    21764809.100
                                        49.300          44.650



 126404897.524 7  98497307.64646  24054060.740                    24054058.860
                                        43.300          37.050



 123408105.365 7  96162169.648 7  23483784.700                    23483787.960
                                        47.400          44.350



 23  9  2  9 28  0.0000000  0 10G02G03G04G08G14G17G19G21G22G32
 111880102.160 8  87179271.06747  21290083.180                    21290079.260
                                        49.000          46.500



 108196338.130 8  84308847.780 8  20589070.820                    20589070.920
                                        49.800          48.900



 127329084.726 6  99217485.588 7  24229919.000                    24229923.580
                                        38.850          43.200



 127812336.368 6  99593994.176 7  24321904.780                    24321910.780
                                        39.600          42.650



 126775521.533 7  98786095.513 6  24124594.120                    24124594.000
                                        43.350          41.750



 117281472.551 7  91388143.823 7  22317925.760                    22317923.640
                                        47.200          44.350



 125228347.396 6  97580517.03846  23830163.260                    23830160.520
                                        41.850          41.100



 114430379.869 8  89166488.09947  21775386.300                    21775384.240
                                        49.400          44.100



 126443260.709 7  98527200.97846  24061361.100                    24061359.180
                                        43.650          37.050



 123478279.093 7  96216850.375 7  23497138.420                    23497141.680
                                        47.450          44.600



 23  9  2  9 28 30.0000000  0 10G02G03G04G08G14G17G19G21G22G32
 111919533.612 8  87209996.79347  21297586.780                    21297582.920
                                        49.600          46.250



 108151371.443 8  84273808.824 8  20580513.960                    20580514.040
                                        50.100          48.750



 127215152.054 6  99128707.041 7  24208238.160                    24208242.760
                                        39.200          42.500



 127924900.432 6  99681706.210 7  24343325.140                    24343331.220
                                        40.000          42.700



 126847532.267 7  98842207.631 6  24138297.440                    24138297.340
                                        43.550          41.400



 117216881.922 7  91337813.475 7  22305634.540                    22305632.440
                                        47.650          44.050



 125122852.830 7  97498313.48646  23810088.320                    23810085.540
                                        42.850          38.150



 114486193.690 8  89209979.31547  21786007.380                    21786005.280
                                        49.600          44.350



 126482054.301 7  98557429.69746  24068743.360                    24068741.400
                                        43.850          38.450



 123548864.139 7  96271851.590 7  23510570.400                    23510573.680
                                        47.550          44.650



 23  9  2  9 29  0.0000000  0 10G02G03G04G08G14G17G19G21G22G32
 111959287.288 8  87240973.61847  21305151.720                    21305147.860
                                        49.450          46.400



 108106836.809 8  84239106.535 8  20572039.280                    20572039.340
                                        49.950          49.050



 127101289.227 6  99039982.949 7  24186570.580                    24186575.220
                                        39.350          43.350



 128037540.580 6  99769477.508 6  24364760.000                    24364766.160
                                        36.250          41.900



 126919847.005 7  98898556.650 7  24152058.600                    24152058.500
                                        43.300          42.300



 117152688.241 7  91287792.424 7  22293418.860                    22293416.780
                                        47.300          44.150



 125017602.510 7  97416300.24846  23790059.860                    23790057.060
                                        42.100          39.400



 114542248.930 8  89253658.64247  21796674.400                    21796672.280
                                        49.250          44.650



 126521277.468 7  98587993.16546  24076207.340                    24076205.400
                                        43.250          38.550



 123619859.095 7  96327172.222 7  23524080.400                    23524083.700
                                        47.300          45.100



 23  9  2  9 29 30.0000000  0 10G02G03G04G08G14G17G19G21G22G32
 111999361.430 8  87272200.14347  21312777.640                    21312773.820
                                        49.300          46.150



 108062732.429 8  84204739.512 8  20563646.500                    20563646.540
                                        49.800          48.950



 126987496.595 6  98951313.543 7  24164916.380                    24164921.040
                                        38.300          43.500



 128150252.564 6  99857304.785 7  24386208.480                    24386214.760
                                        38.450          42.000



 126992460.651 7  98955138.592 6  24165876.640                    24165876.520
                                        43.350          40.250



 117088891.582 7  91238080.740 7  22281278.740                    22281276.680
                                        47.550          44.300



 124912597.366 6  97334478.05846  23770078.060                    23770075.220
                                        41.900          38.600



 114598543.597 8  89297524.54147  21807386.980                    21807384.860
                                        49.450          44.500



 126560925.814 6  98618887.93046  24083752.220                    24083750.300
                                        41.600          39.550



 123691259.525 7  96382808.814 7  23537667.560                    23537670.900
                                        47.350          44.800



 23  9  2  9 30  0.0000000  0 10G02G03G04G08G14G17G19G21G22G32
 112039757.985 8  87303677.89547  21320464.920                    21320461.140
                                        49.100          45.950



 108019061.087 8  84170709.923 8  20555336.100                    20555336.140
                                        49.800          49.100



 126873779.188 6  98862702.726 7  24143276.480                    24143281.160
                                        38.950          43.850



 128263036.947 6  99945188.456 6  24407670.800                    24407677.180
                                        38.800          41.750



 127065372.715 7  99011953.046 6  24179751.460                    24179751.340
                                        43.100          41.450



 117025496.476 8  91188681.938 7  22269215.060                    22269213.020
                                        48.100          44.050



 124807842.524 7  97252850.89246  23750143.900                    23750141.020
                                        43.150          38.200



 114655079.198 8  89341578.17647  21818145.420                    21818143.300
                                        49.300          44.750



 126600999.998 6  98650114.50046  24091378.100                    24091376.220
                                        41.450          37.850



 123763065.627 7  96438761.511 7  23551331.920                    23551335.280
                                        47.000          44.550



 23  9  2  9 30 30.0000000  0 11G02G03G04G08G14G17G19G21G22G28G32
 112080475.932 8  87335406.08147  21328213.360                    21328209.580
                                        49.100          45.850



 107975822.080 8  84137017.197 8  20547108.000                    20547108.040
                                        49.650          48.800



 126760138.547 6  98774151.733 7  24121651.240                    24121655.940
                                        39.700          43.200



 128375889.544 6 100033125.345 6  24429146.060                    24429152.480
                                        40.500          40.950



 127138579.182 7  99068996.922 6  24193682.280                    24193682.140
                                        42.550          40.550



 116962504.166 8  91139597.025 7  22257228.000                    22257225.960
                                        48.250          44.850



 124703339.993 7  97171420.29746  23730257.800                    23730254.840
                                        43.150          37.200



 114711854.706 8  89385818.74647  21828949.520                    21828947.400
                                        49.050          44.850



 126641497.301 6  98681670.74646  24099084.500                    24099082.700
                                        41.900          39.050



 129744825.881 7 101099894.268 7  24689620.460                    24689626.600
                                        42.300          42.300



 123835274.092 7  96495027.747 7  23565072.820                    23565076.240
                                        46.450          44.300



 23  9  2  9 31  0.0000000  0 11G02G03G04G08G14G17G19G21G22G28G32
 112121514.366 8  87367384.00647  21336022.780                    21336019.020
                                        49.200          46.250



 107933014.821 8  84103660.912 8  20538962.040                    20538962.060
                                        49.600          48.550



 126646576.300 6  98685661.785 7  24100040.920                    24100045.640
                                        40.300          42.200



 128488807.786 6 100121113.385 6  24450633.880                    24450640.300
                                        40.550          41.750



 127212076.151 7  99126267.168 6  24207668.360                    24207668.220
                                        42.550          40.650



 116899915.680 7  91090826.805 7  22245317.780                    22245315.740
                                        47.850          44.800



 124599091.611 6  97090187.78146  23710420.020                    23710416.980
                                        41.950          37.100



 114768868.693 8  89430245.14347  21839798.980                    21839796.880
                                        48.900          44.600



 126682414.728 7  98713554.38246  24106870.820                    24106869.100
                                        42.100          38.950



 129680388.862 7 101049683.805 7  24677358.180                    24677364.640
                                        42.000          42.800



 123907881.727 7  96551605.026 7  23578889.700                    23578893.140
                                        46.300          43.950



 23  9  2  9 31 30.0000000  0 11G02G03G04G08G14G17G19G21G22G28G32
 112162874.239 8  87399612.40847  21343893.360                    21343889.600
                                        49.600          45.700



 107890640.554 8  84070642.002 8  20530898.460                    20530898.500
                                        49.800          48.550



 126533095.956 6  98597235.668 6  24078446.220                    24078450.920
                                        41.600          41.150



 128601790.197 6 100209151.431 7  24472133.920                    24472140.300
                                        41.250          42.250



 127285861.565 7  99183762.122 6  24221709.340                    24221709.240
                                        43.100          40.750



 116837733.778 8  91042373.391 7  22233484.960                    22233482.900
                                        48.300          45.000



 124495101.143 6  97009156.25446  23690631.320                    23690628.180
                                        41.900          37.950



 114826121.923 8  89474857.96047  21850693.980                    21850691.900
                                        49.100          44.100



 126723751.404 7  98745764.64246  24114736.980                    24114735.360
                                        42.700          39.800



 129616299.233 7 100999743.983 7  24665162.200                    24665168.800
                                        42.950          42.550



 123980887.192 7  96608492.281 7  23592782.280                    23592785.780
                                        46.950          43.550



 23  9  2  9 32  0.0000000  0 11G02G03G04G08G14G17G19G21G22G28G32
 112204556.547 8  87432092.05347  21351825.300                    21351821.580
                                        49.700          46.250



 107848700.538 8  84037961.485 8  20522917.540                    20522917.560
                                        49.850          48.800



 126419701.111 7  98508876.118 6  24056867.880                    24056872.520
                                        42.400          41.650



 128714835.540 6 100297238.473 7  24493645.980                    24493652.320
                                        41.100          43.200



 127359933.505 7  99241480.365 6  24235804.860                    24235804.800
                                        43.050          40.700



 116775961.637 8  90994239.270 7  22221730.100                    22221728.060
                                        48.450          46.200



 124391372.595 6  96928328.81245  23670892.460                    23670889.220
                                        41.250          35.250



 114883614.991 8  89519657.67547  21861634.600                    21861632.560
                                        49.150          44.200



 126765506.626 7  98778301.09046  24122682.760                    24122681.260
                                        42.750          37.900



 129552560.792 7 100950077.809 7  24653033.100                    24653039.780
                                        42.800          43.800



 124054289.188 7  96665688.549 7  23606750.300                    23606753.820
                                        46.650          43.750



 23  9  2  9 32 30.0000000  0 11G02G03G04G08G14G17G19G21G22G28G32
 112246564.438 8  87464825.40847  21359819.200                    21359815.480
                                        49.550          46.450



 107807198.250 8  84005622.070 8  20515019.880                    20515019.900
                                        50.000          48.800



 126306397.449 7  98420587.632 6  24035306.880                    24035311.460
                                        42.450          40.350



 128827944.674 6 100385375.205 7  24515170.180                    24515176.520
                                        39.950          43.650



 127434292.068 7  99299421.983 6  24249954.900                    24249954.860
                                        43.050          41.100



 116714604.403 8  90946428.450 7  22210054.220                    22210052.180
                                        48.250          46.100



 124287912.113 7  96847710.24046  23651204.600                    23651201.280
                                        42.950          37.750



 114941350.868 8  89564646.58847  21872621.440                    21872619.400
                                        49.300          44.100



 126807681.447 7  98811164.50146  24130708.380                    24130706.980
                                        44.150          38.900



 129489179.339 7 100900689.817 7  24640971.940                    24640978.640
                                        42.800          44.350



 124128088.594 7  96723194.484 7  23620793.940                    23620797.520
                                        46.750          43.500



 23  9  2  9 33  0.0000000  0 11G02G03G04G08G14G17G19G21G22G28G32
 112288893.153 8  87497808.75647  21367874.140                    21367870.440
                                        49.500          45.950



 107766129.540 8  83973620.492 8  20507204.760                    20507204.760
                                        49.700          48.800



 126193183.136 6  98332368.719 7  24013762.940                    24013767.420
                                        40.950          42.000



 128941111.087 6 100473556.552 7  24536705.260                    24536711.640
                                        40.150          43.250



 127508929.912 7  99357581.218 6  24264158.080                    24264158.080
                                        42.350          40.650



 116653659.917 8  90898939.259 7  22198456.880                    22198454.860
                                        48.300          46.000



 124184717.747 7  96767299.00946  23631567.420                    23631564.020
                                        43.550          39.900



 114999324.647 8  89609820.88447  21883653.540                    21883651.520
                                        49.350          44.500



 126850269.618 7  98844350.00346  24138812.700                    24138811.360
                                        44.050          38.400



 129426153.433 7 100851578.845 7  24628978.480                    24628985.180
                                        42.250          43.950



 124202278.641 7  96781004.822 7  23634911.920                    23634915.520
                                        46.850          43.500



 23  9  2  9 33 30.0000000  0 11G02G03G04G08G14G17G19G21G22G28G32
 112331542.348 8  87531041.83247  21375990.080                    21375986.360
                                        49.400          46.350



 107725494.222 8  83941956.628 8  20499472.080                    20499472.080
                                        49.850          49.000



 126080060.344 6  98244221.143 7  23992236.400                    23992240.780
                                        40.550          42.050



 129054331.410 6 100561779.932 7  24558250.580                    24558257.000
                                        39.800          43.650



 127583843.501 7  99415955.310 7  24278413.780                    24278413.800
                                        42.200          42.200



 116593129.610 8  90851772.818 7  22186938.340                    22186936.340
                                        48.200          45.450



 124081792.010 7  96687097.14646  23611981.320                    23611977.840
                                        43.750          40.500



 115057535.592 8  89655179.98647  21894730.800                    21894728.780
                                        49.250          44.050



 126893268.530 7  98877855.56746  24146995.200                    24146993.900
                                        43.300          39.700



 129363485.265 6 100802746.612 7  24617053.080                    24617059.760
                                        41.800          44.650



 124276856.607 7  96839117.432 7  23649103.720                    23649107.340
                                        46.800          43.850



 23  9  2  9 34  0.0000000  0 11G02G03G04G08G14G17G19G21G22G28G32
 112374514.752 8  87564526.74447  21384167.540                    21384163.820
                                        49.400          46.200



 107685295.342 8  83910632.836 8  20491822.480                    20491822.480
                                        49.700          49.000



 125967034.326 6  98156148.977 7  23970728.240                    23970732.580
                                        40.100          43.300



 129167606.579 6 100650046.044 7  24579806.320                    24579812.800
                                        40.500          43.150



 127659032.559 7  99474544.002 7  24292721.940                    24292721.980
                                        42.150          42.650



 116533018.032 8  90804932.613 7  22175499.500                    22175497.500
                                        48.200          44.550



 123979140.405 7  96607108.87846  23592447.400                    23592443.860
                                        44.150          40.350



 115115986.035 8  89700725.69247  21905853.640                    21905851.620
                                        49.150          43.900



 126936679.114 7  98911681.90046  24155256.060                    24155254.760
                                        43.200          39.800



 129301180.340 7 100754197.423 7  24605196.780                    24605203.440
                                        42.200          44.500



 124351822.927 7  96897532.637 7  23663369.420                    23663373.080
                                        46.750          43.300



 23  9  2  9 34 30.0000000  0 11G02G03G04G08G14G17G19G21G22G28G32
 112417808.398 8  87598261.97747  21392406.100                    21392402.420
                                        49.450          45.650



 107645531.282 8  83879647.875 8  20484255.600                    20484255.620
                                        50.000          48.700



 125854105.887 6  98068152.866 7  23949238.620                    23949242.920
                                        40.250          42.950



 129280932.396 6 100738351.638 6  24601371.680                    24601378.220
                                        40.650          41.950



 127734492.356 7  99533343.783 7  24307081.540                    24307081.600
                                        42.700          42.100



 116473325.776 8  90758419.170 7  22164140.440                    22164138.440
                                        48.800          44.400



 123876764.710 7  96527335.61246  23572965.980                    23572962.400
                                        44.300          38.900



 115174673.793 8  89746456.33047  21917021.620                    21917019.600
                                        49.550          43.400



 126980497.531 7  98945826.02346  24163594.500                    24163593.280
                                        44.750          38.950



 129239239.539 6 100705931.945 7  24593409.760                    24593416.460
                                        41.150          43.550



 124427173.415 7  96956247.190 7  23677708.220                    23677711.900
                                        46.950          43.050



 23  9  2  9 35  0.0000000  0 11G02G03G04G08G14G17G19G21G22G28G32
 112461421.637 8  87632246.23947  21400705.480                    21400701.820
                                        49.300          46.300



 107606200.802 8  83849000.776 8  20476771.220                    20476771.240
                                        50.150          48.900



 125741276.132 6  97980233.605 7  23927767.800                    23927772.100
                                        40.800          44.500



 129394305.278 6 100826693.940 6  24622945.980                    24622952.560
                                        39.900          40.350



 127810218.300 6  99592350.917 7  24321491.800                    24321491.880
                                        41.900          42.750



 116414053.585 8  90712233.049 7  22152861.300                    22152859.280
                                        48.750          45.300



 123774666.100 7  96447778.22446  23553537.320                    23553533.680
                                        45.000          39.250



 115233597.347 8  89792370.70647  21928234.480                    21928232.460
                                        49.300          44.050



 127024720.202 7  98980285.21246  24172009.840                    24172008.660
                                        44.900          39.550



 129177664.123 6 100657951.182 7  24581692.200                    24581698.960
                                        40.400          44.550



 124502904.262 7  97015258.124 7  23692119.400                    23692123.120
                                        46.300          43.600



 23  9  2  9 35 30.0000000  0 11G02G03G04G08G14G17G19G21G22G28G32
 112505357.767 8  87666482.09947  21409066.320                    21409062.680
                                        49.000          46.650



 107567307.373 8  83818694.222 8  20469370.040                    20469370.040
                                        49.750          48.900



 125628550.878 7  97892395.782 7  23906316.860                    23906321.140
                                        42.050          44.050



 129507725.686 6 100915073.245 6  24644529.340                    24644535.980
                                        38.350          41.350



 127886210.651 6  99651565.630 7  24335952.760                    24335952.860
                                        41.800          43.350



 116355206.639 8  90666378.273 7  22141663.100                    22141661.080
                                        48.650          45.650



 123672850.468 7  96368441.36246  23534162.480                    23534158.820
                                        44.700          40.650



 115292759.404 8  89838470.92047  21939492.740                    21939490.700
                                        49.150          44.150



 127069348.662 7  99015060.59246  24180502.420                    24180501.280
                                        43.550          38.050



 129116460.039 6 100610259.759 7  24570045.300                    24570052.120
                                        40.250          44.200



 124579016.443 7  97074566.189 7  23706603.160                    23706606.900
                                        46.150          43.950



 23  9  2  9 36  0.0000000  0 11G02G03G04G08G14G17G19G21G22G28G32
 112549615.576 8  87700968.60747  21417488.360                    21417484.780
                                        49.350          46.400



 107528850.161 8  83788727.574 8  20462051.860                    20462051.880
                                        49.850          48.950



 125515931.669 7  97804640.580 7  23884886.160                    23884890.400
                                        42.750          44.650



 129621190.817 6 101003487.383 6  24666121.240                    24666127.920
                                        39.350          40.500



 127962465.320 7  99710984.742 7  24350463.620                    24350463.780
                                        43.150          42.800



 116296785.387 8  90620855.204 7  22130545.940                    22130543.920
                                        48.950          44.900



 123571319.454 7  96289326.27246  23514841.820                    23514838.140
                                        45.100          39.200



 115352158.402 8  89884755.76147  21950796.100                    21950794.040
                                        49.050          43.500



 127114379.634 7  99050149.59646  24189071.620                    24189070.520
                                        43.250          36.550



 129055628.912 6 100562858.976 7  24558469.340                    24558476.220
                                        40.850          44.400



 124655506.461 7  97134168.657 7  23721158.820                    23721162.580
                                        46.500          43.850



 23  9  2  9 36 30.0000000  0 11G02G03G04G08G14G17G19G21G22G28G32
 112594191.717 8  87735703.18447  21425970.980                    21425967.400
                                        49.400          46.400



 107490826.322 8  83759098.611 8  20454816.140                    20454816.180
                                        50.150          49.300



 125403418.057 7  97716967.646 7  23863475.580                    23863479.800
                                        43.600          44.250



 129734695.329 6 101091932.251 6  24687720.580                    24687727.300
                                        37.450          40.550



 128038976.177 7  99770603.532 7  24365023.180                    24365023.360
                                        43.200          43.550



 116238789.179 8  90575663.349 7  22119509.640                    22119507.620
                                        49.000          45.550



 123470073.116 7  96210432.99846  23495575.360                    23495571.620
                                        44.600          40.050



 115411791.262 8  89931222.82447  21962143.940                    21962141.880
                                        49.250          43.400



 127159808.046 7  99085548.32046  24197716.400                    24197715.300
                                        43.900          36.800



 128995170.470 6 100515748.573 7  24546964.360                    24546971.280
                                        41.950          44.150



 124732369.024 7  97194061.443 7  23735785.360                    23735789.140
                                        46.200          44.100



 23  9  2  9 37  0.0000000  0 11G02G03G04G08G14G17G19G21G22G28G32
 112639091.683 8  87770690.09347  21434515.220                    21434511.660
                                        49.600          46.400



 107453241.371 8  83729811.648 8  20447663.940                    20447664.000
                                        49.800          49.150



 125291017.914 7  97629383.150 7  23842086.580                    23842090.780
                                        43.000          44.800



 129848242.622 6 101180410.414 6  24709328.100                    24709334.860
                                        37.650          41.800



 128115745.492 7  99830423.718 7  24379631.920                    24379632.120
                                        43.700          42.100



 116181225.103 8  90530808.233 7  22108555.580                    22108553.540
                                        48.350          44.800



 123369119.287 7  96131767.64546  23476364.540                    23476360.740
                                        44.000          38.750



 115471662.512 8  89977875.66647  21973537.140                    21973535.060
                                        49.300          42.700



 127205637.008 7  99121259.16145  24206437.380                    24206436.280
                                        43.700          35.500



 128935092.637 7 100468934.740 7  24535531.860                    24535538.760
                                        42.200          43.600



 124809607.034 7  97254246.788 7  23750483.340                    23750487.140
                                        46.250          44.500



 23  9  2  9 37 30.0000000  0 11G02G03G04G08G14G17G19G21G22G28G32
 112684311.846 8  87805926.49847  21443120.400                    21443116.860
                                        49.600          46.400



 107416092.524 8  83700864.511 8  20440594.740                    20440594.800
                                        50.050          48.950



 125178730.899 7  97541886.797 7  23820719.120                    23820723.300
                                        43.050          44.750



 129961826.669 6 101268917.187 7  24730942.600                    24730949.460
                                        38.200          42.300



 128192767.412 7  99890440.696 7  24394288.780                    24394289.000
                                        44.100          42.400



 116124092.320 8  90486289.175 7  22097683.580                    22097681.520
                                        48.600          45.000



 123268458.407 7  96053330.61046  23457209.420                    23457205.600
                                        43.600          39.350



 115531768.743 8  90024711.60747  21984975.040                    21984972.960
                                        49.650          43.200



 127251861.496 7  99157278.18646  24215233.640                    24215232.500
                                        44.000          38.350



 128875395.213 7 100422417.296 7  24524171.820                    24524178.660
                                        42.800          43.450



 124887215.219 7  97314720.561 7  23765251.780                    23765255.620
                                        46.700          44.750



 23  9  2  9 38  0.0000000  0 11G02G03G04G08G14G17G19G21G22G28G32
 112729852.549 8  87841412.66347  21451786.580                    21451783.060
                                        49.250          46.350



 107379379.792 8  83672257.194 8  20433608.520                    20433608.600
                                        50.250          48.650



 125066559.358 6  97454480.455 7  23799373.600                    23799377.780
                                        41.900          44.150



 130075445.216 6 101357450.861 6  24752563.640                    24752570.600
                                        38.350          41.650



 128270038.607 7  99950651.947 7  24408993.060                    24408993.260
                                        44.550          42.650



 116067392.637 8  90442107.600 7  22086893.980                    22086891.920
                                        48.950          45.250



 123168093.052 7  95975123.81446  23438110.560                    23438106.700
                                        44.150          38.500



 115592109.806 8  90071730.52947  21996457.660                    21996455.540
                                        49.500          42.700



 127298479.460 7  99193603.79946  24224104.800                    24224103.640
                                        44.050          36.550



 128816080.543 6 100376198.124 7  24512884.620                    24512891.340
                                        41.550          43.050



 124965190.977 7  97375480.778 7  23780090.160                    23780094.020
                                        46.650          44.900



 23  9  2  9 38 30.0000000  0 11G02G03G04G08G14G17G19G21G22G28G32
 112775714.849 8  87877149.44547  21460513.940                    21460510.460
                                        49.300          45.900



 107343104.687 8  83643990.892 8  20426705.600                    20426705.640
                                        49.750          48.600



 124954507.330 7  97367167.262 7  23778050.760                    23778054.960
                                        42.000          44.450



 130189097.048 6 101446010.530 6  24774190.960                    24774198.000
                                        39.200          41.700



 128347557.364 7 100011056.112 7  24423744.440                    24423744.640
                                        44.050          42.000



 116011129.439 8  90398266.164 7  22076187.440                    22076185.360
                                        49.000          44.550



 123068027.395 7  95897150.55446  23419068.700                    23419064.840
                                        43.950          40.300



 115652686.723 8  90118933.24647  22007985.160                    22007983.020
                                        49.050          42.600



 127345490.161 7  99230235.46345  24233050.680                    24233049.480
                                        44.150          35.700



 128757152.714 7 100330280.374 7  24501671.060                    24501677.660
                                        42.750          43.000



 125043533.335 7  97436526.656 7  23794998.280                    23795002.180
                                        46.900          44.550



 23  9  2  9 39  0.0000000  0 11G02G03G04G08G14G17G19G21G22G28G32
 112821894.797 8  87913133.74847  21469301.740                    21469298.280
                                        49.300          45.050



 107307263.622 8  83616062.800 8  20419885.240                    20419885.300
                                        49.650          48.700



 124842573.655 6  97279946.303 7  23756750.420                    23756754.640
                                        41.550          43.800



 130302777.154 6 101534592.181 6  24795823.720                    24795830.840
                                        38.300          41.850



 128425316.936 7 100071647.868 6  24438541.720                    24438541.900
                                        43.800          40.800



 115955300.521 8  90354763.130 7  22065563.560                    22065561.420
                                        48.650          44.650



 122968260.673 7  95819410.23246  23400083.740                    23400079.880
                                        43.300          40.150



 115713495.308 8  90166316.47946  22019556.740                    22019554.580
                                        48.450          41.900



 127392887.625 7  99267168.49845  24242070.160                    24242068.960
                                        43.300          34.700



 128698610.620 7 100284663.207 7  24490530.880                    24490537.360
                                        42.800          42.400



 125122236.170 7  97497853.419 7  23809975.020                    23809978.960
                                        46.950          44.350



 23  9  2  9 39 30.0000000  0 11G02G03G04G08G14G17G19G21G22G28G32
 112868398.172 8  87949370.06747  21478151.100                    21478147.620
                                        49.000          45.100



 107271862.502 8  83588477.514 8  20413148.620                    20413148.680
                                        49.800          48.950



 124730766.643 6  97192824.086 7  23735474.180                    23735478.380
                                        41.300          43.800



 130416488.053 6 101623197.847 6  24817462.300                    24817469.540
                                        39.250          41.200



 128503319.981 7 100132429.455 6  24453385.220                    24453385.380
                                        43.900          41.300



 115899913.750 8  90311604.634 7  22055023.800                    22055021.620
                                        48.700          44.850



 122868801.696 7  95741909.71846  23381157.320                    23381153.460
                                        43.350          41.750



 115774540.935 7  90213884.42047  22031173.400                    22031171.240
                                        47.900          42.400



 127440675.491 7  99304405.69845  24251163.960                    24251162.780
                                        42.250          34.950



 128640462.652 7 100239353.159 7  24479465.720                    24479472.040
                                        42.500          42.550



 125201302.861 7  97559463.711 7  23825021.000                    23825024.960
                                        46.700          44.900



 23  9  2  9 40  0.0000000  0 11G02G03G04G08G14G17G19G21G22G28G32
 112915221.197 8  87985855.46747  21487061.280                    21487057.780
                                        49.350          45.100



 107236897.998 8  83561232.470 8  20406495.040                    20406495.140
                                        50.250          48.650



 124619085.442 6  97105799.892 7  23714221.840                    23714226.040
                                        40.750          42.900



 130530225.119 6 101711823.884 6  24839105.900                    24839113.220
                                        37.750          41.450



 128581560.044 7 100193395.665 6  24468273.900                    24468274.040
                                        43.700          40.600



 115844968.000 8  90268789.795 7  22044567.980                    22044565.760
                                        49.100          45.300



 122769649.781 7  95664648.47846  23362289.320                    23362285.500
                                        44.500          41.050



 115835819.231 8  90261633.65547  22042834.320                    22042832.180
                                        48.300          42.500



 127488848.251 7  99341942.84646  24260330.960                    24260329.760
                                        42.650          36.600



 128582707.868 7 100194349.490 6  24468475.380                    24468481.560
                                        43.150          41.800



 125280727.538 7  97621352.943 7  23840135.120                    23840139.120
                                        46.900          44.500



 23  9  2  9 40 30.0000000  0 11G02G03G04G08G14G17G19G21G22G28G32
 112962364.231 8  88022590.24147  21496032.340                    21496028.800
                                        49.600          45.800



 107202370.788 8  83534328.177 8  20399924.720                    20399924.800
                                        50.250          48.650



 124507533.244 6  97018876.253 6  23692994.040                    23692998.200
                                        40.850          41.900



 130643985.651 5 101800468.215 6  24860753.940                    24860761.360
                                        35.650          40.250



 128660034.587 7 100254544.583 7  24483207.180                    24483207.320
                                        42.300          42.000



 115790465.066 8  90226319.991 7  22034196.420                    22034194.160
                                        49.000          45.450



 122670808.208 7  95587629.06446  23343480.400                    23343476.600
                                        45.000          41.100



 115897330.924 8  90309564.76547  22054539.640                    22054537.540
                                        48.250          43.400



 127537404.264 7  99379778.62345  24269570.920                    24269569.680
                                        43.150          34.800



 128525349.565 7 100149654.769 7  24457560.460                    24457566.500
                                        42.900          42.250



 125360508.393 7  97683519.747 7  23855317.000                    23855321.020
                                        46.550          44.400



 23  9  2  9 41  0.0000000  0 11G02G03G04G08G14G17G19G21G22G28G32
 113009829.343 8  88059575.97747  21505064.700                    21505061.140
                                        49.550          44.800



 107168283.094 8  83507766.354 8  20393438.040                    20393438.100
                                        49.950          48.100



 124396114.615 6  96932056.696 7  23671791.680                    23671795.740
                                        40.900          43.650



 130757769.686 5 101889130.858 6  24882406.460                    24882413.960
                                        35.800          40.400



 128738742.591 6 100315875.376 7  24498184.920                    24498185.060
                                        40.950          42.000



 115736409.307 8  90184198.624 7  22023909.980                    22023907.680
                                        49.100          44.650



 122572282.115 7  95510855.46146  23324731.520                    23324727.760
                                        45.450          41.400



 115959077.577 8  90357678.94447  22066289.680                    22066287.620
                                        48.300          43.050



 127586343.326 7  99417912.90445  24278883.740                    24278882.440
                                        43.350          33.600



 128468392.351 7 100105272.602 7  24446721.860                    24446727.760
                                        43.200          42.050



 125440645.120 7  97745963.831 7  23870566.640                    23870570.660
                                        46.450          44.250



 23  9  2  9 41 30.0000000  0 11G02G03G04G08G14G17G19G21G22G28G32
 113057612.464 8  88096809.50847  21514157.600                    21514153.980
                                        49.300          45.300



 107134631.145 8  83481544.073 8  20387034.260                    20387034.320
                                        50.100          48.600



 124284828.361 6  96845340.329 7  23650614.460                    23650618.480
                                        41.800          43.500



 130871571.034 6 101977806.975 6  24904062.260                    24904069.860
                                        36.750          39.250



 128817677.228 6 100377382.806 6  24513205.740                    24513205.920
                                        40.100          41.650



 115682799.416 8  90142424.696 7  22013708.380                    22013706.040
                                        48.950          44.500



 122474070.576 7  95434326.93846  23306042.560                    23306038.800
                                        45.100          40.850



 116021055.227 8  90405973.14347  22078083.660                    22078081.640
                                        48.400          43.800



 127635659.782 6  99456341.27645  24288268.400                    24288267.040
                                        41.700          32.300



 128411834.969 7 100061202.008 7  24435959.300                    24435965.100
                                        42.350          42.550



 125521131.469 7  97808680.350 7  23885882.780                    23885886.840
                                        46.400          44.200



 23  9  2  9 42  0.0000000  0 11G02G03G04G08G14G17G19G21G22G28G32
 113105716.325 8  88134292.97347  21523311.500                    21523307.880
                                        49.200          45.300



 107101418.312 8  83455663.949 8  20380714.080                    20380714.100
                                        50.000          48.950



 124173680.333 7  96758731.667 7  23629463.580                    23629467.500
                                        43.500          43.400



 130985391.227 6 102066497.815 6  24925721.640                    24925729.300
                                        38.350          41.100



 128896838.651 6 100439066.948 6  24528269.680                    24528269.960
                                        40.000          41.750



 115629639.745 8  90101001.590 7  22003592.460                    22003590.040
                                        48.800          44.150



 122376179.862 7  95358048.42746  23287414.620                    23287410.880
                                        45.000          41.250



 116083266.444 8  90454449.34047  22089922.080                    22089920.140
                                        48.650          43.100



 127685354.677 6  99495064.53845  24297725.040                    24297723.640
                                        38.950          34.250



 128355683.246 7 100017447.530 7  24425273.900                    24425279.640
                                        42.200          44.050



 125601968.289 7  97871669.988 7  23901265.600                    23901269.680
                                        46.700          43.500



 23  9  2  9 42 30.0000000  0 11G02G03G04G08G14G17G19G21G22G28G32
 113154138.873 8  88172024.76547  21532526.060                    21532522.400
                                        49.300          45.350



 107068642.361 8  83430124.260 8  20374477.000                    20374477.020
                                        50.050          49.050



 124062670.872 7  96672230.964 7  23608339.100                    23608342.920
                                        44.200          44.200



 131099225.716 6 102155199.796 6  24947383.780                    24947391.460
                                        40.150          39.950



 128976221.524 6 100500923.695 6  24543375.720                    24543376.080
                                        41.150          41.100



 115576929.653 8  90059928.793 7  21993562.080                    21993559.580
                                        48.600          44.900



 122278610.651 7  95282020.45646  23268847.860                    23268844.120
                                        46.250          41.300



 116145708.483 8  90503105.39947  22101804.440                    22101802.560
                                        48.800          43.400



 127735423.375 6  99534079.01045  24307252.800                    24307251.440
                                        40.200          35.500



 128299937.515 6  99974009.429 7  24414665.720                    24414671.440
                                        41.550          44.150



 125683150.905 7  97934929.077 7  23916714.240                    23916718.300
                                        46.400          43.200



 23  9  2  9 43  0.0000000  0 11G02G03G04G08G14G17G19G21G22G28G32
 113202879.561 8  88210004.46947  21541801.140                    21541797.460
                                        49.350          45.350



 107036303.055 8  83404924.828 8  20368323.020                    20368323.020
                                        49.900          48.950



 123951802.139 7  96585839.969 7  23587241.400                    23587245.060
                                        43.950          43.300



 131213071.348 6 102243910.492 6  24969048.060                    24969055.740
                                        39.100          41.600



 129055822.421 6 100562950.335 6  24558523.260                    24558523.680
                                        40.500          41.800



 115524671.229 8  90019207.963 7  21983617.620                    21983615.080
                                        48.200          45.400



 122181365.292 7  95206244.85146  23250342.720                    23250338.980
                                        45.600          41.300



 116208380.696 8  90551940.83647  22113730.600                    22113728.760
                                        49.050          43.550



 127785863.147 6  99573382.69445  24316851.100                    24316849.780
                                        41.950          35.450



 128244599.881 7  99930889.355 7  24404135.160                    24404140.900
                                        42.200          43.750



 125764676.526 7  97998455.457 7  23932228.160                    23932232.180
                                        46.700          42.900



 23  9  2  9 43 30.0000000  0  9G02G03G04G17G19G21G22G28G32
 113251935.984 8  88248230.19447  21551136.320                    21551132.620
                                        49.250          45.750



 107004398.431 8  83380064.097 8  20362251.760                    20362251.760
                                        50.050          49.200



 123841074.711 7  96499559.064 7  23566170.600                    23566174.100
                                        44.050          42.550



 115472864.309 8  89978838.953 7  21973759.080                    21973756.520
                                        48.400          45.800



 122084444.618 7  95130722.23246  23231899.380                    23231895.640
                                        45.650          40.900



 116271280.464 8  90600953.57547  22125700.080                    22125698.280
                                        49.100          43.400



 127836669.992 6  99612972.44646  24326519.300                    24326517.960
                                        41.500          37.000



 128189670.937 7  99888087.748 7  24393682.340                    24393688.120
                                        43.300          44.250



 125846540.748 7  98062245.705 7  23947806.480                    23947810.440
                                        46.800          42.050



 23  9  2  9 44  0.0000000  0  9G02G03G04G17G19G21G22G28G32
 113301315.219 8  88286707.45247  21560532.920                    21560529.240
                                        49.250          46.500



 106972935.582 8  83355547.614 8  20356264.560                    20356264.560
                                        50.100          49.150



 123730498.207 7  96413395.776 7  23545128.500                    23545131.860
                                        44.300          42.300



 115421517.095 8  89938828.151 7  21963988.000                    21963985.480
                                        48.050          45.850



 121987858.769 7  95055460.49846  23213519.760                    23213516.020
                                        44.900          41.800



 116334414.416 8  90650148.79847  22137714.140                    22137712.360
                                        48.750          42.900



 127887848.658 6  99652851.89946  24336258.280                    24336256.980
                                        39.700          37.900



 128135160.184 7  99845612.033 7  24383309.100                    24383314.920
                                        43.400          44.050



 125928748.180 7  98126303.392 7  23963450.120                    23963454.020
                                        46.200          42.350



 23  9  2  9 44 30.0000000  0  9G02G03G04G17G19G21G22G28G32
 113351015.658 8  88325435.00147  21569990.640                    21569987.020
                                        49.550          46.350



 106941913.350 8  83331374.461 8  20350361.220                    20350361.220
                                        50.000          49.050



 123620074.076 7  96327351.185 6  23524115.400                    23524118.640
                                        43.950          41.500



 115370631.276 7  89899176.863 7  21954304.720                    21954302.240
                                        47.750          45.700



 121891609.350 7  94980460.95746  23195204.100                    23195200.380
                                        44.900          41.300



 116397781.018 7  90699525.29647  22149772.480                    22149770.720
                                        47.900          42.750



 127939395.816 6  99693018.43346  24346067.380                    24346066.200
                                        41.300          37.350



 128081068.921 7  99803463.181 7  24373015.700                    24373021.560
                                        43.200          43.750



 126011295.181 7  98190625.678 7  23979158.380                    23979162.220
                                        46.250          42.600



 23  9  2  9 45  0.0000000  0  9G02G03G04G17G19G21G22G28G32
 113401033.464 8  88364409.85847  21579508.760                    21579505.180
                                        49.900          46.250



 106911327.985 8  83307541.723 8  20344541.020                    20344541.020
                                        50.400          48.900



 123509801.016 7  96241424.300 7  23503131.020                    23503134.140
                                        44.000          43.150



 115320204.315 8  89859883.124 7  21944708.740                    21944706.320
                                        48.000          45.750



 121795695.459 7  94905722.86346  23176952.280                    23176948.580
                                        44.800          40.400



 116461376.346 8  90749080.02746  22161874.320                    22161872.600
                                        48.150          41.650



 127991305.054 7  99733467.18445  24355945.320                    24355944.240
                                        43.650          35.700



 128027395.839 7  99761640.236 7  24362801.880                    24362807.740
                                        43.150          43.850



 126094175.551 7  98255207.731 7  23994930.060                    23994933.860
                                        46.100          42.600



 23  9  2  9 45 30.0000000  0  9G02G03G04G17G19G21G22G28G32
 113451368.146 8  88403631.61647  21589087.200                    21589083.660
                                        49.950          46.500



 106881179.358 8  83284049.276 8  20338803.940                    20338803.940
                                        50.300          48.900



 123399681.577 7  96155617.137 7  23482175.880                    23482178.900
                                        44.300          44.550



 115270237.951 7  89820948.295 7  21935200.420                    21935198.060
                                        47.950          45.650



 121700120.117 7  94831248.52346  23158764.920                    23158761.280
                                        44.850          41.250



 116525199.695 8  90798812.42947  22174019.560                    22174017.860
                                        48.000          42.050



 128043574.091 7  99774196.28746  24365891.780                    24365890.740
                                        44.600          36.500



 127974143.254 7  99720144.944 7  24352668.120                    24352673.920
                                        42.800          42.600



 126177386.636 7  98320047.482 7  24010764.660                    24010768.440
                                        46.100          42.400



 23  9  2  9 46  0.0000000  0  9G02G03G04G17G19G21G22G28G32
 113502022.345 8  88443102.34547  21598726.460                    21598722.940
                                        49.850          46.500



 106851470.322 8  83260899.390 8  20333150.500                    20333150.480
                                        50.000          49.150



 123289721.164 7  96069933.900 7  23461251.000                    23461253.920
                                        43.350          45.100



 115220736.786 7  89782375.950 7  21925780.640                    21925778.300
                                        47.850          45.800



 121604888.892 7  94757042.35746  23140643.000                    23140639.420
                                        44.250          41.750



 116589253.354 8  90848724.29147  22186208.600                    22186206.940
                                        48.100          42.250



 128096203.902 7  99815206.51746  24375906.940                    24375905.880
                                        43.500          38.800



 127921316.500 7  99678981.485 7  24342615.360                    24342621.120
                                        42.450          42.450



 126260928.943 7  98385145.316 7  24026662.300                    24026666.080
                                        45.600          42.700



