     2.11           OBSERVATION DATA    G (GPS)             RINEX VERSION / TYPE
teqc  2019Feb25                         20230902 15:05:52UTCPGM / RUN BY / DATE
Linux 2.6.32-573.12.1.x86_64|x86_64|gcc|Linux 64|=+         COMMENT
teqc  2019Feb25                         20230902 15:05:52UTCCOMMENT
     2.11           OBSERVATION DATA    M (MIXED)           COMMENT
teqc  2019Feb25     IGN-RGP             20230902 09:04:51UTCCOMMENT
teqc  2019Feb25     Administrateur RGP  20230902 09:04:51UTCCOMMENT
teqc  2019Feb25     IGN-RGP             20230902 09:04:49UTCCOMMENT
ssrcrin-13.0.1x                         02-SEP-23 08:00     COMMENT
(000000000000583293750002) Septentrio proprietary           COMMENT
SBGS                                                        MARKER NAME
18310M001                                                   MARKER NUMBER
Automatic           SBGS                                    OBSERVER / AGENCY
3025670             SEPT ASTERX-U       4.4.2               REC # / TYPE / VERS
VP6050C1808200003   TWIVP6050_CONE  NONE                    ANT # / TYPE
  4197054.1780   158843.9130  4784067.3690                  APPROX POSITION XYZ
        0.0000        0.0000        0.0000                  ANTENNA: DELTA H/E/N
     1     1                                                WAVELENGTH FACT L1/2
    13    C1    L1    L2    P2    P1    C5    L5    C6    L6# / TYPES OF OBSERV
          C7    L7    C8    L8                              # / TYPES OF OBSERV
    30.0000                                                 INTERVAL
For GPS, L2 corresponds to the L2P carrier phase.           COMMENT
For GLONASS, L2 corresponds to the L2CA carrier phase.      COMMENT
    18                                                      LEAP SECONDS
Forced Modulo Decimation to 30 seconds                      COMMENT
teqc_2019 edited: all GLONASS satellites excluded           COMMENT
teqc_2019 edited: all SBAS satellites excluded              COMMENT
teqc_2019 edited: all Galileo satellites excluded           COMMENT
  2023     9     2     8     0    0.0000000     GPS         TIME OF FIRST OBS
                                                            END OF HEADER
 23  9  2  8  0  0.0000000  0 10G21G27G32G10G22G02G14G08G17G03
  20662341.548 7 108581320.627 7  84608822.213 6  20662339.857 6  20662340.413 6


  23701064.021 6 124549866.690 6  97051842.243 7  23701070.639 7  23701063.512 7
  23701069.833 7  93007971.337 7

  22649749.709 7 119025272.932 7  92747002.576 8  22649754.221 8  22649749.544 8
  22649753.121 7  88882542.786 7

  23436437.169 7 123159258.113 7  95968252.053 7  23436443.044 7  23436436.704 7
  23436441.275 8  91969535.912 8

  24197863.620 6 127160618.459 6  99086187.299 4  24197864.934 4  24197862.820 4


  20894055.379 8 109798998.246 8  85557640.422 7  20894053.443 7  20894054.378 7


  23024610.635 7 120995126.045 7  94281916.608 6  23024611.712 6  23024610.416 6
  23024614.538 7  90353515.247 7

  21173547.640 8 111267719.276 8  86702122.257 8  21173550.889 8  21173547.073 8
  21173549.397 8  83089507.904 8

  25253420.361 6 132707627.483 6 103408536.727 4  25253420.760 4  25253419.624 4


  23227526.251 7 122061490.934 7  95112879.777 5  23227530.854 5  23227526.180 5
  23227530.370 7  91149848.324 7

 23  9  2  8  0 30.0000000  0 10G21G27G32G10G22G02G14G08G17G03
  20664282.547 7 108591520.045 7  84616769.770 6  20664281.103 6  20664281.416 6


  23721827.761 6 124658981.001 6  97136866.185 7  23721834.445 7  23721827.256 7
  23721833.592 7  93089452.590 7

  22645327.725 7 119002033.975 7  92728894.254 8  22645332.276 8  22645327.556 8
  22645330.797 7  88865188.975 7

  23454070.087 7 123251919.373 7  96040455.411 7  23454076.121 7  23454069.640 7
  23454074.391 8  92038730.745 8

  24188693.881 6 127112430.257 6  99048638.057 4  24188694.971 4  24188693.081 4


  20891386.901 8 109784975.381 8  85546713.462 7  20891384.942 7  20891385.900 7


  23021676.727 7 120979708.980 7  94269903.263 5  23021677.862 5  23021676.513 5
  23021680.982 8  90342002.441 8

  21186040.032 8 111333367.438 8  86753276.567 8  21186043.556 8  21186039.465 8
  21186042.029 8  83138530.759 8

  25234311.734 6 132607209.907 6 103330289.203 4  25234312.250 4  25234310.992 4


  23207278.993 7 121955091.806 7  95029971.358 5  23207283.764 5  23207278.926 5
  23207283.290 7  91070394.413 7

 23  9  2  8  1  0.0000000  0 10G21G27G32G10G22G02G14G08G17G03
  20666277.314 7 108602002.316 7  84624937.725 6  20666276.021 6  20666276.183 6


  23742621.485 6 124768252.935 6  97222012.942 7  23742628.564 7  23742620.989 7
  23742627.647 7  93171051.548 7

  22641011.240 7 118979350.823 7  92711219.025 8  22641016.009 8  22641011.071 8
  22641014.274 7  88848250.195 7

  23471738.488 7 123344765.482 7  96112802.804 7  23471744.435 7  23471738.046 7
  23471742.695 8  92108063.621 8

  24179611.590 6 127064703.660 6  99011448.489 4  24179612.585 4  24179610.812 4


  20888772.868 8 109771237.397 8  85536008.488 7  20888770.664 7  20888771.867 7


  23018855.748 7 120964884.576 7  94258351.724 5  23018857.322 5  23018855.543 5
  23018860.792 8  90330932.195 8

  21198614.988 8 111399448.643 8  86804768.310 8  21198618.693 8  21198614.421 8
  21198616.946 8  83187876.982 8

  25215208.836 6 132506824.856 6 103252067.064 4  25215210.001 4  25215208.085 4


  23187075.232 6 121848919.826 6  94947239.926 5  23187080.005 5  23187075.170 5
  23187079.749 7  90991110.135 7

 23  9  2  8  1 30.0000000  0 10G21G27G32G10G22G02G14G08G17G03
  20668324.017 7 108612758.004 7  84633318.733 6  20668323.399 6  20668322.886 6


  23763443.398 6 124877671.528 6  97307273.990 7  23763450.035 7  23763442.911 7
  23763449.614 7  93252760.021 7

  22636799.114 7 118957215.453 7  92693970.637 8  22636803.777 8  22636798.940 8
  22636802.283 7  88831720.475 7

  23489439.546 7 123437784.904 7  96185285.241 7  23489445.712 7  23489439.099 7
  23489443.931 8  92177525.896 8

  24170615.872 7 127017430.828 7  98974612.472 4  24170616.951 4  24170615.108 4


  20886211.071 8 109757775.547 8  85525518.683 7  20886208.909 7  20886210.070 7


  23016146.078 7 120950644.026 7  94247255.130 5  23016147.924 5  23016145.877 5
  23016151.603 8  90320297.952 8

  21211270.581 8 111465952.675 8  86856589.533 8  21211274.232 8  21211270.018 8
  21211272.171 8  83237538.967 8

  25196111.111 6 132406465.339 6 103173864.810 4  25196112.396 4  25196110.360 4


  23166913.245 6 121742967.693 6  94864679.826 5  23166918.067 5  23166913.192 5
  23166917.485 7  90911990.035 7

 23  9  2  8  2  0.0000000  0 10G21G27G32G10G22G02G14G08G17G03
  20670424.463 7 108623795.891 7  84641919.627 7  20670424.327 7  20670423.332 7


  23784294.512 7 124987243.833 7  97392654.833 7  23784301.145 7  23784294.025 7
  23784301.139 7  93334583.282 7

  22632692.965 7 118935637.765 7  92677156.805 8  22632697.824 8  22632692.791 8
  22632696.174 7  88815607.214 7

  23507174.447 7 123530984.426 7  96257908.015 7  23507181.266 7  23507174.014 7
  23507179.387 8  92247122.673 8

  24161708.524 6 126970621.952 6  98938138.003 4  24161709.826 4  24161707.755 4


  20883703.572 8 109744598.825 8  85515251.058 7  20883701.696 7  20883702.566 7


  23013548.980 7 120936996.524 7  94236620.651 5  23013550.787 5  23013548.793 5
  23013554.850 8  90310106.571 8

  21224007.461 8 111532886.592 8  86908745.737 8  21224011.596 8  21224006.898 8
  21224009.317 8  83287521.967 8

  25177020.026 6 132306141.558 6 103095690.366 4  25177021.452 4  25177019.253 4


  23146794.856 6 121637246.115 6  94782299.374 5  23146799.846 5  23146794.794 5
  23146799.547 7  90833042.099 7

 23  9  2  8  2 30.0000000  0 10G21G27G32G10G22G02G14G08G17G03
  20672577.329 7 108635109.218 7  84650735.148 7  20672577.120 7  20672576.194 7


  23805173.289 6 125096961.912 6  97478149.280 7  23805180.108 7  23805172.807 7
  23805179.752 7  93416515.393 7

  22628692.507 7 118914612.717 7  92660773.601 8  22628697.072 8  22628692.338 8
  22628695.229 7  88799906.624 7

  23524943.121 7 123624356.142 7  96330664.959 7  23524949.591 7  23524942.697 7
  23524947.707 8  92316848.032 8

  24152888.702 6 126924272.391 6  98902021.447 4  24152889.681 4  24152887.924 4


  20881249.519 8 109731701.507 8  85505201.146 7  20881247.576 7  20881248.513 7


  23011063.911 7 120923936.193 7  94226443.698 5  23011064.691 5  23011063.733 5
  23011069.452 8  90300353.657 8

  21236825.369 8 111600243.225 8  86961231.323 8  21236829.174 8  21236824.797 8
  21236827.115 8  83337820.635 8

  25157935.744 6 132205849.013 6 103017540.252 4  25157936.136 4  25157934.971 4


  23126719.857 7 121531750.859 7  94700095.282 5  23126724.925 5  23126719.804 5
  23126724.279 7  90754263.165 7

 23  9  2  8  3  0.0000000  0 10G21G27G32G10G22G02G14G08G17G03
  20674783.555 7 108646702.589 7  84659768.882 7  20674783.207 7  20674782.420 7


  23826080.211 6 125206828.699 6  97563759.580 7  23826087.678 7  23826079.738 7
  23826087.021 7  93498558.531 7

  22624797.404 7 118894146.061 7  92644825.508 8  22624802.345 8  22624797.239 8
  22624800.562 7  88784623.019 7

  23542744.661 7 123717902.588 7  96403558.056 7  23542751.196 7  23542744.210 7
  23542749.277 8  92386703.866 8

  24144156.904 7 126878388.337 7  98866267.617 4  24144158.130 4  24144156.117 4


  20878849.171 8 109719088.689 8  85495372.920 7  20878847.263 7  20878848.165 7


  23008690.894 7 120911468.096 7  94216728.204 5  23008691.771 5  23008690.725 5
  23008696.556 8  90291042.994 8

  21249723.937 8 111668026.088 8  87014049.041 8  21249727.735 8  21249723.365 8
  21249725.934 8  83388437.592 8

  25138857.518 6 132105594.181 6 102939419.539 4  25138858.192 4  25138856.731 4


  23106688.949 7 121426488.446 7  94618072.620 5  23106693.853 5  23106688.887 5
  23106693.496 8  90675658.114 8

 23  9  2  8  3 30.0000000  0 10G21G27G32G10G22G02G14G08G17G03
  20677042.825 7 108658573.531 7  84669018.904 7  20677042.830 7  20677041.690 7


  23847014.805 6 125316839.986 6  97649482.467 6  23847022.383 6  23847014.332 6
  23847021.650 7  93580709.573 7

  22621008.791 7 118874236.405 7  92629311.437 8  22621013.332 8  22621008.626 8
  22621011.991 7  88769755.355 7

  23560578.269 6 123811619.311 6  96476583.837 7  23560585.203 7  23560577.804 7
  23560583.289 8  92456686.848 8

  24135513.912 6 126832968.962 6  98830875.882 4  24135515.444 4  24135513.108 4


  20876503.065 8 109706758.098 8  85485764.612 7  20876500.681 7  20876502.059 7


  23006430.917 7 120899590.018 7  94207472.471 5  23006431.675 5  23006430.734 5
  23006436.006 8  90282172.919 8

  21262703.008 8 111736231.542 8  87067196.051 8  21262706.929 8  21262702.432 8
  21262704.983 8  83439370.117 8

  25119786.959 6 132005376.335 6 102861327.629 4  25119787.278 4  25119786.190 4


  23086702.212 7 121321458.318 7  94536230.952 5  23086707.318 5  23086702.141 5
  23086707.339 8  90597226.521 8

 23  9  2  8  4  0.0000000  0 10G21G27G32G10G22G02G14G08G17G03
  20679354.330 7 108670721.232 7  84678484.579 7  20679355.411 7  20679353.195 7


  23867976.337 6 125426993.197 6  97735315.931 6  23867983.976 6  23867975.868 6
  23867983.170 7  93662966.609 7

  22617326.324 7 118854884.026 7  92614231.604 8  22617330.614 8  22617326.168 8
  22617329.385 8  88755303.835 8

  23578444.562 6 123905503.649 6  96549740.230 7  23578451.094 7  23578444.093 7
  23578449.105 8  92526795.008 8

  24126959.487 6 126788014.810 6  98795846.648 4  24126960.828 4  24126958.660 4


  20874210.278 8 109694709.552 8  85476376.082 7  20874207.843 7  20874209.272 7


  23004282.893 7 120888301.472 7  94198676.120 5  23004284.200 5  23004282.719 5
  23004287.951 8  90273743.066 8

  21275761.886 8 111804856.569 8  87120669.991 8  21275766.229 8  21275761.310 8
  21275763.995 8  83490615.958 8

  25100723.570 6 131905196.807 6 102783265.583 4  25100723.989 4  25100722.819 4


  23066759.911 7 121216661.620 7  94454571.189 5  23066765.383 5  23066759.835 5
  23066765.179 8  90518969.241 8

 23  9  2  8  4 30.0000000  0 10G21G27G32G10G22G02G14G08G17G03
  20681718.789 7 108683145.653 7  84688165.882 7  20681719.875 7  20681717.654 7


  23888964.511 6 125537286.360 6  97821258.436 6  23888972.095 6  23888964.038 6
  23888971.088 7  93745328.152 7

  22613749.814 7 118836089.702 7  92599586.615 8  22613754.495 8  22613749.658 8
  22613752.991 7  88741269.051 7

  23596341.795 6 123999553.734 6  96623025.772 7  23596348.540 7  23596341.313 7
  23596346.412 8  92597026.933 8

  24118493.793 6 126743527.135 6  98761180.882 4  24118494.704 4  24118492.989 4


  20871971.267 8 109682943.187 8  85467207.438 7  20871968.956 7  20871970.261 7


  23002246.748 7 120877602.488 7  94190339.169 5  23002248.695 5  23002246.583 5
  23002252.145 8  90265753.480 8

  21288900.518 8 111873900.298 8  87174470.193 8  21288905.006 8  21288899.924 8
  21288902.754 8  83542174.466 8

  25081667.851 6 131805056.504 6 102705234.103 4  25081668.377 4  25081667.109 4


  23046862.718 7 121112099.943 7  94373094.562 5  23046867.740 5  23046862.665 5
  23046867.625 8  90440887.475 8

 23  9  2  8  5  0.0000000  0 10G21G27G32G10G22G02G14G08G17G03
  20684136.258 7 108695849.917 7  84698065.247 7  20684136.631 7  20684135.127 7


  23909980.271 6 125647721.680 6  97907311.723 6  23909987.186 6  23909979.798 6
  23909986.096 7  93827795.855 7

  22610280.682 7 118817858.390 7  92585380.337 8  22610285.560 8  22610280.535 8
  22610283.884 8  88727654.683 8

  23614270.798 6 124093771.275 6  96696441.795 7  23614277.793 7  23614270.316 7
  23614275.698 8  92667383.901 8

  24110118.030 6 126699511.519 6  98726882.963 4  24110118.754 4  24110117.235 4


  20869786.601 8 109671463.266 8  85458262.000 7  20869784.720 7  20869785.595 7


  23000323.910 7 120867497.224 7  94182464.869 5  23000325.096 5  23000323.754 5
  23000329.266 8  90258207.252 8

  21302119.438 7 111943365.001 7  87228598.426 8  21302123.704 8  21302118.848 8
  21302121.601 8  83594047.336 8

  25062620.131 6 131704961.755 6 102627238.149 4  25062620.743 4  25062619.425 4


  23027011.001 7 121007779.154 7  94291805.638 5  23027016.033 5  23027010.970 5
  23027016.033 8  90362985.596 8

 23  9  2  8  5 30.0000000  0 10G21G27G32G10G22G02G14G08G17G03
  20686606.034 7 108708828.675 7  84708178.509 7  20686605.568 7  20686604.903 7


  23931020.847 6 125758292.033 6  97993470.228 6  23931028.126 6  23931020.382 6
  23931027.082 7  93910364.432 7

  22606917.568 7 118800185.736 7  92571609.377 8  22606922.520 8  22606917.421 8
  22606921.092 8  88714457.499 8

  23632230.635 6 124188148.925 6  96769982.568 7  23632237.501 7  23632230.157 7
  23632235.456 7  92737860.432 7

  24101831.500 6 126655964.133 6  98692949.888 4  24101831.855 4  24101830.713 4


  20867655.777 8 109660265.221 8  85449536.208 7  20867653.959 7  20867654.776 7


  22998512.925 7 120857980.537 7  94175049.198 5  22998513.478 5  22998512.778 5
  22998518.307 8  90251100.553 8

  21315417.104 8 112013244.488 8  87283049.871 8  21315421.272 8  21315416.514 8
  21315419.404 8  83646229.947 8

  25043581.086 6 131604909.090 6 102549274.937 4  25043581.451 4  25043580.398 4


  23007204.901 7 120903695.778 7  94210701.710 5  23007209.381 5  23007204.879 5
  23007209.755 8  90285261.010 8

 23  9  2  8  6  0.0000000  0 10G21G27G32G10G22G02G14G08G17G03
  20689128.711 7 108722085.036 7  84718508.090 7  20689127.969 7  20689127.576 7


  23952087.589 6 125868998.735 6  98079735.001 6  23952094.650 6  23952087.133 6
  23952094.334 7  93993034.832 7

  22603661.673 7 118783075.758 7  92558276.863 8  22603666.460 8  22603661.521 8
  22603665.315 8  88701680.497 8

  23650220.832 7 124282688.029 7  96843649.155 7  23650227.903 7  23650220.345 7
  23650225.858 7  92808457.521 7

  24093634.723 6 126612888.976 6  98659384.790 4  24093634.859 4  24093633.963 4


  20865578.969 8 109649351.891 8  85441032.276 7  20865577.265 7  20865577.968 7


  22996814.843 7 120849055.707 7  94168094.711 5  22996815.400 5  22996814.683 5
  22996819.947 8  90244435.834 8

  21328793.840 8 112083539.829 8  87337825.354 8  21328798.121 8  21328793.250 8
  21328796.348 8  83698723.094 8

  25024550.882 6 131504903.292 6 102471348.255 4  25024551.256 4  25024550.212 4


  22987444.419 7 120799854.783 7  94129786.649 5  22987448.886 5  22987444.393 5
  22987449.215 8  90207717.419 8

 23  9  2  8  6 30.0000000  0 10G21G27G32G10G22G02G14G08G17G03
  20691704.010 7 108735618.487 7  84729053.590 7  20691703.506 7  20691702.879 7


  23973180.520 6 125979839.506 6  98166104.231 6  23973187.005 6  23973180.073 6
  23973187.144 7  94075805.298 7

  22600512.874 7 118766528.877 7  92545383.127 8  22600517.638 8  22600512.722 8
  22600516.593 8  88689323.979 8

  23668241.107 7 124377386.082 7  96917439.602 7  23668248.541 7  23668240.593 7
  23668246.466 7  92879173.310 7

  24085528.364 6 126570287.505 6  98626188.802 4  24085528.197 4  24085527.631 4


  20863556.506 8 109638723.530 8  85432750.395 7  20863554.717 7  20863555.500 7


  22995228.861 7 120840722.339 7  94161601.102 5  22995229.750 5  22995228.701 5
  22995234.131 8  90238212.798 8

  21342249.599 8 112154249.346 8  87392923.565 8  21342253.581 8  21342249.009 8
  21342252.154 8  83751525.523 8

  25005529.718 6 131404945.771 6 102393459.172 4  25005529.864 4  25005529.048 4


  22967730.728 7 120696257.486 7  94049061.495 5  22967734.828 5  22967730.666 5
  22967735.415 8  90130355.805 8

 23  9  2  8  7  0.0000000  0 10G21G27G32G10G22G02G14G08G17G03
  20694331.754 7 108749427.466 7  84739813.785 7  20694331.396 7  20694330.619 7


  23994297.919 6 126090811.388 6  98252575.655 6  23994304.070 6  23994297.481 6
  23994304.680 7  94158673.679 7

  22597471.404 7 118750544.800 7  92532927.934 8  22597475.924 8  22597471.252 8
  22597474.894 8  88677387.740 8

  23686291.621 6 124472239.932 6  96991351.437 7  23686298.840 7  23686291.094 7
  23686296.905 7  92950005.443 7

  24077511.426 6 126528159.709 6  98593361.927 4  24077511.455 4  24077510.702 4


  20861588.162 8 109628379.376 8  85424689.979 7  20861586.241 7  20861587.161 7


  22993755.237 7 120832979.359 7  94155567.554 5  22993756.003 5  22993755.077 5
  22993760.842 8  90232430.650 8

  21355783.813 8 112225370.641 8  87448342.647 8  21355787.362 8  21355783.228 8
  21355786.160 8  83804635.453 8

  24986517.320 6 131305036.883 6 102315608.038 4  24986518.297 4  24986516.654 4


  22948063.080 7 120592904.592 7  93968526.775 5  22948067.646 5  22948063.004 5
  22948067.953 8  90053176.705 8

 23  9  2  8  7 30.0000000  0 10G21G27G32G10G22G02G14G08G17G03
  20697011.622 7 108763509.809 7  84750786.986 7  20697011.275 7  20697010.487 7


  24015439.688 6 126201910.579 6  98339146.262 6  24015446.442 6  24015439.264 6
  24015446.804 7  94241637.112 7

  22594536.665 7 118735122.386 7  92520910.399 8  22594541.426 8  22594536.500 8
  22594540.195 8  88665870.913 8

  23704371.257 6 124567245.883 6  97065381.804 7  23704378.053 7  23704370.752 7
  23704376.181 7  93020951.155 7

  24069584.662 6 126486504.869 6  98560903.548 4  24069584.947 4  24069583.929 4


  20859673.475 8 109618317.635 8  85416849.622 7  20859671.607 7  20859672.469 7


  22992394.230 7 120825824.839 7  94149992.556 5  22992394.374 5  22992394.065 5
  22992399.409 8  90227087.933 8

  21369395.636 8 112296900.444 8  87504080.047 8  21369399.298 8  21369395.051 8
  21369397.951 8  83858050.437 8

  24967514.681 6 131205176.268 6 102237794.482 4  24967515.366 4  24967514.002 4


  22928441.761 7 120489795.892 7  93888182.339 5  22928446.911 5  22928441.681 5
  22928447.168 8  89976179.952 8

 23  9  2  8  8  0.0000000  0 10G21G27G32G10G22G02G14G08G17G03
  20699744.873 7 108777873.127 7  84761979.129 7  20699744.734 7  20699743.733 7


  24036606.781 6 126313142.983 6  98425820.683 6  24036613.331 6  24036606.379 6
  24036613.676 7  94324700.021 7

  22591710.288 7 118720270.189 7  92509337.182 8  22591715.559 8  22591710.123 8
  22591714.019 8  88654779.903 8

  23722480.255 6 124662409.534 6  97139535.046 7  23722487.302 7  23722479.790 7
  23722485.407 7  93092014.620 7

  24061749.626 6 126445332.077 6  98528820.838 4  24061749.892 4  24061748.916 4


  20857814.070 8 109608546.338 8  85409235.589 7  20857812.352 7  20857813.069 7


  22991146.523 7 120819266.516 7  94144882.122 5  22991146.113 5  22991146.340 5
  22991151.411 8  90222190.433 8

  21383086.138 8 112368844.644 8  87560140.349 8  21383090.262 8  21383085.553 8
  21383088.640 8  83911774.870 8

  24948523.278 6 131105374.071 6 102160026.514 4  24948523.526 4  24948522.621 4


  22908869.076 7 120386940.905 7  93808035.602 5  22908874.454 5  22908869.000 5
  22908874.387 8  89899372.656 8

 23  9  2  8  8 30.0000000  0 10G21G27G32G10G22G02G14G08G17G03
  20702530.246 7 108792510.150 7  84773384.552 7  20702530.179 7  20702529.111 7


  24057796.896 6 126424499.680 6  98512591.928 6  24057804.501 6  24057796.476 6
  24057804.429 7  94407855.768 7

  22588991.301 7 118705981.927 7  92498203.395 8  22588996.587 8  22588991.136 8
  22588995.039 8  88644110.016 8

  23740617.699 6 124757721.860 6  97213804.137 7  23740624.843 7  23740617.226 7
  23740623.019 7  93163189.111 7

  24054005.533 6 126404635.565 6  98497109.219 4  24054005.603 4  24054004.823 4


  20856008.732 8 109599058.907 8  85401842.752 7  20856007.203 7  20856007.726 7


  22990010.215 7 120813297.327 7  94140230.758 5  22990010.638 5  22990010.023 5
  22990015.295 8  90217732.864 8

  21396853.750 8 112441194.649 8  87616516.867 8  21396857.986 8  21396853.160 8
  21396856.612 8  83965802.341 8

  24929541.685 6 131005624.758 6 102082299.720 4  24929542.161 4  24929541.059 4


  22889344.074 7 120284334.360 7  93728082.472 5  22889349.108 5  22889343.994 5
  22889349.183 8  89822750.892 8

 23  9  2  8  9  0.0000000  0 10G21G27G32G10G22G02G14G08G17G03
  20705367.688 7 108807420.744 7  84785003.151 7  20705367.417 7  20705366.553 7


  24079010.696 6 126535978.446 6  98599458.305 6  24079018.259 6  24079010.276 6
  24079017.865 7  94491102.650 7

  22586379.760 7 118692257.911 7  92487509.276 8  22586384.856 8  22586379.591 8
  22586383.519 8  88633861.463 8

  23758782.776 6 124853180.665 6  97288187.350 7  23758790.307 7  23758782.285 7
  23758788.474 7  93234472.974 7

  24046351.908 6 126364416.174 6  98465769.399 4  24046352.114 4  24046351.175 4


  20854257.189 8 109589854.804 8  85394670.684 7  20854255.921 7  20854256.188 7


  22988986.406 7 120807916.804 7  94136038.088 5  22988987.805 5  22988986.214 5
  22988991.478 8  90213714.889 8

  21410698.425 8 112513948.529 8  87673208.091 8  21410702.522 8  21410697.835 8
  21410701.406 8  84020131.397 8

  24910569.984 6 130905929.788 6 102004615.231 4  24910570.743 4  24910569.412 4


  22869866.529 7 120181977.627 7  93648323.986 5  22869871.187 5  22869866.458 5
  22869871.392 8  89746315.668 8

 23  9  2  8  9 30.0000000  0 10G21G27G32G10G22G02G14G08G17G03
  20708257.729 7 108822607.146 7  84796836.664 7  20708257.026 7  20708256.594 7


  24100248.375 6 126647580.646 6  98686420.853 7  24100255.838 7  24100247.937 7
  24100255.305 7  94574441.737 7

  22583876.474 7 118679102.100 7  92477257.915 8  22583881.274 8  22583876.296 8
  22583880.097 7  88624037.222 7

  23776976.738 6 124948786.978 6  97362685.505 6  23776983.835 6  23776976.251 6
  23776982.057 7  93305866.975 7

  24038789.757 6 126324678.299 6  98434804.781 4  24038789.898 4  24038788.979 4


  20852560.410 8 109580938.068 8  85387722.538 7  20852559.259 7  20852559.409 7


  22988075.358 7 120803128.113 7  94132306.600 5  22988076.865 5  22988075.175 5
  22988080.196 7  90210138.879 7

  21424620.437 8 112587108.469 8  87730215.719 8  21424624.366 8  21424619.856 8
  21424623.278 8  84074763.681 8

  24891610.979 6 130806294.033 6 101926976.895 4  24891610.916 4  24891610.443 4


  22850436.745 7 120079875.688 7  93568764.025 5  22850441.630 5  22850436.674 5
  22850441.926 8  89670070.719 8

 23  9  2  8 10  0.0000000  0 10G21G27G32G10G22G02G14G08G17G03
  20711200.174 7 108838069.552 7  84808885.244 7  20711199.264 7  20711199.034 7


  24121508.798 6 126759304.551 6  98773478.230 6  24121516.216 6  24121508.347 6
  24121516.196 7  94657871.681 7

  22581481.517 7 118666515.299 7  92467449.929 8  22581486.069 8  22581481.334 8
  22581484.925 7  88614637.894 7

  23795197.651 6 125044539.246 6  97437297.374 6  23795205.157 6  23795197.160 6
  23795203.310 7  93377369.948 7

  24031319.820 6 126285423.327 6  98404216.447 4  24031320.176 4  24031318.993 4


  20850918.385 8 109572309.090 8  85380998.620 7  20850917.275 7  20850917.393 7


  22987276.472 7 120798931.264 7  94129036.284 5  22987277.919 5  22987276.289 5
  22987281.474 7  90207004.803 7

  21438619.296 7 112660672.961 7  87787538.580 8  21438623.023 8  21438618.711 8
  21438622.243 8  84129698.061 8

  24872661.852 6 130706718.966 6 101849385.906 4  24872662.435 4  24872661.329 4


  22831056.758 7 119978030.443 7  93489404.102 5  22831061.532 5  22831056.696 5
  22831061.587 8  89594017.458 8

 23  9  2  8 10 30.0000000  0 10G21G27G32G10G22G02G14G08G17G03
  20714194.398 7 108853805.466 7  84821146.940 7  20714193.773 7  20714193.258 7


  24142791.766 6 126871146.189 6  98860627.358 6  24142799.071 6  24142791.306 6
  24142798.941 7  94741389.566 7

  22579194.646 7 118654496.063 7  92458084.204 8  22579199.103 8  22579194.463 8
  22579197.802 7  88605662.377 7

  23813446.187 6 125140433.111 6  97512019.587 6  23813453.477 6  23813445.691 6
  23813451.593 7  93448978.682 7

  24023941.699 6 126246650.413 6  98374003.765 4  24023942.260 4  24023940.828 4


  20849330.881 8 109563966.089 8  85374497.539 7  20849329.776 7  20849329.889 7


  22986590.536 7 120795323.955 7  94126225.357 5  22986591.030 5  22986590.358 5
  22986594.914 7  90204310.975 7

  21452694.427 7 112734637.721 7  87845173.345 8  21452697.812 8  21452693.837 8
  21452697.421 8  84184931.348 8

  24853724.949 6 130607204.494 6 101771842.160 4  24853725.562 4  24853724.449 4


  22811724.874 7 119876441.457 7  93410243.868 5  22811730.191 5  22811724.807 5
  22811730.013 8  89518155.563 8

 23  9  2  8 11  0.0000000  0 10G21G27G32G10G22G02G14G08G17G03
  20717241.132 7 108869815.961 7  84833622.599 7  20717240.487 7  20717239.997 7


  24164096.893 6 126983104.563 6  98947867.448 6  24164104.094 6  24164096.402 6
  24164104.010 7  94824994.588 7

  22577015.256 7 118643045.874 7  92449161.883 8  22577020.436 8  22577015.073 8
  22577019.077 7  88597111.806 7

  23831721.459 6 125236467.681 6  97586851.428 6  23831728.606 6  23831720.963 6
  23831726.723 7  93520692.474 7

  24016655.664 6 126208361.523 6  98344168.219 4  24016656.930 4  24016654.779 4


  20847797.944 8 109555910.065 8  85368220.075 7  20847796.832 7  20847796.956 7


  22986016.170 7 120792306.894 7  94123874.356 5  22986017.556 5  22986015.996 5
  22986021.106 7  90202057.926 7

  21466845.596 7 112809002.183 7  87903119.563 8  21466849.085 8  21466845.006 8
  21466848.518 8  84240463.109 8

  24834800.235 6 130507754.273 6 101694348.391 4  24834800.527 4  24834799.721 4


  22792442.062 7 119775111.316 7  93331285.324 5  22792447.677 5  22792442.000 5
  22792447.304 8  89442486.956 8

 23  9  2  8 11 30.0000000  0 10G21G27G32G10G22G02G14G08G17G03
  20720340.319 7 108886101.642 7  84846312.689 7  20720339.722 7  20720339.184 7


  24185424.033 6 127095178.920 6  99035197.904 6  24185431.407 6  24185423.510 6
  24185431.423 7  94908686.226 7

  22574945.286 7 118632166.543 7  92440684.388 8  22574950.562 8  22574945.108 8
  22574949.063 8  88588987.512 8

  23850023.026 6 125332642.035 6  97661792.181 6  23850030.268 6  23850022.557 6
  23850028.361 7  93592510.618 7

  24009461.911 7 126170558.867 7  98314711.567 4  24009464.071 4  24009461.008 4


  20846319.788 8 109548142.511 8  85362167.387 7  20846318.463 7  20846318.800 7


  22985554.329 7 120789881.069 7  94121984.042 5  22985556.050 5  22985554.151 5
  22985559.771 8  90200246.366 8

  21481072.971 8 112883766.288 8  87961377.191 8  21481076.575 8  21481072.381 8
  21481075.724 8  84296293.308 8

  24815888.075 6 130408370.626 6 101616906.521 4  24815888.566 4  24815887.517 4


  22773209.441 7 119674042.955 7  93252530.768 5  22773215.280 5  22773209.374 5
  22773214.695 8  89367013.844 8

 23  9  2  8 12  0.0000000  0 10G21G27G32G10G22G02G14G08G17G03
  20723491.271 7 108902659.696 7  84859215.019 7  20723490.734 7  20723490.136 7


  24206772.456 6 127207364.709 6  99122615.209 6  24206780.036 6  24206771.920 6
  24206780.018 7  94992461.089 7

  22572983.149 7 118621855.889 7  92432650.012 8  22572988.740 8  22572982.962 8
  22572987.056 8  88581287.889 8

  23868350.112 6 125428951.585 6  97736838.283 6  23868357.678 6  23868349.652 6
  23868355.738 7  93664429.744 7

  24002360.987 6 126133240.932 6  98285632.601 4  24002362.674 4  24002360.084 4


  20844896.189 8 109540661.015 8  85356337.601 7  20844894.603 7  20844895.201 7


  22985205.288 7 120788043.521 7  94120552.120 5  22985206.487 5  22985205.105 5
  22985210.258 8  90198874.097 8

  21495375.370 7 112958925.369 7  88019942.586 8  21495379.233 8  21495374.771 8
  21495378.189 8  84352418.448 8

  24796988.273 6 130309052.457 6 101539515.731 4  24796988.776 4  24796987.674 4


  22754026.696 7 119573235.347 7  93173979.399 5  22754032.393 5  22754026.643 5
  22754031.700 8  89291735.439 8

 23  9  2  8 12 30.0000000  0 10G21G27G32G10G22G02G14G08G17G03
  20726694.700 7 108919493.414 7  84872332.152 7  20726694.199 7  20726693.565 7


  24228142.456 6 127319663.527 6  99210120.587 6  24228149.811 6  24228141.898 6
  24228149.865 7  95076320.357 7

  22571130.341 7 118612118.035 7  92425061.975 8  22571135.686 8  22571130.154 8
  22571134.065 7  88574015.997 7

  23886702.981 6 125525397.687 6  97811990.779 6  23886711.077 6  23886702.516 6
  23886709.190 7  93736450.822 7

  23995352.764 6 126096412.464 6  98256935.081 4  23995354.605 4  23995351.901 4


  20843527.917 8 109533469.442 8  85350733.730 7  20843525.950 7  20843526.929 7


  22984967.825 7 120786797.507 7  94119581.154 5  22984969.755 5  22984967.633 5
  22984973.129 8  90197943.562 8

  21509753.416 8 113034481.506 8  88078817.385 8  21509757.117 8  21509752.831 8
  21509756.189 8  84408840.108 8

  24778101.953 6 130209805.078 6 101462180.052 4  24778103.050 4  24778101.301 4


  22734894.302 7 119472693.718 7  93095635.278 5  22734899.722 5  22734894.253 5
  22734899.056 8  89216655.662 8

 23  9  2  8 13  0.0000000  0 10G21G27G32G10G22G02G14G08G17G03
  20729949.933 7 108936599.745 7  84885661.717 7  20729949.848 7  20729948.798 7


  24249532.878 6 127432070.670 6  99297710.364 6  24249540.434 6  24249532.306 6
  24249540.364 7  95160260.505 7

  22569385.842 7 118602950.622 7  92417918.437 8  22569391.257 8  22569385.655 8
  22569389.705 7  88567170.087 7

  23905081.543 6 125621976.087 6  97887246.359 6  23905089.666 6  23905081.074 6
  23905087.611 7  93808570.680 7

  23988437.497 6 126060071.585 6  98228617.473 4  23988439.376 4  23988436.661 4


  20842214.053 8 109526565.350 8  85345353.871 7  20842211.918 7  20842213.065 7


  22984842.703 7 120786139.905 7  94119068.693 5  22984844.846 5  22984842.511 5
  22984847.761 8  90197452.424 8

  21524205.825 8 113110430.575 8  88137998.357 8  21524210.098 8  21524205.222 8
  21524208.945 8  84465555.176 8

  24759229.031 6 130110627.280 6 101384898.587 4  24759230.476 4  24759228.365 4


  22715811.734 7 119372416.919 7  93017497.511 5  22715817.644 5  22715811.699 5
  22715817.178 8  89141773.635 8

 23  9  2  8 13 30.0000000  0 10G21G27G32G10G22G02G14G08G17G03
  20733257.496 8 108953980.574 8  84899205.178 7  20733257.889 7  20733256.361 7


  24270943.474 6 127544586.351 6  99385384.717 6  24270951.620 6  24270942.898 6
  24270951.606 7  95244281.726 7

  22567750.396 7 118594356.337 7  92411221.493 8  22567755.598 8  22567750.204 8
  22567754.267 7  88560752.158 7

  23923485.470 6 125718686.605 6  97962604.896 6  23923493.405 6  23923484.997 6
  23923491.396 7  93880789.207 7

  23981615.931 6 126024221.569 6  98200682.357 4  23981617.164 4  23981615.118 4


  20840955.212 8 109519951.032 8  85340199.808 7  20840953.239 7  20840954.224 7


  22984829.625 7 120786072.556 7  94119016.173 5  22984832.173 5  22984829.429 5
  22984835.041 8  90197402.071 8

  21538733.681 7 113186772.129 7  88197485.156 8  21538737.945 8  21538733.109 8
  21538736.315 8  84522563.335 8

  24740369.986 6 130011523.555 6 101307674.827 4  24740372.080 4  24740369.320 4


  22696781.192 7 119272408.763 7  92939569.082 5  22696786.361 5  22696781.152 5
  22696786.247 8  89067092.236 8

 23  9  2  8 14  0.0000000  0 10G21G27G32G10G22G02G14G08G17G03
  20736616.587 7 108971632.870 7  84912960.170 7  20736617.283 7  20736615.456 7


  24292374.484 6 127657206.018 6  99473140.087 6  24292382.532 6  24292373.921 6
  24292382.669 7  95328380.578 7

  22566223.755 7 118586332.920 7  92404969.388 8  22566228.582 8  22566223.563 8
  22566227.425 7  88554760.537 7

  23941913.485 6 125815524.574 6  98038062.745 6  23941921.324 6  23941913.007 6
  23941919.343 7  93953102.920 7

  23974886.367 6 125988860.597 6  98173128.286 4  23974887.699 4  23974885.576 4


  20839751.294 8 109513624.114 8  85335269.691 7  20839749.392 7  20839750.302 7


  22984929.056 7 120786592.394 7  94119421.169 5  22984930.065 5  22984928.860 5
  22984934.455 8  90197790.182 8

  21553334.859 8 113263503.288 8  88257275.551 8  21553339.790 8  21553334.247 8
  21553337.905 8  84579862.437 8

  24721525.488 6 129912492.840 6 101230507.956 4  24721526.567 4  24721524.804 4


  22677801.334 7 119172668.242 7  92861849.198 5  22677806.400 5  22677801.281 5
  22677806.024 8  88992610.691 8

 23  9  2  8 14 30.0000000  0 10G21G27G32G10G22G02G14G08G17G03
  20740027.685 7 108989558.317 7  84926928.005 7  20740028.039 7  20740026.554 7


  24313825.328 6 127769929.769 6  99560976.567 6  24313833.298 6  24313824.752 6
  24313833.200 7  95412557.187 7

  22564806.415 7 118578882.863 7  92399164.056 8  22564811.157 8  22564806.223 8
  22564809.842 7  88549197.070 7

  23960365.760 6 125912490.301 6  98113620.143 6  23960373.587 6  23960365.291 6
  23960371.678 7  94025512.033 7

  23968251.278 6 125953991.679 6  98145957.629 4  23968252.254 4  23968250.500 4


  20838602.448 8 109507586.732 8  85330565.187 7  20838600.648 7  20838601.460 7


  22985139.790 7 120787701.091 7  94120285.019 5  22985141.211 5  22985139.594 5
  22985145.442 8  90198618.028 8

  21568010.888 8 113340622.971 8  88317368.686 8  21568015.274 8  21568010.280 8
  21568013.502 8  84637451.662 8

  24702694.798 6 129813538.695 6 101153400.773 4  24702696.174 4  24702694.110 4


  22658873.088 7 119073199.026 7  92784340.738 5  22658878.145 5  22658873.012 5
  22658877.700 8  88918331.762 8

 23  9  2  8 15  0.0000000  0 10G21G27G32G10G22G02G14G08G17G03
  20743491.177 7 109007758.103 7  84941109.605 6  20743490.825 6  20743490.046 6


  24335296.382 6 127882756.828 6  99648893.545 6  24335303.609 6  24335295.792 6
  24335303.714 7  95496810.926 7

  22563497.935 7 118572007.706 7  92393806.702 8  22563503.174 8  22563497.743 8
  22563501.677 7  88544062.914 7

  23978841.852 6 126009582.818 6  98189276.352 6  23978849.964 6  23978841.414 6
  23978847.930 7  94098015.834 7

  23961709.713 7 125919617.335 7  98119172.353 4  23961710.707 4  23961708.922 4


  20837508.960 8 109501840.293 8  85326087.391 7  20837507.191 7  20837507.972 7


  22985462.782 7 120789399.403 7  94121608.318 5  22985464.919 5  22985462.586 5
  22985468.484 8  90199886.176 8

  21582760.217 8 113418131.628 8  88377764.923 8  21582765.040 8  21582759.623 8
  21582762.982 8  84695331.360 8

  24683880.639 6 129714664.551 6 101076355.900 4  24683880.912 4  24683879.960 4


  22639996.111 7 118974003.942 7  92707045.880 5  22640001.698 5  22639996.049 5
  22640001.285 8  88844257.522 8

 23  9  2  8 15 30.0000000  0 10G21G27G32G10G22G02G14G08G17G03
  20747006.024 7 109026229.038 7  84955502.492 6  20747005.405 6  20747004.893 6


  24356785.179 6 127995682.159 6  99736887.096 6  24356792.945 6  24356784.580 6
  24356792.437 7  95581138.086 7

  22562298.524 7 118565704.696 7  92388895.178 8  22562303.876 8  22562298.328 8
  22562302.388 7  88539356.016 7

  23997341.714 6 126106797.287 6  98265027.587 6  23997349.508 6  23997341.290 6
  23997347.609 7  94170610.699 7

  23955262.205 7 125885735.166 7  98092770.586 4  23955263.072 4  23955261.396 4


  20836470.406 8 109496382.090 8  85321834.201 7  20836468.407 7  20836469.414 7


  22985897.655 7 120791683.733 7  94123388.267 5  22985900.707 5  22985897.459 5
  22985902.951 8  90201591.946 8

  21597582.517 7 113496023.404 7  88438459.684 8  21597587.668 8  21597581.927 8
  21597585.254 8  84753497.151 8

  24665080.647 6 129615869.099 6 100999372.318 4  24665081.263 4  24665079.977 4


  22621171.968 7 118875081.436 7  92629963.424 5  22621177.526 5  22621171.915 5
  22621177.011 8  88770386.828 8

 23  9  2  8 16  0.0000000  0 10G21G27G32G10G22G02G14G08G17G03
  20750572.656 7 109044970.742 7  84970106.369 6  20750571.949 6  20750571.521 6


  24378292.954 6 128108704.235 6  99824956.045 6  24378300.545 6  24378292.351 6
  24378300.015 7  95665537.458 7

  22561208.313 7 118559974.586 7  92384430.071 8  22561213.598 8  22561208.121 8
  22561212.081 7  88535076.945 7

  24015863.635 6 126204132.040 6  98340872.547 6  24015871.974 6  24015863.229 6
  24015870.092 7  94243295.407 7

  23948908.507 7 125852346.553 7  98066753.415 4  23948909.561 4  23948907.680 4


  20835486.868 8 109491212.904 8  85317806.216 7  20835484.602 7  20835485.871 7


  22986444.285 7 120794554.036 7  94125624.820 5  22986446.764 5  22986444.098 5
  22986449.183 8  90203735.286 8

  21612477.706 8 113574297.554 8  88499452.400 8  21612482.717 8  21612477.156 8
  21612480.386 8  84811948.489 8

  24646294.538 6 129517154.208 6 100922451.517 4  24646296.528 4  24646293.881 4


  22602400.101 7 118776433.585 7  92553094.981 5  22602405.513 5  22602400.048 5
  22602405.174 8  88696721.235 8

 23  9  2  8 16 30.0000000  0 10G21G27G32G10G22G02G14G08G17G03
  20754191.644 7 109063989.217 7  84984925.916 6  20754191.331 6  20754190.504 6


  24399819.851 6 128221827.292 6  99913103.701 6  24399827.125 6  24399819.243 6
  24399827.226 7  95750012.254 7

  22560228.125 7 118554823.937 7  92380416.502 8  22560233.814 8  22560227.942 8
  22560232.069 7  88531230.595 7

  24034409.812 6 126301591.264 6  98416814.506 6  24034418.130 6  24034409.383 6
  24034416.191 7  94316073.054 7

  23942650.431 7 125819458.538 7  98041126.310 4  23942651.171 4  23942649.609 4


  20834559.402 8 109486338.883 8  85314008.236 7  20834557.305 7  20834558.401 7


  22987102.717 7 120798016.014 7  94128322.428 5  22987104.726 5  22987102.530 5
  22987108.486 8  90206320.475 8

  21627445.945 8 113652958.898 8  88560746.830 8  21627451.225 8  21627445.315 8
  21627449.393 8  84870688.956 8

  24627528.109 6 129418527.602 6 100845599.545 4  24627528.024 4  24627527.475 4


  22583681.851 7 118678068.134 7  92476446.592 5  22583687.016 5  22583681.807 5
  22583686.719 8  88623266.532 8

 23  9  2  8 17  0.0000000  0 10G21G27G32G10G22G02G14G08G17G03
  20757861.796 7 109083275.924 7  84999954.468 6  20757861.644 6  20757860.661 6


  24421363.366 6 128335041.177 6 100001322.139 5  24421370.836 5  24421362.767 5
  24421371.824 7  95834554.858 7

  22559357.060 7 118550244.786 7  92376848.265 8  22559362.636 8  22559356.873 8
  22559360.714 7  88527811.019 7

  24052977.171 6 126399164.782 6  98492845.532 6  24052986.004 6  24052976.693 6
  24052984.253 7  94388936.069 7

  23936486.529 6 125787063.991 6  98015883.727 4  23936487.029 4  23936485.707 4


  20833686.561 8 109481752.319 8  85310434.248 7  20833684.829 7  20833685.560 7


  22987872.851 7 120802060.868 7  94131474.204 5  22987873.490 5  22987872.646 5
  22987878.402 8  90209340.924 8

  21642486.963 7 113731996.897 7  88622334.750 8  21642491.720 8  21642486.324 8
  21642489.972 8  84929710.691 8

  24608775.923 6 129319983.506 6 100768811.806 4  24608775.827 4  24608775.306 4


  22565015.985 7 118579978.528 7  92400013.133 5  22565020.822 5  22565015.945 5
  22565020.970 8  88550017.810 8

 23  9  2  8 17 30.0000000  0 10G21G27G32G10G22G02G14G08G17G03
  20761584.119 7 109102836.154 7  85015196.159 6  20761583.722 6  20761582.984 6


  24442926.156 6 128448349.170 6 100089613.909 5  24442932.654 5  24442925.598 5
  24442933.834 7  95919167.726 7

  22558595.374 7 118546242.636 7  92373729.646 8  22558600.979 8  22558595.182 8
  22558599.157 7  88524822.330 7

  24071567.445 6 126496855.978 6  98568968.250 6  24071576.256 6  24071566.918 6
  24071574.481 7  94461886.933 7

  23930416.848 6 125755168.973 6  97991030.443 4  23930418.084 4  23930416.021 4


  20832869.528 8 109477458.868 8  85307088.656 7  20832867.929 7  20832868.527 7


  22988754.369 7 120806693.313 7  94135083.840 5  22988755.165 5  22988754.164 5
  22988759.790 8  90212800.158 8

  21657600.261 7 113811415.174 7  88684218.994 8  21657604.649 8  21657599.729 8
  21657602.851 8  84989016.408 8

  24590039.761 6 129221528.989 6 100692093.926 4  24590041.032 4  24590039.149 4


  22546403.978 7 118482171.538 7  92323799.907 5  22546409.193 5  22546403.938 5
  22546409.056 8  88476980.140 8

 23  9  2  8 18  0.0000000  0 10G21G27G32G10G22G02G14G08G17G03
  20765357.937 7 109122666.851 7  85030648.601 6  20765357.170 6  20765356.797 6


  24464503.946 6 128561746.597 6 100177975.356 5  24464511.816 5  24464503.432 5
  24464513.038 7  96003847.381 7

  22557943.103 7 118542815.000 7  92371058.708 8  22557948.656 8  22557942.911 8
  22557946.925 7  88522262.671 7

  24090179.680 6 126594660.235 6  98645179.073 6  24090187.980 6  24090179.104 6
  24090186.481 7  94534922.247 7

  23924442.493 6 125723771.642 6  97966564.986 4  23924443.625 4  23924441.675 4


  20832107.812 8 109473455.298 8  85303968.946 7  20832106.405 7  20832106.811 7


  22989747.107 7 120811910.015 7  94139148.749 5  22989749.232 5  22989746.897 5
  22989752.421 8  90216695.698 8

  21672783.866 7 113891209.033 7  88746395.896 8  21672788.931 8  21672783.308 8
  21672787.344 8  85048602.584 8

  24571321.151 6 129123162.777 6 100615444.884 4  24571323.187 4  24571320.490 4


  22527845.187 7 118384646.040 7  92247806.023 5  22527851.013 5  22527845.147 5
  22527850.458 8  88404152.667 8

 23  9  2  8 18 30.0000000  0 10G21G27G32G10G22G02G14G08G17G03
  20769183.186 7 109142769.622 7  85046313.048 6  20769182.676 6  20769182.046 6


  24486099.992 6 128675233.592 6 100266406.586 5  24486108.432 5  24486099.469 5
  24486108.942 7  96088593.903 7

  22557400.663 7 118539964.167 7  92368837.233 8  22557406.121 8  22557400.462 8
  22557404.524 7  88520133.748 7

  24108813.110 6 126692577.573 6  98721478.012 6  24108821.248 6  24108812.552 6
  24108819.750 7  94608041.991 7

  23918562.774 6 125692874.726 6  97942489.451 4  23918564.509 4  23918561.992 4


  20831401.698 8 109469744.505 8  85301077.375 7  20831400.718 7  20831400.697 7


  22990851.567 7 120817712.424 7  94143670.061 5  22990853.812 5  22990851.353 5
  22990856.724 8  90221028.611 8

  21688039.626 7 113971379.435 7  88808866.212 8  21688045.018 8  21688038.996 8
  21688043.503 8  85108469.945 8

  24552621.219 6 129024888.877 6 100538867.745 4  24552621.763 4  24552620.558 4


  22509340.886 7 118287405.658 7  92172034.308 5  22509346.456 5  22509340.846 5
  22509345.918 8  88331538.117 8

 23  9  2  8 19  0.0000000  0 10G21G27G32G10G22G02G14G08G17G03
  20773060.130 7 109163142.854 7  85062188.238 7  20773059.756 7  20773058.990 7


  24507712.463 6 128788806.779 6 100354904.963 6  24507721.085 6  24507711.913 6
  24507721.437 7  96173404.802 7

  22556967.810 7 118537688.918 7  92367064.276 8  22556972.919 8  22556967.609 8
  22556971.636 7  88518434.661 7

  24127467.148 6 126790604.797 6  98797862.569 6  24127475.593 6  24127466.630 6
  24127474.053 7  94681243.786 7

  23912778.486 6 125662477.838 6  97918803.550 4  23912780.399 4  23912777.708 4


  20830750.997 8 109466325.214 8  85298412.943 7  20830750.208 7  20830749.996 7


  22992066.573 7 120824098.466 7  94148646.158 5  22992068.783 5  22992066.363 5
  22992071.919 8  90225797.344 8

  21703367.148 7 114051922.170 7  88871626.652 8  21703371.839 8  21703366.527 8
  21703370.437 8  85168615.346 8

  24533938.066 6 128926708.115 6 100462363.131 4  24533938.022 4  24533937.414 4


  22490891.105 7 118190450.570 7  92096484.901 5  22490896.491 5  22490891.061 5
  22490895.816 8  88259136.604 8

 23  9  2  8 19 30.0000000  0 10G21G27G32G10G22G02G14G08G17G03
  20776988.553 7 109183786.777 7  85078274.363 7  20776988.372 7  20776987.418 7


  24529341.652 6 128902464.814 6 100443469.437 6  24529349.810 6  24529341.120 6
  24529350.160 7  96258279.050 7

  22556644.299 7 118535990.036 7  92365740.448 8  22556649.191 8  22556644.089 8
  22556648.367 7  88517165.983 7

  24146142.100 6 126888740.326 6  98874331.516 6  24146150.531 6  24146141.622 6
  24146148.970 7  94754526.472 7

  23907089.119 6 125632582.166 6  97895508.215 4  23907091.218 4  23907088.332 4


  20830155.872 8 109463198.057 8  85295976.152 7  20830154.968 7  20830154.875 7


  22993393.045 7 120831068.134 7  94154077.019 5  22993394.638 5  22993392.849 5
  22993398.215 8  90231001.896 8

  21718764.870 7 114132836.926 7  88934676.984 8  21718769.460 8  21718764.298 8
  21718768.164 8  85229038.552 8

  24515272.287 6 128828622.443 6 100385932.619 4  24515273.505 4  24515271.644 4


  22472495.858 7 118093782.957 7  92021159.503 6  22472501.255 6  22472495.814 6
  22472500.724 8  88186949.768 8

 23  9  2  8 20  0.0000000  0 10G21G27G32G10G22G02G14G08G17G03
  20780968.601 7 109204702.025 7  85094571.905 7  20780968.704 7  20780967.466 7


  24550985.424 6 129016206.490 6 100532099.097 6  24550994.469 6  24550984.915 6
  24550994.567 7  96343215.773 7

  22556431.078 7 118534868.390 7  92364866.421 8  22556435.673 8  22556430.868 8
  22556434.840 7  88516328.367 7

  24164837.192 6 126986983.400 6  98950884.268 6  24164845.897 6  24164836.692 6
  24164844.310 7  94827889.466 7

  23901495.937 7 125603189.354 7  97872604.702 4  23901497.342 4  23901495.137 4


  20829616.725 8 109460364.432 8  85293768.083 7  20829615.464 7  20829615.728 7


  22994830.123 7 120838621.459 7  94159962.671 5  22994831.539 5  22994829.922 5
  22994835.761 8  90236642.317 8

  21734232.681 7 114214121.919 7  88998015.812 8  21734237.578 8  21734232.105 8
  21734236.362 8  85289738.235 8

  24496625.927 6 128730634.559 6 100309578.359 4  24496627.194 4  24496625.239 4


  22454155.845 7 117997405.120 7  91946059.913 6  22454161.241 6  22454155.792 6
  22454160.603 8  88114979.334 8

 23  9  2  8 20 30.0000000  0 10G21G27G32G10G22G02G14G08G17G03
  20785000.343 7 109225888.352 7  85111080.678 7  20785000.499 7  20784999.212 7


  24572646.261 6 129130030.114 6 100620792.618 6  24572654.498 6  24572645.788 6
  24572654.407 7  96428213.694 7

  22556327.427 7 118534324.396 7  92364442.521 8  22556332.616 8  22556327.204 8
  22556331.381 7  88515922.124 7

  24183552.403 6 127085332.247 6  99027519.434 6  24183561.355 6  24183551.849 6
  24183559.785 7  94901331.426 7

  23895998.697 7 125574300.619 7  97850093.983 4  23895999.471 4  23895997.866 4


  20829133.346 8 109457824.458 8  85291788.840 7  20829131.865 7  20829132.349 7


  22996378.333 7 120846758.027 7  94166302.790 5  22996379.742 5  22996378.119 5
  22996384.316 8  90242718.272 8

  21749770.882 7 114295776.027 7  89061642.262 8  21749776.061 8  21749770.292 8
  21749774.811 8  85350713.560 8

  24477999.563 6 128632746.750 6 100233302.051 4  24477999.945 4  24477998.861 4


  22435871.408 7 117901318.889 7  91871187.542 5  22435876.335 5  22435871.368 5
  22435876.057 8  88043226.651 8

 23  9  2  8 21  0.0000000  0 10G21G27G32G10G22G02G14G08G17G03
  20789082.972 7 109247342.940 7  85127798.487 7  20789083.135 7  20789081.841 7


  24594320.930 6 129243930.712 6 100709546.138 6  24594328.905 6  24594320.448 6
  24594329.199 7  96513269.128 7

  22556333.251 7 118534355.142 7  92364466.479 8  22556338.719 8  22556333.032 8
  22556337.353 7  88515945.085 7

  24202287.069 6 127183781.844 6  99104233.110 6  24202295.832 6  24202286.493 6
  24202294.456 7  94974848.631 7

  23890596.964 7 125545913.311 7  97827973.960 4  23890596.925 4  23890596.124 4


  20828705.633 8 109455575.558 8  85290036.411 7  20828703.948 7  20828704.632 7


  22998037.151 7 120855474.125 7  94173094.507 5  22998039.009 5  22998036.941 5
  22998042.796 8  90249226.974 8

  21765378.824 7 114377794.137 7  89125552.358 8  21765383.610 8  21765378.252 8
  21765382.490 8  85411960.707 8

  24459390.975 6 128534957.988 6 100157102.913 4  24459391.185 4  24459390.273 4


  22417642.094 7 117805522.817 7  91796541.279 6  22417647.192 6  22417642.063 6
  22417646.850 8  87971690.650 8

 23  9  2  8 21 30.0000000  0 10G21G27G32G10G22G02G14G08G17G03
  20793217.380 7 109269069.153 7  85144727.954 7  20793217.493 7  20793216.254 7


  24616010.704 6 129357910.529 6 100798361.386 6  24616018.532 6  24616010.204 6
  24616018.891 7  96598383.713 7

  22556449.615 7 118534964.855 7  92364941.583 8  22556454.549 8  22556449.396 8
  22556453.403 7  88516400.385 7

  24221041.543 6 127282334.687 6  99181027.228 6  24221050.131 6  24221040.985 6
  24221048.851 7  95048442.938 7

  23885291.709 7 125518032.484 7  97806248.599 4  23885291.218 4  23885290.873 4


  20828333.990 8 109453622.254 8  85288514.316 7  20828331.965 7  20828332.989 7


  22999806.660 7 120864773.073 7  94180340.403 5  22999809.524 5  22999806.464 5
  22999812.174 8  90256170.943 8

  21781055.704 7 114460178.355 7  89189747.731 8  21781061.085 8  21781055.141 8
  21781059.716 8  85473481.242 8

  24440801.847 6 128437273.789 6 100080985.190 4  24440802.564 4  24440801.145 4


  22399468.657 7 117710022.538 7  91722125.518 6  22399474.068 6  22399468.640 6
  22399473.755 8  87900375.549 8

 23  9  2  8 22  0.0000000  0 10G21G27G32G10G22G02G14G08G17G03
  20797403.283 7 109291065.909 7  85161868.233 7  20797403.541 7  20797402.157 7


  24637714.698 6 129471966.625 6 100887236.096 6  24637722.740 6  24637714.180 6
  24637722.915 6  96683555.308 6

  22556675.379 7 118536152.643 7  92365867.147 8  22556680.572 8  22556675.169 8
  22556679.369 7  88517287.390 7

  24239815.127 6 127380987.780 6  99257899.478 6  24239823.505 6  24239814.586 6
  24239822.273 7  95122112.107 7

  23880082.614 7 125490658.036 7  97784917.813 4  23880081.865 4  23880081.792 4


  20828018.293 8 109451963.476 8  85287221.729 7  20828015.542 7  20828017.292 7


  23001687.157 7 120874653.162 7  94188039.136 5  23001689.780 5  23001686.956 5
  23001692.310 8  90263548.876 8

  21796802.277 7 114542926.160 7  89254226.419 8  21796807.610 8  21796801.705 8
  21796806.108 8  85535273.297 8

  24422233.015 6 128339695.871 6 100004950.389 4  24422234.332 4  24422232.300 4


  22381352.094 7 117614818.696 7  91647940.731 6  22381356.803 6  22381352.090 6
  22381356.861 8  87829281.793 8

 23  9  2  8 22 30.0000000  0 10G21G27G32G10G22G02G14G08G17G03
  20801640.153 7 109313330.974 7  85179217.582 7  20801640.589 7  20801639.022 7


  24659432.237 6 129586095.030 6 100976167.163 5  24659440.484 5  24659431.710 5
  24659441.118 6  96768780.872 6

  22557011.161 7 118537916.472 7  92367241.572 8  22557016.395 8  22557010.974 8
  22557014.958 7  88518604.546 7

  24258606.449 6 127479737.276 6  99334846.843 6  24258615.230 6  24258605.904 6
  24258613.981 7  95195853.268 7

  23874969.178 7 125463788.649 7  97763980.623 4  23874968.781 4  23874968.378 4


  20827758.220 8 109450597.891 8  85286157.605 7  20827755.272 7  20827757.214 7


  23003677.556 7 120885111.562 7  94196188.503 5  23003679.130 5  23003677.360 5
  23003682.792 8  90271358.675 8

  21812617.351 7 114626034.216 7  89318985.827 8  21812622.426 8  21812616.788 8
  21812621.035 8  85597334.365 8

  24403685.623 6 128242223.673 6  99928997.955 4  24403685.905 4  24403684.895 4


  22363291.525 7 117519910.710 7  91573986.492 6  22363296.287 6  22363291.529 6
  22363296.242 8  87758408.999 8

 23  9  2  8 23  0.0000000  0 10G21G27G32G10G22G02G14G08G17G03
  20805928.524 7 109335865.629 7  85196777.005 7  20805928.777 7  20805927.393 7


  24681164.559 6 129700295.138 6 101065154.099 5  24681172.326 5  24681164.041 5
  24681172.989 7  96854059.975 7

  22557456.612 7 118540257.710 7  92369065.934 8  22557461.942 8  22557456.420 8
  22557460.379 7  88520352.903 7

  24277416.283 6 127578582.756 6  99411869.014 6  24277425.352 6  24277415.689 6
  24277424.126 7  95269666.109 7

  23869952.488 7 125437426.017 7  97743438.278 4  23869951.970 4  23869951.693 4


  20827554.588 8 109449526.783 8  85285322.949 7  20827551.698 7  20827553.587 7


  23005777.459 7 120896148.778 7  94204788.885 5  23005778.812 5  23005777.267 5
  23005783.171 8  90279600.700 8

  21828500.834 7 114709501.214 7  89384024.929 8  21828505.602 8  21828500.280 8
  21828504.401 8  85659663.477 8

  24385158.396 6 128144860.477 6  99853130.447 4  24385159.125 4  24385157.699 4


  22345288.172 7 117425301.547 7  91500265.115 6  22345292.949 6  22345288.185 6
  22345292.672 8  87687759.337 8

 23  9  2  8 23 30.0000000  0 10G21G27G32G10G22G02G14G08G17G03
  20810267.953 7 109358669.069 7  85214545.878 7  20810268.093 7  20810266.822 7


  24702908.685 6 129814564.580 6 101154195.051 5  24702917.757 5  24702908.171 5
  24702918.083 7  96939390.850 7

  22558011.807 7 118543175.937 7  92371339.902 8  22558017.092 8  22558011.611 8
  22558015.702 7  88522532.121 7

  24296243.688 6 127677521.765 6  99488964.065 6  24296253.233 6  24296243.067 6
  24296251.741 7  95343548.794 7

  23865032.777 7 125411570.799 7  97723291.315 4  23865031.996 4  23865031.995 4


  20827406.715 8 109448750.174 8  85284717.775 7  20827404.116 7  20827405.714 7


  23007988.147 7 120907763.533 7  94213839.297 5  23007989.371 5  23007987.946 5
  23007993.409 8  90288273.994 8

  21844452.353 7 114793325.511 7  89449342.445 8  21844457.033 8  21844451.808 8
  21844455.602 8  85722259.392 8

  24366651.298 6 128047607.594 6  99777348.883 4  24366652.627 4  24366650.632 4


  22327341.549 7 117330992.250 7  91426777.390 6  22327346.306 6  22327341.557 6
  22327346.144 8  87617333.608 8

 23  9  2  8 24  0.0000000  0 10G21G27G32G10G22G02G14G08G17G03
  20814658.521 7 109381742.648 7  85232525.246 7  20814658.821 7  20814657.390 7


  24724666.620 6 129928902.808 6 101243289.603 5  24724675.880 5  24724666.075 5
  24724675.898 7  97024773.068 7

  22558677.142 7 118546672.510 7  92374064.537 8  22558682.334 8  22558676.950 8
  22558681.057 7  88525143.237 7

  24315089.647 6 127776553.982 6  99566131.744 6  24315098.842 6  24315089.039 6
  24315097.368 7  95417501.091 7

  23860208.732 7 125386224.888 7  97703541.208 4  23860209.571 4  23860207.928 4


  20827315.380 8 109448269.577 8  85284343.262 7  20827312.360 7  20827314.379 7


  23010308.364 7 120919956.359 7  94223340.154 5  23010310.237 5  23010308.168 5
  23010313.451 8  90297378.975 8

  21860471.204 7 114877506.029 7  89514937.537 8  21860476.389 8  21860470.659 8
  21860474.633 8  85785121.333 8

  24348166.556 6 127950468.438 6  99701655.963 4  24348167.250 4  24348165.953 4


  22309452.570 7 117236985.716 7  91353525.587 6  22309457.585 6  22309452.574 6
  22309457.271 8  87547133.988 8

 23  9  2  8 24 30.0000000  0 10G21G27G32G10G22G02G14G08G17G03
  20819100.878 7 109405086.854 7  85250715.499 7  20819101.125 7  20819099.752 7


  24746438.230 6 130043309.060 6 101332437.155 5  24746447.150 5  24746437.663 5
  24746447.387 7  97110206.077 7

  22559452.699 7 118550748.560 7  92377240.711 8  22559457.989 8  22559452.507 8
  22559456.673 7  88528187.074 7

  24333953.256 6 127875679.131 6  99643371.832 6  24333962.071 6  24333952.698 6
  24333960.551 7  95491522.770 7

  23855482.995 7 125361389.990 7  97684189.310 4  23855484.873 4  23855482.159 4


  20827280.612 8 109448086.243 8  85284200.381 7  20827277.436 7  20827279.615 7


  23012738.504 7 120932727.503 7  94233291.652 5  23012740.615 5  23012738.308 5
  23012743.758 8  90306915.815 8

  21876557.953 7 114962042.199 7  89580809.754 8  21876563.306 8  21876557.403 8
  21876561.422 8  85848248.850 8

  24329704.709 6 127853446.218 6  99626054.138 4  24329704.228 4  24329704.155 4


  22291622.073 7 117143284.654 7  91280511.814 6  22291626.999 6  22291622.069 6
  22291626.694 8  87477162.457 8

 23  9  2  8 25  0.0000000  0 10G21G27G32G10G22G02G14G08G17G03
  20823593.424 7 109428696.489 7  85269112.577 7  20823594.024 7  20823592.298 7


  24768221.011 6 130157775.940 6 101421631.926 5  24768229.520 5  24768220.421 5
  24768229.477 7  97195684.356 7

  22560337.500 7 118555398.521 7  92380864.089 8  22560342.910 8  22560337.304 8
  22560341.488 7  88531659.479 7

  24352832.327 6 127974889.167 6  99720678.062 6  24352841.466 6  24352831.804 6
  24352839.892 7  95565607.845 7

  23850853.087 7 125337061.264 7  97665231.841 4  23850855.618 4  23850852.238 4


  20827301.243 8 109448195.139 8  85284285.211 7  20827298.977 7  20827300.242 7


  23015277.393 7 120946070.610 7  94243688.821 5  23015279.268 5  23015277.206 5
  23015282.870 7  90316879.766 7

  21892711.202 7 115046926.614 7  89646953.329 8  21892716.560 8  21892710.648 8
  21892714.533 8  85911636.415 8

  24311263.725 6 127756537.373 6  99550540.670 4  24311263.896 4  24311263.234 4


  22273848.652 7 117049885.106 7  91207732.994 6  22273853.834 6  22273848.639 6
  22273853.287 8  87407416.100 8

 23  9  2  8 25 30.0000000  0 10G21G27G32G10G22G02G14G08G17G03
  20828137.681 7 109452574.447 7  85287718.734 7  20828137.689 7  20828136.555 7


  24790015.459 6 130272305.389 6 101510875.453 6  24790023.830 6  24790014.892 6
  24790024.084 7  97281209.360 7

  22561332.455 7 118560626.218 7  92384937.647 8  22561337.880 8  22561332.259 8
  22561336.350 7  88535563.315 7

  24371727.736 7 128074186.809 7  99798052.572 6  24371737.431 6  24371727.200 6
  24371735.909 7  95639758.354 7

  23846321.612 6 125313243.247 6  97646672.320 4  23846322.797 4  23846320.772 4


  20827378.495 8 109448600.434 8  85284601.001 7  20827377.324 7  20827377.503 7


  23017926.354 7 120959988.694 7  94254534.034 5  23017927.653 5  23017926.171 5
  23017931.392 8  90327273.084 8

  21908930.898 7 115132161.419 7  89713369.936 8  21908936.283 8  21908930.348 8
  21908934.290 8  85975285.645 8

  24292844.584 6 127659747.743 6  99475120.115 4  24292846.097 4  24292844.173 4


  22256133.632 7 116956792.502 7  91135193.345 6  22256139.209 6  22256133.615 6
  22256138.060 8  87337898.943 8

 23  9  2  8 26  0.0000000  0 10G21G27G32G10G22G02G14G08G17G03
  20832732.931 7 109476723.134 7  85306535.851 7  20832732.833 7  20832731.809 7


  24811821.493 6 130386897.764 6 101600168.012 6  24811830.219 6  24811820.935 6
  24811830.361 7  97366781.354 7

  22562437.435 7 118566433.821 7  92389463.081 8  22562443.186 8  22562437.239 8
  22562441.494 7  88539900.196 7

  24390640.236 7 128173572.381 7  99875495.592 6  24390650.133 6  24390639.646 6
  24390648.579 7  95713974.527 7

  23841886.833 6 125289938.889 6  97628513.048 4  23841887.805 4  23841886.006 4


  20827512.457 8 109449304.801 8  85285149.834 7  20827511.944 7  20827511.460 7


  23020684.384 7 120974483.017 7  94265828.267 5  23020685.689 5  23020684.197 5
  23020689.686 8  90338096.719 8

  21925217.437 7 115217747.173 7  89780060.010 8  21925222.686 8  21925216.892 8
  21925220.738 8  86039196.944 8

  24274449.855 6 127563081.604 6  99399795.765 4  24274451.244 4  24274449.493 4


  22238477.560 7 116864010.576 7  91062895.779 6  22238483.242 6  22238477.538 6
  22238482.328 8  87268613.785 8

 23  9  2  8 26 30.0000000  0 10G21G27G32G10G22G02G14G08G17G03
  20837379.031 7 109501138.173 7  85325560.516 7  20837378.979 7  20837377.914 7


  24833638.370 6 130501547.013 6 101689504.885 6  24833647.473 6  24833637.794 6
  24833647.973 7  97452395.815 7

  22563652.236 7 118572817.052 7  92394437.054 8  22563657.753 8  22563652.035 8
  22563656.188 7  88544666.930 7

  24409568.599 7 128273039.896 7  99953002.469 6  24409578.362 6  24409567.938 6
  24409577.025 7  95788251.891 7

  23837549.177 6 125267144.611 6  97610751.234 4  23837550.224 4  23837548.359 4


  20827702.778 8 109450304.249 8  85285928.598 7  20827701.841 7  20827701.786 7


  23023551.038 7 120989548.479 7  94277567.539 5  23023552.907 5  23023550.855 5
  23023556.554 8  90349346.866 8

  21941569.598 7 115303677.300 7  89847018.426 8  21941574.734 8  21941569.044 8
  21941572.774 8  86103365.407 8

  24256078.007 6 127466536.800 6  99324565.929 4  24256079.690 4  24256077.681 4


  22220880.740 7 116771536.693 7  90990838.248 6  22220886.387 6  22220880.718 6
  22220885.137 8  87199558.667 8

 23  9  2  8 27  0.0000000  0 10G21G27G32G10G22G02G14G08G17G03
  20842076.569 7 109525824.139 7  85344796.300 7  20842076.761 7  20842075.447 7


  24855467.057 6 130616255.907 6 101778888.245 6  24855475.873 6  24855466.458 6
  24855476.035 7  97538054.830 7

  22564977.283 7 118579780.474 7  92399863.125 8  22564982.616 8  22564977.096 8
  22564981.082 7  88549866.911 7

  24428512.718 6 128372592.155 6 100030575.375 6  24428522.839 6  24428512.025 6
  24428521.513 7  95862592.523 7

  23833309.662 6 125244865.383 6  97593390.727 4  23833310.807 4  23833308.867 4


  20827950.052 8 109451603.802 8  85286941.208 7  20827949.040 7  20827949.060 7


  23026527.862 7 121005188.807 7  94289754.753 5  23026529.763 5  23026527.679 5
  23026532.859 8  90361026.260 8

  21957987.625 7 115389954.975 7  89914247.660 8  21957992.840 8  21957987.058 8
  21957991.124 8  86167793.403 8

  24237730.297 6 127370119.824 6  99249435.722 4  24237731.809 4  24237729.980 4


  22203342.971 7 116679377.089 7  90919025.603 6  22203348.761 6  22203342.949 6
  22203347.505 8  87130738.233 8

 23  9  2  8 27 30.0000000  0 10G21G27G32G10G22G02G14G08G17G03
  20846824.465 7 109550773.618 7  85364237.411 7  20846824.556 7  20846823.343 7


  24877305.224 6 130731015.467 6 101868311.080 6  24877314.238 6  24877304.598 6
  24877314.788 7  97623751.672 7

  22566411.394 7 118587316.846 7  92405735.642 8  22566416.623 8  22566411.207 8
  22566415.249 7  88555494.749 7

  24447472.022 6 128472220.530 6 100108207.598 6  24447481.646 6  24447471.325 6
  24447480.384 7  95936990.012 7

  23829166.966 7 125223095.242 7  97576426.940 4  23829168.502 4  23829166.175 4


  20828253.213 8 109453196.707 8  85288182.405 7  20828252.632 7  20828252.221 7


  23029611.886 7 121021395.874 7  94302383.582 5  23029614.314 5  23029611.699 5
  23029616.944 8  90373128.867 8

  21974470.354 7 115476571.254 7  89981740.742 8  21974475.379 8  21974469.769 8
  21974473.866 8  86232474.256 8

  24219406.017 6 127273825.379 6  99174401.003 4  24219407.038 4  24219405.740 4


  22185864.330 7 116587526.183 7  90847453.494 6  22185869.864 6  22185864.317 6
  22185869.049 8  87062148.304 8

 23  9  2  8 28  0.0000000  0 10G21G27G32G10G22G02G14G08G17G03
  20851623.144 7 109575991.896 7  85383887.977 7  20851623.382 7  20851622.018 7


  24899153.800 6 130845829.171 6 101957776.102 6  24899162.661 6  24899153.148 6
  24899162.821 7  97709488.943 7

  22567955.527 7 118595431.382 7  92412058.670 8  22567960.857 8  22567955.331 8
  22567959.445 7  88561554.322 7

  24466445.911 6 128571928.735 6 100185902.008 6  24466455.693 6  24466445.232 6
  24466454.590 7  96011447.084 7

  23825122.488 7 125201839.473 7  97559863.940 5  23825123.742 5  23825121.706 5


  20828613.017 8 109455088.350 8  85289656.379 7  20828613.296 7  20828612.025 7


  23032804.722 7 121038174.086 7  94315457.470 5  23032806.646 5  23032804.521 5
  23032809.776 8  90385657.991 8

  21991018.176 7 115563529.728 7  90049500.472 8  21991023.240 8  21991017.577 8
  21991021.578 8  86297410.632 8

  24201106.916 6 127177661.533 6  99099468.060 4  24201108.217 4  24201106.630 4


  22168445.397 7 116495990.868 7  90776127.315 6  22168451.486 6  22168445.389 6
  22168450.466 8  86993794.050 8

 23  9  2  8 28 30.0000000  0 10G21G27G32G10G22G02G14G08G17G03
  20856473.388 7 109601479.920 7  85403748.736 7  20856473.819 7  20856472.266 7


  24921012.510 6 130960696.294 6 102047282.752 6  24921021.467 6  24921011.858 6
  24921022.139 7  97795266.101 7

  22569609.970 7 118604125.005 7  92418832.932 8  22569615.230 8  22569609.769 8
  22569613.815 7  88568046.327 7

  24485435.481 6 128671715.863 6 100263657.910 6  24485444.863 6  24485434.833 6
  24485443.675 7  96085963.085 7

  23821175.719 7 125181100.142 7  97543703.380 5  23821176.950 5  23821174.924 5


  20829030.441 8 109457280.463 8  85291364.480 7  20829030.419 7  20829029.449 7


  23036106.595 7 121055523.498 7  94328976.419 5  23036107.593 5  23036106.394 5
  23036111.560 8  90398613.627 8

  22007631.169 7 115650829.131 7  90117525.857 8  22007636.226 8  22007630.570 8
  22007634.270 8  86362601.604 8

  24182832.942 6 127081631.223 6  99024639.179 4  24182835.318 4  24182832.665 4


  22151087.735 7 116404773.769 7  90705049.093 6  22151092.942 6  22151087.727 6
  22151092.332 8  86925677.428 8

 23  9  2  8 29  0.0000000  0 10G21G27G32G10G22G02G14G08G17G03
  20861373.895 7 109627231.215 7  85423814.638 7  20861374.379 7  20861372.769 7


  24942879.437 6 131075608.806 6 102136824.780 6  24942888.411 6  24942878.798 6
  24942889.301 7  97881077.171 7

  22571373.395 7 118613391.461 7  92426053.559 8  22571378.417 8  22571373.194 8
  22571377.232 7  88574966.089 7

  24504437.801 6 128771574.520 6 100341469.542 6  24504447.641 6  24504437.171 6
  24504446.612 7  96160532.495 7

  23817326.483 7 125160871.442 7  97527940.701 5  23817327.559 5  23817325.679 5


  20829503.547 8 109459767.160 8  85293302.131 7  20829502.901 7  20829502.555 7


  23039515.096 7 121073437.021 7  94342934.936 5  23039516.606 5  23039514.900 5
  23039520.735 8  90411990.525 8

  22024307.043 7 115738462.023 7  90185811.111 8  22024312.495 8  22024306.449 8
  22024310.572 8  86428041.629 8

  24164583.589 6 126985730.334 6  98949911.154 4  24164586.061 4  24164583.312 4


  22133789.166 7 116313870.310 7  90634215.262 6  22133794.323 6  22133789.149 6
  22133793.818 8  86857795.013 8

 23  9  2  8 29 30.0000000  0 10G21G27G32G10G22G02G14G08G17G03
  20866325.468 7 109653251.657 7  85444090.265 7  20866325.858 7  20866324.342 7


  24964756.291 6 131190570.889 6 102226405.428 5  24964765.413 5  24964755.674 5
  24964765.860 6  97966925.281 6

  22573246.573 7 118623236.528 7  92433725.047 8  22573251.824 8  22573246.372 8
  22573250.659 8  88582317.939 8

  24523455.143 6 128871508.828 6 100419340.122 6  24523464.732 6  24523454.544 6
  24523463.842 7  96235158.401 7

  23813575.767 7 125141160.344 7  97512581.361 5  23813576.396 5  23813574.972 5


  20830033.989 8 109462554.992 8  85295474.437 7  20830032.776 7  20830032.997 7


  23043031.917 7 121091919.553 7  94357336.845 5  23043034.476 5  23043031.721 5
  23043038.064 8  90425792.337 8

  22041046.982 7 115826432.009 7  90254359.026 8  22041052.909 8  22041046.383 8
  22041050.932 8  86493733.356 8

  24146359.738 6 126889966.964 6  98875290.282 4  24146362.345 4  24146359.439 4


  22116552.371 7 116223288.013 7  90563631.687 6  22116557.221 6  22116552.345 6
  22116556.415 8  86790152.420 8

 23  9  2  8 30  0.0000000  0 10G21G27G32G10G22G02G14G08G17G03
  20871327.841 7 109679539.029 7  85464573.889 7  20871328.058 7  20871326.715 7


  24986642.159 6 131305578.435 6 102316021.503 5  24986650.670 5  24986641.547 5
  24986651.668 6  98052807.283 6

  22575229.586 7 118633657.704 7  92441845.451 8  22575235.166 8  22575229.390 8
  22575233.806 8  88590099.992 8

  24542485.400 6 128971514.724 6 100497266.485 6  24542495.660 6  24542484.806 6
  24542494.528 7  96309837.762 7

  23809922.777 6 125121964.522 6  97497623.527 4  23809923.269 4  23809922.004 4


  20830621.599 8 109465641.806 8  85297879.723 7  20830619.920 7  20830620.607 7


  23046656.919 7 121110967.772 7  94372179.549 5  23046659.388 5  23046656.723 5
  23046662.658 8  90440016.583 8

  22057850.331 7 115914735.395 7  90323166.741 8  22057856.641 8  22057849.728 8
  22057854.633 8  86559674.059 8

  24128163.312 6 126794340.891 6  98800776.457 4  24128165.094 4  24128162.986 4


  22099375.890 7 116133026.104 7  90493297.754 6  22099380.910 6  22099375.864 6
  22099380.347 8  86722749.075 8

 23  9  2  8 30 30.0000000  0 10G21G27G32G10G22G02G14G08G17G03
  20876380.689 7 109706092.634 7  85485264.967 7  20876381.175 7  20876379.567 7


  25008534.693 5 131420629.398 5 102405671.427 5  25008544.201 5  25008534.094 5
  25008544.914 6  98138721.743 6

  22577322.284 7 118644654.599 7  92450414.460 8  22577327.869 8  22577322.088 8
  22577326.581 8  88598311.955 8

  24561529.694 6 129071590.830 6 100575247.548 6  24561539.745 6  24561529.109 6
  24561538.779 7  96384569.530 7

  23806367.522 6 125103284.614 6  97483067.713 4  23806368.797 4  23806366.767 4


  20831265.796 8 109469027.750 8  85300518.092 7  20831264.182 7  20831264.804 7


  23050389.206 7 121130580.439 7  94387462.084 5  23050391.599 5  23050389.001 5
  23050394.721 8  90454662.323 8

  22074716.946 7 116003369.686 7  90392232.301 8  22074723.153 8  22074716.334 8
  22074721.282 8  86625861.869 8

  24109992.758 6 126698854.024 6  98726371.054 4  24109994.424 4  24109992.401 4


  22082260.846 7 116043085.988 7  90423214.568 6  22082265.970 6  22082260.806 6
  22082265.304 8  86655586.018 8

 23  9  2  8 31  0.0000000  0 10G21G27G32G10G22G02G14G08G17G03
  20881484.549 8 109732912.644 8  85506163.635 7  20881485.063 7  20881483.427 7


  25030436.926 5 131535721.948 5 102495353.739 5  25030445.854 5  25030436.354 5
  25030446.355 6  98224667.286 6

  22579524.536 7 118656227.025 7  92459431.933 8  22579529.800 8  22579524.349 8
  22579528.773 8  88606953.692 8

  24580586.550 6 129171735.161 6 100653281.761 6  24580596.937 6  24580585.960 6
  24580595.973 7  96459352.253 7

  23802911.119 6 125085120.776 6  97468914.039 4  23802912.567 4  23802910.364 4


  20831967.214 8 109472713.343 8  85303389.950 7  20831965.448 7  20831966.222 7


  23054228.298 7 121150756.485 7  94403183.608 5  23054230.829 5  23054228.088 5
  23054234.031 8  90469728.772 8

  22091646.049 7 116092333.263 7  90461554.458 8  22091652.174 8  22091645.441 8
  22091650.655 8  86692295.576 8

  24091849.330 6 126603508.327 6  98652075.668 4  24091851.256 4  24091848.946 4


  22065207.246 7 115953469.227 7  90353383.340 6  22065212.069 6  22065207.206 6
  22065211.642 8  86588664.439 8

 23  9  2  8 31 30.0000000  0 10G21G27G32G10G22G02G14G08G17G03
  20886638.922 7 109759998.466 7  85527269.430 7  20886639.329 7  20886637.800 7


  25052346.083 5 131650853.823 5 102585066.709 5  25052354.904 5  25052345.507 5
  25052355.200 6  98310642.178 6

  22581836.043 7 118668374.188 7  92468897.248 8  22581841.268 8  22581835.860 8
  22581840.172 8  88616024.618 8

  24599656.330 6 129271945.878 6 100731367.689 6  24599666.763 6  24599655.758 6
  24599665.780 7  96534184.537 7

  23799553.284 6 125067473.500 6  97455162.903 4  23799554.039 4  23799552.529 4


  20832725.617 8 109476698.429 8  85306495.175 7  20832723.837 7  20832724.625 7


  23058175.173 7 121171494.282 7  94419342.858 5  23058176.838 5  23058174.954 5
  23058180.337 7  90485214.707 7

  22108637.309 7 116181623.628 7  90531131.244 8  22108643.580 8  22108636.697 8
  22108642.212 8  86758973.301 8

  24073732.149 6 126508305.597 6  98577891.711 4  24073735.025 4  24073731.711 4


  22048215.233 7 115864176.825 7  90283804.864 6  22048220.243 6  22048215.189 6
  22048220.104 8  86521985.065 8

 23  9  2  8 32  0.0000000  0 10G21G27G32G10G22G02G14G08G17G03
  20891843.770 8 109787350.592 8  85548582.730 7  20891844.174 7  20891842.648 7


  25074262.256 6 131766023.951 6 102674809.472 5  25074271.584 5  25074261.675 5
  25074272.248 6  98396645.606 6

  22584257.100 7 118681096.559 7  92478810.773 8  22584262.386 8  22584256.917 8
  22584261.176 8  88625525.082 8

  24618738.544 6 129372221.980 6 100809504.580 6  24618748.882 6  24618737.999 6
  24618747.926 7  96609065.635 7

  23796293.428 6 125050343.944 6  97441815.160 4  23796294.436 4  23796292.677 4


  20833541.346 8 109480984.284 8  85309834.766 7  20833539.489 7  20833540.354 7


  23062228.062 7 121192793.468 7  94435939.534 5  23062229.357 5  23062227.826 5
  23062233.712 8  90501119.859 8

  22125691.068 7 116271239.926 7  90600962.007 8  22125697.035 8  22125690.456 8
  22125695.803 8  86825894.419 8

  24055644.206 6 126413248.730 6  98503821.390 4  24055645.786 4  24055643.741 4


  22031285.779 7 115775211.069 7  90214480.913 6  22031290.247 6  22031285.730 6
  22031290.386 8  86455549.619 8

 23  9  2  8 32 30.0000000  0 10G21G27G32G10G22G02G14G08G17G03
  20897098.822 8 109814965.251 8  85570100.603 7  20897099.101 7  20897097.696 7


  25096184.235 5 131881226.603 5 102764577.609 5  25096193.915 5  25096183.623 5
  25096194.634 6  98482673.358 6

  22586786.871 7 118694389.997 7  92489169.291 8  22586792.131 8  22586786.697 8
  22586790.829 8  88635451.992 8

  24637832.159 6 129472557.778 6 100887687.988 6  24637842.662 6  24637831.627 6
  24637841.577 7  96683991.354 7

  23793131.981 6 125033728.441 6  97428867.959 4  23793132.667 4  23793131.248 4


  20834413.477 8 109485567.067 8  85313405.725 7  20834411.577 7  20834412.485 7


  23066387.071 7 121214649.012 7  94452969.755 5  23066389.023 5  23066386.830 5
  23066392.991 8  90517440.475 8

  22142805.564 7 116361175.937 7  90671041.899 8  22142811.298 8  22142804.961 8
  22142810.096 8  86893054.288 8

  24037583.190 6 126318336.190 6  98429863.514 5  24037584.328 5  24037582.721 5


  22014417.833 7 115686569.644 7  90145409.690 6  22014421.927 6  22014417.784 6
  22014422.330 8  86389356.365 8

 23  9  2  8 33  0.0000000  0 10G21G27G32G10G22G02G14G08G17G03
  20902404.935 8 109842850.294 8  85591829.160 7  20902405.481 7  20902403.809 7


  25118113.627 6 131996468.185 6 102854376.017 5  25118124.296 5  25118112.988 5
  25118123.919 6  98568730.165 6

  22589426.594 7 118708262.365 7  92499978.918 8  22589431.727 8  22589426.420 8
  22589430.665 7  88645811.214 7

  24656938.344 6 129572960.545 6 100965923.601 6  24656948.888 6  24656937.803 6
  24656947.961 7  96758967.084 7

  23790069.543 6 125017635.701 6  97416328.150 4  23790070.590 4  23790068.783 4


  20835343.516 8 109490455.326 8  85317214.713 7  20835341.702 7  20835342.524 7


  23070653.285 7 121237067.932 7  94470438.972 5  23070656.027 5  23070653.053 5
  23070659.120 8  90534181.803 8

  22159982.103 7 116451438.665 7  90741376.371 8  22159987.780 8  22159981.522 8
  22159986.662 8  86960458.137 8

  24019550.821 6 126223578.292 6  98356026.132 4  24019552.538 4  24019550.374 4


  21997613.462 7 115598262.187 7  90076598.704 6  21997617.175 6  21997613.413 6
  21997618.085 8  86323412.505 8

 23  9  2  8 33 30.0000000  0 10G21G27G32G10G22G02G14G08G17G03
  20907761.425 8 109870997.921 8  85613762.327 7  20907761.688 7  20907760.303 7


  25140049.792 6 132111739.193 6 102944197.417 5  25140059.328 5  25140049.131 5
  25140059.931 6  98654808.938 6

  22592175.051 7 118722705.596 7  92511233.373 8  22592180.138 8  22592174.868 8
  22592179.014 7  88656596.741 7

  24676054.852 6 129673420.677 6 101044203.916 6  24676065.945 6  24676054.249 6
  24676065.074 7  96833985.656 7

  23787105.496 6 125002058.184 6  97404189.781 4  23787106.104 4  23787104.741 4


  20836330.610 8 109495641.929 8  85321256.180 7  20836328.976 7  20836329.618 7


  23075024.979 7 121260041.336 7  94488340.266 5  23075027.178 5  23075024.747 5
  23075030.620 8  90551337.201 8

  22177219.062 7 116542018.159 7  90811957.675 8  22177224.447 8  22177218.495 8
  22177223.591 8  87028098.522 8

  24001547.692 6 126128969.264 6  98282304.776 4  24001548.904 4  24001547.268 4


  21980871.446 7 115510282.557 7  90008043.166 6  21980875.302 6  21980871.406 6
  21980875.936 8  86257713.451 8

 23  9  2  8 34  0.0000000  0 10G21G27G32G10G22G02G14G08G17G03
  20913168.718 8 109899412.550 8  85635903.546 7  20913168.669 7  20913167.596 7


  25161991.158 5 132227042.594 5 103034044.044 5  25162000.950 5  25161990.474 5
  25162001.927 7  98740911.910 7

  22595032.963 7 118737724.157 7  92522936.129 8  22595038.220 8  22595032.762 8
  22595036.917 8  88667811.877 8

  24695183.622 6 129773941.407 6 101122531.452 6  24695194.757 6  24695182.979 6
  24695193.868 7  96909049.482 7

  23784240.041 6 124987001.348 6  97392457.142 4  23784241.111 4  23784239.281 4


  20837375.226 8 109501131.933 8  85325534.073 7  20837374.288 7  20837374.229 7


  23079502.989 7 121283572.815 7  94506676.422 5  23079504.307 5  23079502.770 5
  23079508.613 8  90568909.358 8

  22194516.634 7 116632917.165 7  90882787.949 8  22194522.022 8  22194516.067 8
  22194521.299 8  87095977.504 8

  23983574.158 6 126034515.929 6  98208704.781 4  23983575.257 4  23983573.756 4


  21964192.969 7 115422637.038 7  89939747.973 6  21964196.804 6  21964192.938 6
  21964197.601 8  86192263.893 8

 23  9  2  8 34 30.0000000  0 10G21G27G32G10G22G02G14G08G17G03
  20918625.703 8 109928089.729 8  85658249.349 7  20918625.628 7  20918624.581 7


  25183937.933 6 132342371.824 6 103123910.796 5  25183947.310 5  25183937.276 5
  25183947.828 6  98827034.172 6

  22597999.284 7 118753312.833 7  92535083.127 8  22598004.625 8  22597999.074 8
  22598003.438 8  88679452.749 8

  24714322.243 6 129874516.389 6 101200901.268 5  24714333.816 5  24714321.564 5
  24714332.897 7  96984153.839 7

  23781472.961 6 124972460.730 6  97381126.765 4  23781474.415 4  23781472.197 4


  20838476.983 8 109506921.056 8  85330045.045 7  20838476.441 7  20838475.991 7


  23084086.064 7 121307656.313 7  94525442.729 5  23084087.638 5  23084085.850 5
  23084091.905 8  90586893.724 8

  22211873.790 7 116724128.919 7  90953861.920 8  22211879.019 8  22211873.218 8
  22211878.546 8  87164090.029 8

  23965629.767 6 125940215.870 6  98135224.190 5  23965630.383 5  23965629.387 5


  21947577.754 7 115335322.342 7  89871710.574 6  21947581.820 6  21947577.728 6
  21947582.274 8  86127061.382 8

 23  9  2  8 35  0.0000000  0 10G21G27G32G10G22G02G14G08G17G03
  20924133.587 8 109957033.317 8  85680802.745 7  20924133.309 7  20924132.470 7


  25205889.765 6 132457729.208 6 103213799.487 5  25205899.480 5  25205889.135 5
  25205900.250 6  98913177.451 6

  22601075.208 7 118769475.390 7  92547677.305 8  22601080.075 8  22601074.998 8
  22601079.228 8  88691522.164 8

  24733472.378 6 129975148.211 6 101279315.389 5  24733483.598 5  24733471.654 5
  24733482.687 7  97059300.635 7

  23778804.552 6 124958440.732 6  97370202.077 4  23778806.341 4  23778803.770 4


  20839636.453 8 109513013.928 8  85334792.705 7  20839635.754 7  20839635.456 7


  23088774.022 7 121332294.752 7  94544641.460 5  23088777.090 5  23088773.821 5
  23088780.457 8  90605292.494 8

  22229291.027 7 116815655.869 7  91025181.499 8  22229296.047 8  22229290.455 8
  22229295.601 8  87232437.923 8

  23947714.765 6 125846075.532 6  98061868.066 4  23947715.456 4  23947714.408 4


  21931026.518 7 115248344.109 7  89803935.355 6  21931030.869 6  21931026.492 6
  21931030.672 8  86062110.130 8

 23  9  2  8 35 30.0000000  0 10G21G27G32G10G22G02G14G08G17G03
  20929691.846 8 109986241.273 8  85703562.144 7  20929691.713 7  20929690.724 7


  25227846.231 6 132573111.000 6 103303707.217 5  25227855.989 5  25227845.614 5
  25227856.967 7  98999339.000 7

  22604259.411 7 118786209.490 7  92560716.834 8  22604264.558 8  22604259.206 8
  22604263.581 8  88704018.366 8

  24752632.011 6 130075833.266 6 101357770.993 5  24752643.653 5  24752631.247 5
  24752642.862 7  97134487.207 7

  23776235.722 6 124944939.850 6  97359681.898 4  23776237.265 4  23776234.931 4


  20840853.329 8 109519408.765 8  85339775.653 7  20840851.810 7  20840852.337 7


  23093567.805 7 121357484.901 7  94564270.096 5  23093570.755 5  23093567.613 5
  23093573.986 8  90624103.243 8

  22246767.743 7 116907494.264 7  91096743.768 8  22246772.495 8  22246767.176 8
  22246772.025 8  87301018.401 8

  23929830.850 6 125752094.808 6  97988636.310 4  23929831.693 4  23929830.537 4


  21914539.083 7 115161701.892 7  89736421.949 6  21914543.565 6  21914539.057 6
  21914543.131 8  85997409.787 8

 23  9  2  8 36  0.0000000  0 10G21G27G32G10G22G02G14G08G17G03
  20935299.628 8 110015710.851 8  85726525.409 7  20935300.204 7  20935298.511 7


  25249807.038 6 132688513.211 6 103393630.844 5  25249816.554 5  25249806.453 5
  25249816.571 6  99085515.760 6

  22607552.060 7 118803512.409 7  92574199.593 8  22607557.389 8  22607551.859 8
  22607556.238 8  88716939.343 8

  24771801.640 6 130176568.189 6 101436265.471 5  24771813.042 5  24771800.804 5
  24771812.165 7  97209711.021 7

  23773765.511 6 124931956.180 6  97349564.734 4  23773766.177 4  23773764.711 4


  20842127.377 8 109526103.705 8  85344992.449 7  20842125.300 7  20842126.385 7


  23098465.533 7 121383223.213 7  94584325.867 5  23098468.855 5  23098465.337 5
  23098471.759 7  90643323.345 7

  22264302.311 7 116999639.671 7  91168545.267 8  22264307.644 8  22264301.739 8
  22264306.766 8  87369828.135 8

  23911977.581 6 125658274.107 6  97915529.232 5  23911978.861 5  23911977.282 5


  21898115.223 7 115075394.947 7  89669169.795 6  21898120.424 6  21898115.188 6
  21898119.782 8  85932959.809 8

 23  9  2  8 36 30.0000000  0 10G21G27G32G10G22G02G14G08G17G03
  20940958.580 8 110045448.738 8  85749697.747 7  20940959.379 7  20940957.463 7


  25271772.608 6 132803940.036 6 103483573.638 5  25271782.005 5  25271772.032 5
  25271782.012 6  99171710.889 6

  22610954.232 7 118821389.796 7  92588129.986 8  22610959.293 8  22610954.040 8
  22610958.213 7  88730289.287 7

  24790981.492 6 130277357.395 6 101514802.259 5  24790992.722 5  24790980.585 5
  24790992.098 7  97284975.375 7

  23771394.830 6 124919495.773 6  97339855.292 4  23771394.736 4  23771394.026 4


  20843459.571 8 109533105.206 8  85350448.121 7  20843457.920 7  20843458.579 7


  23103468.872 7 121409514.467 7  94604812.492 5  23103471.807 5  23103468.667 5
  23103474.839 7  90662956.314 7

  22281896.234 7 117092096.120 7  91240589.124 8  22281902.235 8  22281895.653 8
  22281900.718 8  87438870.133 8

  23894155.939 7 125564621.468 7  97842553.120 5  23894157.672 5  23894155.631 5


  21881756.666 7 114989430.847 7  89602184.788 8  21881762.120 8  21881756.635 8
  21881761.443 8  85868765.855 8

 23  9  2  8 37  0.0000000  0 10G21G27G32G10G22G02G14G08G17G03
  20946667.558 8 110075449.303 8  85773074.767 7  20946668.077 7  20946666.441 7


  25293741.212 6 132919384.592 6 103573530.260 5  25293750.859 5  25293740.658 5
  25293750.861 6  99257919.293 6

  22614464.264 7 118839835.928 7  92602503.546 8  22614469.308 8  22614464.068 8
  22614468.415 7  88744063.940 7

  24810170.216 6 130378193.857 6 101593375.859 5  24810181.583 5  24810169.264 5
  24810180.777 7  97360275.031 7

  23769121.954 7 124907554.266 7  97330550.212 4  23769122.628 4  23769121.159 4


  20844849.509 8 109540408.691 8  85356139.108 7  20844848.238 7  20844848.517 7


  23108576.090 7 121436352.113 7  94625724.869 5  23108577.919 5  23108575.894 5
  23108581.730 7  90682997.327 7

  22299547.846 7 117184856.940 7  91312870.149 8  22299554.413 8  22299547.261 8
  22299552.458 8  87508139.424 8

  23876365.285 6 125471133.877 6  97769705.621 5  23876367.374 5  23876364.959 5


  21865462.913 7 114903805.824 7  89535464.005 8  21865467.912 8  21865462.882 8
  21865467.298 8  85804825.115 8

 23  9  2  8 37 30.0000000  0 10G21G27G32G10G22G02G14G08G17G03
  20952426.431 8 110105712.020 8  85796656.057 7  20952426.810 7  20952425.309 7


  25315712.400 6 133034844.485 6 103663498.863 5  25315722.174 5  25315711.859 5
  25315721.860 6  99344139.166 6

  22618082.389 7 118858849.822 7  92617319.516 8  22618087.645 8  22618082.184 8
  22618086.673 7  88758262.565 7

  24829367.565 6 130479076.121 6 101671985.153 5  24829378.950 5  24829366.533 5
  24829378.373 7  97435608.879 7

  23766948.436 7 124896130.993 7  97321648.967 4  23766948.785 4  23766947.636 4


  20846296.916 8 109548014.010 8  85362065.291 7  20846295.637 7  20846295.924 7


  23113786.556 7 121463734.249 7  94647061.510 5  23113788.392 5  23113786.342 5
  23113792.588 7  90703444.925 7

  22317256.388 7 117277918.874 7  91385385.815 7  22317263.497 7  22317255.807 7
  22317261.538 8  87577633.569 8

  23858606.807 6 125377812.915 6  97696987.949 4  23858608.508 4  23858606.468 4


  21849233.636 7 114818520.825 7  89469008.185 8  21849238.727 8  21849233.601 8
  21849238.210 8  85741138.285 8

 23  9  2  8 38  0.0000000  0 10G21G27G32G10G22G02G14G08G17G03
  20958236.009 8 110136241.218 8  85820444.988 7  20958236.517 7  20958234.887 7


  25337686.964 5 133150322.586 5 103753481.632 5  25337697.015 5  25337686.441 5
  25337696.941 6  99430372.610 6

  22621809.686 7 118878435.500 7  92632581.030 8  22621814.885 8  22621809.494 8
  22621813.750 7  88772888.171 7

  24848574.523 6 130580006.812 6 101750632.191 5  24848585.684 5  24848573.468 5
  24848585.109 7  97510978.895 7

  23764873.865 7 124885230.860 7  97313155.352 4  23764874.446 4  23764873.065 4


  20847802.339 8 109555925.760 8  85368230.248 7  20847801.027 7  20847801.347 7


  23119101.848 7 121491664.041 7  94668824.904 5  23119103.959 5  23119101.616 5
  23119107.657 7  90724301.481 7

  22335023.870 7 117371285.298 7  91458138.742 7  22335030.845 7  22335023.280 7
  22335028.800 8  87647355.092 8

  23840881.985 7 125284665.450 7  97624405.460 5  23840883.464 5  23840881.614 5


  21833070.009 7 114733581.865 7  89402822.012 8  21833075.121 8  21833069.969 8
  21833074.788 8  85677709.870 8

 23  9  2  8 38 30.0000000  0 10G21G27G32G10G22G02G14G08G17G03
  20964095.269 8 110167032.137 8  85844437.858 7  20964095.924 7  20964094.143 7


  25359664.205 6 133265812.483 6 103843473.581 5  25359674.453 5  25359663.682 5
  25359674.198 6  99516614.885 6

  22625644.571 7 118898587.853 7  92648284.106 8  22625649.823 8  22625644.370 8
  22625648.684 7  88787936.942 7

  24867788.465 6 130680980.139 6 101829312.439 5  24867800.639 5  24867787.397 5
  24867799.969 7  97586380.752 7

  23762898.720 7 124874849.545 7  97305065.999 4  23762899.005 4  23762897.911 4


  20849365.558 8 109564139.819 8  85374630.772 7  20849363.920 7  20849364.566 7


  23124519.754 7 121520135.605 7  94691010.458 5  23124522.478 5  23124519.522 5
  23124525.839 7  90745562.612 7

  22352848.002 7 117464949.643 7  91531123.804 8  22352854.860 8  22352847.403 8
  22352852.875 8  87717299.084 8

  23823189.183 7 125191689.174 7  97551956.382 5  23823191.499 5  23823188.808 5


  21816971.900 7 114648985.831 7  89336903.050 8  21816976.780 8  21816971.860 8
  21816976.491 8  85614537.545 8

 23  9  2  8 39  0.0000000  0 10G21G27G32G10G22G02G14G08G17G03
  20970004.930 8 110198086.548 8  85868636.048 7  20970005.351 7  20970003.804 7


  25381643.457 5 133381314.336 5 103933474.860 5  25381653.473 5  25381642.957 5
  25381653.706 6  99602866.044 6

  22629587.562 7 118919308.269 7  92664429.823 8  22629593.005 8  22629587.366 8
  22629591.740 7  88803409.905 7

  24887012.245 6 130781996.628 6 101908026.336 5  24887023.759 5  24887011.190 5
  24887022.967 7  97661814.842 7

  23761022.439 7 124864989.291 7  97297382.646 4  23761023.146 4  23761021.639 4


  20850986.699 8 109572658.996 8  85381269.046 7  20850985.087 7  20850985.707 7


  23130040.774 7 121549149.447 7  94713618.564 5  23130043.326 5  23130040.560 5
  23130046.980 7  90767228.700 7

  22370728.729 7 117558911.741 7  91604340.879 8  22370735.378 8  22370728.135 8
  22370733.439 8  87787465.417 8

  23805529.318 6 125098888.302 6  97479643.999 5  23805532.632 5  23805528.929 5


  21800939.808 7 114564736.170 7  89271253.989 8  21800944.754 8  21800939.764 8
  21800944.384 8  85551623.857 8

 23  9  2  8 39 30.0000000  0 10G21G27G32G10G22G02G14G08G17G03
  20975964.337 8 110229403.995 8  85893039.197 7  20975964.924 7  20975963.206 7


  25403624.598 5 133496825.836 5 104023483.612 5  25403635.156 5  25403624.160 5
  25403635.315 6  99689124.448 6

  22633638.350 7 118940595.635 7  92681017.306 8  22633644.182 8  22633638.154 8
  22633642.749 7  88819306.232 7

  24906242.810 6 130883054.095 6 101986772.168 5  24906254.456 5  24906241.764 5
  24906253.792 7  97737279.542 7

  23759245.231 7 124855649.591 7  97290104.941 4  23759246.129 4  23759244.422 4


  20852665.973 8 109581482.876 8  85388144.748 7  20852664.593 7  20852664.981 7


  23135665.267 7 121578703.609 7  94736647.694 5  23135667.358 5  23135665.071 5
  23135671.010 7  90789298.260 7

  22388665.114 7 117653169.259 7  91677788.153 8  22388671.927 8  22388664.524 8
  22388670.219 8  87857852.357 8

  23787904.051 7 125006264.695 7  97407469.730 5  23787906.228 5  23787903.649 5


  21784973.687 7 114480833.728 7  89205875.496 8  21784978.547 8  21784973.643 8
  21784978.204 8  85488969.478 8

 23  9  2  8 40  0.0000000  0 10G21G27G32G10G22G02G14G08G17G03
  20981973.700 8 110260982.470 8  85917645.741 7  20981974.164 7  20981972.569 7


  25425606.689 5 133612343.251 5 104113497.028 5  25425617.189 5  25425606.341 5
  25425617.351 6  99775387.249 6

  22637797.032 7 118962447.390 7  92698044.584 8  22637802.491 8  22637796.836 8
  22637801.010 8  88835624.029 8

  24925481.093 6 130984149.108 6 102065547.265 5  24925492.371 5  24925480.034 5
  24925492.033 7  97812772.294 7

  23757566.525 7 124846828.440 7  97283231.298 4  23757567.869 4  23757565.707 4


  20854402.789 8 109590609.576 8  85395256.409 7  20854401.720 7  20854401.797 7


  23141391.292 7 121608794.585 7  94760095.118 5  23141394.130 5  23141391.087 5
  23141397.365 7  90811768.699 7

  22406657.238 7 117747717.940 7  91751462.307 8  22406663.875 8  22406656.653 8
  22406662.398 8  87928456.730 8

  23770312.340 7 124913818.459 7  97335433.634 5  23770313.485 5  23770311.947 5


  21769073.481 7 114397277.984 7  89140767.157 8  21769078.266 8  21769073.432 8
  21769077.996 8  85426573.992 8

 23  9  2  8 40 30.0000000  0 10G21G27G32G10G22G02G14G08G17G03
  20988033.302 8 110292826.058 8  85942458.858 7  20988033.700 7  20988032.171 7


  25447591.114 5 133727869.003 5 104203516.925 4  25447601.089 4  25447590.864 4
  25447601.386 6  99861656.309 6

  22642063.316 7 118984867.003 7  92715514.347 8  22642068.752 8  22642063.120 8
  22642067.254 7  88852365.869 7

  24944727.229 6 131085284.622 6 102144353.926 5  24944738.141 5  24944726.170 5
  24944737.505 7  97888295.291 7

  23755987.637 7 124838530.355 7  97276765.219 4  23755988.774 4  23755986.828 4


  20856198.199 8 109600043.984 8  85402607.842 7  20856197.133 7  20856197.202 7


  23147220.153 7 121639425.098 7  94783962.960 5  23147222.840 5  23147219.952 5
  23147226.389 8  90834642.036 8

  22424705.601 7 117842560.439 7  91825365.407 8  22424711.995 8  22424705.016 8
  22424710.570 8  87999280.502 8

  23752755.444 6 124821556.165 6  97263540.873 5  23752757.463 5  23752755.051 5


  21753240.461 7 114314074.495 7  89075933.310 8  21753245.285 8  21753240.408 8
  21753245.031 8  85364441.553 8

 23  9  2  8 41  0.0000000  0 10G21G27G32G10G22G02G14G08G17G03
  20994142.357 8 110324929.744 8  85967474.650 7  20994142.990 7  20994141.226 7


  25469575.159 5 133843396.311 5 104293538.005 4  25469585.127 4  25469574.985 4
  25469586.108 6  99947926.429 6

  22646436.499 7 119007848.863 7  92733422.216 8  22646441.942 8  22646436.307 8
  22646440.623 7  88869527.562 7

  24963978.399 6 131186454.085 6 102223187.022 5  24963990.225 5  24963977.367 5
  24963989.883 7  97963843.621 7

  23754506.866 7 124830750.353 7  97270702.838 4  23754507.767 4  23754506.071 4


  20858051.006 8 109609781.300 8  85410195.309 7  20858050.082 7  20858050.014 7


  23153150.620 7 121670588.639 7  94808246.155 5  23153152.393 5  23153150.424 5
  23153156.614 8  90857913.429 8

  22442808.193 7 117937689.206 7  91899491.563 8  22442814.524 8  22442807.612 8
  22442813.152 8  88070318.044 8

  23735232.838 6 124729475.014 6  97191789.261 5  23735235.526 5  23735232.458 5


  21737473.666 7 114231219.678 7  89011371.145 8  21737478.341 8  21737473.613 8
  21737478.102 8  85302569.488 8

 23  9  2  8 41 30.0000000  0 10G21G27G32G10G22G02G14G08G17G03
  21000302.447 8 110357300.328 8  85992698.417 7  21000303.265 7  21000301.316 7


  25491561.547 5 133958930.420 5 104383564.398 4  25491570.972 4  25491561.413 4
  25491572.076 6 100034201.716 6

  22650917.988 7 119031399.433 7  92751773.230 8  22650923.379 8  22650917.796 8
  22650922.263 7  88887113.933 7

  24983238.639 6 131287663.265 6 102302051.056 5  24983250.015 5  24983237.624 5
  24983249.602 7  98039421.611 7

  23753126.576 7 124823495.837 7  97265049.901 4  23753126.934 4  23753125.803 4


  20859963.073 8 109619829.122 8  85418024.727 7  20859962.290 7  20859962.081 7


  23159183.126 7 121702290.827 7  94832949.072 5  23159185.894 5  23159182.921 5
  23159189.625 8  90881587.044 8

  22460966.160 7 118033109.870 7  91973845.178 8  22460972.410 8  22460965.584 8
  22460971.194 8  88141573.558 8

  23717747.088 6 124637584.314 6  97120186.080 5  23717749.532 5  23717746.744 5


  21721774.756 7 114148722.110 7  88947087.359 8  21721779.589 8  21721774.703 8
  21721779.137 8  85240964.205 8

 23  9  2  8 42  0.0000000  0 10G21G27G32G10G22G02G14G08G17G03
  21006511.437 7 110389928.682 7  86018123.038 7  21006512.447 7  21006510.311 7


  25513544.773 5 134074460.409 5 104473587.629 4  25513555.357 4  25513544.662 4
  25513556.470 6 100120473.907 6

  22655505.928 7 119055508.676 7  92770559.570 8  22655511.244 8  22655505.736 8
  22655510.251 7  88905117.490 7

  25002503.513 6 131388901.456 6 102380937.728 5  25002515.159 5  25002502.548 5
  25002514.797 7  98115021.269 7

  23751844.875 7 124816757.539 7  97259799.194 4  23751844.755 4  23751844.093 4


  20861932.557 8 109630178.555 8  85426089.162 7  20861931.922 7  20861931.565 7


  23165316.584 7 121734520.808 7  94858063.255 5  23165318.433 5  23165316.374 5
  23165322.721 8  90905654.787 8

  22479177.601 7 118128810.627 7  92048417.057 7  22479183.555 7  22479177.034 7
  22479182.596 8  88213038.242 8

  23700295.763 6 124545876.772 6  97048725.576 5  23700297.438 5  23700295.464 5


  21706142.468 7 114066573.828 7  88883075.747 8  21706147.791 8  21706142.415 8
  21706147.075 8  85179619.746 8

 23  9  2  8 42 30.0000000  0  9G21G32G10G22G02G14G08G17G03
  21012770.386 7 110422819.328 7  86043752.043 7  21012771.236 7  21012769.264 7


  22660201.065 7 119080180.752 7  92789784.476 8  22660206.337 8  22660200.860 8
  22660205.313 7  88923541.345 7

  25021774.998 6 131490172.023 6 102459849.604 5  25021786.755 5  25021774.059 5
  25021786.189 7  98190645.097 7

  23750661.656 7 124810540.464 7  97254954.622 4  23750662.180 4  23750660.874 4


  20863960.344 8 109640834.595 8  85434392.516 7  20863959.750 7  20863959.356 7


  23171550.459 7 121767281.827 7  94883591.268 5  23171552.311 5  23171550.254 5
  23171556.672 7  90930119.113 7

  22497442.992 7 118224794.914 7  92123209.869 7  22497448.814 7  22497442.429 7
  22497447.955 8  88284714.650 8

  23682880.525 6 124454359.746 6  96977413.539 5  23682881.634 5  23682880.239 5


  21690577.844 7 113984781.067 7  88819341.156 8  21690583.343 8  21690577.791 8
  21690582.287 8  85118540.772 8

 23  9  2  8 43  0.0000000  0  9G21G32G10G22G02G14G08G17G03
  21019079.311 7 110455972.719 7  86069585.781 7  21019079.883 7  21019078.189 7


  22665003.404 7 119105415.496 7  92809447.828 8  22665008.382 8  22665003.212 8
  22665007.499 7  88942385.362 7

  25041052.606 6 131591474.163 6 102538786.087 5  25041064.270 5  25041051.694 5
  25041063.660 7  98266292.524 7

  23749577.731 7 124804845.017 7  97250516.527 4  23749579.102 4  23749576.949 4


  20866046.743 8 109651798.469 8  85442935.748 7  20866046.067 7  20866045.755 7


  23177886.075 7 121800572.935 7  94909532.312 5  23177888.982 5  23177885.883 5
  23177892.058 7  90954979.266 7

  22515762.064 7 118321061.227 7  92198222.439 7  22515767.697 7  22515761.506 7
  22515767.125 8  88356601.658 8

  23665502.044 6 124363036.032 6  96906252.158 5  23665503.646 5  23665501.767 5


  21675081.300 7 113903345.815 7  88755885.143 8  21675086.814 8  21675081.233 8
  21675085.651 8  85057728.758 8

 23  9  2  8 43 30.0000000  0  9G21G32G10G22G02G14G08G17G03
  21025438.030 7 110489388.214 7  86095623.762 6  21025438.643 6  21025436.908 6


  22669912.017 7 119131211.268 7  92829548.338 8  22669917.141 8  22669911.825 8
  22669916.448 8  88961648.323 8

  25060335.080 6 131692805.481 6 102617745.333 5  25060347.036 5  25060334.195 5
  25060346.695 7  98341961.762 7

  23748593.319 7 124799670.381 7  97246484.262 4  23748594.606 4  23748592.532 4


  20868191.613 8 109663069.577 8  85451718.379 7  20868190.908 7  20868190.621 7


  23184321.126 7 121834391.581 7  94935884.436 5  23184324.409 5  23184320.939 5
  23184327.650 8  90980233.361 8

  22534133.756 7 118417606.463 7  92273452.342 7  22534139.984 7  22534133.202 7
  22534139.161 8  88428696.944 8

  23648160.889 7 124271907.213 7  96835242.663 5  23648162.934 5  23648160.612 5


  21659652.691 7 113822268.528 7  88692708.062 8  21659658.106 8  21659652.615 8
  21659657.212 8  84997184.067 8

 23  9  2  8 44  0.0000000  0  9G21G32G10G22G02G14G08G17G03
  21031846.278 7 110523064.378 7  86121864.865 6  21031847.205 6  21031845.156 6


  22674927.198 7 119157566.485 7  92850084.770 8  22674932.510 8  22674927.011 8
  22674931.710 7  88981329.048 7

  25079623.074 6 131794163.887 6 102696725.679 6  25079635.128 6  25079622.203 6
  25079634.722 7  98417651.178 7

  23747707.397 7 124795015.610 7  97242857.102 4  23747708.356 4  23747706.624 4


  20870394.908 8 109674647.698 8  85460740.240 7  20870394.105 7  20870393.916 7


  23190856.808 7 121868735.325 7  94962645.711 5  23190858.360 5  23190856.603 5
  23190862.994 8  91005879.579 8

  22552558.465 7 118514427.344 7  92348897.031 7  22552564.439 7  22552557.907 7
  22552563.734 8  88500998.071 8

  23630857.061 7 124180974.690 7  96764386.141 5  23630858.908 5  23630856.771 5


  21644292.408 7 113741549.777 7  88629810.358 8  21644297.466 8  21644292.337 8
  21644296.768 8  84936907.111 8

 23  9  2  8 44 30.0000000  0  9G21G32G10G22G02G14G08G17G03
  21038304.287 7 110557001.051 7  86148308.959 6  21038305.294 6  21038303.165 6


  22680048.898 7 119184480.213 7  92871056.406 8  22680054.285 8  22680048.697 8
  22680053.250 8  89001426.835 8

  25098915.867 6 131895547.979 6 102775726.032 6  25098928.242 6  25098915.000 6
  25098927.619 7  98493359.798 7

  23746920.591 7 124790880.696 7  97239635.006 4  23746920.970 4  23746919.831 4


  20872656.570 8 109686532.707 8  85470001.232 7  20872655.585 7  20872655.582 7


  23197491.702 7 121903602.417 7  94989814.792 5  23197493.937 5  23197491.492 5
  23197498.081 8  91031916.595 8

  22571034.832 7 118611523.030 7  92424555.852 7  22571041.255 7  22571034.274 7
  22571040.619 8  88573504.403 8

  23613590.662 7 124090240.388 7  96693684.051 5  23613592.355 5  23613590.345 5


  21629000.536 7 113661190.781 7  88567192.980 8  21629005.188 8  21629000.460 8
  21629004.851 8  84876898.799 8

 23  9  2  8 45  0.0000000  0  9G21G32G10G22G02G14G08G17G03
  21044812.112 7 110591199.869 7  86174957.323 6  21044812.907 6  21044810.986 6


  22685276.893 7 119211952.930 7  92892463.614 8  22685282.367 8  22685276.701 8
  22685281.193 8  89021942.062 8

  25118213.659 6 131996957.665 6 102854746.338 6  25118226.239 6  25118212.792 6
  25118225.590 7  98569087.559 7

  23746232.796 7 124787267.075 7  97236819.108 4  23746233.214 4  23746232.041 4


  20874977.002 8 109698726.324 8  85479502.700 7  20874975.696 7  20874976.014 7


  23204226.283 7 121938992.441 7  95017391.352 5  23204228.376 5  23204226.087 5
  23204232.648 7  91058344.111 7

  22589563.556 7 118708891.886 7  92500427.531 7  22589570.229 7  22589562.989 7
  22589569.498 8  88646214.718 8

  23596362.535 6 123999708.372 6  96623139.616 5  23596364.829 5  23596362.187 5


  21613777.625 7 113581194.180 7  88504857.995 8  21613782.305 8  21613777.549 8
  21613782.120 8  84817161.111 8

 23  9  2  8 45 30.0000000  0  9G21G32G10G22G02G14G08G17G03
  21051369.390 7 110625659.177 7  86201808.663 6  21051370.127 6  21051368.264 6


  22690610.469 7 119239982.124 7  92914304.435 8  22690616.128 8  22690610.250 8
  22690615.090 7  89042872.821 7

  25137515.996 6 132098390.093 6 102933784.387 6  25137528.404 6  25137515.147 6
  25137527.734 7  98644832.314 7

  23745644.419 7 124784173.044 7  97234408.102 4  23745645.172 4  23745643.668 4


  20877355.862 8 109711227.331 8  85489243.689 7  20877354.525 7  20877354.874 7


  23211059.571 7 121974902.053 7  95045372.781 5  23211061.777 5  23211059.388 5
  23211066.032 7  91085159.631 7

  22608143.891 7 118806530.410 7  92576509.338 7  22608150.760 7  22608143.310 7
  22608149.635 8  88719126.419 8

  23579173.792 7 123909378.946 7  96552753.050 5  23579176.475 5  23579173.412 5


  21598623.929 7 113501559.636 7  88442805.130 8  21598628.182 8  21598623.853 8
  21598628.000 8  84757693.784 8

 23  9  2  8 46  0.0000000  0  9G21G32G10G22G02G14G08G17G03
  21057976.753 7 110660379.214 7  86228863.170 6  21057977.367 6  21057975.631 6


  22696050.724 7 119268567.954 7  92936579.006 8  22696056.040 8  22696050.523 8
  22696054.925 7  89064219.258 7

  25156822.628 6 132199844.775 6 103012839.800 6  25156834.647 6  25156821.792 6
  25156834.118 7  98720593.703 7

  23745154.369 7 124781599.352 7  97232402.564 4  23745156.006 4  23745153.618 4


  20879793.477 8 109724037.293 8  85499225.422 7  20879792.491 7  20879792.485 7


  23217992.027 7 122011330.572 7  95073758.539 5  23217995.660 5  23217991.849 5
  23217998.036 7  91112362.628 7

  22626775.167 7 118904437.266 7  92652800.218 7  22626782.036 7  22626774.586 7
  22626780.775 8  88792238.479 8

  23562024.195 7 123819255.433 7  96482526.934 5  23562026.917 5  23562023.806 5


  21583539.074 7 113422289.529 7  88381036.241 8  21583543.593 8  21583538.998 8
  21583543.402 8  84698498.598 8

 23  9  2  8 46 30.0000000  0  9G21G32G10G22G02G14G08G17G03
  21064633.093 8 110695357.536 8  86256118.940 7  21064633.712 7  21064631.967 7


  22701595.606 7 119297706.915 7  92959284.582 8  22701601.389 8  22701595.405 8
  22701599.888 7  89085978.738 7

  25176132.515 6 132301317.641 6 103091909.383 6  25176144.509 6  25176131.697 6
  25176143.896 7  98796368.669 7

  23744763.286 7 124779543.085 7  97230800.219 4  23744764.340 4  23744762.535 4


  20882289.735 8 109737153.731 8  85509445.970 7  20882288.790 7  20882288.747 7


  23225022.402 7 122048273.625 7  95102545.231 5  23225025.308 5  23225022.224 5
  23225028.261 7  91139949.855 7

  22645456.487 7 119002608.314 7  92729296.976 7  22645463.591 7  22645455.893 7
  22645462.215 8  88865547.841 8

  23544913.067 6 123729337.255 6  96412460.816 5  23544915.024 5  23544912.683 5


  21568523.715 7 113343382.500 7  88319550.277 8  21568528.252 8  21568523.639 8
  21568527.934 8  84639574.554 8

 23  9  2  8 47  0.0000000  0 10G21G32G19G10G22G02G14G08G17G03
  21071339.228 8 110730599.177 8  86283579.893 7  21071339.754 7  21071338.102 7


  22707246.390 7 119327403.262 7  92982424.487 8  22707252.617 8  22707246.189 8
  22707250.918 7  89108154.464 7

  25569405.883 5 134368137.403 5


  25195446.588 6 132402812.491 6 103170996.101 6  25195458.571 6  25195445.761 6
  25195457.922 7  98872160.085 7

  23744471.433 7 124778009.605 7  97229605.248 4  23744471.349 4  23744470.687 4


  20884844.964 8 109750582.139 8  85519909.614 7  20884844.267 7  20884843.972 7


  23232150.914 7 122085734.673 7  95131735.561 5  23232152.777 5  23232150.736 5
  23232157.188 7  91167923.881 7

  22664189.131 7 119101046.823 7  92806002.148 7  22664196.083 7  22664188.532 7
  22664194.622 8  88939056.928 8

  23527843.275 6 123639631.548 6  96342560.264 4  23527844.118 4  23527842.913 4


  21553578.396 7 113264845.065 7  88258352.291 8  21553582.941 8  21553578.312 8
  21553582.665 8  84580926.493 8

 23  9  2  8 47 30.0000000  0  9G21G32G10G22G02G14G08G17G03
  21078094.746 8 110766098.204 8  86311241.403 6  21078094.827 6  21078093.615 6


  22713002.469 7 119357649.891 7  93005993.178 8  22713008.343 8  22713002.282 8
  22713006.708 7  89130741.106 7

  25214762.894 6 132504322.109 6 103250094.349 6  25214775.279 6  25214762.090 6
  25214774.715 7  98947962.539 7

  23744277.912 7 124776992.287 7  97228812.477 4  23744276.730 4  23744277.184 4


  20887458.691 8 109764316.837 8  85530611.928 7  20887457.995 7  20887457.699 7


  23239376.489 7 122123705.684 7  95161323.258 5  23239379.511 5  23239376.311 5
  23239382.708 7  91196278.744 7

  22682970.399 7 119199744.035 7  92882908.897 7  22682977.839 7  22682969.796 7
  22682976.329 8  89012759.190 8

  23510813.014 6 123550135.658 6  96272823.230 5  23510813.520 5  23510812.657 5


  21538703.012 7 113186672.308 7  88197438.471 8  21538707.428 8  21538702.928 8
  21538706.969 8  84522550.760 8

 23  9  2  8 48  0.0000000  0  9G21G32G10G22G02G14G08G17G03
  21084899.863 8 110801858.902 8  86339106.814 7  21084900.295 7  21084898.732 7


  22718863.813 7 119388450.509 7  93029993.542 8  22718869.414 8  22718863.648 8
  22718868.178 7  89153741.430 7

  25234083.364 6 132605849.872 6 103329206.749 6  25234095.613 6  25234082.573 6
  25234094.884 7  99023778.561 7

  23744183.358 7 124776495.606 7  97228425.430 4  23744183.575 4  23744182.652 4


  20890131.448 8 109778362.971 8  85541556.920 7  20890131.101 7  20890130.456 7


  23246699.407 7 122162189.594 7  95191310.613 5  23246702.308 5  23246699.224 5
  23246706.198 7  91225016.604 7

  22701802.012 7 119298702.642 7  92960019.334 7  22701809.170 7  22701801.400 7
  22701807.665 8  89086656.654 8

  23493823.802 7 123460855.852 7  96203254.551 5  23493824.927 5  23493823.449 5


  21523897.353 7 113108870.202 7  88136813.476 8  21523902.525 8  21523897.269 8
  21523901.759 8  84464451.803 8

 23  9  2  8 48 30.0000000  0  8G21G32G22G02G14G08G17G03
  21091754.163 8 110837877.776 8  86367173.403 7  21091754.850 7  21091753.032 7


  22724829.231 7 119419800.771 7  93054422.204 8  22724835.151 8  22724829.062 8
  22724834.168 7  89177152.209 7

  23744187.130 7 124776516.381 7  97228441.622 5  23744189.174 5  23744186.433 5


  20892863.303 8 109792717.155 8  85552741.952 7  20892862.748 7  20892862.311 7


  23254120.104 7 122201181.167 7  95221693.555 5  23254121.212 5  23254119.917 5
  23254126.169 7  91254133.560 7

  22720681.853 7 119397917.004 7  93037329.049 7  22720689.156 7  22720681.254 7
  22720687.621 8  89160745.114 8

  23476874.502 6 123371790.946 6  96133853.326 5  23476876.493 5  23476874.158 5


  21509162.479 7 113031436.641 7  88076475.655 8  21509167.276 8  21509162.395 8
  21509166.680 8  84406628.066 8

 23  9  2  8 49  0.0000000  0  8G21G32G22G02G14G08G17G03
  21098657.503 8 110874155.794 8  86395441.920 7  21098658.141 7  21098656.377 7


  22730899.960 7 119451700.949 7  93079279.381 8  22730905.652 8  22730899.795 8
  22730904.764 7  89200973.639 7

  23744289.605 7 124777055.302 7  97228861.581 5  23744292.731 5  23744288.917 5


  20895653.625 8 109807381.203 8  85564168.439 7  20895653.004 7  20895652.628 7


  23261636.886 7 122240679.836 7  95252471.631 5  23261638.965 5  23261636.694 5
  23261642.464 7  91283629.217 7

  22739610.515 7 119497386.885 7  93114837.883 7  22739617.663 7  22739609.912 7
  22739616.258 8  89235024.382 8

  23459967.586 6 123282944.592 6  96064622.411 5  23459968.950 5  23459967.224 5


  21494497.726 7 112954374.148 7  88016426.985 8  21494502.730 8  21494497.642 8
  21494502.052 8  84349081.423 8

 23  9  2  8 49 30.0000000  0  8G21G32G22G02G14G08G17G03
  21105610.494 8 110910694.218 8  86423913.355 7  21105610.839 7  21105609.381 7


  22737074.950 7 119484151.292 7  93104565.259 8  22737080.892 8  22737074.803 8
  22737079.917 7  89225205.918 7

  23744490.753 7 124778113.428 7  97229686.108 5  23744493.824 5  23744490.074 5


  20898503.437 8 109822356.803 8  85575837.690 7  20898502.401 7  20898502.440 7


  23269248.959 7 122280685.014 7  95283644.405 5  23269251.243 5  23269248.749 5
  23269255.495 7  91313503.099 7

  22758587.690 7 119597111.410 7  93192545.127 7  22758594.401 7  22758587.091 7
  22758593.449 8  89309493.783 8

  23443103.322 7 123194320.342 7  95995564.526 5  23443103.870 5  23443102.942 5


  21479904.262 7 112877685.200 7  87956669.385 8  21479908.903 8  21479904.178 8
  21479908.516 8  84291813.727 8

 23  9  2  8 50  0.0000000  0  8G21G32G22G02G14G08G17G03
  21112612.650 8 110947490.296 8  86452585.556 7  21112612.942 7  21112611.542 7


  22743354.038 7 119517148.103 7  93130276.961 8  22743360.216 8  22743353.886 8
  22743359.148 7  89249846.273 7

  23744790.722 7 124779687.996 7  97230913.041 5  23744792.961 5  23744790.038 5


  20901412.048 8 109837641.386 8  85587747.709 7  20901410.991 7  20901411.051 7


  23276957.333 7 122321192.218 7  95315208.373 5  23276958.848 5  23276957.150 5
  23276963.877 7  91343751.865 7

  22777612.034 7 119697085.449 7  93270446.818 7  22777618.870 7  22777611.431 7
  22777617.874 8  89384149.536 8

  23426280.412 7 123105917.539 7  95926679.198 5  23426281.446 5  23426280.015 5


  21465381.606 7 112801368.453 7  87897201.819 8  21465385.953 8  21465381.522 8
  21465385.971 8  84234823.980 8

 23  9  2  8 50 30.0000000  0  8G21G32G22G02G14G08G17G03
  21119664.393 8 110984545.940 8  86481460.016 6  21119664.650 6  21119663.280 6


  22749737.637 7 119550692.000 7  93156414.962 8  22749743.579 8  22749737.485 8
  22749742.509 7  89274895.168 7

  23745189.183 7 124781780.265 7  97232543.366 5  23745190.514 5  23745188.495 5


  20904379.806 8 109853237.153 8  85599900.209 7  20904378.984 7  20904378.814 7


  23284760.829 7 122362201.119 7  95347163.289 5  23284764.466 5  23284760.651 5
  23284767.562 7  91374375.320 7

  22796684.683 7 119797308.580 7  93348542.589 7  22796690.950 7  22796684.089 7
  22796689.750 7  89458991.277 7

  23409500.590 7 123017740.427 7  95857969.751 5  23409502.587 5  23409500.166 5


  21450930.301 7 112725426.789 7  87838026.518 8  21450934.860 8  21450930.217 8
  21450934.655 8  84178114.317 8

 23  9  2  8 51  0.0000000  0  8G21G32G22G02G14G08G17G03
  21126765.033 8 111021859.552 8  86510535.492 6  21126765.185 6  21126763.911 6


  22756224.720 7 119584780.585 7  93182977.409 8  22756230.372 8  22756224.564 8
  22756229.333 7  89300350.833 7

  23745685.378 7 124784388.273 7  97234575.551 5  23745686.405 5  23745684.685 5


  20907406.513 8 109869143.197 8  85612294.481 7  20907405.847 7  20907405.516 7


  23292659.764 6 122403708.542 6  95379506.649 5  23292662.724 5  23292659.581 5
  23292666.447 7  91405371.027 7

  22815803.206 7 119897778.161 7  93426830.405 7  22815810.101 7  22815802.612 7
  22815808.659 7  89534017.067 7

  23392764.770 7 122929790.292 7  95789437.161 5  23392766.156 5  23392764.332 5


  21436550.750 7 112649860.074 7  87779143.391 8  21436555.233 8  21436550.666 8
  21436554.855 8  84121684.658 8

 23  9  2  8 51 30.0000000  0  8G21G32G22G02G14G08G17G03
  21133914.596 8 111059432.531 8  86539813.069 6  21133914.938 6  21133913.452 6


  22762815.157 7 119619414.152 7  93209964.523 8  22762820.821 8  22762814.992 8
  22762819.901 7  89326213.461 7

  23746279.899 7 124787513.831 7  97237011.024 5  23746281.448 5  23746279.202 5


  20910492.990 8 109885361.323 8  85624931.933 7  20910491.918 7  20910491.998 7


  23300652.977 7 122445713.887 7  95412238.011 5  23300655.752 5  23300652.785 5
  23300660.014 7  91436738.548 7

  22834968.514 7 119998492.634 7  93505309.031 7  22834975.388 7  22834967.938 7
  22834974.410 8  89609225.725 8

  23376072.869 7 122842070.799 7  95721084.269 5  23376073.246 5  23376072.427 5


  21422242.505 7 112574670.916 7  87720554.465 8  21422247.465 8  21422242.421 8
  21422246.813 8  84065536.949 8

 23  9  2  8 52  0.0000000  0  8G21G32G22G02G14G08G17G03
  21141113.607 8 111097263.309 8  86569291.528 6  21141114.140 6  21141112.467 6


  22769508.976 7 119654590.681 7  93237374.724 8  22769514.619 8  22769508.811 8
  22769513.827 7  89352481.554 7

  23746972.872 7 124791155.231 7  97239848.446 5  23746974.899 5  23746972.184 5


  20913638.409 8 109901890.439 8  85637811.716 7  20913637.433 7  20913637.417 7


  23308740.938 6 122488214.298 6  95445355.117 5  23308744.649 5  23308740.724 5
  23308747.227 7  91468475.767 7

  22854179.813 6 120099449.819 6  93583976.797 7  22854186.910 7  22854179.228 7
  22854186.102 8  89684615.626 8

  23359424.084 7 122754583.213 7  95652912.092 5  23359424.903 5  23359423.669 5


  21408006.352 7 112499859.630 7  87662259.980 8  21408011.334 8  21408006.250 8
  21408010.653 8  84009671.408 8

 23  9  2  8 52 30.0000000  0  8G21G32G22G02G14G08G17G03
  21148361.645 8 111135352.079 8  86598971.020 6  21148362.698 6  21148360.505 6


  22776306.062 7 119690309.395 7  93265207.408 8  22776311.755 8  22776305.906 8
  22776311.021 7  89379154.519 7

  23747764.325 7 124795312.449 7  97243087.792 5  23747766.331 5  23747763.628 5


  20916843.206 8 109918731.494 8  85650934.571 7  20916842.422 7  20916842.209 7


  23316921.978 7 122531208.204 7  95478856.777 5  23316925.096 5  23316921.759 5
  23316928.975 7  91500581.500 7

  22873436.881 6 120200647.126 6  93662831.653 7  22873444.201 7  22873436.291 7
  22873443.515 8  89760184.833 8

  23342820.533 6 122667330.100 6  95584922.610 5  23342821.730 5  23342820.162 5


  21393842.243 7 112425427.818 7  87604261.208 8  21393847.757 8  21393842.136 8
  21393846.731 8  83954089.261 8

 23  9  2  8 53  0.0000000  0  8G21G32G22G02G14G08G17G03
  21155659.203 8 111173699.508 8  86628852.060 7  21155660.216 7  21155658.059 7


  22783206.303 7 119726569.469 7  93293461.925 8  22783212.064 8  22783206.151 8
  22783211.181 7  89406231.749 7

  23748653.648 6 124799985.455 6  97246729.036 5  23748655.235 5  23748652.960 5


  20920107.427 8 109935885.237 8  85664301.076 7  20920106.710 7  20920106.430 7


  23325197.615 7 122574693.946 7  95512741.687 5  23325200.239 5  23325197.419 5
  23325204.255 7  91533054.508 7

  22892739.985 6 120302083.396 6  93741872.727 7  22892746.987 7  22892739.404 7
  22892746.456 8  89835932.474 8

  23326261.754 7 122580314.020 7  95517117.839 5  23326263.479 5  23326261.388 5


  21379750.933 7 112351376.986 7  87546559.301 8  21379756.371 8  21379750.831 8
  21379755.233 8  83898791.604 8

 23  9  2  8 53 30.0000000  0  8G21G32G22G02G14G08G17G03
  21163005.194 8 111212302.759 8  86658932.446 7  21163006.169 7  21163004.050 7


  22790208.631 7 119763367.136 7  93322135.343 8  22790214.701 8  22790208.453 8
  22790213.689 7  89433710.420 7

  23749640.490 7 124805171.325 7  97250769.913 5  23749641.611 5  23749639.811 5


  20923430.630 8 109953349.506 8  85677909.550 7  20923429.871 7  20923429.633 7


  23333565.146 7 122618666.882 7  95547006.222 5  23333569.173 5  23333564.945 5
  23333571.878 7  91565891.359 7

  22912087.058 6 120403753.629 6  93821096.107 7  22912094.242 7  22912086.473 7
  22912093.846 8  89911854.841 8

  23309748.040 7 122493535.083 7  95449497.863 5  23309750.530 5  23309747.683 5


  21365731.894 8 112277705.638 8  87489153.086 8  21365737.048 8  21365731.787 8
  21365736.078 8  83843777.322 8

 23  9  2  8 54  0.0000000  0  8G21G32G22G02G14G08G17G03
  21170400.504 8 111251165.168 8  86689214.772 7  21170401.551 7  21170399.364 7


  22797313.744 7 119800704.485 7  93351229.289 8  22797319.745 8  22797313.566 8
  22797318.852 8  89461592.107 8

  23750725.297 7 124810872.977 7  97255212.690 4  23750726.366 4  23750724.622 4


  20926813.869 8 109971127.668 8  85691762.615 7  20926813.061 7  20926812.868 7


  23342026.486 6 122663128.320 6  95581651.405 5  23342028.124 5  23342026.285 5
  23342032.665 7  91599092.967 7

  22931479.268 6 120505659.049 6  93900502.743 7  22931486.651 7  22931478.701 7
  22931485.786 7  89987952.831 7

  23293280.313 7 122406998.594 7  95382066.820 5  23293282.934 5  23293279.956 5


  21351785.387 8 112204418.301 8  87432046.100 8  21351790.795 8  21351785.280 8
  21351789.768 8  83789049.807 8

 23  9  2  8 54 30.0000000  0  8G21G32G22G02G14G08G17G03
  21177844.133 8 111290281.899 8  86719695.278 7  21177845.527 7  21177843.007 7


  22804520.585 7 119838575.795 7  93380739.316 8  22804526.462 8  22804520.407 8
  22804525.669 7  89489872.523 7

  23751907.646 7 124817085.102 7  97260053.248 4  23751908.718 4  23751906.976 4


  20930255.962 8 109989215.504 8  85705856.995 7  20930255.457 7  20930254.961 7


  23350578.738 7 122708071.650 7  95616672.079 5  23350580.859 5  23350578.519 5
  23350585.416 7  91632654.428 7

  22950914.962 7 120607792.830 7  93980087.332 7  22950922.556 7  22950914.399 7
  22950921.482 7  90064221.369 7

  23276858.226 7 122320702.478 7  95314823.068 5  23276860.888 5  23276857.860 5


  21337912.061 7 112131511.592 7  87375235.713 8  21337916.701 8  21337911.954 8
  21337916.010 8  83734606.532 8

 23  9  2  8 55  0.0000000  0  8G21G32G22G02G14G08G17G03
  21185337.607 8 111329658.971 8  86750378.637 7  21185338.653 7  21185336.485 7


  22811829.806 7 119876985.676 7  93410669.008 8  22811835.737 8  22811829.623 8
  22811834.875 8  89518555.132 8

  23753187.795 6 124823813.476 6  97265296.085 4  23753189.744 4  23753187.116 4


  20933758.211 8 110007619.288 8  85720197.560 7  20933757.627 7  20933757.214 7


  23359223.297 7 122753500.626 7  95652071.184 5  23359226.748 5  23359223.087 5
  23359230.184 7  91666578.560 7

  22970394.949 7 120710159.108 7  94059853.083 7  22970402.271 7  22970394.386 7
  22970401.362 8  90140663.494 8

  23260484.275 7 122234654.764 7  95247772.845 5  23260485.912 5  23260483.886 5


  21324111.979 7 112058992.497 7  87318727.365 8  21324116.427 8  21324111.872 8
  21324116.253 8  83680452.715 8

 23  9  2  8 55 30.0000000  0  8G21G32G22G02G14G08G17G03
  21192879.862 8 111369293.378 8  86781262.509 6  21192880.172 6  21192878.745 6


  22819240.785 7 119915930.049 7  93441015.192 8  22819246.770 8  22819240.598 8
  22819245.857 8  89547636.868 8

  23754566.179 7 124831054.557 7  97270938.432 4  23754567.671 4  23754565.486 4


  20937320.081 8 110026336.563 8  85734782.409 7  20937319.101 7  20937319.084 7


  23367960.203 7 122799410.392 7  95687844.939 5  23367962.264 5  23367960.007 5
  23367966.812 7  91700861.706 7

  22989918.363 7 120812752.672 7  94139795.958 7  22989925.095 7  22989917.800 7
  22989924.446 7  90217275.379 7

  23244157.719 7 122148855.198 7  95180916.004 5  23244159.317 5  23244157.313 5


  21310385.689 7 111986859.339 7  87262519.752 8  21310389.788 8  21310385.582 8
  21310389.637 8  83626587.093 8

 23  9  2  8 56  0.0000000  0  8G21G32G22G02G14G08G17G03
  21200470.026 8 111409181.037 8  86812343.726 6  21200470.111 6  21200468.904 6


  22826752.260 7 119955404.146 7  93471774.151 8  22826758.644 8  22826752.068 8
  22826757.650 8  89577114.187 8

  23756040.427 7 124838804.260 7  97276977.105 4  23756041.305 4  23756039.717 4


  20940940.882 8 110045364.143 8  85749609.049 7  20940939.777 7  20940939.885 7


  23376786.440 7 122845795.337 7  95723988.974 5  23376790.880 5  23376786.244 5
  23376793.706 7  91735499.716 7

  23009483.484 7 120915568.008 7  94219911.636 7  23009490.477 7  23009482.921 7
  23009489.654 7  90294052.862 7

  23227877.658 7 122063302.333 7  95114251.418 5  23227879.581 5  23227877.261 5


  21296732.029 8 111915109.765 8  87206611.046 8  21296736.351 8  21296731.927 8
  21296736.207 8  83573007.925 8

 23  9  2  8 56 30.0000000  0  8G21G32G22G02G14G08G17G03
  21208109.544 8 111449326.829 8  86843626.079 6  21208109.970 6  21208108.427 6


  22834365.591 7 119995411.342 7  93502948.511 8  22834372.030 8  22834365.422 8
  22834370.870 8  89606989.597 8

  23757612.679 7 124847067.005 7  97283415.558 4  23757613.336 4  23757611.960 4


  20944621.747 8 110064706.954 8  85764681.329 7  20944620.634 7  20944620.750 7


  23385705.194 6 122892658.015 6  95760505.260 5  23385708.583 5  23385704.998 5
  23385711.145 7  91770494.471 7

  23029091.513 7 121018607.868 7  94300202.263 7  23029098.726 7  23029090.955 7
  23029097.680 7  90370998.013 7

  23211645.826 7 121978003.377 7  95047784.692 5  23211647.532 5  23211645.442 5


  21283152.604 8 111843749.495 8  87151005.686 8  21283156.743 8  21283152.502 8
  21283156.829 8  83519719.462 8

 23  9  2  8 57  0.0000000  0  8G21G32G22G02G14G08G17G03
  21215797.753 8 111489727.772 8  86875107.267 7  21215798.458 7  21215796.631 7


  22842079.350 7 120035947.363 7  93534534.942 8  22842085.831 8  22842079.185 8
  22842084.636 8  89637259.910 8

  23759282.270 7 124855839.169 7  97290250.972 4  23759283.022 4  23759281.528 4


  20948362.164 8 110084362.580 8  85779997.361 7  20948360.915 7  20948361.172 7


  23394712.460 7 122939993.335 7  95797389.864 5  23394714.805 5  23394712.250 5
  23394719.059 7  91805842.189 7

  23048741.156 7 121121867.149 7  94380663.867 7  23048748.651 7  23048740.602 7
  23048747.439 7  90448107.033 7

  23195462.395 7 121892957.752 7  94981515.353 5  23195462.852 5  23195462.002 5


  21269646.809 7 111772776.664 7  87095702.216 8  21269650.940 8  21269646.707 8
  21269651.012 8  83466720.318 8

 23  9  2  8 57 30.0000000  0  8G21G32G22G02G14G08G17G03
  21223534.646 8 111530385.547 8  86906788.580 7  21223535.494 7  21223533.524 7


  22849893.930 7 120077012.906 7  93566533.998 8  22849900.351 8  22849893.761 8
  22849899.318 8  89667925.656 8

  23761048.418 7 124865121.818 7  97297484.171 4  23761049.935 4  23761047.685 4


  20952162.313 8 110104332.871 8  85795558.582 7  20952161.169 7  20952161.321 7


  23403810.605 6 122987801.112 6  95834642.591 5  23403814.078 5  23403810.377 5
  23403816.792 7  91841542.726 7

  23068432.158 7 121225345.043 7  94461295.819 7  23068439.876 7  23068431.608 7
  23068438.754 7  90525379.292 7

  23179327.532 7 121808169.538 7  94915446.627 5  23179328.523 5  23179327.135 5


  21256215.361 8 111702194.413 8  87040703.108 8  21256220.336 8  21256215.254 8
  21256219.448 8  83414012.838 8

 23  9  2  8 58  0.0000000  0  8G21G32G22G02G14G08G17G03
  21231320.097 8 111571297.943 8  86938668.294 7  21231321.073 7  21231318.971 7


  22857808.581 7 120118604.509 7  93598942.976 8  22857815.132 8  22857808.421 8
  22857813.933 8  89698984.245 8

  23762911.536 7 124874912.559 7  97305113.297 4  23762912.879 4  23762910.803 4


  20956022.084 8 110124616.143 8  85811363.684 7  20956021.248 7  20956021.092 7


  23412995.971 7 123036077.113 7  95872260.175 5  23413000.064 5  23412995.743 5
  23413003.234 7  91877592.893 7

  23088164.541 7 121329037.729 7  94542095.145 7  23088171.980 7  23088163.983 7
  23088170.784 7  90602811.950 7

  23163241.829 7 121723639.000 7  94849578.685 5  23163243.640 5  23163241.445 5


  21242858.126 8 111632001.735 8  86986007.565 8  21242862.864 8  21242858.019 8
  21242862.191 8  83361596.286 8

 23  9  2  8 58 30.0000000  0  9G21G19G32G22G02G14G08G17G03
  21239154.660 8 111612467.861 8  86970748.677 7  21239155.773 7  21239153.543 7


  25062397.205 5 131703793.268 5 102626327.863 2  25062396.595 2  25062396.812 2


  22865823.863 7 120160724.185 7  93631763.441 8  22865830.281 8  22865823.703 8
  22865829.089 8  89730437.176 8

  23764872.465 6 124885214.289 6  97313140.590 4  23764873.154 4  23764871.705 4


  20959942.312 8 110145216.178 8  85827415.610 7  20959941.345 7  20959941.320 7


  23422272.264 6 123084822.499 6  95910243.525 5  23422275.642 5  23422272.068 5
  23422279.615 7  91913993.562 7

  23107937.737 6 121432946.675 6  94623062.979 7  23107945.186 7  23107937.174 7
  23107944.041 7  90680406.090 7

  23147206.109 7 121639372.114 7  94783916.188 5  23147208.584 5  23147205.734 5


  21229575.799 8 111562203.049 8  86931619.016 8  21229580.196 8  21229575.692 8
  21229580.108 8  83309473.938 8

 23  9  2  8 59  0.0000000  0  9G21G19G32G22G02G14G08G17G03
  21247037.542 8 111653893.347 8  87003028.207 7  21247038.744 7  21247036.420 7


  25040507.569 6 131588763.355 6 102536694.043 3  25040507.346 3  25040506.850 3


  22873938.784 7 120203368.192 7  93664992.474 8  22873945.275 8  22873938.615 8
  22873944.057 8  89762281.645 8

  23766929.540 6 124896023.966 6  97321563.676 4  23766930.068 4  23766928.762 4


  20963922.313 8 110166130.808 8  85843712.672 7  20963921.003 7  20963921.321 7


  23431636.282 7 123134032.707 7  95948589.055 5  23431640.470 5  23431636.095 5
  23431644.021 7  91950741.352 7

  23127751.299 6 121537067.349 6  94704195.795 7  23127758.923 7  23127750.732 7
  23127757.359 7  90758158.347 7

  23131220.855 7 121555368.771 7  94718459.029 5  23131222.863 5  23131220.475 5


  21216368.517 8 111492797.078 8  86877536.490 8  21216373.257 8  21216368.410 8
  21216372.571 8  83257644.859 8

 23  9  2  8 59 30.0000000  0  9G21G19G32G22G02G14G08G17G03
  21254968.890 8 111695572.988 8  87035505.772 7  21254970.020 7  21254967.773 7


  25018635.077 6 131473819.191 6 102447126.979 3  25018634.212 3  25018634.290 3


  22882153.383 7 120246534.080 7  93698628.161 8  22882159.467 8  22882153.214 8
  22882158.253 7  89794515.830 7

  23769082.910 7 124907339.698 7  97330381.079 4  23769083.908 4  23769082.141 4


  20967961.967 8 110187359.355 8  85860254.350 7  20967960.827 7  20967960.975 7


  23441089.529 6 123183704.438 6  95987294.235 5  23441091.697 5  23441089.351 5
  23441096.147 7  91987833.800 7

  23147604.494 6 121641396.267 6  94785490.870 7  23147612.232 7  23147603.918 7
  23147610.718 7  90836066.115 7

  23115286.040 7 121471630.115 7  94653208.143 5  23115287.992 5  23115285.651 5


  21203235.492 8 111423783.820 8  86823759.978 8  21203240.196 8  21203235.385 8
  21203239.682 8  83206109.045 8

                            4  1
RINEX FILE SPLICE; other post-header comments skipped       COMMENT
 23  9  2  9  0  0.0000000  0  9G21G19G32G22G02G14G08G17G03
  21262948.813 8 111737507.184 8  87068181.698 7  21262950.014 7  21262947.687 7


  24996779.199 5 131358964.723 5 102357629.815 3  24996778.740 3  24996778.377 3


  22890466.762 7 120290221.165 7  93732669.979 8  22890472.628 8  22890466.593 8
  22890471.670 7  89827139.225 7

  23771332.040 7 124919161.419 7  97339592.761 4  23771332.962 4  23771331.253 4


  20972061.563 8 110208902.795 8  85877041.392 7  20972060.869 7  20972060.575 7


  23450628.683 7 123233836.222 7  96026357.891 5  23450632.545 5  23450628.469 5
  23450636.225 7  92025269.783 7

  23167497.009 6 121745932.138 6  94866947.206 7  23167504.717 7  23167496.424 7
  23167503.658 7  90914128.418 7

  23099401.864 7 121388159.138 7  94588165.835 5  23099404.088 5  23099401.475 5


  21190177.835 8 111355165.047 8  86770290.846 8  21190181.615 8  21190177.724 8
  21190181.974 8  83154867.810 8

 23  9  2  9  0 30.0000000  0  9G21G19G32G22G02G14G08G17G03
  21270977.069 8 111779695.074 8  87101055.299 7  21270978.428 7  21270975.947 7


  24974941.306 6 131244201.534 6 102268203.751 3  24974940.221 3  24974940.457 3


  22898878.856 7 120334427.309 7  93767116.263 8  22898884.935 8  22898878.687 8
  22898883.818 7  89860150.233 7

  23773678.031 7 124931487.674 7  97349197.591 4  23773678.568 4  23773677.236 4


  20976221.165 8 110230760.745 8  85894073.508 7  20976220.626 7  20976220.173 7


  23460256.024 6 123284425.123 6  96065777.728 5  23460260.410 5  23460255.823 5
  23460262.947 7  92063047.122 7

  23187428.574 6 121850672.104 6  94948562.592 6  23187435.753 6  23187428.002 6
  23187435.439 7  90992343.133 7

  23083569.185 7 121304957.799 7  94523333.646 5  23083571.014 5  23083568.805 5


  21177195.149 8 111286941.096 8  86717129.373 8  21177199.172 8  21177195.042 8
  21177198.963 8  83103921.411 8

 23  9  2  9  1  0.0000000  0  9G21G19G32G22G02G14G08G17G03
  21279054.214 8 111822139.951 8  87134129.152 7  21279055.465 7  21279053.092 7


  24953120.984 6 131129535.146 6 102178853.103 3  24953119.942 3  24953120.099 3


  22907389.944 7 120379154.094 7  93801968.240 8  22907396.292 8  22907389.775 8
  22907395.088 7  89893550.030 7

  23776120.348 6 124944320.985 6  97359197.521 4  23776121.118 4  23776119.561 4


  20980441.058 8 110252936.435 8  85911353.213 7  20980440.467 7  20980440.066 7


  23469969.367 7 123335471.827 7  96105554.295 5  23469973.178 5  23469969.162 5
  23469976.668 7  92101166.315 7

  23207399.362 7 121955617.190 7  95030337.817 6  23207406.040 6  23207398.790 6
  23207406.288 7  91070711.006 7

  23067789.617 6 121222031.362 6  94458715.681 5  23067790.910 5  23067789.233 5


  21164288.363 8 111219116.004 8  86664278.704 8  21164292.845 8  21164288.256 8
  21164292.210 8  83053272.857 8

 23  9  2  9  1 30.0000000  0  9G21G19G32G22G02G14G08G17G03
  21287179.144 8 111864836.885 8  87167399.421 7  21287180.347 7  21287178.022 7


  24931318.355 6 131014963.636 6 102089576.409 3  24931317.940 3  24931317.461 3


  22915999.136 7 120424395.379 7  93837221.130 8  22916005.324 8  22915998.949 8
  22916004.309 7  89927334.036 7

  23778658.011 6 124957655.942 6  97369588.338 4  23778659.214 4  23778657.224 4


  20984720.509 8 110275425.515 8  85928877.114 7  20984719.913 7  20984719.526 7


  23479769.325 6 123386969.402 6  96145682.193 5  23479772.898 5  23479769.147 5
  23479776.414 7  92139622.204 7

  23227407.605 7 122060759.934 7  95112267.082 7  23227414.064 7  23227407.038 7
  23227414.451 7  91149226.499 7

  23052060.964 7 121139377.400 7  94394310.017 5  23052061.990 5  23052060.602 5


  21151457.146 8 111151686.127 8  86611735.992 8  21151461.008 8  21151457.035 8
  21151460.829 8  83002919.424 8

 23  9  2  9  2  0.0000000  0  9G21G19G32G22G02G14G08G17G03
  21295352.918 8 111907790.012 8  87200869.316 7  21295354.232 7  21295351.805 7


  24909535.596 6 130900493.411 6 102000378.664 3  24909535.639 3  24909534.608 3


  22924706.919 7 120470153.693 7  93872876.902 8  22924712.954 8  22924706.741 8
  22924711.899 7  89961504.133 7

  23781291.052 7 124971495.852 7  97380372.619 4  23781292.774 4  23781290.248 4


  20989060.634 8 110298232.281 8  85946648.558 7  20989059.988 7  20989059.651 7


  23489655.445 7 123438919.575 7  96186162.748 5  23489658.789 5  23489655.276 5
  23489662.542 7  92178416.048 7

  23247454.138 7 122166103.392 7  95194352.737 7  23247461.014 7  23247453.575 7
  23247460.945 7  91227891.876 7

  23036385.147 7 121057001.999 7  94330121.416 5  23036386.071 5  23036384.794 5


  21138701.402 8 111084656.457 8  86559505.129 8  21138705.639 8  21138701.291 8
  21138705.530 8  82952864.865 8

 23  9  2  9  2 30.0000000  0  9G21G19G32G22G02G14G08G17G03
  21303574.454 8 111950994.062 8  87234534.731 7  21303575.818 7  21303573.341 7


  24887771.116 6 130786122.298 6 101911258.115 3  24887771.594 3  24887770.084 3


  22933511.530 7 120516422.937 7  93908930.808 8  22933517.563 8  22933511.352 8
  22933516.661 7  89996055.784 7

  23784020.113 6 124985834.994 6  97391545.904 4  23784020.760 4  23784019.286 4


  20993460.409 8 110321352.559 8  85964664.307 7  20993459.396 7  20993459.421 7


  23499626.021 6 123491315.419 6  96226990.588 5  23499629.157 5  23499625.847 5
  23499633.046 7  92217542.708 7

  23267536.956 7 122271639.519 7  95276588.526 7  23267544.128 7  23267536.393 7
  23267543.850 7  91306701.134 7

  23020761.954 7 120974903.063 7  94266148.225 5  23020762.549 5  23020761.588 5


  21126021.747 7 111018023.428 7  86507583.345 8  21126026.232 8  21126021.640 8
  21126025.599 8  82903106.498 8

 23  9  2  9  3  0.0000000  0  9G21G19G32G22G02G14G08G17G03
  21311844.558 8 111994454.834 8  87268400.193 7  21311845.879 7  21311843.441 7


  24866027.845 5 130671858.367 5 101822221.138 3  24866028.183 3  24866026.763 3


  22942414.364 7 120563207.126 7  93945385.974 8  22942420.437 8  22942414.177 8
  22942419.445 7  90030991.973 7

  23786845.289 6 125000678.461 6  97403112.172 4  23786845.727 4  23786844.480 4


  20997920.686 8 110344791.864 8  85982928.647 7  20997919.556 7  20997919.698 7


  23509682.195 6 123544160.183 6  96268168.230 5  23509686.083 5  23509682.012 5
  23509689.469 7  92257004.582 7

  23287657.491 7 122377372.123 7  95358977.408 7  23287664.542 7  23287656.933 7
  23287664.287 7  91385657.110 7

  23005192.982 7 120893088.623 7  94202396.713 5  23005194.490 5  23005192.576 5


  21113418.309 8 110951793.530 8  86455975.678 8  21113423.027 8  21113418.198 8
  21113422.308 8  82853649.158 8

 23  9  2  9  3 30.0000000  0  9G21G19G32G22G02G14G08G17G03
  21320163.080 8 112038167.166 8  87302461.684 6  21320163.822 6  21320161.963 6


  24844304.218 6 130557699.545 6 101733266.076 3  24844304.617 3  24844303.154 3


  22951413.845 7 120610499.632 7  93982237.228 8  22951420.141 8  22951413.658 8
  22951418.958 7  90066307.752 7

  23789764.220 6 125016020.153 6  97415066.681 4  23789765.940 4  23789763.389 4


  21002440.857 8 110368545.422 8  86001437.860 7  21002439.955 7  21002439.874 7


  23519822.098 6 123597446.341 6  96309689.815 5  23519826.173 5  23519821.924 5
  23519829.355 7  92296796.100 7

  23307813.962 7 122483294.092 7  95441513.848 7  23307820.926 7  23307813.412 7
  23307820.838 7  91464754.487 7

  22989677.667 7 120811555.905 7  94138864.726 5  22989680.490 5  22989677.229 5


  21100891.299 8 110885962.633 8  86404678.914 8  21100895.577 8  21100891.192 8
  21100895.089 8  82804489.777 8

 23  9  2  9  4  0.0000000  0  9G21G19G32G22G02G14G08G17G03
  21328529.755 8 112082134.588 8  87336721.943 7  21328530.764 7  21328528.638 7


  24822602.217 6 130443651.906 6 101644397.649 4  24822601.925 4  24822601.140 4


  22960510.280 7 120658302.845 7  94019486.436 8  22960516.792 8  22960510.088 8
  22960515.512 7  90102004.893 7

  23792778.708 7 125031863.345 7  97427411.956 4  23792782.114 4  23792777.837 4


  21007021.526 8 110392617.638 8  86020195.384 7  21007020.947 7  21007020.538 7


  23530046.297 7 123651175.607 7  96351556.681 5  23530050.310 5  23530046.114 5
  23530053.673 7  92336918.485 7

  23328006.658 7 122589407.125 7  95524199.172 6  23328013.954 6  23328006.113 6
  23328013.593 7  91543994.555 7

  22974217.287 7 120730311.156 7  94075557.145 5  22974220.519 5  22974216.845 5


  21088440.918 8 110820535.675 8  86353696.910 8  21088445.887 8  21088440.811 8
  21088444.635 8  82755632.029 8

 23  9  2  9  4 30.0000000  0  9G21G19G32G22G02G14G08G17G03
  21336944.149 8 112126352.133 8  87371177.105 7  21336945.375 7  21336943.032 7


  24800920.165 6 130329713.637 6 101555614.419 3  24800919.897 3  24800919.088 3


  22969703.296 7 120706610.864 7  94057128.993 8  22969709.638 8  22969703.113 8
  22969708.317 7  90138079.003 7

  23795888.745 6 125048202.749 6  97440143.887 4  23795891.195 4  23795887.878 4


  21011662.174 8 110417003.830 8  86039197.564 7  21011661.261 7  21011661.186 7


  23540353.467 7 123705341.150 7  96393763.498 5  23540358.060 5  23540353.307 5
  23540361.375 7  92377366.663 7

  23348234.322 6 122695704.853 6  95607028.410 6  23348242.077 6  23348233.781 6
  23348241.616 7  91623372.513 7

  22958811.555 7 120649352.052 7  94012472.136 5  22958814.266 5  22958811.113 5


  21076066.686 8 110755509.258 8  86303027.011 8  21076071.640 8  21076066.579 8
  21076070.359 8  82707073.387 8

 23  9  2  9  5  0.0000000  0  9G21G19G32G22G02G14G08G17G03
  21345406.972 8 112170823.832 8  87405830.312 6  21345408.060 6  21345405.855 6


  24779260.478 6 130215891.252 6 101466921.526 3  24779260.284 3  24779259.428 3


  22978992.121 7 120755425.633 7  94095166.415 8  22978999.079 8  22978991.938 8
  22978997.532 7  90174531.520 7

  23799092.773 7 125065040.719 7  97453264.300 4  23799093.853 4  23799091.915 4


  21016363.482 8 110441708.576 8  86058447.962 7  21016362.428 7  21016362.499 7


  23550745.204 6 123759944.177 6  96436311.211 4  23550748.045 4  23550745.035 4
  23550752.200 8  92418141.516 8

  23368497.553 6 122802188.611 6  95690002.604 6  23368505.534 6  23368497.017 6
  23368504.973 7  91702889.414 7

  22943461.871 7 120568684.918 7  93949614.628 5  22943462.343 5  22943461.447 5


  21063769.834 8 110690887.864 8  86252672.717 8  21063774.034 8  21063769.723 8
  21063773.352 8  82658817.209 8

 23  9  2  9  5 30.0000000  0 10G21G19G32G04G22G02G14G08G17G03
  21353917.844 8 112215548.734 8  87440680.820 6  21353918.874 6  21353916.722 6


  24757623.457 6 130102186.970 6 101378320.708 3  24757623.720 3  24757622.411 3


  22988377.703 7 120804745.219 7  94133597.201 8  22988384.348 8  22988377.529 8
  22988382.771 7  90211361.013 7

  25216479.308 6 132513489.592 6
  25216491.063 6  98954926.473 6

  23802391.409 7 125082376.421 7  97466772.564 4  23802392.746 4  23802390.542 4


  21021125.085 8 110466731.489 8  86077946.285 7  21021124.644 7  21021124.093 7


  23561217.731 6 123814981.916 6  96479197.661 4  23561221.123 4  23561217.535 4
  23561225.480 7  92459241.000 7

  23388795.455 6 122908856.138 6  95773119.968 6  23388803.956 6  23388794.910 6
  23388803.047 7  91782543.516 7

  22928167.201 7 120488311.789 7  93886986.216 5  22928167.663 5  22928166.786 5


  21051549.797 8 110626672.106 8  86202634.518 8  21051554.209 8  21051549.686 8
  21051553.619 8  82610863.942 8

 23  9  2  9  6  0.0000000  0 10G21G19G32G04G22G02G14G08G17G03
  21362476.486 8 112260524.614 8  87475726.898 6  21362477.725 6  21362475.369 6


  24736008.891 6 129988600.657 6 101289811.743 3  24736009.012 3  24736007.845 3


  22997857.971 7 120854565.413 7  94172418.067 8  22997864.690 8  22997857.802 8
  22997863.374 7  90248564.330 7

  25194706.819 6 132399075.610 6 103168147.609 3  25194715.291 3  25194706.854 3
  25194719.251 7  98869487.399 7

  23805784.077 7 125100206.110 7  97480665.753 4  23805786.663 4  23805783.206 4


  21025947.058 8 110492070.463 8  86097690.896 7  21025946.804 7  21025946.070 7


  23571773.977 6 123870449.446 6  96522418.997 4  23571776.590 4  23571773.732 4
  23571780.900 7  92500661.417 7

  23409127.541 6 123015702.070 6  95856376.346 6  23409136.400 6  23409126.996 6
  23409135.392 7  91862330.853 7

  22912928.589 7 120408232.160 7  93824586.503 6  22912929.059 6  22912928.178 6


  21039406.612 8 110562860.293 8  86152911.083 9  21039411.295 9  21039406.510 9
  21039410.572 8  82563212.323 8

 23  9  2  9  6 30.0000000  0 10G21G19G32G04G22G02G14G08G17G03
  21371083.222 8 112305754.175 8  87510970.651 6  21371084.945 6  21371082.105 6


  24714417.816 6 129875138.447 6 101201399.484 4  24714418.123 4  24714416.748 4


  23007434.293 7 120904888.179 7  94211630.544 8  23007440.484 8  23007434.124 8
  23007439.452 7  90286142.948 7

  25172926.163 6 132284620.173 6 103078961.456 3  25172935.361 3  25172925.900 3
  25172939.198 6  98784017.329 6

  23809272.296 6 125118532.501 6  97494945.998 4  23809274.685 4  23809271.442 4


  21030829.630 8 110517728.890 8  86117684.434 7  21030829.188 7  21030828.642 7


  23582409.819 7 123926347.807 7  96565976.058 5  23582414.307 5  23582409.574 5
  23582417.854 7  92542403.591 7

  23429494.086 6 123122727.821 6  95939772.841 6  23429502.963 6  23429493.528 6
  23429501.822 7  91942252.482 7

  22897746.583 7 120328452.195 7  93762420.290 6  22897747.495 6  22897746.177 6


  21027341.439 8 110499456.922 8  86103505.910 8  21027345.766 8  21027341.337 8
  21027345.275 8  82515865.706 8

 23  9  2  9  7  0.0000000  0 10G21G19G32G04G22G02G14G08G17G03
  21379738.140 8 112351234.759 8  87546410.003 7  21379739.538 7  21379737.023 7


  24692850.193 6 129761799.638 6 101113083.400 4  24692850.840 4  24692849.080 4


  23017105.263 7 120955708.797 7  94251230.951 8  23017111.308 8  23017105.120 8
  23017110.348 7  90324093.310 7

  25151138.609 6 132170122.615 6 102989742.521 3  25151147.155 3  25151138.426 3
  25151151.267 7  98698515.843 7

  23812853.052 6 125137351.720 6  97509610.280 4  23812855.080 4  23812852.198 4


  21035772.711 8 110543703.993 8  86137924.725 7  21035771.968 7  21035771.728 7


  23593128.644 7 123982671.539 7  96609864.570 5  23593132.641 5  23593128.416 5
  23593135.774 7  92584463.391 7

  23449894.228 6 123229928.705 6  96023305.810 6  23449902.780 6  23449893.661 6
  23449901.645 7  92022304.887 7

  22882621.660 7 120248970.929 7  93700486.824 6  22882622.994 6  22882621.245 6


  21015353.274 8 110436459.785 8  86054417.266 8  21015357.347 8  21015353.167 8
  21015357.461 8  82468822.434 8

 23  9  2  9  7 30.0000000  0 10G21G19G32G04G22G02G14G08G17G03
  21388440.463 7 112396966.715 7  87582045.222 6  21388441.954 6  21388439.341 6


  24671306.515 6 129648587.794 6 101024866.243 4  24671307.247 4  24671305.357 4


  23026870.158 7 121007025.666 7  94291218.050 8  23026876.815 8  23026870.002 8
  23026875.757 7  90362414.257 7

  25129342.226 6 132055585.494 6 102900492.760 3  25129351.528 3  25129342.034 3
  25129355.665 7  98612984.831 7

  23816527.773 6 125156662.736 6  97524657.774 4  23816529.480 4  23816526.906 4


  21040775.774 8 110569996.224 8  86158412.137 7  21040775.358 7  21040774.786 7


  23603926.372 7 124039418.214 7  96654082.660 5  23603931.283 5  23603926.167 5
  23603934.528 7  92626839.043 7

  23470326.515 6 123337301.714 6  96106972.914 6  23470334.981 6  23470325.952 6
  23470334.318 7  92102485.826 7

  22867554.331 7 120169790.749 7  93638787.983 6  22867555.787 6  22867553.907 6


  21003442.843 8 110373869.921 8  86005645.994 8  21003447.243 8  21003442.736 8
  21003446.908 8  82422083.312 8

 23  9  2  9  8  0.0000000  0 10G21G19G32G04G22G02G14G08G17G03
  21397191.130 7 112442950.403 7  87617876.598 6  21397192.595 6  21397190.008 6


  24649788.039 6 129535506.056 6 100936750.464 4  24649788.339 4  24649786.837 4


  23036729.720 7 121058838.169 7  94331591.360 8  23036736.510 8  23036729.560 8
  23036735.359 7  90401105.330 7

  25107540.447 5 131941012.401 5 102811214.970 3  25107549.258 3  25107540.269 3
  25107553.115 7  98527426.960 7

  23820296.483 6 125176465.296 6  97540088.295 4  23820297.769 4  23820295.638 4


  21045839.594 8 110596606.727 8  86179147.552 7  21045839.139 7  21045838.615 7


  23614806.596 6 124096586.437 6  96698629.240 4  23614809.840 4  23614806.382 4
  23614813.638 7  92669529.476 7

  23490792.217 6 123444846.356 6  96190773.760 6  23490799.908 6  23490791.645 6
  23490799.752 7  92182794.937 7

  22852545.063 7 120090915.110 7  93577326.458 6  22852546.718 6  22852544.648 6


  20991610.461 7 110311689.227 7  85957193.561 8  20991614.742 8  20991610.354 8
  20991614.173 8  82375649.741 8

 23  9  2  9  8 30.0000000  0 10G21G19G32G04G22G02G14G08G17G03
  21405989.306 7 112489184.750 7  87653903.288 6  21405991.087 6  21405988.189 6


  24628294.827 6 129422556.264 6 100848737.504 4  24628294.384 4  24628293.607 4


  23046683.572 7 121111143.718 7  94372348.864 7  23046690.114 7  23046683.420 7
  23046688.817 7  90440164.587 7

  25085731.191 5 131826404.996 5 102721910.481 3  25085739.710 3  25085730.995 3
  25085743.934 7  98441843.508 7

  23824157.987 6 125196757.929 6  97555900.698 4  23824159.461 4  23824157.174 4


  21050963.927 8 110623534.886 8  86200130.485 7  21050963.096 7  21050962.948 7


  23625764.624 6 124154172.836 6  96743501.656 4  23625768.108 4  23625764.388 4
  23625772.189 7  92712532.196 7

  23511289.498 7 123552559.798 7  96274706.140 6  23511297.313 6  23511288.931 6
  23511296.771 7  92263230.092 7

  22837593.833 7 120012345.446 7  93516103.360 6  22837595.593 6  22837593.436 6


  20979855.589 8 110249917.661 8  85909059.929 8  20979859.805 8  20979855.482 8
  20979859.221 8  82329521.691 8

 23  9  2  9  9  0.0000000  0 10G21G19G32G04G22G02G14G08G17G03
  21414835.528 7 112535671.073 7  87690126.323 6  21414837.136 6  21414834.411 6


  24606826.878 6 129309742.718 6 100760830.682 4  24606827.019 4  24606825.631 4


  23056730.707 7 121163942.190 7  94413490.456 7  23056737.423 7  23056730.547 7
  23056736.123 7  90479591.933 7

  25063916.264 5 131711767.170 5 102632582.314 3  25063924.873 3  25063916.095 3
  25063929.214 7  98356237.350 7

  23828112.207 7 125217540.959 7  97572095.238 4  23828114.723 4  23828111.385 4


  21056149.155 8 110650782.683 8  86221362.488 7  21056148.101 7  21056148.176 7


  23636802.978 6 124212176.421 6  96788699.147 4  23636805.566 4  23636802.737 4
  23636809.924 7  92755846.433 7

  23531818.833 7 123660440.815 7  96358769.100 6  23531826.486 6  23531818.266 6
  23531826.478 7  92343790.395 7

  22822700.976 7 119934085.653 7  93455121.715 6  22822703.222 6  22822700.587 6


  20968179.094 8 110188557.622 8  85861246.975 8  20968183.321 8  20968178.987 8
  20968182.789 8  82283700.953 8

 23  9  2  9  9 30.0000000  0 10G21G19G32G04G22G02G14G08G17G03
  21423728.716 7 112582405.458 7  87726542.657 6  21423730.239 6  21423727.603 6


  24585384.915 6 129197064.153 6 100673029.111 4  24585385.749 4  24585383.646 4


  23066870.681 7 121217227.997 7  94455011.785 7  23066877.529 7  23066870.512 7
  23066876.140 7  90519383.192 7

  25042094.867 5 131597097.688 5 102543229.461 2  25042104.021 2  25042094.689 2
  25042108.228 6  98270607.519 6

  23832159.788 6 125238809.443 6  97588668.044 4  23832162.064 4  23832158.948 4


  21061394.187 8 110678346.343 8  86242840.625 7  21061393.713 7  21061393.213 7


  23647917.379 6 124270590.891 6  96834216.804 4  23647921.848 4  23647917.151 4
  23647925.766 7  92799467.515 7

  23552378.916 7 123768483.723 7  96442958.216 6  23552386.338 6  23552378.335 6
  23552386.592 7  92424471.594 7

  22807867.142 7 119856134.204 7  93394380.351 6  22807869.271 6  22807866.749 6


  20956580.393 8 110127606.159 8  85813752.398 8  20956584.749 8  20956580.286 8
  20956584.010 8  82238185.319 8

 23  9  2  9 10  0.0000000  0 10G21G19G32G04G22G02G14G08G17G03
  21432670.524 8 112629394.493 8  87763157.418 6  21432671.986 6  21432669.407 6


  24563970.794 6 129084529.788 6 100585339.875 4  24563971.177 4  24563969.529 4


  23077104.471 7 121271006.201 7  94496916.792 7  23077111.416 7  23077104.293 7
  23077110.039 7  90559542.136 7

  25020269.683 5 131482405.750 5 102453859.088 3  25020278.002 3  25020269.549 3
  25020282.843 6  98184960.961 6

  23836301.318 6 125260569.024 6  97605623.531 4  23836302.809 4  23836300.505 4


  21066700.845 8 110706232.882 8  86264570.357 7  21066700.731 7  21066699.871 7


  23659112.982 6 124329420.522 6  96880057.967 4  23659116.586 4  23659112.777 4
  23659120.590 7  92843398.609 7

  23572970.523 6 123876692.997 6  96527276.974 6  23572977.944 6  23572969.929 6
  23572978.389 7  92505277.021 7

  22793093.813 7 119778500.173 7  93333886.317 6  22793095.475 6  22793093.411 6


  20945060.901 8 110067070.862 8  85766582.082 8  20945064.641 8  20945060.794 8
  20945064.442 8  82192980.441 8

 23  9  2  9 10 30.0000000  0 10G21G19G32G04G22G02G14G08G17G03
  21441659.198 7 112676630.061 7  87799964.279 6  21441660.687 6  21441658.090 6


  24542582.605 6 128972133.991 6 100497758.607 4  24542582.650 4  24542581.353 4


  23087429.957 7 121325266.817 7  94539197.702 7  23087436.983 7  23087429.779 7
  23087435.704 7  90600061.322 7

  24998440.446 5 131367685.671 5 102364466.827 3  24998447.979 3  24998440.236 3
  24998451.840 6  98099293.346 6

  23840532.720 6 125282810.317 6  97622954.356 4  23840535.324 4  23840531.925 4


  21072067.465 8 110734434.162 8  86286545.348 7  21072067.399 7  21072066.486 7


  23670384.401 6 124388654.539 6  96926214.251 4  23670388.409 4  23670384.209 4
  23670392.504 7  92887631.694 7

  23593591.864 6 123985058.379 6  96611717.366 6  23593599.589 6  23593591.265 6
  23593599.930 8  92586198.995 8

  22778379.757 7 119701177.837 7  93273635.159 6  22778381.833 6  22778379.342 6


  20933618.925 8 110006944.367 8  85719730.305 8  20933622.392 8  20933618.818 8
  20933622.924 8  82148080.839 8

 23  9  2  9 11  0.0000000  0 11G21G19G28G32G04G22G02G14G08G17G03
  21450695.670 8 112724116.470 8  87836966.601 6  21450696.788 6  21450694.557 6


  24521222.513 6 128859884.982 6 100410291.708 4  24521222.608 4  24521221.257 4


  25230124.206 6 132585198.039 6
  25230141.809 7  99008494.956 7

  23097847.897 7 121380012.821 7  94581856.833 7  23097855.108 7  23097847.723 7
  23097853.711 7  90640942.965 7

  24976605.476 6 131252944.742 6 102275058.285 3  24976613.445 3  24976605.266 3
  24976617.936 6  98013610.152 6

  23844857.993 6 125305537.308 6  97640663.650 4  23844860.325 4  23844857.193 4


  21077494.839 8 110762955.299 8  86308769.577 7  21077494.876 7  21077493.860 7


  23681734.871 6 124448295.098 6  96972687.318 4  23681737.627 4  23681734.684 4
  23681741.690 7  92932168.387 7

  23614243.232 6 124093582.064 6  96696281.114 6  23614251.391 6  23614242.624 6
  23614251.520 8  92667239.189 8

  22763726.444 7 119624174.095 7  93213632.254 6  22763728.599 6  22763726.042 6


  20922256.341 8 109947232.252 8  85673201.438 8  20922260.382 8  20922256.239 8
  20922260.148 8  82103490.693 8

 23  9  2  9 11 30.0000000  0 11G21G19G28G32G04G22G02G14G08G17G03
  21459779.883 8 112771853.904 8  87874164.534 6  21459780.909 6  21459778.775 6


  24499890.577 6 128747785.265 6 100322941.190 4  24499891.151 4  24499889.308 4


  25215687.146 6 132509332.975 6 103254071.875 3  25215699.024 3  25215687.271 3
  25215704.786 7  98951842.845 7

  23108357.820 7 121435242.584 7  94624892.921 7  23108365.101 7  23108357.637 7
  23108363.814 7  90682185.861 7

  24954767.590 6 131138185.653 6 102185635.624 3  24954776.128 3  24954767.376 3
  24954779.580 6  97927913.403 6

  23849275.484 6 125328748.825 6  97658750.462 4  23849276.376 4  23849274.706 4


  21082983.294 8 110791796.523 8  86331243.226 7  21082983.305 7  21082982.320 7


  23693161.071 6 124508339.822 6  97019475.322 4  23693164.506 4  23693160.861 4
  23693168.283 7  92977006.859 7

  23634924.474 6 124202261.878 6  96780966.508 6  23634933.066 6  23634923.862 6
  23634932.756 8  92748395.977 8

  22749134.166 7 119547491.490 7  93153879.601 6  22749136.669 6  22749133.777 6


  20910972.314 8 109887935.404 8  85626996.150 8  20910977.039 8  20910972.212 8
  20910976.304 8  82059210.630 8

 23  9  2  9 12  0.0000000  0 11G21G19G28G32G04G22G02G14G08G17G03
  21468911.245 8 112819839.701 8  87911555.992 6  21468912.661 6  21468910.137 6


  24478587.094 6 128635834.955 6 100235707.037 4  24478588.014 4  24478585.802 4


  25201294.450 6 132433699.262 6 103195136.795 4  25201306.265 4  25201294.485 4
  25201311.763 7  98895363.453 7

  23118959.051 7 121490951.839 7  94668302.630 7  23118966.221 7  23118958.873 7
  23118965.110 7  90723786.811 7

  24932926.565 6 131023408.404 6 102096198.774 3  24932934.908 3  24932926.364 3
  24932939.039 7  97842203.088 7

  23853784.170 6 125352441.092 6  97677211.886 4  23853784.484 4  23853783.397 4


  21088532.012 8 110820955.669 8  86353964.607 7  21088531.882 7  21088531.033 7


  23704663.710 6 124568783.584 6  97066574.244 4  23704666.943 4  23704663.487 4
  23704670.620 7  93022143.316 7

  23655634.189 6 124311093.622 6  96865770.281 6  23655643.044 6  23655633.590 6
  23655642.882 8  92829666.207 8

  22734603.268 7 119471129.774 7  93094376.997 5  22734605.791 5  22734602.875 5


  20899767.328 8 109829052.162 8  85581113.149 8  20899771.866 8  20899767.221 8
  20899771.050 8  82015239.430 8

 23  9  2  9 12 30.0000000  0 11G21G19G28G32G04G22G02G14G08G17G03
  21478090.397 8 112868075.930 8  87949142.593 6  21478091.932 6  21478089.289 6


  24457313.699 6 128524039.166 6 100148593.306 4  24457313.846 4  24457312.403 4


  25186946.332 6 132358302.454 6 103136386.304 3  25186958.408 3  25186946.333 3
  25186964.032 7  98839060.955 7

  23129651.906 7 121547141.311 7  94712086.526 7  23129658.748 7  23129651.714 7
  23129657.663 7  90765746.342 7

  24911081.928 6 130908618.030 6 102006751.690 3  24911090.807 3  24911081.759 3
  24911094.786 7  97756482.959 7

  23858384.135 6 125376615.628 6  97696049.104 4  23858385.559 4  23858383.353 4


  21094141.944 8 110850435.372 8  86376935.765 7  21094141.101 7  21094140.965 7


  23716240.645 6 124629626.403 6  97113984.145 4  23716244.957 4  23716240.426 4
  23716248.738 7  93067577.772 7

  23676373.165 6 124420077.511 6  96950692.595 6  23676382.281 6  23676372.575 6
  23676382.003 7  92911050.054 7

  22720134.323 7 119395093.958 7  93035128.331 5  22720136.082 5  22720133.930 5


  20888641.380 8 109770585.875 8  85535555.054 8  20888645.739 8  20888641.273 8
  20888645.377 8  81971579.605 8

 23  9  2  9 13  0.0000000  0 11G21G19G28G32G04G22G02G14G08G17G03
  21487316.552 8 112916560.027 8  87986922.339 6  21487318.003 6  21487315.439 6


  24436069.137 6 128412398.509 6 100061600.445 4  24436069.577 4  24436067.836 4


  25172644.109 6 132283143.431 6 103077821.053 4  25172655.483 4  25172644.110 4
  25172661.455 7  98782935.951 7

  23140434.864 7 121603806.863 7  94756241.385 7  23140441.938 7  23140434.677 7
  23140440.983 7  90808061.387 7

  24889235.464 6 130793814.775 6 101917294.597 3  24889244.904 3  24889235.277 3
  24889248.703 7  97670753.198 7

  23863075.664 6 125401268.878 6  97715259.341 4  23863077.508 4  23863074.869 4


  21099812.272 8 110880233.547 8  86400155.077 7  21099811.010 7  21099811.284 7


  23727893.815 6 124690863.394 6  97161701.191 4  23727897.580 4  23727893.605 4
  23727901.715 7  93113306.561 7

  23697139.676 6 124529209.250 6  97035730.114 6  23697149.668 6  23697139.113 6
  23697149.424 7  92992544.306 7

  22705726.782 7 119319384.110 7  92976133.654 5  22705728.673 5  22705726.398 5


  20877594.758 8 109712535.021 8  85490320.684 9  20877599.186 9  20877594.651 9
  20877598.473 8  81928230.009 8

 23  9  2  9 13 30.0000000  0 11G21G19G28G32G04G22G02G14G08G17G03
  21496589.964 8 112965291.534 8  88024894.870 6  21496591.116 6  21496588.851 6


  24414854.663 6 128300915.362 6  99974730.311 4  24414854.686 4  24414853.358 4


  25158387.482 6 132208224.945 6 103019443.185 4  25158398.812 4  25158387.456 4
  25158404.772 7  98726990.547 7

  23151308.181 7 121660946.512 7  94800765.667 7  23151315.593 7  23151308.003 7
  23151314.317 7  90850730.457 7

  24867386.675 6 130679001.006 6 101827829.266 3  24867396.547 3  24867386.443 3
  24867400.425 7  97585015.604 7

  23867857.613 6 125426399.128 6  97734841.270 4  23867859.739 4  23867856.813 4


  21105543.288 8 110910350.234 8  86423622.585 7  21105542.416 7  21105542.300 7


  23739620.664 7 124752491.676 7  97209723.134 4  23739624.625 4  23739620.499 4
  23739629.269 7  93159327.571 7

  23717935.642 6 124638485.610 6  97120880.318 6  23717944.622 6  23717935.088 6
  23717944.107 7  93074146.545 7

  22691382.156 7 119244001.988 7  92917394.363 5  22691383.768 5  22691381.772 5


  20866626.959 8 109654900.116 8  85445410.414 8  20866631.490 8  20866626.852 8
  20866630.706 8  81885191.011 8

 23  9  2  9 14  0.0000000  0 11G21G19G28G32G04G22G02G14G08G17G03
  21505911.008 8 113014274.153 8  88063063.069 6  21505912.585 6  21505909.895 6


  24393670.997 6 128189595.812 6  99887987.704 4  24393671.830 4  24393669.687 4


  25144177.862 6 132133552.894 6 102961257.320 4  25144188.972 4  25144177.818 4
  25144195.073 7  98671229.134 7

  23162271.794 7 121718561.156 7  94845660.065 7  23162279.422 7  23162271.611 7
  23162278.158 7  90893754.230 7

  24845538.411 6 130564182.046 6 101738359.864 3  24845547.045 3  24845538.157 3
  24845551.054 7  97499274.078 7

  23872731.025 6 125452008.567 6  97754796.591 4  23872732.090 4  23872730.212 4


  21111335.460 8 110940788.369 8  86447340.575 7  21111335.218 7  21111334.477 7


  23751423.634 6 124814511.475 6  97258050.148 4  23751427.294 4  23751423.487 4
  23751431.467 7  93205640.933 7

  23738757.734 6 124747907.834 6  97206144.210 6  23738767.158 6  23738757.176 6
  23738766.573 7  93155857.732 7

  22677100.457 7 119168953.140 7  92858914.777 5  22677102.534 5  22677100.064 5


  20855739.340 8 109597684.716 8  85400827.024 8  20855743.486 8  20855739.229 8
  20855742.920 8  81842465.274 8

 23  9  2  9 14 30.0000000  0 11G21G19G28G32G04G22G02G14G08G17G03
  21515279.607 8 113063505.456 8  88101425.057 6  21515281.511 6  21515278.499 6


  24372519.235 6 128078440.778 6  99801373.291 4  24372519.891 4  24372517.916 4


  25130015.982 6 132059129.008 6 102903264.804 4  25130026.558 4  25130015.938 4
  25130032.533 7  98615652.991 7

  23173325.432 7 121776647.613 7  94890922.113 7  23173332.756 7  23173325.249 7
  23173331.764 7  90937130.333 7

  24823687.942 5 130449359.062 5 101648887.331 3  24823697.284 3  24823687.674 3
  24823700.967 7  97413529.535 7

  23877694.803 6 125478094.288 6  97775123.044 4  23877696.364 4  23877694.003 4


  21117188.705 8 110971546.814 8  86471308.159 7  21117188.391 7  21117187.717 7


  23763299.474 6 124876918.780 6  97306679.114 4  23763302.809 4  23763299.305 4
  23763307.324 7  93252243.681 7

  23759607.745 6 124857472.622 6  97291519.182 6  23759616.814 6  23759607.169 6
  23759616.019 7  93237675.372 7

  22662883.145 7 119094238.315 7  92800695.450 5  22662884.288 5  22662882.739 5


  20844931.531 8 109540888.258 8  85356570.090 8  20844935.198 8  20844931.415 8
  20844934.888 8  81800052.392 8

 23  9  2  9 15  0.0000000  0 11G21G19G28G32G04G22G02G14G08G17G03
  21524694.729 8 113112982.030 8  88139978.168 6  21524696.963 6  21524693.616 6


  24351398.482 6 127967449.591 6  99714886.545 4  24351399.153 4  24351397.119 4


  25115900.568 6 131984953.179 6 102845465.550 4  25115911.346 4  25115900.524 4
  25115917.223 7  98560262.047 7

  23184467.871 7 121835200.841 7  94936547.881 7  23184475.006 7  23184467.679 7
  23184474.083 7  90980854.998 7

  24801837.648 5 130334531.408 5 101559411.133 3  24801846.762 3  24801837.443 3
  24801850.486 7  97327781.516 7

  23882748.793 6 125504651.733 6  97795817.054 4  23882751.062 4  23882747.993 4


  21123102.394 8 111002622.436 8  86495522.885 7  21123101.841 7  21123101.406 7


  23775248.849 6 124939707.771 6  97355605.494 4  23775252.057 4  23775248.648 4
  23775255.632 7  93299131.445 7

  23780483.125 6 124967174.004 6  97377000.600 6  23780492.306 6  23780482.535 6
  23780491.828 7  93319595.006 7

  22648728.877 7 119019856.485 7  92742735.593 5  22648730.123 5  22648728.471 5


  20834202.467 8 109484508.240 8  85312637.656 8  20834206.549 8  20834202.351 8
  20834206.213 8  81757950.488 8

 23  9  2  9 15 30.0000000  0 11G21G19G28G32G04G22G02G14G08G17G03
  21534157.588 8 113162709.244 8  88178726.589 6  21534159.652 6  21534156.475 6


  24330309.977 6 127856630.665 6  99628534.027 4  24330310.861 4  24330308.560 4


  25101833.978 6 131911033.755 6 102787866.065 4  25101844.934 4  25101833.925 4
  25101850.883 7  98505062.582 7

  23195699.714 7 121894224.281 7  94982540.047 7  23195706.809 7  23195699.522 7
  23195705.938 7  91024930.797 7

  24779987.265 5 130219707.024 5 101469937.470 3  24779995.614 3  24779987.113 3
  24779999.419 6  97242035.880 6

  23887892.990 7 125531684.934 7  97816881.797 4  23887895.535 4  23887892.172 4


  21129077.402 8 111034020.799 8  86519989.095 7  21129076.738 7  21129076.414 7


  23787269.412 6 125002881.195 6  97404831.440 4  23787274.016 4  23787269.180 4
  23787277.381 7  93346306.280 7

  23801385.596 6 125077015.099 6  97462590.867 6  23801394.806 6  23801385.011 6
  23801394.135 7  93401618.983 7

  22634639.243 7 118945815.461 7  92685041.297 5  22634640.784 5  22634638.850 5


  20823554.016 8 109428550.738 8  85269034.456 8  20823558.101 8  20823553.900 8
  20823557.839 8  81716164.093 8

 23  9  2  9 16  0.0000000  0 11G21G19G28G32G04G22G02G14G08G17G03
  21543666.495 8 113212679.905 8  88217664.710 6  21543668.570 6  21543665.382 6


  24309254.237 6 127745979.447 6  99542312.202 4  24309254.408 4  24309252.829 4


  25087814.789 6 131837366.470 6 102730463.039 4  25087826.439 4  25087814.696 4
  25087832.358 7  98450051.335 7

  23207019.354 7 121953708.607 7  95028891.354 7  23207026.607 7  23207019.162 7
  23207025.552 7  91069350.779 7

  24758136.291 5 130104880.968 5 101380462.484 3  24758145.570 3  24758136.135 3
  24758149.003 6  97156289.021 6

  23893126.093 6 125559185.315 6  97838310.575 4  23893128.197 4  23893125.275 4


  21135112.257 8 111065734.690 8  86544701.177 7  21135111.736 7  21135111.269 7


  23799361.969 6 125066428.864 6  97454349.016 4  23799366.043 4  23799361.755 4
  23799370.199 7  93393760.604 7

  23822312.584 6 125186986.786 6  97548282.888 6  23822321.883 6  23822312.012 6
  23822321.012 7  93483740.484 7

  22620613.747 7 118872109.967 7  92627608.437 5  22620615.202 5  22620613.345 5


  20812984.932 8 109373009.058 8  85225755.278 8  20812988.424 8  20812984.812 8
  20812988.611 8  81674688.225 8

 23  9  2  9 16 30.0000000  0 11G21G19G28G32G04G22G02G14G08G17G03
  21553223.862 8 113262902.461 8  88256799.114 6  21553225.681 6  21553222.754 6


  24288232.251 6 127635508.538 6  99456230.894 4  24288232.893 4  24288230.870 4


  25073847.124 6 131763964.147 6 102673266.479 4  25073858.573 4  25073847.017 4
  25073864.341 7  98395237.981 7

  23218428.045 7 122013661.778 7  95075608.004 7  23218435.570 7  23218427.862 7
  23218434.253 7  91114120.871 7

  24736287.231 6 129990065.770 6 101290995.970 3  24736297.137 3  24736287.093 3
  24736300.442 6  97070550.232 6

  23898449.909 7 125587161.328 7  97860109.975 4  23898452.076 4  23898449.114 4


  21141209.395 8 111097774.135 8  86569666.938 7  21141208.824 7  21141208.412 7


  23811527.036 7 125130357.996 7  97504163.831 4  23811530.986 4  23811526.849 4
  23811535.108 7  93441499.790 7

  23843265.903 6 125297096.285 6  97634082.295 6  23843275.241 6  23843265.322 6
  23843274.284 7  93565964.889 7

  22606654.122 7 118798752.272 7  92570446.602 6  22606656.270 6  22606653.707 6


  20802496.664 8 109317893.709 8  85182808.296 8  20802500.467 8  20802496.544 8
  20802500.276 8  81633530.710 8

 23  9  2  9 17  0.0000000  0 11G21G19G28G32G04G22G02G14G08G17G03
  21562827.047 8 113313368.389 8  88296123.159 6  21562829.063 6  21562825.939 6


  24267243.925 6 127525211.473 6  99370285.082 4  24267244.659 4  24267242.562 4


  25059928.631 6 131690820.802 6 102616271.705 4  25059939.955 4  25059928.533 4
  25059945.622 7  98340617.983 7

  23229923.827 7 122074072.701 7  95122681.342 7  23229931.482 7  23229923.631 7
  23229930.235 7  91159232.799 7

  24714439.839 6 129875254.782 6 101201532.710 3  24714448.742 3  24714439.714 3
  24714453.206 6  96984814.584 6

  23903861.811 7 125615602.388 7  97882271.759 4  23903864.236 4  23903861.029 4


  21147366.482 8 111130130.236 8  86594879.448 7  21147366.210 7  21147365.499 7


  23823762.632 6 125194656.734 6  97554266.646 4  23823766.516 4  23823762.476 4
  23823771.278 7  93489514.970 7

  23864243.826 6 125407332.565 6  97719980.490 6  23864252.163 6  23864243.254 6
  23864251.608 7  93648283.976 7

  22592759.276 7 118725735.480 7  92513550.392 6  22592761.675 6  22592758.843 6


  20792087.800 8 109263196.221 8  85140186.910 9  20792092.398 9  20792087.680 9
  20792091.738 8  81592685.226 8

 23  9  2  9 17 30.0000000  0 11G21G19G28G32G04G22G02G14G08G17G03
  21572478.048 8 113364083.764 8  88335641.584 6  21572479.889 6  21572476.944 6


  24246289.837 6 127415096.031 6  99284480.748 4  24246290.299 4  24246288.478 4


  25046060.388 6 131617944.965 6 102559485.404 4  25046072.030 4  25046060.286 4
  25046077.793 7  98286197.774 7

  23241507.661 7 122134945.010 7  95170114.204 7  23241515.097 7  23241507.460 7
  23241513.985 7  91204689.265 7

  24692594.500 6 129760456.165 6 101112079.139 3  24692603.672 3  24692594.344 3
  24692607.633 6  96899088.196 6

  23909363.968 6 125644512.908 6  97904799.362 4  23909364.900 4  23909363.186 4


  21153585.081 8 111162808.434 8  86620342.939 7  21153584.582 7  21153584.098 7


  23836068.914 6 125259327.955 6  97604659.712 4  23836073.333 4  23836068.771 4
  23836077.776 7  93537808.321 7

  23885245.997 6 125517698.610 6  97805979.803 6  23885254.154 6  23885245.439 6
  23885254.000 7  93730699.951 7

  22578930.992 7 118653067.388 7  92456925.898 6  22578933.479 6  22578930.559 6


  20781760.126 8 109208922.885 8  85097896.053 8  20781764.801 8  20781760.006 8
  20781763.718 8  81552156.488 8

 23  9  2  9 18  0.0000000  0 11G21G19G28G32G04G22G02G14G08G17G03
  21582175.235 8 113415043.436 8  88375350.369 6  21582177.305 6  21582174.127 6


  24225370.177 6 127305162.212 6  99198817.989 4  24225370.499 4  24225368.832 4


  25032243.223 6 131545336.233 6 102502907.215 4  25032254.888 4  25032243.130 4
  25032260.783 8  98231977.051 8

  23253178.070 7 122196273.282 7  95217902.359 7  23253185.371 7  23253177.865 7
  23253184.451 7  91250486.224 7

  24670751.090 6 129645669.000 6 101022634.484 3  24670760.653 3  24670750.938 3
  24670765.083 7  96813370.388 7

  23914953.419 7 125673887.685 7  97927688.722 4  23914955.314 4  23914952.641 4


  21159864.144 8 111195805.540 8  86646054.931 7  21159863.672 7  21159863.161 7


  23848447.456 6 125324365.463 6  97655338.211 4  23848449.890 4  23848447.287 4
  23848454.143 7  93586375.192 7

  23906271.111 6 125628189.318 6  97892076.271 6  23906279.642 6  23906270.544 6
  23906279.998 7  93813209.004 7

  22565169.022 7 118580746.825 7  92400572.202 6  22565171.204 6  22565168.598 6


  20771512.378 8 109155070.857 8  85055933.472 8  20771516.221 8  20771512.258 8
  20771515.981 8  81511942.355 8

 23  9  2  9 18 30.0000000  0 11G21G19G28G32G04G22G02G14G08G17G03
  21591919.865 8 113466250.596 8  88415252.009 6  21591921.607 6  21591918.757 6


  24204486.073 6 127195415.937 6  99113301.380 4  24204486.625 4  24204484.736 4


  25018478.451 6 131473000.576 6 102446541.849 4  25018490.034 4  25018478.380 4
  25018495.608 7  98177960.244 7

  23264935.438 7 122258058.470 7  95266046.555 7  23264942.820 7  23264935.224 7
  23264941.871 7  91296624.390 7

  24648911.418 6 129530898.870 6 100933203.130 4  24648921.187 4  24648911.271 4
  24648924.841 7  96727665.297 7

  23920632.142 7 125703728.654 7  97950941.344 4  23920635.214 4  23920631.329 4


  21166204.648 8 111229124.735 8  86672017.905 7  21166204.424 7  21166203.660 7


  23860892.690 6 125389769.493 6  97706302.315 4  23860896.196 4  23860892.485 4
  23860900.404 7  93635215.775 7

  23927320.474 6 125738804.227 6  97978269.508 6  23927329.642 6  23927319.880 6
  23927329.567 7  93895810.796 7

  22551474.187 7 118508779.253 7  92344493.549 6  22551475.473 6  22551473.767 6


  20761345.314 8 109101643.739 8  85014301.997 8  20761349.273 8  20761345.194 8
  20761349.032 8  81472045.537 8

 23  9  2  9 19  0.0000000  0 11G21G19G28G32G04G22G02G14G08G17G03
  21601711.030 8 113517704.049 8  88455345.565 6  21601712.668 6  21601709.926 6


  24183637.442 6 127085858.407 6  99027931.856 4  24183638.900 4  24183636.114 4


  25004765.973 6 131400939.789 6 102390390.663 4  25004777.054 4  25004765.889 4
  25004782.825 7  98124148.710 7

  23276779.211 7 122320297.364 7  95314544.282 7  23276786.513 7  23276778.988 7
  23276785.644 7  91343101.364 7

  24627075.240 6 129416147.038 6 100843786.048 4  24627084.466 4  24627075.106 4
  24627088.890 7  96641973.926 7

  23926398.651 6 125734033.040 6  97974555.090 4  23926402.051 4  23926397.824 4


  21172606.033 8 111262764.676 8  86698230.804 7  21172606.211 7  21172605.054 7


  23873407.972 6 125455536.052 6  97757548.889 4  23873412.147 4  23873407.740 4
  23873415.262 7  93684327.063 7

  23948393.287 6 125849540.941 6  98064557.646 6  23948402.526 6  23948392.684 6
  23948402.370 7  93978503.540 7

  22537846.366 7 118437165.616 7  92288690.697 6  22537847.735 6  22537845.955 6


  20751259.349 8 109048640.925 8  84973001.138 8  20751262.986 8  20751259.229 8
  20751262.989 8  81432465.554 8

 23  9  2  9 19 30.0000000  0 11G21G19G28G32G04G22G02G14G08G17G03
  21611548.809 8 113569401.932 8  88495629.588 6  21611550.472 6  21611547.705 6


  24162826.009 6 126976490.685 6  98942710.253 4  24162827.127 4  24162824.681 4


  24991105.722 6 131329155.091 6 102334454.641 4  24991116.658 4  24991105.615 4
  24991122.613 7  98070543.383 7

  23288708.500 7 122382986.202 7  95363392.615 7  23288715.843 7  23288708.277 7
  23288715.079 7  91389914.308 7

  24605242.185 6 129301414.344 6 100754383.899 4  24605252.106 4  24605242.065 4
  24605255.562 7  96556296.838 7

  23932253.382 6 125764797.566 6  97998527.397 4  23932255.920 4  23932252.542 4


  21179068.282 8 111296723.861 8  86724692.463 7  21179068.256 7  21179067.299 7


  23885989.542 7 125521660.558 7  97809074.399 4  23885994.082 4  23885989.359 4
  23885998.477 7  93733705.656 7

  23969488.437 6 125960395.006 6  98150937.214 6  23969498.021 6  23969487.834 6
  23969497.536 7  94061283.886 7

  22524285.907 7 118365906.149 7  92233163.837 6  22524287.923 6  22524285.492 6


  20741253.841 8 108996061.244 8  84932029.984 8  20741257.790 8  20741253.721 8
  20741257.455 8  81393201.536 8

 23  9  2  9 20  0.0000000  0 11G21G19G28G32G04G22G02G14G08G17G03
  21621433.747 8 113621346.835 8  88536106.097 6  21621435.543 6  21621432.647 6


  24142051.194 6 126867317.603 6  98857640.335 4  24142051.832 4  24142049.916 4


  24977498.934 6 131257651.460 6 102278737.629 4  24977510.057 4  24977498.800 4
  24977515.683 7  98017147.939 7

  23300724.059 7 122446124.901 7  95412591.487 7  23300730.834 7  23300723.854 7
  23300729.994 7  91437063.216 7

  24583414.293 6 129186705.281 6 100665000.186 3  24583423.195 3  24583414.177 3
  24583427.579 7  96470637.444 7

  23938194.878 7 125796022.806 7  98022858.698 4  23938197.001 4  23938194.033 4


  21185591.721 8 111331004.288 8  86751404.445 7  21185591.447 7  21185590.733 7


  23898641.300 6 125588142.310 6  97860878.277 4  23898645.486 4  23898641.153 4
  23898649.598 7  93783351.014 7

  23990605.709 6 126071366.500 6  98237408.294 6  23990615.482 6  23990605.097 6
  23990614.645 7  94144151.957 7

  22510794.128 7 118295005.289 7  92177916.427 6  22510796.154 6  22510793.708 6


  20731329.193 8 108943907.253 8  84891390.538 8  20731333.130 8  20731329.073 8
  20731332.781 8  81354255.409 8

 23  9  2  9 20 30.0000000  0 11G21G19G28G32G04G22G02G14G08G17G03
  21631364.751 8 113673535.407 8  88576772.478 6  21631366.841 6  21631363.651 6


  24121313.185 6 126758340.845 6  98772723.376 4  24121313.735 4  24121311.969 4


  24963946.220 6 131186430.838 6 102223241.163 4  24963956.998 4  24963946.091 4
  24963962.812 7  97963963.858 7

  23312824.113 7 122509710.430 7  95462138.538 7  23312830.837 7  23312823.935 7
  23312830.018 7  91484545.787 7

  24561590.645 6 129072021.334 6 100575636.062 3  24561599.798 3  24561590.511 3
  24561604.016 7  96384996.846 7

  23944224.532 6 125827706.043 6  98047546.888 4  23944226.646 4  23944223.705 4


  21192176.048 8 111365605.123 8  86778366.091 7  21192175.796 7  21192175.056 7


  23911359.361 6 125654977.421 6  97912957.506 4  23911364.048 4  23911359.245 4
  23911367.747 7  93833260.247 7

  24011744.989 6 126182451.945 6  98323968.154 6  24011754.651 6  24011744.359 6
  24011753.873 7  94227105.123 7

  22497370.725 7 118224464.250 7  92122949.392 6  22497372.244 6  22497370.305 6


  20721485.460 8 108892178.532 8  84851082.472 8  20721489.051 8  20721485.340 8
  20721488.995 8  81315626.847 8

 23  9  2  9 21  0.0000000  0 11G21G19G28G32G04G22G02G14G08G17G03
  21641342.590 8 113725968.511 8  88617629.409 6  21641344.594 6  21641341.490 6


  24100613.274 6 126649562.942 6  98687961.368 4  24100614.102 4  24100612.103 4


  24950447.174 6 131115496.071 6 102167967.444 3  24950458.322 3  24950447.022 3
  24950464.172 7  97910993.226 7

  23325008.442 7 122573740.629 7  95512032.084 7  23325015.519 7  23325008.250 7
  23325014.740 7  91532360.402 7

  24539771.891 6 128957365.031 6 100486293.490 3  24539781.501 3  24539771.748 3
  24539785.571 7  96299376.885 7

  23950340.657 7 125859845.830 7  98072590.812 4  23950343.339 4  23950339.844 4


  21198821.234 8 111400526.114 8  86805577.208 7  21198821.025 7  21198820.242 7


  23924144.885 6 125722163.039 6  97965309.868 4  23924148.606 4  23924144.760 4
  23924153.073 7  93883431.223 7

  24032904.897 6 126293649.013 6  98410615.000 6  24032914.667 6  24032904.285 6
  24032914.122 7  94310141.640 7

  22484016.090 7 118154285.081 7  92068264.334 6  22484017.433 6  22484015.666 6


  20711722.889 8 108840875.572 8  84811106.175 8  20711726.261 8  20711722.769 8
  20711726.306 8  81277316.238 8

 23  9  2  9 21 30.0000000  0 11G21G19G28G32G04G22G02G14G08G17G03
  21651366.760 8 113778646.247 8  88658676.959 6  21651368.898 6  21651365.660 6


  24079952.750 6 126540986.663 6  98603356.457 4  24079952.843 4  24079951.583 4


  24937004.054 6 131044850.494 6 102112919.052 4  24937014.668 4  24937003.916 4
  24937020.623 7  97858238.557 7

  23337277.490 7 122638213.802 7  95562270.801 7  23337284.551 7  23337277.280 7
  23337283.668 7  91580505.812 7

  24517959.491 6 128842739.297 6 100396974.763 3  24517968.690 3  24517959.317 3
  24517972.862 7  96213779.799 7

  23956543.440 7 125892440.885 7  98097989.521 4  23956545.460 4  23956542.636 4


  21205527.636 8 111435767.962 8  86833038.339 7  21205527.172 7  21205526.639 7


  23936997.094 6 125789696.663 6  98017933.381 4  23937000.182 4  23936996.938 4
  23937004.300 7  93933862.072 7

  24054086.222 6 126404955.814 6  98497347.348 6  24054095.849 6  24054085.614 6
  24054095.534 7  94393260.097 7

  22470730.820 7 118084470.533 7  92013863.410 6  22470732.235 6  22470730.405 6


  20702041.262 8 108789999.256 8  84771462.319 8  20702045.165 8  20702041.142 8
  20702044.964 8  81239324.212 8

 23  9  2  9 22  0.0000000  0 11G21G19G28G32G04G22G02G14G08G17G03
  21661437.610 8 113831569.638 8  88699915.930 6  21661439.976 6  21661436.510 6


  24059330.279 6 126432617.231 6  98518912.734 4  24059331.206 4  24059329.139 4


  24923616.350 6 130974498.434 6 102058099.401 3  24923627.028 3  24923616.225 3
  24923632.870 7  97805703.060 7

  23349630.610 7 122703129.277 7  95612854.181 7  23349637.743 7  23349630.400 7
  23349636.925 7  91628981.530 7

  24496152.884 6 128728148.062 6 100307682.963 3  24496163.099 3  24496152.697 3
  24496166.692 7  96128208.485 7

  23962832.890 6 125925491.031 6  98123742.842 4  23962834.347 4  23962832.086 4


  21212295.145 8 111471332.038 8  86860750.557 7  21212295.019 7  21212294.148 7


  23949913.958 6 125857576.859 6  98070826.930 4  23949917.436 4  23949913.775 4
  23949921.138 7  93984551.718 7

  24075287.690 6 126516371.192 6  98584164.320 6  24075297.771 6  24075287.069 6
  24075297.440 7  94476459.641 7

  22457515.621 7 118015024.077 7  91959749.310 6  22457516.721 6  22457515.215 6


  20692441.469 8 108739551.502 8  84732152.398 9  20692445.702 9  20692441.349 9
  20692444.972 8  81201652.207 8

 23  9  2  9 22 30.0000000  0 11G21G19G28G32G04G22G02G14G08G17G03
  21671555.114 7 113884736.346 7  88741344.494 6  21671557.206 6  21671554.010 6


  24038747.621 6 126324454.782 6  98434630.247 4  24038748.402 4  24038746.517 4


  24910283.725 6 130904440.720 6 102003509.082 3  24910295.742 3  24910283.600 3
  24910301.286 7  97753387.378 7

  23362066.958 7 122768482.811 7  95663778.913 7  23362074.193 7  23362066.748 7
  23362073.286 7  91677784.382 7

  24474353.873 6 128613591.706 6 100218418.333 3  24474363.422 3  24474353.668 3
  24474366.891 7  96042663.271 7

  23969207.969 6 125958992.421 6  98149847.770 4  23969210.187 4  23969207.151 4


  21219123.689 8 111507216.222 8  86888712.214 7  21219123.976 7  21219122.697 7


  23962895.493 6 125925798.687 6  98123986.696 4  23962899.929 4  23962895.306 4
  23962903.979 7  94035496.473 7

  24096509.520 6 126627891.291 6  98671062.872 6  24096519.717 6  24096508.890 6
  24096518.950 7  94559737.367 7

  22444369.971 7 117945945.619 7  91905921.969 6  22444371.860 6  22444369.556 6


  20682922.869 8 108689530.713 8  84693175.180 9  20682926.935 9  20682922.749 9
  20682926.393 8  81164299.046 8

 23  9  2  9 23  0.0000000  0 11G21G19G28G32G04G22G02G14G08G17G03
  21681719.086 7 113938148.535 7  88782964.344 6  21681720.984 6  21681717.982 6


  24018205.880 6 126216504.797 6  98350513.336 4  24018205.818 4  24018204.798 4


  24897010.457 6 130834682.967 6 101949152.524 3  24897021.109 3  24897010.332 3
  24897026.653 7  97701295.711 7

  23374586.761 7 122834274.981 7  95715045.449 7  23374593.966 7  23374586.547 7
  23374593.367 7  91726914.792 7

  24452561.747 6 128499075.518 6 100129185.038 3  24452571.466 3  24452561.528 3
  24452575.000 7  95957148.031 7

  23975669.398 7 125992946.359 7  98176305.333 4  23975671.504 4  23975668.580 4


  21226013.955 8 111543423.302 8  86916925.477 7  21226014.068 7  21226012.963 7


  23975942.348 6 125994361.976 6  98177412.523 4  23975948.256 4  23975942.161 4
  23975950.688 7  94086696.210 7

  24117751.167 6 126739515.921 6  98758042.878 6  24117761.342 6  24117750.533 6
  24117760.454 7  94643093.175 7

  22431295.494 7 117877240.250 7  91852385.353 6  22431297.954 6  22431295.079 6


  20673486.010 8 108639940.094 8  84654533.160 9  20673489.891 9  20673485.890 9
  20673489.495 8  81127267.117 8

 23  9  2  9 23 30.0000000  0 11G21G19G28G32G04G22G02G14G08G17G03
  21691928.748 7 113991801.076 7  88824771.475 6  21691930.553 6  21691927.640 6


  23997703.482 6 126108765.291 6  98266560.467 4  23997703.419 4  23997702.409 4


  24883791.975 6 130765223.226 6 101895028.174 3  24883803.366 3  24883791.850 3
  24883808.653 7  97649426.574 7

  23387189.141 7 122900498.773 7  95766648.314 7  23387196.053 7  23387188.945 7
  23387195.435 7  91776367.518 7

  24430778.009 6 128384597.108 6 100039981.196 3  24430786.675 3  24430777.817 3
  24430790.267 7  95871661.035 7

  23982215.472 7 126027346.302 7  98203110.403 4  23982216.916 4  23982214.659 4


  21232964.585 8 111579948.514 8  86945386.632 7  21232964.412 7  21232963.593 7


  23989053.022 6 126063259.010 6  98231098.434 4  23989058.113 4  23989052.848 4
  23989061.933 7  94138145.165 7

  24139011.547 6 126851238.507 6  98845099.224 6  24139021.799 6  24139010.917 6
  24139020.848 7  94726522.137 7

  22418292.009 7 117808905.011 7  91799137.145 6  22418294.280 6  22418291.612 6


  20664129.986 8 108590775.279 8  84616222.934 9  20664133.976 9  20664129.866 9
  20664133.666 8  81090553.157 8

 23  9  2  9 24  0.0000000  0 11G21G19G28G32G04G22G02G14G08G17G03
  21702185.101 8 114045697.285 8  88866768.474 6  21702186.904 6  21702183.997 6


  23977242.504 6 126001241.787 6  98182775.805 4  23977242.529 4  23977241.449 4


  24870632.277 6 130696067.464 6 101841140.723 3  24870642.826 3  24870632.170 3
  24870648.677 7  97597784.457 7

  23399873.227 7 122967155.139 7  95818588.255 7  23399880.540 7  23399873.026 7
  23399879.809 7  91826143.267 7

  24409001.829 6 128270162.056 6  99950811.163 4  24409010.545 4  24409001.637 4
  24409013.879 7  95786206.432 7

  23988846.270 7 126062193.428 7  98230263.909 4  23988848.286 4  23988845.457 4


  21239976.191 8 111616794.906 8  86974098.059 7  21239976.092 7  21239975.194 7


  24002227.742 6 126132489.888 6  98285044.473 4  24002233.076 4  24002227.590 4
  24002236.110 7  94189843.420 7

  24160290.455 6 126963059.438 6  98932232.193 6  24160300.875 6  24160289.816 6
  24160299.489 7  94810024.522 7

  22405359.745 7 117740945.393 7  91746181.615 6  22405362.126 6  22405359.356 6


  20654856.266 8 108542039.747 8  84578247.216 9  20654860.064 9  20654856.146 9
  20654859.519 8  81054159.769 8

 23  9  2  9 24 30.0000000  0 11G21G19G28G32G04G22G02G14G08G17G03
  21712487.362 7 114099836.276 7  88908954.651 6  21712489.698 6  21712486.258 6


  23956822.610 6 125893937.729 6  98099162.188 4  23956823.981 4  23956821.555 4


  24857530.894 6 130627218.888 6 101787492.640 3  24857541.256 3  24857530.774 3
  24857547.113 7  97546371.739 7

  23412639.800 7 123034242.137 7  95870863.754 7  23412646.822 7  23412639.599 7
  23412646.325 7  91876240.615 7

  24387233.520 6 128155773.234 6  99861677.156 4  24387242.911 4  24387233.328 4
  24387246.771 7  95700786.381 7

  23995562.156 7 126097486.501 7  98257764.893 4  23995565.039 4  23995561.334 4


  21247048.910 8 111653962.534 8  87003059.796 7  21247048.847 7  21247047.913 7


  24015465.694 6 126202052.066 6  98339248.665 4  24015470.036 4  24015465.538 4
  24015473.598 7  94241789.090 7

  24181587.459 6 127074976.529 6  99019440.086 6  24181598.208 6  24181586.825 6
  24181596.995 7  94893598.729 7

  22392499.412 7 117673363.692 7  91693520.559 6  22392501.263 6  22392499.037 6


  20645664.019 8 108493734.293 8  84540606.632 9  20645667.744 9  20645663.899 9
  20645667.271 8  81018087.547 8

 23  9  2  9 25  0.0000000  0 11G21G19G28G32G04G22G02G14G08G17G03
  21722835.955 7 114154218.103 7  88951330.047 6  21722838.257 6  21722834.855 6


  23936446.165 6 125786855.968 6  98015721.811 4  23936447.389 4  23936445.088 4


  24844488.286 6 130558680.478 6 101734086.247 3  24844498.330 3  24844488.157 3
  24844504.584 7  97495190.667 7

  23425487.266 7 123101757.760 7  95923473.250 7  23425494.706 7  23425487.065 7
  23425494.169 7  91926658.015 7

  24365475.700 6 128041433.242 6  99772581.223 4  24365484.219 4  24365475.477 4
  24365488.261 7  95615402.810 7

  24002363.341 6 126133223.869 6  98285612.089 4  24002365.807 4  24002362.541 4


  21254182.936 8 111691451.826 8  87032272.176 7  21254182.531 7  21254181.935 7


  24028765.250 6 126271942.715 6  98393708.790 4  24028769.391 4  24028765.090 4
  24028773.816 7  94293980.038 7

  24202903.003 6 127186988.144 6  99106721.633 6  24202913.365 6  24202902.382 6
  24202912.552 7  94977243.500 7

  22379711.353 7 117606162.274 7  91641155.819 6  22379712.804 6  22379710.982 6


  20636553.420 8 108445859.419 8  84503301.569 9  20636557.241 9  20636553.300 9
  20636557.017 8  80982336.870 8

 23  9  2  9 25 30.0000000  0 11G21G19G28G32G04G22G02G14G08G17G03
  21733230.825 7 114208843.252 7  88993895.040 6  21733232.650 6  21733229.730 6


  23916112.012 6 125679998.600 6  97932456.237 4  23916113.111 4  23916110.908 4


  24831504.849 6 130490454.920 6 101680923.652 3  24831515.448 3  24831504.715 3
  24831521.417 7  97444243.204 7

  23438416.056 7 123169699.585 7  95976414.850 7  23438423.744 7  23438415.846 7
  23438423.152 7  91977393.699 7

  24343726.672 6 127927144.447 6  99683525.190 4  24343735.574 4  24343726.458 4
  24343739.922 7  95530057.448 7

  24009248.387 6 126169404.052 6  98313804.342 4  24009249.702 4  24009247.596 4


  21261378.237 8 111729262.605 8  87061735.070 7  21261377.556 7  21261377.240 7


  24042127.359 6 126342158.729 6  98448422.467 4  24042130.767 4  24042127.199 4
  24042134.894 7  94346413.970 7

  24224235.307 6 127299091.390 6  99194074.582 6  24224246.129 6  24224234.677 6
  24224245.350 7  95060956.715 7

  22366996.097 7 117539342.928 7  91589088.795 6  22366997.289 6  22366995.722 6


  20627525.047 8 108398415.401 8  84466332.240 9  20627529.045 9  20627524.927 9
  20627528.609 8  80946907.942 8

 23  9  2  9 26  0.0000000  0 11G21G19G28G32G04G22G02G14G08G17G03
  21743671.465 7 114263709.041 7  89036647.535 6  21743673.162 6  21743670.370 6


  23895820.960 6 125573368.227 6  97849367.520 4  23895821.344 4  23895819.807 4


  24818582.118 6 130422544.106 6 101628006.325 3  24818592.149 3  24818581.971 3
  24818597.968 7  97393530.808 7

  23451425.312 7 123238064.520 7  96029686.137 7  23451433.431 7  23451425.102 7
  23451432.553 7  92028445.342 7

  24321988.490 6 127812908.463 6  99594510.297 3  24321997.360 3  24321988.254 3
  24322000.855 7  95444751.553 7

  24016216.839 6 126206024.003 6  98342339.270 4  24016218.695 4  24016216.035 4


  21268634.430 8 111767393.568 8  87091447.450 7  21268634.033 7  21268633.429 7


  24055549.989 6 126412696.288 6  98503386.704 4  24055553.761 4  24055549.829 4
  24055558.539 7  94399087.967 7

  24245585.273 6 127411283.414 6  99281496.719 6  24245595.590 6  24245584.634 6
  24245594.925 7  95144736.232 7

  22354353.831 7 117472907.072 7  91537320.593 6  22354355.067 6  22354353.442 6


  20618578.805 8 108351401.718 8  84429698.245 9  20618583.122 9  20618578.694 9
  20618582.243 8  80911800.369 8

 23  9  2  9 26 30.0000000  0 11G21G19G28G32G04G22G02G14G08G17G03
  21754158.492 7 114318818.746 7  89079590.099 6  21754160.432 6  21754157.406 6


  23875573.999 6 125466970.469 6  97766460.122 4  23875574.658 4  23875572.801 4


  24805719.448 6 130354954.063 6 101575338.927 3  24805729.577 3  24805719.270 3
  24805735.925 7  97343057.949 7

  23464516.157 7 123306853.455 7  96083287.807 7  23464523.699 7  23464515.952 7
  23464522.730 7  92079813.583 7

  24300260.331 6 127698730.905 6  99505540.942 3  24300269.259 3  24300260.054 3
  24300274.124 7  95359489.294 7

  24023269.035 6 126243085.002 6  98371217.862 4  24023271.559 4  24023268.253 4


  21275952.086 8 111805848.017 8  87121411.888 7  21275951.957 7  21275951.085 7


  24069033.976 6 126483555.529 6  98558601.578 4  24069039.265 4  24069033.816 4
  24069042.547 7  94452002.211 7

  24266951.863 6 127523564.777 6  99368988.488 6  24266962.018 6  24266951.224 6
  24266962.139 7  95228582.447 7

  22341785.628 7 117406859.866 7  91485855.229 6  22341787.264 6  22341785.244 6


  20609715.046 8 108304821.879 8  84393402.296 9  20609719.595 9  20609714.935 9
  20609718.302 8  80877016.758 8

 23  9  2  9 27  0.0000000  0 11G21G19G28G32G04G22G02G14G08G17G03
  21764690.995 7 114374167.427 7  89122718.866 6  21764692.975 6  21764689.909 6


  23855371.157 6 125360802.958 6  97683732.138 4  23855372.606 4  23855369.901 4


  24792917.402 6 130287682.254 6 101522919.537 3  24792928.565 3  24792917.219 3
  24792934.340 7  97292822.743 7

  23477685.447 7 123376058.792 7  96137213.945 7  23477692.997 7  23477685.242 7
  23477692.224 7  92131492.765 7

  24278544.012 6 127584608.989 6  99416614.938 4  24278552.416 4  24278543.722 4
  24278556.962 7  95274268.586 7

  24030404.430 6 126280580.227 6  98400434.823 4  24030406.168 4  24030403.643 4


  21283330.193 8 111844620.729 8  87151624.326 7  21283329.939 7  21283329.196 7


  24082577.652 6 126554728.200 6  98614060.699 4  24082581.379 4  24082577.505 4
  24082586.144 7  94505150.500 7

  24288333.927 6 127635927.597 6  99456543.732 6  24288343.891 6  24288333.297 6
  24288343.778 7  95312489.494 7

  22329290.524 7 117341197.989 7  91434690.125 6  22329292.968 6  22329290.149 6


  20600932.872 8 108258670.909 8  84357440.531 9  20600937.289 9  20600932.761 9
  20600936.144 8  80842553.405 8

 23  9  2  9 27 30.0000000  0 11G21G19G28G32G04G22G02G14G08G17G03
  21775269.664 7 114429757.904 7  89166036.046 6  21775271.375 6  21775268.578 6


  23835213.070 6 125254872.284 6  97601188.695 4  23835214.697 4  23835211.783 4


  24780178.185 6 130220735.488 6 101470753.419 3  24780188.818 3  24780178.007 3
  24780194.369 7  97242830.255 7

  23490934.266 7 123445682.304 7  96191465.933 7  23490941.799 7  23490934.074 7
  23490941.278 7  92183484.227 7

  24256838.942 6 127470549.212 6  99327737.356 4  24256847.633 4  24256838.621 4
  24256852.207 7  95189094.281 7

  24037622.532 6 126318511.846 6  98429991.848 4  24037625.062 4  24037621.741 4


  21290769.666 8 111883715.316 8  87182087.564 7  21290769.207 7  21290768.669 7


  24096180.758 6 126626215.284 6  98669764.800 4  24096185.429 4  24096180.620 4
  24096190.148 7  94558533.588 7

  24309732.183 6 127748374.000 6  99544164.100 6  24309742.044 6  24309731.553 6
  24309742.087 7  95396458.951 7

  22316870.012 7 117275928.010 7  91383830.397 6  22316872.736 6  22316869.637 6


  20592232.923 8 108212953.168 8  84321816.341 9  20592236.903 9  20592232.812 9
  20592236.356 8  80808413.563 8

 23  9  2  9 28  0.0000000  0 11G21G19G28G32G04G22G02G14G08G17G03
  21785894.114 7 114485588.766 7  89209540.534 6  21785895.762 6  21785893.028 6


  23815101.066 6 125149180.270 6  97518831.296 4  23815101.547 4  23815099.756 4


  24767500.534 6 130154115.226 6 101418841.713 3  24767511.008 3  24767500.347 3
  24767516.784 7  97193081.601 7

  23504262.424 7 123515720.368 7  96246040.944 7  23504269.492 7  23504262.250 7
  23504269.298 7  92235785.254 7

  24235145.848 6 127356552.729 6  99238909.103 4  24235155.247 4  24235145.544 4
  24235159.255 7  95103967.247 7

  24044924.129 6 126356876.463 6  98459886.302 4  24044926.916 4  24044923.378 4


  21298270.290 8 111923130.495 8  87212800.615 7  21298269.899 7  21298269.284 7


  24109843.719 6 126698012.484 6  98725710.552 4  24109848.792 4  24109843.594 4
  24109852.707 7  94612148.253 7

  24331144.970 6 127860900.095 6  99631846.569 6  24331155.299 6  24331144.331 6
  24331155.717 7  95480487.922 7

  22304524.119 7 117211049.919 7  91333276.044 6  22304526.649 6  22304523.735 6


  20583615.441 8 108167667.657 8  84286528.955 9  20583619.064 9  20583615.325 9
  20583618.754 8  80774596.487 8

 23  9  2  9 28 30.0000000  0 11G21G19G28G32G04G22G02G14G08G17G03
  21796564.273 8 114541659.863 8  89253232.222 6  21796566.168 6  21796563.187 6


  23795034.077 6 125043729.444 6  97436661.821 4  23795034.728 4  23795032.736 4


  24754886.080 6 130087824.337 6 101367186.681 3  24754895.539 3  24754885.897 3
  24754901.996 7  97143578.918 7

  23517668.503 7 123586170.806 7  96300937.280 7  23517675.868 7  23517668.329 7
  23517675.699 7  92288394.210 7

  24213465.907 6 127242622.146 6  99150132.188 4  24213474.708 4  24213465.617 4
  24213478.808 7  95018889.394 7

  24052306.247 7 126395672.421 7  98490116.874 4  24052309.456 4  24052305.483 4


  21305831.791 8 111962866.540 8  87243763.687 7  21305831.711 7  21305830.781 7


  24123564.859 6 126770116.843 6  98781895.650 4  24123569.644 4  24123564.712 4
  24123574.113 7  94665992.268 7

  24352573.187 6 127973503.807 6  99719589.504 6  24352583.169 6  24352572.535 6
  24352583.286 7  95564574.847 7

  22292253.175 7 117146566.209 7  91283029.006 6  22292255.736 6  22292252.778 6


  20575080.280 8 108122814.783 8  84251578.688 9  20575083.911 9  20575080.169 9
  20575083.449 8  80741102.485 8

 23  9  2  9 29  0.0000000  0 11G21G19G28G32G04G22G02G14G08G17G03
  21807279.719 8 114597970.751 8  89297110.753 6  21807281.665 6  21807278.633 6


  23775014.323 6 124938522.716 6  97354682.523 4  23775014.373 4  23775012.986 4


  24742334.083 6 130021865.918 6 101315790.722 3  24742344.081 3  24742333.860 3
  24742350.265 7  97094324.498 7

  23531152.791 7 123657031.636 7  96356153.409 7  23531160.510 7  23531152.608 7
  23531160.231 8  92341309.642 8

  24191798.512 6 127128760.261 6  99061408.817 4  24191807.002 4  24191798.235 4
  24191811.546 7  94933862.859 7

  24059770.405 6 126434898.345 6  98520682.490 4  24059772.676 4  24059769.632 4


  21313454.411 8 112002923.348 8  87274976.701 7  21313454.014 7  21313453.405 7


  24137344.306 6 126842525.643 6  98838317.971 4  24137349.757 4  24137344.154 4
  24137353.183 7  94720063.634 7

  24374014.837 6 128086182.786 6  99807391.078 6  24374025.710 6  24374014.189 6
  24374025.831 7  95648717.964 7

  22280058.052 7 117082479.151 7  91233091.062 6  22280060.503 6  22280057.659 6


  20566627.377 8 108078395.145 8  84216966.002 9  20566631.406 9  20566627.266 9
  20566630.683 8  80707931.997 8

 23  9  2  9 29 30.0000000  0 11G21G19G28G32G04G22G02G14G08G17G03
  21818041.309 7 114654523.186 7  89341177.500 6  21818042.927 6  21818040.218 6


  23755041.287 6 124833564.698 6  97272897.032 4  23755042.233 4  23755039.968 4


  24729846.640 5 129956244.339 5 101264657.226 3  24729856.729 3  24729846.439 3
  24729862.742 7  97045321.562 7

  23544715.687 7 123728302.162 7  96411688.784 7  23544723.202 7  23544715.500 7
  23544722.702 7  92394531.005 7

  24170145.133 6 127014971.193 6  98972742.167 4  24170153.169 4  24170144.870 4
  24170157.927 7  94848890.696 7

  24067316.406 6 126474553.565 6  98551582.607 4  24067318.843 4  24067315.633 4


  21321138.378 8 112043302.866 8  87306441.183 7  21321137.866 7  21321137.372 7


  24151180.462 6 126915237.484 6  98894976.425 4  24151185.789 4  24151180.306 4
  24151189.358 7  94774361.283 7

  24395471.517 6 128198936.389 6  99895250.792 6  24395482.285 6  24395470.900 6
  24395482.088 7  95732916.813 7

  22267938.998 7 117018792.512 7  91183465.124 5  22267940.929 5  22267938.609 5


  20558257.346 8 108034410.668 8  84182692.403 9  20558261.521 9  20558257.235 9
  20558260.742 8  80675086.465 8

 23  9  2  9 30  0.0000000  0 11G21G19G28G32G04G22G02G14G08G17G03
  21828848.521 7 114711313.466 7  89385429.587 6  21828849.599 6  21828847.435 6


  23735115.927 6 124728855.345 6  97191305.324 4  23735117.060 4  23735114.644 4


  24717423.099 5 129890959.621 5 101213786.192 3  24717433.958 3  24717422.907 3
  24717439.288 7  96996570.226 7

  23558354.913 7 123799977.402 7  96467539.521 7  23558362.749 7  23558354.712 7
  23558362.063 7  92448054.611 7

  24148505.235 6 126901254.753 6  98884132.089 4  24148513.705 4  24148505.003 4
  24148518.364 7  94763972.737 7

  24074943.209 6 126514633.520 6  98582813.676 4  24074946.471 4  24074942.418 4


  21328883.239 8 112084001.847 8  87338154.593 7  21328883.106 7  21328882.233 7


  24165074.513 6 126988246.679 6  98951866.574 4  24165079.302 4  24165074.370 4
  24165082.950 7  94828880.970 7

  24416941.578 6 128311760.107 6  99983165.146 6  24416952.147 6  24416940.961 6
  24416951.714 7  95817168.029 7

  22255895.638 7 116955505.700 7  91134150.698 5  22255896.045 5  22255895.254 5


  20549969.760 8 107990858.957 8  84148756.020 9  20549973.947 9  20549969.649 9
  20549973.206 8  80642564.106 8

 23  9  2  9 30 30.0000000  0 11G21G19G28G32G04G22G02G14G08G17G03
  21839700.882 7 114768343.208 7  89429868.266 6  21839702.476 6  21839699.791 6


  23715238.546 6 124624399.333 6  97109911.027 4  23715239.330 4  23715237.290 4


  24705064.709 5 129826016.235 5 101163181.130 3  24705075.730 3  24705064.508 3
  24705080.578 7  96948073.727 7

  23572071.053 7 123872056.670 7  96523705.088 7  23572078.956 7  23572070.843 7
  23572078.309 7  92501879.921 7

  24126880.415 6 126787615.085 6  98795581.802 4  24126888.491 4  24126880.183 4
  24126892.814 7  94679112.090 7

  24082652.076 6 126555138.183 6  98614375.674 4  24082653.276 4  24082651.303 4


  21336689.228 8 112125021.907 8  87370118.196 7  21336689.406 7  21336688.227 7


  24179024.066 6 127061551.868 6  99008987.337 4  24179028.320 4  24179023.919 4
  24179032.558 7  94883621.694 7

  24438424.452 6 128424652.345 6 100071132.895 6  24438435.003 6  24438423.831 6
  24438434.674 7  95901470.403 7

  22243929.401 7 116892622.553 7  91085150.794 5  22243927.419 5  22243929.008 5


  20541764.786 8 107947741.947 8  84115158.374 9  20541769.275 9  20541764.670 9
  20541768.171 8  80610366.366 8

 23  9  2  9 31  0.0000000  0 11G21G19G28G32G04G22G02G14G08G17G03
  21850598.531 7 114825611.199 7  89474492.587 6  21850600.770 6  21850597.436 6


  23695410.185 6 124520198.738 6  97028715.764 4  23695410.546 4  23695408.951 4


  24692771.886 5 129761416.223 5 101112843.617 3  24692782.397 3  24692771.663 3
  24692787.679 7  96899833.664 7

  23585863.843 7 123944537.030 7  96580183.195 7  23585871.453 7  23585863.638 7
  23585870.959 8  92556004.759 8

  24105269.881 6 126674054.129 6  98707092.837 4  24105278.363 4  24105269.631 4
  24105282.999 7  94594310.195 7

  24090439.666 6 126596064.797 6  98646266.456 4  24090441.142 4  24090438.888 4


  21344555.820 8 112166362.363 8  87402331.462 7  21344556.209 7  21344554.819 7


  24193028.970 6 127135149.319 6  99066335.855 4  24193032.896 4  24193028.805 4
  24193038.067 7  94938580.648 7

  24459919.665 6 128537610.837 6 100159152.266 6  24459930.718 6  24459919.044 6
  24459929.919 7  95985822.254 7

  22232040.202 7 116830144.304 7  91036466.420 5  22232038.691 5  22232039.805 5


  20533642.574 8 107905059.273 8  84081899.162 9  20533647.032 9  20533642.463 9
  20533645.814 8  80578492.965 8

 23  9  2  9 31 30.0000000  0 11G21G19G28G32G04G22G02G14G08G17G03
  21861541.759 7 114883118.569 7  89519303.443 6  21861544.093 6  21861540.664 6


  23675630.372 6 124416257.654 6  96947722.719 4  23675631.086 4  23675629.161 4


  24680544.877 5 129697163.689 5 101062776.857 3  24680555.108 3  24680544.627 3
  24680560.753 7  96851853.049 7

  23599732.406 7 124017417.499 7  96636973.078 7  23599740.176 7  23599732.196 7
  23599739.850 7  92610428.376 7

  24083675.868 6 126560575.702 6  98618668.167 4  24083684.185 4  24083675.591 4
  24083688.303 7  94509569.918 7

  24098307.396 6 126637412.830 6  98678485.614 4  24098311.030 4  24098306.596 4


  21352484.094 8 112208024.511 8  87434795.400 7  21352484.291 7  21352483.093 7


  24207089.182 6 127209037.388 6  99123910.801 4  24207094.275 4  24207089.017 4
  24207098.508 7  94993756.617 7

  24481427.780 6 128650634.342 6 100247222.304 6  24481438.831 6  24481427.168 6
  24481437.982 7  96070222.659 7

  22220228.624 7 116768074.099 7  90988100.020 6  22220230.071 6  22220228.231 6


  20525603.224 8 107862812.519 8  84048979.628 9  20525607.642 9  20525603.113 9
  20525606.496 8  80546945.082 8

 23  9  2  9 32  0.0000000  0 11G21G19G28G32G04G22G02G14G08G17G03
  21872530.787 7 114940865.784 7  89564301.187 6  21872532.999 6  21872529.692 6


  23655901.143 6 124312579.927 6  96866934.851 4  23655902.081 4  23655899.909 4


  24668385.153 5 129633262.311 5 101012983.701 3  24668394.420 3  24668384.908 3
  24668400.472 7  96804134.619 7

  23613677.020 7 124090696.627 7  96694073.611 7  23613684.805 7  23613676.806 7
  23613684.474 7  92665149.708 7

  24062097.985 6 126447183.263 6  98530310.493 4  24062106.842 4  24062097.713 4
  24062110.654 7  94424893.810 7

  24106256.586 6 126679181.365 6  98711032.420 4  24106259.086 4  24106255.799 4


  21360473.560 8 112250009.237 8  87467510.696 7  21360473.728 7  21360472.550 7


  24221204.977 6 127283213.991 6  99181710.616 4  24221209.720 4  24221204.799 4
  24221213.947 7  95049148.067 7

  24502947.542 6 128763721.577 6 100335341.987 6  24502958.974 6  24502946.957 6
  24502958.201 7  96154670.654 7

  22208495.522 7 116706414.994 7  90940053.976 6  22208498.197 6  22208495.138 6


  20517647.018 8 107821002.862 8  84016400.686 9  20517651.250 9  20517646.907 9
  20517650.381 8  80515723.598 8

 23  9  2  9 32 30.0000000  0 11G21G19G28G32G04G22G02G14G08G17G03
  21883564.531 7 114998848.531 7  89609482.459 6  21883567.145 6  21883563.431 6


  23636222.014 6 124209164.468 6  96786351.364 4  23636222.791 4  23636220.771 4


  24656291.685 5 129569710.579 5 100963462.980 2  24656300.936 2  24656291.471 2
  24656306.882 6  96756677.311 6

  23627696.604 7 124164368.034 7  96751479.813 7  23627704.130 7  23627696.399 7
  23627703.799 7  92720163.966 7

  24040536.188 6 126333875.294 6  98442018.637 4  24040544.498 4  24040535.907 4
  24040548.559 7  94340280.794 7

  24114282.772 6 126721364.266 6  98743902.125 4  24114284.819 4  24114281.977 4


  21368523.659 8 112292312.376 8  87500474.112 6  21368523.598 6  21368522.644 6


  24235373.681 6 127357672.053 6  99239729.766 4  24235379.122 4  24235373.503 4
  24235382.978 7  95104749.713 7

  24524478.648 6 128876866.111 6 100423506.318 6  24524489.707 6  24524478.112 6
  24524488.598 7  96239161.437 7

  22196839.486 7 116645164.820 7  90892326.589 6  22196842.882 6  22196839.102 6


  20509773.431 8 107779626.483 8  83984159.366 9  20509777.513 9  20509773.315 9
  20509776.789 8  80484825.669 8

 23  9  2  9 33  0.0000000  0 11G21G19G28G32G04G22G02G14G08G17G03
  21894643.708 7 115057068.997 7  89654848.970 6  21894646.442 6  21894642.613 6


  23616593.407 6 124106016.408 6  96705976.245 4  23616594.502 4  23616592.164 4


  24644265.266 5 129506514.240 5 100914219.196 2  24644275.069 2  24644265.070 2
  24644280.908 6  96709485.365 6

  23641790.435 7 124238432.057 7  96809191.939 7  23641798.185 7  23641790.234 7
  23641797.862 8  92775471.393 8

  24018991.409 6 126220657.039 6  98353796.689 4  24019000.130 4  24018991.110 4
  24019004.105 7  94255734.751 7

  24122390.104 6 126763962.436 6  98777095.396 4  24122392.331 4  24122389.313 4


  21376634.727 8 112334936.274 8  87533687.469 6  21376634.620 6  21376633.717 6


  24249596.058 6 127432411.190 6  99297967.932 4  24249602.142 4  24249595.893 4
  24249605.336 7  95160561.251 7

  24546020.405 6 128990068.514 6 100511715.739 6  24546031.579 6  24546019.882 6
  24546030.821 7  96323695.416 7

  22185262.723 7 116584328.546 7  90844921.731 6  22185265.872 6  22185262.339 6


  20501982.671 8 107738686.315 8  83952257.947 9  20501986.672 9  20501982.560 9
  20501986.065 8  80454253.479 8

 23  9  2  9 33 30.0000000  0 11G21G19G28G32G04G22G02G14G08G17G03
  21905767.750 7 115115525.286 7  89700399.233 6  21905769.811 6  21905766.650 6


  23597016.058 6 124003137.130 6  96625810.570 4  23597017.009 4  23597014.798 4


  24632307.610 5 129443674.294 5 100865253.073 3  24632317.448 3  24632307.427 3
  24632322.471 6  96662559.525 6

  23655958.466 7 124312884.813 7  96867206.970 7  23655966.227 7  23655958.270 7
  23655965.797 8  92831069.099 8

  23997463.941 6 126107529.463 6  98265645.394 4  23997472.616 4  23997463.628 4
  23997476.365 7  94171256.419 7

  24130574.388 6 126806971.994 6  98810609.243 4  24130577.912 4  24130573.575 4


  21384806.601 8 112377879.424 8  87567149.592 6  21384806.657 6  21384805.591 6


  24263871.628 6 127507426.744 6  99356421.483 4  24263877.883 4  24263871.463 4
  24263880.214 7  95216579.197 7

  24567572.744 6 129103324.358 6 100599966.809 5  24567583.752 5  24567572.212 5
  24567582.845 6  96408269.314 6

  22173765.153 7 116523906.433 7  90797839.580 6  22173767.267 6  22173764.769 6


  20494274.717 8 107698181.045 8  83920695.415 9  20494278.815 9  20494274.601 9
  20494278.163 8  80424006.055 8

 23  9  2  9 34  0.0000000  0 11G21G19G28G32G04G22G02G14G08G17G03
  21916936.870 7 115174219.273 7  89746134.713 6  21916938.321 6  21916935.766 6


  23577491.070 6 123900531.667 6  96545858.245 4  23577491.490 4  23577489.801 4


  24620417.587 5 129381195.802 5 100816568.637 2  24620428.082 2  24620417.427 2
  24620433.254 6  96615903.612 6

  23670200.168 7 124387726.323 7  96925524.912 7  23670208.172 7  23670199.949 7
  23670207.848 7  92886957.102 7

  23975954.507 6 125994497.518 6  98177568.591 4  23975963.069 4  23975954.199 4
  23975967.471 7  94086849.499 7

  24138836.691 6 126850393.474 6  98844444.095 4  24138839.454 4  24138835.869 4


  21393039.623 8 112421144.122 8  87600862.270 6  21393039.679 6  21393038.613 6


  24278198.943 6 127582718.103 6  99415089.952 4  24278205.633 4  24278198.774 4
  24278208.117 7  95272803.136 7

  24589135.167 6 129216634.108 6 100688259.876 5  24589145.996 5  24589134.617 5
  24589145.122 6  96492883.488 6

  22162346.714 7 116463902.591 7  90751083.339 6  22162348.543 6  22162346.348 6


  20486650.265 8 107658113.264 8  83889473.774 9  20486654.125 9  20486650.154 9
  20486653.569 8  80394085.317 8

 23  9  2  9 34 30.0000000  0 11G21G19G28G32G04G22G02G14G08G17G03
  21928151.098 7 115233150.928 7  89792055.386 6  21928152.928 6  21928149.990 6


  23558018.806 6 123798203.911 6  96466122.303 4  23558019.223 4  23558017.510 4


  24608597.701 5 129319081.734 5 100768168.136 3  24608607.886 3  24608597.545 3
  24608613.304 6  96569519.833 6

  23684515.631 7 124462954.492 7  96984144.150 7  23684523.696 7  23684515.368 7
  23684523.414 7  92943133.854 7

  23954463.788 6 125881564.036 6  98089568.507 4  23954472.270 4  23954463.484 4
  23954476.758 7  94002516.092 7

  24147178.552 6 126894225.248 6  98878598.653 4  24147180.629 4  24147177.730 4


  21401333.867 8 112464730.500 8  87634825.608 6  21401333.892 6  21401332.852 6


  24292578.911 6 127658282.599 6  99473971.264 4  24292584.130 4  24292578.742 4
  24292587.898 7  95329231.026 7

  24610707.316 6 129329995.725 6 100776593.368 5  24610718.072 5  24610706.758 5
  24610717.786 6  96577536.362 6

  22151008.387 7 116404319.766 7  90704655.161 6  22151010.043 6  22151008.025 6


  20479108.892 8 107618483.475 8  83858593.433 9  20479113.139 9  20479108.785 9
  20479112.313 8  80364491.658 8

 23  9  2  9 35  0.0000000  0 11G21G19G28G32G04G22G02G14G08G17G03
  21939410.445 7 115292318.055 7  89838159.545 6  21939412.657 6  21939409.337 6


  23538599.178 6 123696154.378 6  96386603.180 4  23538600.337 4  23538597.859 4


  24596847.948 5 129257332.725 5 100720052.096 3  24596857.756 3  24596847.796 3
  24596862.680 6  96523408.635 6

  23698904.077 7 124538564.887 7  97043061.222 7  23698912.017 7  23698903.796 7
  23698911.638 7  92999596.016 7

  23932992.300 6 125768729.405 6  98001645.448 4  23933000.497 4  23932991.987 4
  23933005.211 7  93918256.506 7

  24155596.019 6 126938462.978 6  98913069.562 4  24155599.739 4  24155595.188 4


  21409689.032 8 112508636.230 8  87669037.787 6  21409689.054 6  21409688.017 6


  24307008.621 6 127734114.878 6  99533061.249 4  24307013.983 4  24307008.443 4
  24307018.582 7  95385858.948 7

  24632288.832 6 129443404.844 6 100864963.894 5  24632298.947 5  24632288.282 5
  24632298.844 7  96662224.764 7

  22139750.296 7 116345158.013 7  90658555.089 6  22139751.817 6  22139749.925 6


  20471650.638 8 107579289.761 8  83828052.894 9  20471654.894 9  20471650.527 9
  20471653.897 8  80335223.647 8

 23  9  2  9 35 30.0000000  0 11G21G19G28G32G04G22G02G14G08G17G03
  21950714.563 7 115351720.905 7  89884447.395 6  21950716.904 6  21950713.450 6


  23519233.641 6 123594386.547 6  96307303.577 4  23519234.916 4  23519232.309 4


  24585167.166 5 129195952.354 5 100672223.298 3  24585177.729 3  24585167.006 3
  24585182.530 6  96477572.728 6

  23713364.969 7 124614556.024 7  97102274.976 7  23713372.888 7  23713364.679 7
  23713372.401 7  93056342.496 7

  23911540.161 6 125655997.104 6  97913802.118 4  23911548.285 4  23911539.866 4
  23911552.845 7  93834073.333 7

  24164091.624 6 126983105.817 6  98947856.145 4  24164094.489 4  24164090.793 4


  21418105.014 8 112552862.194 8  87703499.504 6  21418105.385 6  21418103.995 6


  24321490.221 6 127810212.885 6  99592358.296 3  24321493.492 3  24321490.038 3
  24321499.808 7  95442685.291 7

  24653878.229 6 129556859.611 6 100953369.991 5  24653888.590 5  24653877.679 5
  24653888.976 7  96746947.208 7

  22128572.931 7 116286420.048 7  90612785.244 6  22128574.869 6  22128572.556 6


  20464275.511 8 107540533.220 8  83797853.014 9  20464279.869 9  20464275.404 9
  20464278.690 8  80306282.095 8

 23  9  2  9 36  0.0000000  0 11G21G19G28G32G04G22G02G14G08G17G03
  21962063.233 7 115411358.435 7  89930918.107 6  21962065.600 6  21962062.111 6


  23499921.878 7 123492902.527 7  96228225.104 4  23499922.897 4  23499920.555 4


  24573557.509 5 129134942.735 5 100624683.405 3  24573567.389 3  24573557.353 3
  24573572.684 6  96432013.665 6

  23727897.839 7 124690924.959 7  97161783.112 7  23727905.614 7  23727897.571 7
  23727904.983 7  93113371.104 7

  23890108.013 6 125543369.159 6  97826040.120 4  23890116.189 4  23890107.732 4
  23890120.380 7  93749968.075 7

  24172663.723 6 127028150.997 6  98982956.248 4  24172665.682 4  24172662.887 4


  21426581.815 8 112597407.668 8  87738210.187 6  21426582.388 6  21426580.800 6


  24336020.508 6 127886572.983 6  99651859.581 3  24336023.088 3  24336020.348 3
  24336030.450 7  95499707.343 7

  24675476.360 6 129670357.752 6 101041809.893 5  24675486.287 5  24675475.815 5
  24675487.240 7  96831702.026 7

  22117476.329 7 116228106.857 7  90567346.395 6  22117478.948 6  22117475.958 6


  20456983.444 8 107502213.498 8  83767993.509 9  20456987.463 9  20456983.333 9
  20456986.621 8  80277666.738 8

 23  9  2  9 36 30.0000000  0 11G21G19G28G32G04G22G02G14G08G17G03
  21973457.123 8 115471232.555 8  89977573.173 6  21973459.308 6  21973456.006 6


  23480665.408 7 123391707.440 7  96149371.784 5  23480666.039 5  23480664.089 5


  24562018.989 5 129074308.491 5 100577436.001 3  24562029.078 3  24562018.846 3
  24562034.162 6  96386734.926 6

  23742502.067 7 124767671.361 7  97221585.392 7  23742510.008 7  23742501.799 7
  23742509.399 7  93170681.602 7

  23868696.100 6 125430850.132 6  97738362.997 4  23868704.943 4  23868695.837 4
  23868708.503 7  93665944.166 7

  24181311.695 6 127073598.482 6  99018369.835 4  24181315.281 4  24181310.855 4


  21435119.770 8 112642274.328 8  87773171.147 6  21435120.210 6  21435118.755 6


  24350601.743 6 127963194.130 6  99711564.315 3  24350604.372 3  24350601.614 3
  24350611.106 7  95556924.356 7

  24697082.005 6 129783898.843 6 101130283.242 5  24697092.973 5  24697081.455 5
  24697093.350 7  96916488.919 7

  22106461.581 7 116170222.782 7  90522241.924 6  22106463.968 6  22106461.215 6


  20449775.077 8 107464332.735 8  83738476.043 9  20449778.725 9  20449774.975 9
  20449778.130 8  80249379.169 8

 23  9  2  9 37  0.0000000  0 11G21G19G28G32G04G22G02G14G08G17G03
  21984895.325 7 115531340.819 7  90024410.689 6  21984897.637 6  21984894.199 6


  23461463.538 7 123290802.062 7  96070744.198 5  23461463.954 5  23461462.242 5


  24550552.187 5 129014050.705 5 100530481.932 3  24550562.272 3  24550552.022 3
  24550567.189 6  96341737.282 6

  23757177.695 7 124844791.200 7  97281678.667 7  23757185.463 7  23757177.432 7
  23757184.962 7  93228270.959 7

  23847305.631 6 125318440.969 6  97650771.484 4  23847314.106 4  23847305.368 4
  23847317.932 7  93582002.300 7

  24190036.053 6 127119444.376 6  99054093.857 4  24190039.059 4  24190035.231 4


  21443718.405 8 112687460.644 8  87808381.194 6  21443718.908 6  21443717.386 6


  24365230.888 6 128040071.504 6  99771468.693 3  24365233.819 3  24365230.754 3
  24365239.987 7  95614332.709 7

  24718696.156 5 129897479.388 5 101218787.330 5  24718707.237 5  24718695.593 5
  24718707.837 7  97001305.244 7

  22095528.085 7 116112767.927 7  90477471.913 6  22095530.433 6  22095527.719 6


  20442649.934 8 107426889.462 8  83709299.482 9  20442653.306 9  20442649.832 9
  20442652.955 8  80221418.304 8

 23  9  2  9 37 30.0000000  0 11G21G19G28G32G04G22G02G14G08G17G03
  21996377.869 7 115591681.503 7  90071429.309 6  21996380.226 6  21996376.743 6


  23442317.494 6 123190188.597 6  95992344.084 4  23442317.751 4  23442316.238 4


  24539157.747 5 128954170.718 5 100483822.261 3  24539167.276 3  24539157.618 3
  24539172.439 6  96297021.765 6

  23771923.539 7 124922280.839 7  97342060.099 7  23771931.275 7  23771923.298 7
  23771930.848 7  93286136.469 7

  23825935.767 6 125206142.937 6  97563266.581 4  23825944.411 4  23825935.490 4
  23825948.480 7  93498143.451 7

  24198835.212 6 127165685.298 6  99090125.690 4  24198837.755 4  24198834.412 4


  21452377.670 8 112732964.692 8  87843838.820 6  21452378.094 6  21452376.660 6


  24379908.147 6 128117200.961 6  99831569.513 4  24379912.298 4  24379908.040 4
  24379917.544 7  95671929.325 7

  24740316.653 5 130011094.942 5 101307318.703 5  24740327.995 5  24740316.036 5
  24740328.249 7  97086147.762 7

  22084676.377 7 116055743.116 7  90433037.000 6  22084678.563 6  22084676.020 6


  20435607.683 8 107389882.607 8  83680462.991 9  20435611.698 9  20435607.576 9
  20435610.683 8  80193783.338 8

 23  9  2  9 38  0.0000000  0 11G21G19G28G32G04G22G02G14G08G17G03
  22007905.307 8 115652258.262 8  90118631.891 6  22007907.429 6  22007904.181 6


  23423228.206 6 123089873.331 6  95914176.326 4  23423228.359 4  23423226.959 4


  24527835.011 5 128894674.794 5 100437461.859 3  24527845.524 3  24527834.900 3
  24527850.635 6  96252593.075 6

  23786739.686 7 125000141.487 7  97402730.632 7  23786747.810 7  23786739.432 7
  23786747.227 7  93344279.054 7

  23804588.156 6 125093962.250 6  97475853.111 4  23804596.398 4  23804587.902 4
  23804600.911 7  93414372.245 7

  24207709.785 6 127212323.024 6  99126466.728 4  24207713.116 4  24207708.985 4


  21461097.906 8 112778790.607 8  87879547.252 6  21461098.308 6  21461096.896 6


  24394632.363 6 128194583.044 6  99891867.183 3  24394639.043 3  24394632.261 3
  24394642.795 7  95729714.565 7

  24761944.440 6 130124747.181 6 101395878.618 5  24761956.354 5  24761943.797 5
  24761956.230 7  97171017.629 7

  22073908.098 7 115999154.019 7  90388941.601 6  22073909.472 6  22073907.736 6


  20428648.946 8 107353315.960 8  83651969.515 9  20428653.509 9  20428648.844 9
  20428652.322 8  80166477.093 8

 23  9  2  9 38 30.0000000  0 11G21G19G28G32G04G22G02G14G08G17G03
  22019477.267 8 115713069.423 8  90166017.130 6  22019479.371 6  22019476.132 6


  23404196.064 7 122989857.821 7  95836242.127 4  23404196.089 4  23404194.817 4


  24516587.669 5 128835564.366 5 100391401.825 3  24516597.216 3  24516587.598 3
  24516602.367 6  96208452.223 6

  23801626.162 7 125078369.518 7  97463687.433 7  23801634.256 7  23801625.903 7
  23801633.647 7  93402695.965 7

  23783263.322 6 124981900.228 6  97388532.114 4  23783271.443 4  23783263.068 4
  23783276.002 7  93330689.664 7

  24216660.176 6 127259354.140 6  99163114.294 4  24216663.695 4  24216659.372 4


  21469879.357 8 112824936.750 8  87915505.208 6  21469879.418 6  21469878.347 6


  24409405.612 6 128272213.312 6  99952358.230 4  24409412.960 4  24409405.523 4
  24409415.209 7  95787685.147 7

  24783578.628 6 130238432.197 6 101484464.110 5  24783589.790 5  24783577.976 5
  24783589.619 7  97255911.992 7

  22063222.790 7 115943001.292 7  90345186.241 6  22063223.908 6  22063222.442 6


  20421774.187 8 107317188.358 8  83623818.153 9  20421778.568 9  20421774.085 9
  20421777.437 8  80139498.704 8

 23  9  2  9 39  0.0000000  0 11G21G19G28G32G04G22G02G14G08G17G03
  22031093.405 8 115774111.615 8  90213582.389 6  22031095.541 6  22031092.274 6


  23385220.482 7 122890142.173 7  95758541.595 4  23385220.764 4  23385219.230 4


  24505412.459 5 128776839.069 5 100345641.913 3  24505422.062 3  24505412.366 3
  24505427.568 6  96164598.970 6

  23816581.520 7 125156959.619 7  97524926.373 7  23816589.625 7  23816581.266 7
  23816589.013 7  93461383.257 7

  23761960.844 6 124869956.529 6  97301303.357 4  23761969.242 4  23761960.585 4
  23761973.600 7  93247095.474 7

  24225683.345 6 127306773.518 6  99200064.399 4  24225686.252 4  24225682.563 4


  21478721.104 8 112871400.002 8  87951710.264 6  21478721.375 6  21478720.085 6


  24424224.362 6 128350085.785 6 100013038.031 4  24424231.628 4  24424224.251 4
  24424233.816 7  95845836.601 7

  24805218.204 6 130352145.774 6 101573071.837 6  24805229.153 6  24805217.570 6
  24805228.643 7  97340827.697 7

  22052620.078 7 115887283.560 7  90301769.837 6  22052621.169 6  22052619.739 6


  20414982.450 8 107281497.033 8  83596006.743 9  20414986.351 9  20414982.348 9
  20414985.647 8  80112846.109 8

 23  9  2  9 39 30.0000000  0 11G21G19G28G32G04G22G02G14G08G17G03
  22042754.136 7 115835388.699 7  90261330.680 6  22042756.445 6  22042753.005 6


  23366303.563 7 122790733.578 7  95681080.320 5  23366304.356 5  23366302.303 5


  24494311.100 5 128718505.855 5 100300187.530 3  24494321.731 3  24494310.989 3
  24494327.121 6  96121038.526 6

  23831605.860 7 125235913.676 7  97586448.915 7  23831614.135 7  23831605.597 7
  23831613.422 7  93520342.345 7

  23740682.756 6 124758137.994 6  97214172.170 4  23740691.241 4  23740682.484 4
  23740694.823 7  93163594.777 7

  24234781.759 6 127354583.263 6  99237318.682 4  24234784.595 4  24234780.959 4


  21487624.088 8 112918184.602 8  87988165.720 6  21487624.612 6  21487623.073 6


  24439090.530 6 128428201.712 6 100073907.534 4  24439096.788 4  24439090.356 4
  24439098.828 7  95904169.863 7

  24826862.065 6 130465888.940 6 101661702.642 6  24826874.026 6  24826861.453 6
  24826873.718 7  97425765.500 7

  22042100.860 7 115832007.202 7  90258697.364 6  22042102.608 6  22042100.512 6


  20408274.507 8 107246246.406 8  83568538.740 9  20408278.223 9  20408274.405 9
  20408277.572 8  80086522.608 8

 23  9  2  9 40  0.0000000  0 11G21G19G28G32G04G22G02G14G08G17G03
  22054458.240 8 115896895.466 8  90309257.954 6  22054460.978 6  22054457.091 6


  23347444.790 7 122691630.587 7  95603857.196 5  23347446.223 5  23347443.521 5


  24483285.382 5 128660563.024 5 100255037.353 3  24483295.549 3  24483285.257 3
  24483300.601 6  96077769.601 6

  23846698.496 7 125315224.964 7  97648249.827 7  23846706.716 7  23846698.210 7
  23846706.019 7  93579568.198 7

  23719427.847 6 124646442.930 6  97127137.212 4  23719436.418 4  23719427.579 4
  23719439.762 7  93080186.306 7

  24243952.557 6 127402776.970 6  99274872.138 4  24243956.517 4  24243951.753 4


  21496587.324 8 112965285.936 8  88024867.992 6  21496587.698 6  21496586.309 6


  24454000.555 5 128506553.683 5 100134960.959 4  24454007.933 4  24454000.354 4
  24454008.620 7  95962679.354 7

  24848511.479 6 130579656.132 6 101750352.180 6  24848523.385 6  24848510.880 6
  24848523.171 7  97510721.259 7

  22031665.790 7 115777170.221 7  90215967.280 6  22031667.980 6  22031665.433 6


  20401649.452 8 107211432.284 8  83541410.876 9  20401653.132 9  20401649.350 9
  20401652.686 8  80060525.078 8

 23  9  2  9 40 30.0000000  0 11G21G19G28G32G04G22G02G14G08G17G03
  22066207.589 8 115958636.234 8  90357367.567 6  22066210.214 6  22066206.472 6


  23328645.551 7 122592839.985 7  95526877.517 5  23328647.196 5  23328644.268 5


  24472334.612 5 128603017.272 5 100210196.607 3  24472344.834 3  24472334.478 3
  24472350.035 6  96034797.265 6

  23861859.377 7 125394895.273 7  97710330.502 7  23861867.498 7  23861859.051 7
  23861866.962 7  93639062.162 7

  23698197.868 6 124534878.083 6  97040203.752 4  23698206.255 4  23698197.600 4
  23698209.464 7  92996875.102 7

  24253197.309 6 127451356.721 6  99312726.425 4  24253199.897 4  24253196.509 4


  21505611.278 8 113012707.980 8  88061820.166 6  21505611.811 6  21505610.263 6


  24468955.537 6 128585142.814 6 100196199.177 3  24468961.483 3  24468955.296 3
  24468963.523 7  96021365.948 7

  24870166.333 6 130693448.434 6 101839021.274 6  24870177.720 6  24870165.734 6
  24870177.835 7  97595695.782 7

  22021315.645 7 115722778.024 7  90173583.777 6  22021317.141 6  22021315.292 6


  20395108.506 8 107177058.948 8  83514626.482 9  20395112.166 9  20395108.404 9
  20395111.551 8  80034856.708 8

 23  9  2  9 41  0.0000000  0 11G21G19G28G32G04G22G02G14G08G17G03
  22078000.066 7 116020607.658 7  90405656.913 6  22078003.345 6  22077998.940 6


  23309906.163 7 122494362.085 7  95450141.442 5  23309906.880 5  23309904.876 5


  24461459.670 6 128545868.502 6 100165665.196 3  24461469.991 3  24461459.523 3
  24461474.918 6  95992121.335 6

  23877087.352 7 125474919.389 7  97772686.870 7  23877095.734 7  23877086.986 7
  23877095.177 7  93698820.324 7

  23676991.986 6 124423443.194 6  96953371.559 4  23677000.634 4  23676991.705 4
  23677004.160 7  92913660.951 7

  24262514.124 6 127500317.333 6  99350877.483 4  24262516.597 4  24262513.337 4


  21514695.943 8 113060447.864 8  88099020.008 7  21514696.624 7  21514694.924 7


  24483953.920 6 128663963.234 6 100257617.607 4  24483958.713 4  24483953.666 4
  24483962.683 7  96080225.269 7

  24891823.771 6 130807260.838 6 101927706.043 5  24891835.797 5  24891823.154 5
  24891835.945 7  97680685.314 7

  22011049.602 7 115668830.045 7  90131546.398 6  22011050.606 6  22011049.254 6


  20388650.741 8 107143123.691 8  83488183.447 9  20388654.781 9  20388650.634 9
  20388653.824 8  80009515.469 8

 23  9  2  9 41 30.0000000  0 12G21G19G28G32G04G22G02G14G31G08G17G03
  22089837.449 8 116082812.815 8  90454128.391 6  22089840.531 6  22089836.327 6


  23291226.871 6 122396202.991 6  95373653.801 5  23291227.984 5  23291225.575 5


  24450660.525 6 128489122.390 6 100121447.568 3  24450671.492 3  24450660.369 3
  24450676.248 7  95949746.114 7

  23892383.118 7 125555298.129 7  97835319.569 7  23892391.525 7  23892382.738 7
  23892390.788 7  93758843.302 7

  23655812.309 6 124312144.026 6  96866645.120 4  23655821.041 4  23655812.023 4
  23655824.337 7  92830548.163 7

  24271903.220 6 127549660.257 6  99389326.455 4  24271906.710 4  24271902.460 4


  21523841.545 8 113108508.560 8  88136469.841 6  21523842.332 6  21523840.530 6


  24498996.976 6 128743015.090 6 100319216.366 4  24499000.668 4  24498996.748 4
  24499006.429 7  96139257.409 7

  25063167.337 6 131707834.652 6


  24913485.795 5 130921094.238 5 102016407.168 5  24913497.734 5  24913485.174 5
  24913497.455 7  97765690.537 7

  22000868.845 7 115615332.009 7  90089859.644 6  22000870.620 6  22000868.492 6


  20382276.814 8 107109629.788 8  83462084.325 9  20382281.280 9  20382276.712 9
  20382280.128 8  79984503.817 8

 23  9  2  9 42  0.0000000  0 11G21G19G28G32G04G22G02G14G08G17G03
  22101718.836 7 116145248.715 7  90502779.668 6  22101721.214 6  22101717.714 6


  23272609.076 6 122298363.412 6  95297415.146 5  23272610.025 5  23272607.757 5


  24439939.371 6 128432779.206 6 100077543.933 3  24439949.357 3  24439939.264 3
  24439954.452 7  95907671.824 7

  23907745.406 7 125636026.724 7  97898224.902 7  23907753.865 7  23907745.062 7
  23907752.906 7  93819127.566 7

  23634658.710 6 124200980.888 6  96780024.680 4  23634667.127 4  23634658.415 4
  23634670.592 7  92747536.947 7

  24281365.628 6 127599380.844 6  99428069.711 4  24281367.999 4  24281364.864 4


  21533047.900 8 113156887.209 8  88174167.424 6  21533048.390 6  21533046.885 6


  24514082.124 6 128822292.961 6 100380991.257 4  24514085.799 4  24514081.959 4
  24514093.023 7  96198458.325 7

  24935150.578 5 131034944.631 5 102105121.512 5  24935163.242 5  24935149.957 5
  24935162.872 7  97850708.428 7

  21990773.935 7 115562282.716 7  90048522.560 6  21990775.831 6  21990773.573 6


  20375986.659 8 107076575.047 8  83436327.399 9  20375991.185 9  20375986.566 9
  20375990.094 8  79959820.107 8

 23  9  2  9 42 30.0000000  0 12G21G19G28G32G04G31G22G02G14G08G17G03
  22113643.470 7 116207913.869 7  90551609.588 6  22113645.717 6  22113642.344 6


  23254052.143 6 122200845.285 6  95221426.982 5  23254052.745 5  23254050.842 5


  24429293.878 6 128376840.561 6 100033955.529 3  24429304.039 3  24429293.740 3
  24429309.688 7  95865899.649 7

  23923173.571 7 125717101.780 7  97961400.200 7  23923182.138 7  23923173.236 7
  23923181.082 7  93879670.548 7

  23613531.181 6 124089955.366 6  96693511.490 4  23613539.451 4  23613530.891 4
  23613542.630 7  92664628.514 7

  25029803.672 6 131532486.234 6 102492907.942 6  25029814.756 6  25029803.520 6


  24290897.714 6 127649475.797 6  99467104.689 4  24290901.187 4  24290896.932 4


  21542314.284 8 113205583.066 8  88212112.184 6  21542314.779 6  21542313.274 6


  24529210.526 6 128901792.837 6 100442939.183 4  24529214.482 4  24529210.401 4
  24529221.277 7  96257825.060 7

  24956817.513 5 131148808.835 5 102193846.628 4  24956830.972 4  24956816.896 4
  24956830.789 7  97935736.597 7

  21980764.685 7 115509682.795 7  90007535.626 6  21980766.000 6  21980764.323 6


  20369779.967 8 107043958.529 8  83410911.950 9  20369784.404 9  20369779.887 9
  20369783.341 8  79935463.641 8

 23  9  2  9 43  0.0000000  0 12G21G19G28G32G04G31G22G02G14G08G17G03
  22125612.088 7 116270809.280 7  90600618.928 6  22125614.343 6  22125610.962 6


  23235556.803 6 122103652.583 6  95145692.395 5  23235557.026 5  23235555.525 5


  24418726.948 6 128321310.265 6  99990685.348 3  24418736.930 3  24418726.761 3
  24418742.583 7  95824432.422 7

  23938667.664 6 125798522.202 6  98024844.618 7  23938676.014 7  23938667.369 7
  23938674.937 7  93940471.443 7

  23592430.230 6 123979071.360 6  96607108.579 4  23592438.601 4  23592429.926 4
  23592442.338 7  92581825.763 7

  25013168.085 6 131445064.913 6 102424787.606 6  25013178.803 6  25013167.728 6


  24300502.019 6 127699944.155 6  99506430.653 4  24300505.689 4  24300501.255 4


  21551641.363 8 113254597.187 8  88250304.940 6  21551641.987 6  21551640.353 6


  24544380.702 6 128981512.847 6 100505058.608 4  24544385.244 4  24544380.609 4
  24544391.979 7  96317356.186 7

  24978488.365 5 131262685.215 5 102282581.232 4  24978500.767 4  24978487.762 4
  24978500.835 7  98020773.895 7

  21970841.602 7 115457535.993 7  89966901.770 6  21970842.839 6  21970841.254 6


  20363657.126 8 107011781.614 8  83385839.044 9  20363661.158 9  20363657.042 9
  20363660.325 8  79911435.445 8

 23  9  2  9 43 30.0000000  0 12G21G19G28G32G04G31G22G02G14G08G17G03
  22137624.537 7 116333934.648 7  90649807.453 6  22137626.729 6  22137623.393 6


  23217124.142 6 122006788.480 6  95070213.846 5  23217124.153 5  23217122.886 5


  24408238.065 6 128266191.191 6  99947735.611 3  24408247.972 3  24408237.846 3
  24408253.460 7  95783272.287 7

  23954226.648 6 125880285.918 6  98088556.549 7  23954235.168 7  23954226.376 7
  23954234.003 7  94001528.701 7

  23571356.656 6 123868331.754 6  96520818.206 4  23571365.480 4  23571356.357 4
  23571369.079 7  92499130.843 7

  24996563.945 6 131357810.160 6 102356797.037 6  24996574.641 6  24996563.615 6


  24310176.757 6 127750784.142 6  99546046.191 4  24310179.694 4  24310175.984 4


  21561029.102 8 113303929.520 8  88288745.653 6  21561029.867 6  21561028.092 6


  24559593.057 6 129061450.274 6 100567347.452 4  24559597.396 4  24559592.999 4
  24559603.333 7  96377049.635 7

  25000159.502 5 131376572.207 5 102371324.115 4  25000172.854 4  25000158.944 4
  25000173.160 7  98105819.076 7

  21961004.660 7 115405844.454 7  89926622.659 6  21961006.532 6  21961004.312 6


  20357618.149 8 106980044.672 8  83361108.976 9  20357621.496 9  20357618.065 9
  20357620.934 8  79887735.798 8

 23  9  2  9 44  0.0000000  0 12G21G19G28G32G04G31G22G02G14G08G17G03
  22149680.167 7 116397286.464 7  90699172.425 6  22149682.288 6  22149679.036 6


  23198753.881 6 121910252.976 6  94994991.355 5  23198754.789 5  23198752.625 5


  24397827.768 6 128211482.675 6  99905105.817 3  24397836.806 3  24397827.545 3
  24397842.602 7  95742418.798 7

  23969850.142 6 125962387.350 6  98152531.647 7  23969858.610 7  23969849.879 7
  23969857.529 7  94062838.158 7

  23550310.966 6 123757735.995 6  96434639.920 4  23550319.234 4  23550310.689 4
  23550323.249 7  92416543.358 7

  24979991.717 6 131270721.907 6 102288936.206 6  24980002.163 6  24979991.391 6


  24319920.318 6 127801990.317 6  99585947.078 4  24319923.138 4  24319919.523 4


  21570476.816 8 113353576.945 8  88327431.891 6  21570477.473 6  21570475.806 6


  24574844.958 5 129141598.924 5 100629800.855 3  24574850.122 3  24574844.896 3
  24574855.339 7  96436900.808 7

  25021833.712 5 131490464.323 5 102460070.990 5  25021845.745 5  25021833.185 5
  25021846.482 7  98190868.100 7

  21951254.284 7 115354606.231 7  89886696.780 6  21951256.083 6  21951253.940 6


  20351661.857 8 106948744.635 8  83336719.348 9  20351665.099 9  20351661.764 9
  20351664.781 8  79864362.410 8

 23  9  2  9 44 30.0000000  0 12G21G19G28G32G04G31G22G02G14G08G17G03
  22161779.595 7 116460870.146 7  90748718.073 6  22161781.903 6  22161778.460 6


  23180447.835 6 121814054.591 6  94920031.586 5  23180449.577 5  23180446.575 5


  24387496.236 6 128157193.049 6  99862802.439 3  24387505.895 3  24387496.013 3
  24387511.383 7  95701878.099 7

  23985538.408 7 126044829.836 7  98216772.494 7  23985546.816 7  23985538.163 7
  23985545.831 7  94124402.285 7

  23529294.093 6 123647292.505 6  96348580.268 4  23529302.386 4  23529293.807 4
  23529306.607 7  92334069.585 7

  24963452.327 6 131183809.194 6 102221212.134 6  24963463.073 6  24963451.992 6


  24329735.804 6 127853566.367 6  99626136.180 4  24329738.331 4  24329735.013 4


  21579985.449 8 113403544.869 8  88366367.866 6  21579985.842 6  21579984.443 6


  24590139.720 5 129221961.541 5 100692421.019 3  24590142.872 3  24590139.555 3
  24590147.614 7  96496911.778 7

  25043508.880 6 131604365.304 6 102548824.794 5  25043520.601 5  25043508.362 5
  25043521.452 7  98275923.756 7

  21941592.114 7 115303829.993 7  89847130.877 6  21941593.015 6  21941591.770 6


  20345789.719 8 106917887.312 8  83312674.694 9  20345793.285 9  20345789.617 9
  20345792.793 8  79841319.614 8

 23  9  2  9 45  0.0000000  0 12G21G19G28G32G04G31G22G02G14G08G17G03
  22173922.766 7 116524682.363 7  90798441.794 6  22173925.302 6  22173921.622 6


  23162206.020 6 121718193.090 6  94845334.323 5  23162207.403 5  23162204.751 5


  24377244.465 6 128103321.601 6  99820824.921 3  24377254.298 3  24377244.233 3
  24377259.650 7  95661649.698 7

  24001290.523 6 126127607.789 6  98281274.750 7  24001298.870 7  24001290.278 7
  24001298.022 7  94186216.929 7

  23508306.807 6 123537000.666 6  96262638.762 4  23508313.930 4  23508306.526 4
  23508318.813 7  92251709.040 7

  24946946.772 6 131097072.275 6 102153625.038 6  24946957.566 6  24946946.437 6


  24339619.166 6 127905506.535 6  99666609.003 4  24339621.789 4  24339618.371 4


  21589554.521 7 113453830.044 7  88405551.052 6  21589554.928 6  21589553.511 6


  24605471.335 5 129302531.889 5 100755203.054 3  24605477.139 3  24605471.076 3
  24605479.359 7  96557077.877 7

  25065184.546 6 131718269.648 6 102637581.215 5  25065195.562 5  25065184.014 5
  25065196.952 7  98360981.931 7

  21932017.315 7 115253513.791 7  89807923.437 6  21932018.077 6  21932016.971 6


  20340001.344 8 106887469.604 8  83288972.592 9  20340005.334 9  20340001.237 9
  20340004.570 8  79818605.106 8

 23  9  2  9 45 30.0000000  0 12G21G19G28G32G04G31G22G02G14G08G17G03
  22186109.250 7 116588721.676 7  90848342.468 6  22186112.033 6  22186108.119 6


  23144028.318 6 121622670.734 6  94770901.313 5  23144029.238 5  23144027.026 5


  24367072.989 6 128049869.816 6  99779174.428 3  24367081.990 3  24367072.784 3
  24367087.935 7  95621734.692 7

  24017105.871 6 126210717.766 6  98346035.710 7  24017114.235 7  24017105.635 7
  24017113.287 7  94248279.519 7

  23487347.145 6 123426862.151 6  96176816.740 4  23487355.204 4  23487346.868 4
  23487359.555 7  92169462.999 7

  24930475.251 6 131010513.139 6 102086176.459 6  24930485.694 6  24930474.925 6


  24349571.375 6 127957807.735 6  99707363.144 4  24349574.713 4  24349570.606 4


  21599183.487 7 113504431.189 7  88444980.446 6  21599184.254 6  21599182.472 6


  24620842.227 5 129383305.800 5 100818143.693 3  24620848.165 3  24620841.843 3
  24620850.187 7  96617395.993 7

  25086859.733 6 131832174.267 6 102726337.825 5  25086871.460 5  25086859.183 5
  25086872.357 7  98446040.304 7

  21922530.151 7 115203658.622 7  89769075.249 6  21922531.924 6  21922529.812 6


  20334296.508 8 106857490.550 8  83265612.295 9  20334300.691 9  20334296.401 9
  20334299.777 8  79796218.156 8

 23  9  2  9 46  0.0000000  0 12G21G19G28G32G04G31G22G02G14G08G17G03
  22198339.123 7 116652989.721 7  90898421.369 6  22198341.992 6  22198337.992 6


  23125916.577 7 121527492.423 7  94696736.375 5  23125917.155 5  23125915.240 5


  24356981.965 6 127996842.418 6  99737854.627 4  24356991.007 4  24356981.764 4
  24356996.806 7  95582136.609 7

  24032984.535 6 126294159.648 6  98411055.302 7  24032992.829 7  24032984.294 7
  24032991.878 7  94310589.951 7

  23466418.574 6 123316881.784 6  96091117.956 4  23466426.796 4  23466418.311 4
  23466430.528 7  92087335.053 7

  24914038.038 6 130924137.429 6 102018870.796 6  24914048.838 6  24914037.694 6


  24359593.296 6 128010470.269 6  99748398.831 4  24359597.483 4  24359592.550 4


  21608873.156 7 113555350.305 7  88484657.607 6  21608874.005 6  21608872.141 6


  24636251.267 5 129464282.542 5 100881242.403 4  24636257.391 4  24636250.816 4
  24636258.982 7  96677865.573 7

  25108535.233 6 131946079.116 6 102815094.643 5  25108546.791 5  25108534.666 5
  25108547.991 7  98531098.862 7

  21913131.233 8 115154268.415 8  89730589.373 6  21913133.720 6  21913130.898 6


  20328675.697 8 106827952.389 8  83242595.556 9  20328679.659 9  20328675.595 9
  20328678.898 8  79774160.453 8

 23  9  2  9 46 30.0000000  0 12G21G19G28G32G04G31G22G02G14G08G17G03
  22210612.443 7 116717485.394 7  90948677.645 6  22210614.819 6  22210611.308 6


  23107870.779 7 121432660.229 7  94622841.147 5  23107871.708 5  23107869.425 5


  24346972.303 6 127944240.966 6  99696866.745 4  24346981.215 4  24346972.098 4
  24346986.962 7  95542856.611 7

  24048925.481 6 126377930.106 6  98476330.928 6  24048933.936 6  24048925.236 6
  24048932.897 7  94373145.741 7

  23445520.531 6 123207061.247 6  96005543.720 4  23445528.598 4  23445520.263 4
  23445531.838 7  92005326.449 7

  24897636.860 6 130837947.863 6 101951710.179 7  24897647.492 7  24897636.521 7


  24369682.560 6 128063490.615 6  99789713.344 4  24369686.616 4  24369681.827 4


  21618623.327 7 113606586.609 7  88524581.923 6  21618624.159 6  21618622.321 6


  24651697.651 6 129545458.058 6 100944495.997 4  24651705.964 4  24651697.186 4
  24651705.864 7  96738483.624 7

  25130210.916 6 132059980.934 6 102903849.084 5  25130222.122 5  25130210.353 5
  25130222.882 7  98616155.154 7

  21903821.400 7 115105343.926 7  89692466.392 6  21903823.396 6  21903821.065 6


  20323138.483 8 106798854.240 8  83219921.685 9  20323142.259 9  20323138.376 9
  20323141.610 8  79752431.325 8

 23  9  2  9 47  0.0000000  0 12G21G19G28G32G04G31G22G02G14G08G17G03
  22222928.309 7 116782205.957 7  90999109.154 6  22222930.721 6  22222927.178 6


  23089890.896 7 121338174.590 7  94549215.977 5  23089892.376 5  23089889.542 5


  24337043.378 6 127892065.573 6  99656210.832 4  24337052.591 4  24337043.191 4
  24337058.122 7  95503894.760 7

  24064927.655 6 126462024.364 6  98541858.874 6  24064936.607 6  24064927.369 6
  24064935.556 7  94435943.347 7

  23424652.699 6 123097400.816 6  95920094.252 4  23424660.452 4  23424652.436 4
  23424663.970 7  91923437.394 7

  24881270.864 6 130751944.933 6 101884694.987 7  24881281.733 7  24881270.511 7


  24379839.764 6 128116864.063 6  99831302.987 4  24379842.571 4  24379839.009 4


  21628433.142 8 113658137.002 8  88564750.985 6  21628434.029 6  21628432.132 6


  24667180.451 6 129626827.018 6 101007900.347 4  24667188.541 4  24667180.089 4
  24667190.156 7  96799246.091 7

  25151884.486 6 132173875.243 6 102992597.668 5  25151895.863 5  25151883.901 5
  25151896.453 7  98701205.847 7

  21894600.164 7 115056884.797 7  89654706.021 6  21894602.194 6  21894599.834 6


  20317684.504 8 106770193.775 8  83197588.868 9  20317688.092 9  20317684.402 9
  20317687.586 8  79731029.042 8

 23  9  2  9 47 30.0000000  0 12G21G19G28G32G04G31G22G02G14G08G17G03
  22235287.999 7 116847154.925 7  91049718.634 6  22235290.302 6  22235286.868 6


  23071978.079 6 121244042.131 6  94475866.003 5  23071979.400 5  23071976.729 5


  24327196.837 6 127840322.802 6  99615892.028 4  24327205.887 4  24327196.645 4
  24327211.300 7  95465255.956 7

  24080991.935 6 126546444.076 6  98607640.415 6  24081001.157 6  24080991.618 6
  24081000.088 7  94498983.975 7

  23403816.631 7 122987907.253 7  95834774.789 4  23403823.931 4  23403816.386 4
  23403827.643 7  91841672.950 7

  24864942.153 6 130666136.179 6 101817831.100 7  24864952.764 7  24864941.800 7


  24390063.486 6 128170592.744 6  99873169.420 4  24390066.813 4  24390062.731 4


  21638303.477 8 113710005.606 8  88605167.996 6  21638304.589 6  21638302.467 6


  24682701.495 6 129708390.507 6 101071456.246 4  24682710.108 4  24682701.200 4
  24682711.273 7  96860153.833 7

  25173556.573 5 132287764.027 5 103081341.952 5  25173568.256 5  25173555.983 5
  25173568.874 7  98786252.381 7

  21885468.177 7 115008896.895 7  89617312.838 6  21885470.725 6  21885467.847 6


  20312314.776 8 106741975.127 8  83175600.317 9  20312318.243 9  20312314.674 9
  20312317.729 8  79709956.686 8

 23  9  2  9 48  0.0000000  0 12G21G19G28G32G04G31G22G02G14G08G17G03
  22247690.459 7 116912330.404 7  91100504.616 6  22247692.989 6  22247689.333 6


  23054133.106 6 121150265.178 6  94402793.036 5  23054133.883 5  23054131.752 5


  24317432.733 6 127789013.622 6  99575911.077 4  24317441.854 4  24317432.568 4
  24317447.367 7  95426940.919 7

  24097117.903 6 126631185.465 6  98673672.599 6  24097126.771 6  24097117.573 6
  24097125.937 7  94562264.807 7

  23383012.653 6 122878581.750 6  95749586.275 4  23383019.350 4  23383012.417 4
  23383023.671 7  91760034.004 7

  24848650.649 6 130580523.639 6 101751120.106 7  24848661.226 7  24848650.287 7


  24400355.131 6 128224672.918 6  99915309.740 4  24400358.116 4  24400354.385 4


  21648234.044 8 113762190.746 8  88645831.650 6  21648234.840 6  21648233.029 6


  24698258.354 6 129790143.907 6 101135160.186 3  24698263.763 3  24698258.162 3
  24698269.466 7  96921203.394 7

  25195227.634 5 132401643.596 5 103170079.052 5  25195239.115 5  25195227.031 5
  25195239.684 7  98871292.077 7

  21876426.180 7 114961380.526 7  89580287.083 6  21876427.977 6  21876425.832 6


  20307028.734 8 106714196.888 8  83153954.938 9  20307032.245 9  20307028.632 9
  20307031.731 8  79689213.199 8

 23  9  2  9 48 30.0000000  0 12G21G19G28G32G04G31G22G02G14G08G17G03
  22260135.571 7 116977729.931 7  91151465.175 6  22260138.290 6  22260134.445 6


  23036356.021 7 121056844.644 7  94329997.768 5  23036355.890 5  23036354.684 5


  24307751.755 6 127738138.458 6  99536268.294 4  24307760.205 4  24307751.581 4
  24307766.016 7  95388949.966 7

  24113304.511 6 126716244.036 6  98739951.937 6  24113312.711 6  24113304.176 6
  24113312.140 7  94625782.507 7

  23362240.307 6 122769424.902 6  95664529.175 4  23362247.178 4  23362240.079 4
  23362251.354 7  91678521.003 7

  24832396.770 6 130495108.869 6 101684563.225 7  24832407.312 7  24832396.399 7


  24410712.156 6 128279100.066 6  99957720.415 4  24410714.837 4  24410711.401 4


  21658224.348 8 113814690.235 8  88686740.243 6  21658224.326 6  21658223.333 6


  24713851.127 6 129872082.229 6 101199008.206 4  24713857.442 4  24713851.002 4
  24713862.010 7  96982391.018 7

  25216895.270 5 132515509.730 5 103258805.658 5  25216907.794 5  25216894.649 5
  25216908.263 7  98956321.694 7

  21867473.968 7 114914335.590 7  89543628.667 6  21867474.999 6  21867473.611 6


  20301825.970 8 106686856.982 8  83132651.115 9  20301829.959 9  20301825.868 9
  20301829.141 8  79668797.037 8

 23  9  2  9 49  0.0000000  0 12G21G19G28G32G04G31G22G02G14G08G17G03
  22272623.521 7 117043354.530 7  91202601.116 6  22272626.455 6  22272622.395 6


  23018647.337 6 120963784.403 6  94257483.265 5  23018648.136 5  23018646.014 5


  24298153.375 6 127687700.920 6  99496966.515 4  24298162.273 4  24298153.210 4
  24298167.813 7  95351285.806 7

  24129550.356 6 126801618.598 6  98806477.503 6  24129558.923 6  24129550.043 6
  24129558.442 7  94689536.163 7

  23341501.392 6 122660440.523 6  95579606.478 4  23341508.087 4  23341501.169 4
  23341512.178 7  91597136.799 7

  24816181.043 6 130409895.745 6 101618163.473 7  24816191.701 7  24816180.668 7


  24421135.387 6 128333873.166 6 100000400.675 4  24421138.065 4  24421134.641 4


  21668274.688 8 113867505.115 8  88727894.600 6  21668274.348 6  21668273.673 6


  24729478.918 6 129954203.625 6 101262998.818 3  24729484.483 3  24729478.829 3
  24729488.750 7  97043715.386 7

  25238560.892 5 132629361.478 5 103347521.108 5  25238573.085 5  25238560.240 5
  25238573.848 7  99041340.615 7

  21858612.211 7 114867764.972 7  89507339.850 6  21858612.885 6  21858611.854 6


  20296707.138 8 106659956.639 8  83111689.813 9  20296711.042 9  20296707.036 9
  20296710.241 8  79648709.124 8

 23  9  2  9 49 30.0000000  0 12G21G19G28G32G04G31G22G02G14G08G17G03
  22285154.376 7 117109203.921 7  91253912.213 6  22285157.533 6  22285153.250 6


  23001007.165 6 120871087.583 6  94185251.962 5  23001008.869 5  23001005.855 5


  24288639.264 6 127637703.658 6  99458007.792 4  24288647.900 4  24288639.095 4
  24288653.386 7  95313950.387 7

  24145856.229 6 126887306.925 6  98873247.540 6  24145865.009 6  24145855.934 6
  24145864.360 7  94753524.087 7

  23320795.755 6 122551631.452 6  95494820.389 5  23320802.460 5  23320795.541 5
  23320806.330 7  91515883.497 7

  24800004.144 6 130324887.817 6 101551923.620 6  24800015.076 6  24800003.773 6


  24431623.720 6 128388990.235 6 100043348.944 4  24431627.313 4  24431622.951 4


  21678385.128 7 113920635.091 7  88769294.485 6  21678385.348 6  21678384.109 6


  24745141.138 6 130036505.257 6 101327129.931 3  24745143.604 3  24745141.040 3
  24745151.668 7  97105174.339 7

  25260223.015 5 132743196.748 5 103436223.674 4  25260235.131 4  25260222.381 4
  25260236.016 7  99126347.187 7

  21849840.287 7 114821670.502 7  89471422.067 6  21849841.995 6  21849839.925 6


  20291671.813 8 106633496.043 8  83091071.167 9  20291675.582 9  20291671.711 9
  20291675.077 8  79628949.588 8

 23  9  2  9 50  0.0000000  0 12G21G19G28G32G04G31G22G02G14G08G17G03
  22297728.077 7 117175278.936 7  91305399.126 6  22297731.440 6  22297726.946 6


  22983437.649 7 120778758.513 7  94113307.204 5  22983439.257 5  22983436.339 5


  24279209.979 6 127588150.480 6  99419395.088 4  24279218.087 4  24279209.827 4
  24279223.565 7  95276946.604 7

  24162221.522 6 126973308.062 6  98940261.329 6  24162230.586 6  24162221.223 6
  24162230.023 7  94817745.633 7

  23300123.947 6 122443001.803 6  95410174.103 4  23300130.863 4  23300123.737 4
  23300134.789 7  91434764.163 7

  24783867.845 6 130240090.215 6 101485847.667 6  24783878.553 6  24783867.474 6


  24442176.773 6 128444450.158 6 100086564.412 4  24442181.039 4  24442176.009 4


  21688555.673 8 113974081.558 8  88810940.989 6  21688556.666 6  21688554.654 6


  24760837.902 6 130118985.511 6 101391400.211 3  24760839.851 3  24760837.710 3
  24760846.248 7  97166766.707 7

  25281882.330 5 132857015.214 5 103524913.162 4  25281894.838 4  25281881.696 4
  25281894.766 7  99211341.255 7

  21841159.888 7 114776055.519 7  89435877.921 6  21841162.153 6  21841159.513 6


  20286720.432 8 106607476.604 8  83070796.279 9  20286724.126 9  20286720.334 9
  20286723.883 8  79609519.484 8

 23  9  2  9 50 30.0000000  0 12G21G19G28G32G04G31G22G02G14G08G17G03
  22310344.359 7 117241576.580 7  91357059.511 6  22310347.629 6  22310343.237 6


  22965937.954 7 120686797.509 7  94041649.219 5  22965938.863 5  22965936.649 5


  24269863.888 6 127539041.010 6  99381128.129 4  24269872.656 4  24269863.759 4
  24269878.242 7  95240274.128 7

  24178645.570 6 127059616.873 6  99007514.859 6  24178654.707 6  24178645.284 6
  24178654.115 7  94882196.894 7

  23279486.062 6 122334551.416 6  95325667.509 4  23279493.269 4  23279485.852 4
  23279497.415 7  91353778.714 7

  24767771.425 6 130155503.264 6 101419935.867 6  24767782.133 6  24767771.059 6


  24452795.735 6 128500248.052 6 100130043.225 4  24452799.231 4  24452794.971 4


  21698785.913 7 114027841.553 7  88852831.792 6  21698786.954 6  21698784.889 6


  24776566.706 5 130201638.603 5 101455805.175 3  24776567.066 3  24776566.393 3
  24776575.333 7  97228488.141 7

  25303536.610 5 132970811.899 5 103613585.700 5  25303549.369 5  25303535.958 5
  25303549.843 7  99296319.049 7

  21832570.842 7 114730919.048 7  89400706.636 6  21832572.657 6  21832570.476 6


  20281852.496 8 106581895.544 8  83050862.990 9  20281856.350 9  20281852.394 9
  20281855.977 8  79590416.748 8

 23  9  2  9 51  0.0000000  0 12G21G19G28G32G04G31G22G02G14G08G17G03
  22323002.893 7 117308097.783 7  91408894.100 6  22323006.029 6  22323001.771 6


  22948509.008 7 120595208.465 7  93970281.079 5  22948509.693 5  22948507.694 5


  24260603.702 6 127490378.952 6  99343209.788 4  24260612.310 4  24260603.577 4
  24260617.993 7  95203935.748 7

  24195128.010 6 127146232.181 6  99075007.195 6  24195137.075 6  24195127.724 6
  24195136.570 7  94946877.044 7

  23258883.472 6 122226284.269 6  95241303.689 4  23258890.495 4  23258883.262 4
  23258894.577 7  91272930.097 7

  24751715.836 6 130071131.907 6 101354192.059 6  24751726.562 6  24751715.461 6


  24463477.079 6 128556382.879 6 100173784.574 4  24463481.178 4  24463476.319 4


  21709075.948 7 114081916.012 7  88894967.639 6  21709077.026 6  21709074.929 6


  24792326.830 5 130284462.824 5 101520343.494 3  24792328.614 3  24792326.450 3
  24792336.129 7  97290337.342 7

  25325187.008 5 133084585.566 5 103702240.299 5  25325200.385 5  25325186.360 5
  25325200.795 7  99381279.661 7

  21824073.371 7 114686263.907 7  89365910.416 6  21824074.677 6  21824073.014 6


  20277068.124 8 106556754.143 8  83031272.290 9  20277072.170 9  20277068.022 9
  20277071.616 8  79571642.325 8

 23  9  2  9 51 30.0000000  0 12G21G19G28G32G04G31G22G02G14G08G17G03
  22335703.695 7 117374840.289 7  91460901.136 6  22335706.754 6  22335702.564 6


  22931151.594 7 120503993.180 7  93899204.189 5  22931152.387 5  22931150.266 5


  24251429.454 6 127442164.995 6  99305640.608 4  24251437.741 4  24251429.343 4
  24251442.923 7  95167931.977 7

  24211668.039 6 127233149.946 6  99142735.208 6  24211677.088 6  24211667.771 6
  24211676.519 7  95011783.022 7

  23238316.193 6 122118201.310 6  95157083.398 4  23238322.834 4  23238315.983 4
  23238326.984 7  91192219.042 7

  24735701.673 6 129986977.719 6 101288617.486 6  24735712.528 6  24735701.311 6


  24474222.721 6 128612850.592 6 100217785.321 3  24474225.487 3  24474221.948 3


  21719425.393 8 114136303.189 8  88937347.164 6  21719426.788 6  21719424.374 6


  24808118.398 6 130367453.501 6 101585011.500 3  24808122.556 3  24808118.036 3
  24808128.470 7  97352310.866 7

  25346833.617 5 133198333.025 5 103790874.449 5  25346846.140 5  25346832.974 5
  25346846.356 7  99466220.670 7

  21815667.280 7 114642090.524 7  89331489.602 6  21815668.827 6  21815666.918 6


  20272367.392 8 106532050.679 8  83012022.836 9  20272371.311 9  20272367.290 9
  20272370.588 8  79553194.930 8

 23  9  2  9 52  0.0000000  0 12G21G19G28G32G04G31G22G02G14G08G17G03
  22348446.901 7 117441805.598 7  91513081.793 6  22348449.893 6  22348445.779 6


  22913866.366 7 120413156.222 7  93828422.127 5  22913867.544 5  22913865.034 5


  24242340.364 6 127394403.417 6  99268423.915 4  24242348.762 4  24242340.221 4
  24242354.029 7  95132266.004 7

  24228266.003 6 127320369.681 6  99210698.514 6  24228274.619 6  24228265.771 6
  24228273.988 7  95076914.495 7

  23217784.532 6 122010307.127 6  95073010.206 4  23217790.995 4  23217784.318 4
  23217794.947 7  91111648.949 7

  24719729.727 6 129903045.676 6 101223216.014 6  24719740.707 6  24719729.325 6


  24485031.837 6 128669650.908 6 100262045.236 4  24485034.371 4  24485031.037 4


  21729834.866 8 114191004.686 8  88979971.611 6  21729835.914 6  21729833.838 6


  24823941.870 6 130450609.466 6 101649808.333 3  24823946.503 3  24823941.625 3
  24823952.421 7  97414407.813 7

  25368473.760 5 133312053.846 5 103879487.853 5  25368486.377 5  25368473.099 5
  25368486.873 7  99551141.818 7

  21807353.685 7 114598402.324 7  89297446.857 6  21807355.186 6  21807353.323 6


  20267750.329 8 106507787.045 8  82993116.101 9  20267754.161 9  20267750.227 9
  20267753.384 8  79535075.977 8

 23  9  2  9 52 30.0000000  0 12G21G19G28G32G04G31G22G02G14G08G17G03
  22361232.623 7 117508995.740 7  91565437.631 6  22361235.753 6  22361231.488 6


  22896653.714 7 120322702.884 7  93757939.001 5  22896654.911 5  22896652.400 5


  24233338.321 6 127347098.727 6  99231563.231 4  24233346.831 4  24233338.178 4
  24233352.226 7  95096941.215 7

  24244920.693 6 127407891.174 6  99278896.955 6  24244929.520 6  24244920.479 6
  24244928.902 7  95142271.311 7

  23197289.500 6 121902606.554 6  94989087.883 5  23197296.453 5  23197289.295 5
  23197300.030 7  91031223.433 7

  24703801.585 5 129819341.346 5 101157992.013 6  24703812.143 6  24703801.174 6


  24495903.773 6 128726783.514 6 100306564.078 4  24495907.329 4  24495902.973 4


  21740304.468 8 114246022.098 8  89022842.225 6  21740305.192 6  21740303.440 6


  24839795.913 6 130533929.903 6 101714733.315 3  24839802.926 3  24839795.739 3
  24839806.969 7  97476627.585 7

  25390109.010 5 133425747.382 5 103968080.009 5  25390121.886 5  25390108.367 5
  25390122.486 7  99636042.552 7

  21799133.367 7 114555203.129 7  89263785.147 6  21799135.009 6  21799133.010 6


  20263217.383 8 106483965.364 8  82974553.747 9  20263221.103 9  20263217.281 9
  20263220.176 8  79517287.051 8

 23  9  2  9 53  0.0000000  0 12G21G19G28G32G04G31G22G02G14G08G17G03
  22374060.741 7 117576406.161 7  91617965.116 6  22374063.121 6  22374059.610 6


  22879513.700 7 120232632.229 7  93687754.080 5  22879514.437 5  22879512.426 5


  24224422.755 6 127300249.198 6  99195057.223 4  24224431.568 4  24224422.608 4
  24224436.953 7  95061956.313 7

  24261631.847 6 127495707.974 6  99347325.489 6  24261640.530 6  24261631.691 6
  24261640.189 7  95207848.614 7

  23176831.152 7 121795098.172 7  94905315.334 5  23176837.996 5  23176830.951 5
  23176841.389 7  90950941.449 7

  24687916.064 5 129735864.197 5 101092945.026 6  24687926.931 6  24687915.675 6


  24506838.095 6 128784242.089 6 100351336.944 4  24506841.510 4  24506837.304 4


  21750833.370 8 114301351.742 8  89065956.138 6  21750834.240 6  21750832.338 6


  24855682.078 6 130617407.713 6 101779780.950 3  24855688.677 3  24855681.935 3
  24855692.651 7  97538964.869 7

  25411737.336 5 133539408.033 5 104056646.518 5  25411751.515 5  25411736.710 5
  25411751.600 7  99720918.732 7

  21791005.076 8 114512490.324 8  89230502.451 6  21791007.631 6  21791004.728 6


  20258767.363 8 106460581.520 8  82956332.569 9  20258771.287 9  20258767.256 9
  20258770.338 8  79499825.091 8

 23  9  2  9 53 30.0000000  0 12G21G19G28G32G04G31G22G02G14G08G17G03
  22386930.236 7 117644036.255 7  91670663.779 6  22386932.529 6  22386929.105 6


  22862447.324 6 120142946.600 6  93617869.171 5  22862447.646 5  22862446.059 5


  24215594.548 6 127253856.861 6  99158907.451 4  24215603.476 4  24215594.365 4
  24215608.546 7  95027312.816 7

  24278398.375 6 127583817.364 6  99415982.017 6  24278407.338 6  24278398.246 6
  24278407.007 7  95273644.433 7

  23156410.130 7 121687784.347 7  94821694.367 5  23156416.789 5  23156409.934 5
  23156420.364 7  90870804.723 7

  24672074.218 5 129652617.370 5 101028077.513 6  24672085.448 6  24672073.821 6


  24517832.935 6 128842023.905 6 100396361.653 4  24517836.591 4  24517832.157 4


  21761421.655 8 114356992.771 8  89109312.692 6  21761422.772 6  21761420.623 6


  24871596.927 6 130701039.638 6 101844948.648 4  24871604.103 4  24871596.825 4
  24871607.023 7  97601417.252 7

  25433360.342 5 133653033.590 5 104145185.655 5  25433373.766 5  25433359.725 5
  25433374.106 7  99805768.695 7

  21782969.870 8 114470265.516 8  89197600.013 6  21782972.481 6  21782969.522 6


  20254400.683 8 106437635.173 8  82938452.294 9  20254404.689 9  20254400.576 9
  20254403.787 8  79482689.824 8

 23  9  2  9 54  0.0000000  0 12G21G19G28G32G04G31G22G02G14G08G17G03
  22399842.050 7 117711887.930 7  91723535.103 6  22399844.773 6  22399840.924 6


  22845454.679 7 120053651.676 7  93548288.729 5  22845455.839 5  22845453.405 5


  24206854.644 6 127207926.690 6  99123117.817 4  24206862.958 4  24206854.492 4
  24206868.257 7  94993014.427 7

  24295221.252 6 127672219.682 6  99484866.804 6  24295229.807 6  24295221.168 6
  24295229.470 7  95339658.991 7

  23136026.883 7 121580670.382 7  94738229.124 5  23136033.133 5  23136026.687 5
  23136037.101 7  90790817.251 7

  24656278.000 5 129569606.711 5 100963394.016 5  24656288.670 5  24656277.607 5


  24528891.483 6 128900129.386 6 100441638.571 3  24528894.180 3  24528890.714 3


  21772069.598 7 114412947.689 7  89152913.832 6  21772071.127 6  21772068.583 6


  24887540.431 6 130784825.247 6 101910236.084 4  24887549.049 4  24887540.360 4
  24887550.401 7  97663984.375 7

  25454976.589 6 133766624.302 6 104233697.667 5  25454989.381 5  25454975.990 5
  25454989.994 7  99890592.653 7

  21775028.662 7 114428533.252 7  89165081.383 6  21775030.616 6  21775028.309 6


  20250117.839 8 106415128.924 8  82920914.949 9  20250121.914 9  20250117.732 9
  20250121.075 8  79465883.198 8

 23  9  2  9 54 30.0000000  0 12G21G19G28G32G04G31G22G02G14G08G17G03
  22412795.607 7 117779960.359 7  91776578.439 6  22412799.159 6  22412794.476 6


  22828537.345 7 119964749.696 7  93479014.507 5  22828538.887 5  22828536.053 5


  24198202.184 6 127162460.073 6  99087689.375 4  24198210.958 4  24198202.006 4
  24198216.249 7  94959062.188 7

  24312098.698 6 127760911.588 6  99553977.243 6  24312107.404 6  24312098.622 6
  24312107.164 7  95405889.791 7

  23115681.868 7 121473758.000 7  94654920.944 5  23115688.099 5  23115681.667 5
  23115692.211 7  90710980.301 7

  24640526.905 5 129486834.569 5 100898896.382 5  24640537.630 5  24640526.521 5


  24540008.868 6 128958555.003 6 100487164.944 4  24540011.779 4  24540008.064 4


  21782776.897 8 114469215.081 8  89196758.466 6  21782778.585 6  21782775.869 6


  24903512.546 6 130868760.643 6 101975640.273 4  24903521.180 4  24903512.511 4
  24903522.851 7  97726663.399 7

  25476584.177 5 133880177.031 5 104322180.093 5  25476597.905 5  25476583.569 5
  25476598.801 7  99975388.203 7

  21767181.364 7 114387294.178 7  89132947.048 6  21767182.854 6  21767181.016 6


  20245918.642 8 106393061.773 8  82903719.756 9  20245922.609 9  20245918.540 9
  20245921.785 8  79449404.472 8

 23  9  2  9 55  0.0000000  0 11G21G19G28G32G04G31G22G02G14G17G03
  22425790.899 7 117848251.401 7  91829792.134 5  22425794.599 5  22425789.764 5


  22811694.575 7 119876242.361 7  93410047.798 5  22811696.282 5  22811693.270 5


  24189638.943 6 127117458.151 6  99052623.033 4  24189647.603 4  24189638.778 4
  24189652.637 7  94925456.959 7

  24329030.609 6 127849889.572 6  99623310.595 6  24329039.506 6  24329030.574 6
  24329039.242 7  95472334.225 7

  23095375.669 7 121367048.785 7  94571771.083 5  23095382.036 5  23095375.468 5
  23095385.428 7  90631295.063 7

  24624821.988 5 129404303.217 5 100834586.373 5  24624832.303 5  24624821.582 5


  24551187.056 6 129017297.538 6 100532938.301 4  24551190.465 4  24551186.243 4


  21793543.908 8 114525793.675 8  89240845.599 6  21793545.445 6  21793542.880 6


  24919513.441 5 130952841.812 5 102041157.985 3  24919521.768 3  24919513.445 3
  24919522.971 7  97789451.166 7

  21759427.461 7 114346548.854 7  89101197.449 6  21759428.767 6  21759427.108 6


  20241802.594 8 106371432.525 8  82886865.783 9  20241806.506 9  20241802.487 9
  20241805.891 8  79433252.742 8

 23  9  2  9 55 30.0000000  0 12G21G19G28G32G04G31G22G02G14G17G03G09
  22438828.395 7 117916762.198 7  91883177.059 5  22438831.722 5  22438827.260 5


  22794927.718 7 119788133.527 7  93341391.596 5  22794929.070 5  22794926.399 5


  24181164.208 6 127072924.355 6  99017921.451 4  24181173.012 4  24181164.052 4
  24181177.973 7  94892201.302 7

  24346017.553 6 127939152.423 6  99692865.912 6  24346025.850 6  24346017.545 6
  24346025.560 7  95538991.373 7

  23075108.810 7 121260546.550 7  94488782.514 5  23075115.447 5  23075108.618 5
  23075118.331 7  90551764.386 7

  24609162.612 5 129322017.184 5 100770467.501 5  24609173.582 5  24609162.165 5


  24562425.050 6 129076355.552 6 100578957.454 3  24562430.321 3  24562424.268 3


  21804369.605 7 114582684.506 7  89285176.025 6  21804371.506 6  21804368.573 6


  24935541.009 6 131037066.821 6 102106787.826 3  24935548.303 3  24935540.992 3
  24935550.850 7  97852346.442 7

  21751768.463 7 114306300.082 7  89069834.773 6  21751769.382 6  21751768.101 6


  20237770.360 8 106350242.293 8  82870353.896 9  20237773.864 9  20237770.258 9
  20237773.394 8  79417428.853 8

  25358788.274 5 133261335.368 5 103840046.454 5  25358799.844 5  25358787.872 5
  25358800.937 7  99513382.441 7

 23  9  2  9 56  0.0000000  0 11G21G19G28G32G04G31G22G02G14G17G03
  22451907.142 7 117985490.409 7  91936731.403 6  22451910.496 6  22451906.016 6


  22778237.586 7 119700424.032 7  93273046.571 5  22778238.074 5  22778236.258 5


  24172778.195 6 127028858.453 6  98983584.458 4  24172787.212 4  24172778.017 4
  24172792.403 7  94859295.039 7

  24363056.746 6 128028695.277 6  99762639.410 6  24363065.512 6  24363056.733 6
  24363065.259 7  95605857.607 7

  23054881.091 7 121154251.480 7  94405955.362 5  23054888.063 5  23054880.899 5
  23054890.903 7  90472388.378 7

  24593551.380 5 129239977.234 5 100706540.384 5  24593561.846 5  24593550.933 5


  24573722.207 6 129135724.334 6 100625218.767 3  24573726.548 3  24573721.412 3


  21815254.554 8 114639884.556 8  89329747.407 6  21815256.184 6  21815253.526 6


  24951595.545 6 131121430.257 6 102172525.550 3  24951601.412 3  24951595.411 3
  24951604.377 7  97915345.084 7

  21744203.793 7 114266546.681 7  89038858.106 6  21744204.893 6  21744203.431 6


  20233821.059 8 106329488.522 8  82854182.114 9  20233824.639 9  20233820.957 9
  20233824.147 8  79401930.891 8

 23  9  2  9 56 30.0000000  0 11G21G19G28G32G04G31G22G02G14G17G03
  22465027.269 7 118054437.713 7  91990456.470 6  22465030.939 6  22465026.143 6


  22761624.427 7 119613120.372 7  93205017.789 5  22761624.803 5  22761623.095 5


  24164483.391 6 126985266.173 6  98949616.515 4  24164491.764 4  24164483.262 4
  24164496.978 7  94826742.432 7

  24380149.508 7 128118519.230 7  99832631.948 6  24380158.583 6  24380149.459 6
  24380158.435 7  95672933.752 7

  23034694.375 7 121048169.707 7  94323294.399 5  23034700.864 5  23034694.192 5
  23034704.306 7  90393171.648 7

  24577988.653 5 129158190.558 5 100642810.634 5  24577998.175 5  24577988.242 5


  24585080.052 6 129195404.902 6 100671723.033 3  24585082.712 3  24585079.279 3


  21826199.016 8 114697397.308 8  89374562.452 6  21826200.477 6  21826197.984 6


  24967677.326 5 131205932.559 5 102238371.488 3  24967681.058 3  24967677.121 3
  24967685.353 7  97978447.394 7

  21736734.187 7 114227293.858 7  89008271.508 6  21736736.090 6  21736733.821 6


  20229955.513 8 106309174.523 8  82838353.013 9  20229959.255 9  20229955.411 9
  20229958.605 8  79386761.330 8

 23  9  2  9 57  0.0000000  0 11G21G19G28G32G04G31G22G02G14G17G03
  22478188.974 7 118123601.839 7  92044350.495 6  22478192.446 6  22478187.852 6


  22745088.256 7 119526222.850 7  93137305.484 5  22745088.846 5  22745086.955 5


  24156277.635 6 126942147.119 6  98916017.302 4  24156286.455 4  24156277.510 4
  24156291.555 7  94794543.200 7

  24397295.389 7 128208619.270 7  99902839.606 6  24397304.203 6  24397295.287 6
  24397304.195 7  95740216.055 7

  23014548.479 7 120942301.246 7  94240799.647 5  23014554.535 5  23014548.296 5
  23014558.240 7  90314114.224 7

  24562472.809 6 129076657.454 6 100579278.462 5  24562482.712 5  24562472.425 5


  24596494.594 6 129255392.444 6 100718466.506 3  24596498.764 3  24596493.830 3


  21837202.332 7 114755219.632 7  89419618.717 6  21837203.727 6  21837201.300 6


  24983783.054 6 131290568.176 6 102304321.290 3  24983786.733 3  24983782.741 3
  24983790.304 7  98041649.295 7

  21729359.553 8 114188540.783 8  88978074.320 6  21729362.286 6  21729359.182 6


  20226173.119 8 106289297.626 8  82822864.507 9  20226176.904 9  20226173.017 9
  20226176.308 8  79371918.183 8

 23  9  2  9 57 30.0000000  0 12G21G19G28G32G04G31G22G02G14G09G17G03
  22491392.203 7 118192983.498 7  92098414.027 6  22491395.507 6  22491391.086 6


  22728630.169 7 119439735.008 7  93069912.407 5  22728630.968 5  22728628.886 5


  24148163.016 6 126899504.388 6  98882789.247 4  24148171.781 4  24148162.833 4
  24148176.763 7  94762699.655 7

  24414492.886 7 128298993.958 7  99973261.274 6  24414502.293 6  24414492.721 6
  24414501.947 7  95807703.438 7

  22994443.059 7 120836649.693 7  94158473.909 5  22994449.703 5  22994442.876 5
  22994453.194 7  90235218.747 7

  24547006.346 6 128995382.370 6 100515947.344 5  24547016.469 5  24547005.975 5


  24607969.952 6 129315685.300 6 100765447.897 3  24607971.074 3  24607969.152 3


  21848264.765 7 114813352.189 7  89464916.716 6  21848265.739 6  21848263.733 6


  24999913.277 5 131375335.055 5 102370373.377 3  24999916.515 3  24999912.924 3
  24999921.682 7  98104949.236 7

  25269391.312 5 132791556.527 5 103473978.436 5  25269402.467 5  25269390.839 5
  25269404.454 7  99162567.157 7

  21722080.641 8 114150289.781 8  88948268.354 6  21722083.169 6  21722080.266 6


  20222474.061 8 106269858.603 8  82807717.200 9  20222477.573 9  20222473.959 9
  20222477.147 8  79357402.012 8

 23  9  2  9 58  0.0000000  0 12G21G19G28G32G04G31G22G02G14G09G17G03
  22504636.384 7 118262583.299 7  92152647.533 6  22504640.324 6  22504635.262 6


  22712250.785 7 119353661.322 7  93002842.048 5  22712251.707 5  22712249.507 5


  24140140.067 6 126857341.474 6  98849935.067 4  24140148.562 4  24140139.924 4
  24140153.321 7  94731214.417 7

  24431743.027 7 128389642.191 7 100043896.108 6  24431752.303 6  24431742.795 6
  24431752.079 7  95875395.123 7

  22974380.308 7 120731219.022 7  94076320.298 5  22974387.261 5  22974380.125 5
  22974389.960 7  90156488.222 7

  24531590.356 6 128914370.041 6 100452820.971 5  24531600.349 5  24531589.976 5


  24619499.583 6 129376282.296 6 100812666.279 4  24619502.736 4  24619498.770 4


  21859386.390 8 114871796.071 8  89510457.308 6  21859386.916 6  21859385.366 6


  25016067.257 5 131460231.531 5 102436526.488 3  25016071.560 3  25016066.868 3
  25016077.301 7  98168345.952 7

  25247036.208 6 132674081.803 6 103382439.702 5  25247048.130 5  25247035.882 5
  25247049.301 7  99074842.565 7

  21714898.104 8 114112543.799 8  88918855.904 6  21714899.685 6  21714897.738 6


  20218858.403 8 106250858.681 8  82792912.047 9  20218861.912 9  20218858.296 9
  20218861.517 8  79343213.743 8

 23  9  2  9 58 30.0000000  0 12G21G19G28G32G04G31G22G02G14G09G17G03
  22517921.884 7 118332397.236 7  92207047.904 6  22517925.643 6  22517920.767 6


  22695949.790 7 119268000.317 7  92936093.253 5  22695950.893 5  22695948.489 5


  24132207.072 6 126815656.340 6  98817453.191 4  24132216.035 4  24132206.907 4
  24132220.870 7  94700085.953 7

  24449043.906 7 128480557.407 7 100114738.972 6  24449052.984 6  24449043.611 6
  24449052.841 7  95943286.164 7

  22954358.947 7 120626007.657 7  93994337.563 5  22954365.916 5  22954358.760 5
  22954368.921 7  90077921.456 7

  24516223.530 6 128833619.473 6 100389898.559 5  24516234.071 5  24516223.155 5


  24631087.976 6 129437176.812 6 100860116.491 3  24631092.402 3  24631087.158 3


  21870566.061 8 114930546.808 8  89556237.012 6  21870566.700 6  21870565.015 6


  25032245.301 6 131545250.332 6 102502774.889 3  25032249.530 3  25032244.921 3
  25032255.920 7  98231834.029 7

  25224680.887 6 132556597.022 6 103290893.104 5  25224691.431 5  25224680.525 5
  25224692.453 7  98987110.395 7

  21707810.795 8 114075300.249 8  88889834.964 6  21707812.386 6  21707810.424 6


  20215325.599 8 106232293.483 8  82778445.649 9  20215329.219 9  20215325.497 9
  20215328.652 8  79329350.108 8

 23  9  2  9 59  0.0000000  0 12G21G19G28G32G04G31G22G02G14G09G17G03
  22531248.376 7 118402428.991 7  92261617.998 6  22531252.253 6  22531247.254 6


  22679729.199 7 119182760.137 7  92869672.357 5  22679730.014 5  22679727.889 5


  24124367.239 6 126774456.183 6  98785349.203 4  24124375.550 4  24124367.056 4
  24124380.823 7  94669319.633 7

  24466395.815 7 128571742.199 7 100185791.896 6  24466404.815 6  24466395.471 6
  24466404.839 7  96011378.506 7

  22934381.575 7 120521023.273 7  93912531.682 5  22934387.996 5  22934381.392 5
  22934391.121 7  89999524.175 7

  24500909.180 6 128753139.152 6 100327186.735 5  24500919.024 5  24500908.814 5


  24642732.478 6 129498371.517 6 100907800.589 4  24642736.625 4  24642731.687 4


  21881805.355 8 114989609.201 8  89602259.559 6  21881806.301 6  21881804.318 6


  25048447.589 6 131630393.546 6 102569120.265 3  25048452.040 3  25048447.263 3
  25048458.304 7  98295414.962 7

  25202322.619 6 132439109.413 6 103199344.313 5  25202334.370 5  25202322.239 5
  25202335.568 7  98899376.131 7

  21700820.227 8 114038565.600 8  88861210.565 6  21700822.170 6  21700819.852 6


  20211876.573 8 106214167.908 8  82764321.818 9  20211880.271 9  20211876.471 9
  20211879.493 8  79315814.770 8

 23  9  2  9 59 30.0000000  0 12G21G19G28G32G04G31G22G02G14G09G17G03
  22544615.821 7 118472674.743 7  92316354.841 6  22544619.550 6  22544614.699 6


  22663588.363 7 119097940.082 7  92803578.836 5  22663589.494 5  22663587.058 5


  24116619.130 6 126733739.415 6  98753621.878 4  24116627.346 4  24116618.978 4
  24116632.698 7  94638914.287 7

  24483798.035 7 128663190.604 7 100257050.243 6  24483806.894 6  24483797.687 6
  24483806.948 7  96079667.723 7

  22914446.497 7 120416264.867 7  93830901.883 5  22914452.989 5  22914446.310 5
  22914456.543 8  89921295.651 8

  24485645.168 6 128672928.752 6 100264685.235 5  24485655.203 5  24485644.802 5


  24654433.497 6 129559860.343 6 100955713.890 4  24654437.709 4  24654432.733 4


  21893103.235 8 115048979.162 8  89648521.769 6  21893104.524 6  21893102.203 6


  25064671.795 6 131715654.556 6 102635557.351 3  25064676.501 3  25064671.541 3
  25064683.054 7  98359083.872 7

  25179965.177 6 132321617.556 6 103107792.225 5  25179976.136 5  25179964.793 5
  25179977.703 7  98811638.716 7

  21693926.501 8 114002337.802 8  88832981.114 6  21693928.415 6  21693926.126 6


  20208510.304 8 106196478.114 8  82750537.554 9  20208514.100 9  20208510.202 9
  20208513.263 8  79302604.852 8

                            4  1
RINEX FILE SPLICE; other post-header comments skipped       COMMENT
 23  9  2 10  0  0.0000000  0 12G21G19G28G32G04G31G22G02G14G09G17G03
  22558023.472 7 118543132.782 7  92371257.096 6  22558027.176 6  22558022.359 6


  22647528.163 7 119013541.469 7  92737813.701 5  22647528.591 5  22647526.867 5


  24108962.832 6 126693506.844 6  98722271.838 4  24108971.396 4  24108962.631 4
  24108976.575 7  94608870.501 7

  24501249.829 7 128754898.819 7 100328511.045 6  24501258.643 6  24501249.485 6
  24501258.334 7  96148150.954 7

  22894554.710 7 120311733.758 7  93749449.185 5  22894561.115 5  22894554.523 5
  22894564.760 8  89843236.858 8

  24470433.530 6 128592990.104 6 100202395.502 5  24470443.178 5  24470433.177 5


  24666190.291 6 129621639.414 6 101003853.338 4  24666193.790 4  24666189.527 4


  21904459.165 8 115108654.828 8  89695022.196 6  21904460.654 6  21904458.137 6


  25080918.393 6 131801029.015 6 102702082.853 3  25080922.953 3  25080918.206 3
  25080929.201 7  98422837.480 7

  25157606.591 6 132204122.443 6 103016237.569 5  25157617.868 5  25157606.220 5
  25157619.044 7  98723898.843 7

  21687128.962 8 113966616.823 8  88805146.579 6  21687131.095 6  21687128.596 6


  20205226.526 8 106179222.627 8  82737091.709 9  20205230.458 9  20205226.424 9
  20205229.749 8  79289719.248 8

 23  9  2 10  0 30.0000000  0 11G21G19G28G32G04G31G22G02G09G17G03
  22571472.730 7 118613807.505 7  92426328.198 6  22571476.160 6  22571471.622 6


  22631549.503 7 118929572.127 7  92672383.083 5  22631549.804 5  22631548.207 5


  24101400.398 6 126653765.271 6  98691304.390 4  24101408.808 4  24101400.179 4
  24101413.984 7  94579193.372 7

  24518751.543 7 128846869.165 7 100400176.086 6  24518760.216 6  24518751.204 6
  24518759.933 7  96216829.915 7

  22874707.559 7 120207437.281 7  93668179.318 5  22874713.900 5  22874707.363 5
  22874717.572 7  89765353.272 7

  24455275.087 6 128513331.182 6 100140323.729 5  24455284.781 5  24455274.725 5


  24678001.500 6 129683710.929 6 101052220.690 3  24678004.133 3  24678000.758 3


  21915874.122 7 115168640.664 7  89741764.310 6  21915875.533 6  21915873.098 6


  25135248.834 6 132086631.108 6 102924685.851 5  25135259.626 5  25135248.463 5
  25135261.648 7  98636161.792 7

  21680429.042 8 113931409.005 8  88777711.912 6  21680430.957 6  21680428.685 6


  20202026.510 8 106162405.976 8  82723987.817 9  20202030.332 9  20202026.408 9
  20202029.723 8  79277161.355 8

 23  9  2 10  1  0.0000000  0 11G21G19G28G32G04G31G22G02G09G17G03
  22584962.682 7 118684698.077 7  92481567.493 6  22584966.532 6  22584961.574 6


  22615652.613 7 118846034.895 7  92607289.146 5  22615652.775 5  22615651.326 5


  24093932.254 6 126614516.587 6  98660721.017 4  24093940.274 4  24093932.062 4
  24093945.252 7  94549884.307 7

  24536302.115 6 128939099.112 6 100472043.415 6  24536311.403 6  24536301.780 6
  24536310.959 7  96285702.733 7

  22854905.378 7 120103377.836 7  93587094.158 5  22854911.823 5  22854905.182 5
  22854915.300 7  89687646.678 7

  24440170.316 5 128433955.251 5 100078472.457 5  24440180.031 5  24440169.945 5


  24689869.404 6 129746072.083 6 101100813.716 3  24689872.816 3  24689868.635 3


  21927348.044 7 115228936.355 7  89788747.877 6  21927349.497 6  21927347.025 6


  25112890.906 6 131969145.543 6 102833138.625 5  25112902.898 5  25112890.549 5
  25112904.469 7  98548429.068 7

  21673827.159 8 113896715.752 8  88750678.204 6  21673828.843 6  21673826.811 6


  20198909.763 8 106146027.755 8  82711225.559 9  20198913.555 9  20198909.656 9
  20198913.114 8  79264930.854 8

 23  9  2 10  1 30.0000000  0 11G21G19G28G32G04G31G22G02G09G17G03
  22598492.380 7 118755797.301 7  92536969.375 5  22598496.313 5  22598491.285 5


  22599837.232 7 118762925.747 7  92542528.776 5  22599837.269 5  22599835.963 5


  24086555.764 6 126575756.114 6  98630518.060 4  24086564.170 4  24086555.568 4
  24086569.424 7  94520939.806 7

  24553900.900 6 129031579.462 6 100544105.862 6  24553910.228 6  24553900.543 6
  24553909.753 7  96354762.542 7

  22835147.615 7 119999551.353 7  93506190.523 5  22835153.936 5  22835147.432 5
  22835157.512 7  89610114.047 7

  24425118.422 6 128354858.973 6 100016839.093 5  24425128.362 5  24425118.056 5


  24701788.898 6 129808713.921 6 101149625.449 4  24701793.675 4  24701788.152 4


  21938879.565 7 115289534.685 7  89835967.267 6  21938881.192 6  21938878.541 6


  25090535.366 5 131851661.448 5 102741592.560 5  25090546.794 5  25090535.045 5
  25090548.270 7  98460697.401 7

  21667322.200 7 113862531.604 7  88724041.197 6  21667324.060 6  21667321.852 6


  20195875.032 8 106130081.089 8  82698799.581 9  20195878.695 9  20195874.930 9
  20195878.635 8  79253022.624 8

 23  9  2 10  2  0.0000000  0 11G21G19G28G32G04G31G22G02G09G17G03
  22612063.188 7 118827111.097 7  92592538.457 5  22612066.798 5  22612062.093 5


  22584105.340 7 118680253.700 7  92478109.000 5  22584105.394 5  22584104.066 5


  24079274.527 6 126537491.892 6  98600701.785 4  24079282.809 4  24079274.335 4
  24079288.060 7  94492365.884 7

  24571547.600 6 129124313.910 6 100616366.287 6  24571557.277 6  24571547.261 6
  24571556.923 7  96424012.078 7

  22815436.198 7 119895966.490 7  93425475.143 5  22815442.008 5  22815436.029 5
  22815445.864 7  89532761.856 7

  24410121.887 6 128276051.517 6  99955430.790 5  24410131.540 5  24410121.543 5


  24713764.755 6 129871639.982 6 101198658.676 3  24713766.466 3  24713764.009 3


  21950470.043 7 115350441.372 7  89883426.930 6  21950471.280 6  21950469.015 6


  25068180.958 5 131734187.073 5 102650054.081 5  25068192.391 5  25068180.677 5
  25068193.930 7  98372973.006 7

  21660915.178 7 113828863.910 7  88697806.622 6  21660917.409 6  21660914.825 6


  20192923.908 8 106114571.784 8  82686714.402 9  20192927.287 9  20192923.801 9
  20192927.182 8  79241440.990 8

 23  9  2 10  2 30.0000000  0 11G21G19G28G32G04G31G22G02G09G17G03
  22625673.603 7 118898634.811 7  92648271.111 5  22625677.403 5  22625672.517 5


  22568456.572 7 118598018.225 7  92414029.403 5  22568457.183 5  22568455.262 5


  24072087.438 6 126499722.497 6  98571271.094 4  24072095.661 4  24072087.278 4
  24072100.750 7  94464161.484 7

  24589242.376 6 129217296.595 6 100688820.147 6  24589251.368 6  24589242.063 6
  24589250.873 7  96493446.977 7

  22795770.448 7 119792622.417 7  93344947.385 5  22795776.270 5  22795770.296 5
  22795780.116 7  89455589.470 7

  24395180.040 6 128197532.697 6  99894247.411 5  24395189.361 5  24395179.705 5


  24725790.414 6 129934844.406 6 101247908.800 4  24725795.264 4  24725789.690 4


  21962118.101 7 115411652.438 7  89931123.781 6  21962119.320 6  21962117.073 6


  25045827.687 5 131616721.346 5 102558522.350 5  25045838.803 5  25045827.406 5
  25045840.774 7  98285255.136 7

  21654606.610 7 113795710.838 7  88671973.062 6  21654608.293 6  21654606.248 6


  20190055.168 8 106099496.187 8  82674967.172 9  20190058.716 9  20190055.066 9
  20190058.340 8  79230183.227 8

 23  9  2 10  3  0.0000000  0 11G21G19G28G32G04G31G22G02G09G17G03
  22639325.323 7 118970374.138 7  92704171.774 5  22639329.450 5  22639324.241 5


  22552891.839 7 118516227.487 7  92350296.367 5  22552893.829 5  22552890.502 5


  24064995.027 6 126462455.514 6  98542231.898 4  24065003.784 4  24064994.853 4
  24065009.002 7  94436332.258 7

  24606984.282 6 129310530.694 6 100761469.908 6  24606993.364 6  24606984.005 6
  24606992.853 7  96563069.626 7

  22776151.668 7 119689527.310 7  93264613.641 5  22776158.420 5  22776151.512 5
  22776161.742 7  89378602.996 7

  24380294.845 6 128119311.529 6  99833295.972 5  24380304.204 5  24380294.528 5


  24737872.228 6 129998330.166 6 101297378.140 3  24737877.498 3  24737871.482 3


  21973825.169 7 115473173.092 7  89979061.873 6  21973826.653 6  21973824.150 6


  25023478.732 5 131499272.125 5 102467003.519 5  25023489.333 5  25023478.428 5
  25023490.372 7  98197549.592 7

  21648397.138 7 113763079.366 7  88646545.931 6  21648398.648 6  21648396.772 6


  20187269.950 8 106084859.608 8  82663562.034 9  20187273.755 9  20187269.848 9
  20187273.196 8  79219253.301 8

 23  9  2 10  3 30.0000000  0 11G21G19G28G32G04G31G22G02G09G17G03
  22653016.546 7 119042321.474 7  92760234.524 5  22653020.944 5  22653015.464 5


  22537411.424 7 118434877.375 7  92286906.675 5  22537413.597 5  22537410.079 5


  24057998.642 6 126425685.901 6  98513580.247 4  24058006.426 4  24057998.455 4
  24058011.858 7  94408874.436 7

  24624772.160 6 129404006.858 6 100834308.296 6  24624781.576 6  24624771.937 6
  24624781.060 7  96632873.038 7

  22756579.769 7 119586676.777 7  93184470.485 5  22756586.688 5  22756579.613 5
  22756589.689 7  89301799.161 7

  24365465.865 6 128041384.583 6  99772573.808 5  24365475.280 5  24365465.544 5


  24750005.119 6 130062087.623 6 101347059.235 3  24750008.112 3  24750004.355 3


  21985589.856 8 115534996.053 8  90027235.532 6  21985591.682 6  21985588.837 6


  25001130.532 6 131381834.784 6 102375494.004 5  25001141.811 5  25001130.188 5
  25001142.808 7  98109852.944 7

  21642285.675 8 113730963.884 8  88621520.863 6  21642287.497 6  21642285.313 6


  20184566.923 8 106070654.859 8  82652493.385 9  20184570.541 9  20184566.816 9
  20184570.222 8  79208645.846 8

 23  9  2 10  4  0.0000000  0 11G21G19G28G32G04G31G22G02G09G17G03
  22666747.469 7 119114478.371 7  92816460.569 5  22666751.905 5  22666746.378 5


  22522016.190 7 118353973.547 7  92223864.735 5  22522017.578 5  22522014.862 5


  24051096.662 6 126389417.972 6  98485319.545 4  24051105.405 4  24051096.502 4
  24051110.298 7  94381791.266 7

  24642606.355 6 129497725.050 6 100907335.288 6  24642615.779 6  24642606.190 6
  24642615.050 7  96702857.208 7

  22737055.754 7 119484075.791 7  93104521.771 5  22737062.377 5  22737055.589 5
  22737065.077 7  89225181.648 7

  24350693.586 6 127963757.153 6  99712085.033 5  24350703.100 5  24350693.273 5


  24762189.806 6 130126116.781 6 101396952.020 3  24762193.969 3  24762189.037 3


  21997412.033 8 115597123.361 8  90075646.346 6  21997414.193 6  21997411.014 6


  24978786.673 6 131264413.929 6 102283997.320 5  24978797.084 5  24978786.320 5
  24978798.124 7  98022168.666 7

  21636273.014 8 113699367.875 8  88596900.577 7  21636275.276 7  21636272.657 7


  20181946.372 8 106056884.057 8  82641762.880 9  20181950.098 9  20181946.265 9
  20181949.750 8  79198362.445 8

 23  9  2 10  4 30.0000000  0 11G21G19G28G32G04G31G22G02G09G17G03
  22680519.007 7 119186846.562 7  92872851.256 5  22680522.796 5  22680517.930 5


  22506706.770 7 118273520.186 7  92161173.787 5  22506706.590 5  22506705.460 5


  24044291.161 6 126353655.375 6  98457452.592 4  24044299.937 4  24044290.978 4
  24044304.868 7  94355085.443 7

  24660486.067 6 129591684.602 6 100980550.361 6  24660495.712 6  24660485.947 6
  24660495.267 7  96773021.603 7

  22717579.648 7 119381728.651 7  93024770.854 5  22717586.032 5  22717579.479 5
  22717589.096 7  89148753.703 7

  24335979.506 6 127886434.232 6  99651833.543 5  24335988.662 5  24335979.202 5


  24774425.196 6 130190416.939 6 101447055.932 3  24774428.874 3  24774424.423 3


  22009292.869 8 115659556.386 8  90124295.376 6  22009294.522 6  22009291.854 6


  24956446.040 6 131147013.583 6 102192516.648 6  24956456.497 6  24956445.665 6
  24956457.296 7  97934499.694 7

  21630360.134 7 113668294.529 7  88572687.554 6  21630362.015 6  21630359.790 6


  20179408.822 8 106043548.641 8  82631371.635 9  20179412.400 9  20179408.720 9
  20179412.012 8  79188404.169 8

 23  9  2 10  5  0.0000000  0 11G21G19G28G32G04G31G22G02G09G17G03
  22694330.117 7 119259423.778 7  92929404.816 5  22694333.504 5  22694329.035 5


  22491483.100 7 118193518.759 7  92098835.002 5  22491482.582 5  22491481.808 5


  24037582.231 6 126318398.497 6  98429979.722 4  24037590.565 4  24037582.039 4
  24037595.705 7  94328757.274 7

  24678411.819 6 129685881.566 6 101053950.425 6  24678420.837 6  24678411.726 6
  24678420.456 7  96843363.309 7

  22698152.165 7 119279636.478 7  92945218.608 5  22698158.681 5  22698151.982 5
  22698161.620 7  89072516.149 7

  24321323.994 6 127809417.544 6  99591820.700 5  24321332.746 5  24321323.650 5


  24786711.225 6 130254983.802 6 101497367.707 3  24786714.154 3  24786710.501 3


  22021231.175 8 115722292.882 8  90173180.879 6  22021232.675 6  22021230.169 6


  24934109.116 6 131029634.598 6 102101052.634 6  24934119.824 6  24934108.710 6
  24934120.795 7  97846846.710 7

  21624546.516 7 113637743.751 7  88548881.731 6  21624547.995 6  21624546.168 6


  20176953.632 8 106030646.876 8  82621318.303 9  20176957.139 9  20176953.530 9
  20176956.908 8  79178769.714 8

 23  9  2 10  5 30.0000000  0 11G21G19G28G32G04G31G22G02G09G17G03
  22708180.669 7 119332209.650 7  92986120.965 5  22708184.224 5  22708179.592 5


  22476345.852 7 118113972.438 7  92036850.839 6  22476345.819 6  22476344.569 6


  24030969.979 6 126283649.533 6  98402902.629 4  24030977.297 4  24030969.827 4
  24030983.217 7  94302808.408 7

  24696382.129 6 129780313.897 6 101127533.903 6  24696390.874 6  24696382.058 6
  24696390.538 7  96913880.761 7

  22678773.541 7 119177802.131 7  92865867.265 5  22678780.239 5  22678773.354 5
  22678783.137 7  88996471.125 7

  24306727.002 6 127732710.739 6  99532049.345 5  24306735.992 5  24306726.649 5


  24799048.852 6 130319815.168 6 101547885.544 3  24799052.681 3  24799048.142 3


  22033227.473 7 115785332.888 7  90222302.885 6  22033228.671 6  22033226.458 6


  24911777.038 6 130912279.485 6 102009607.259 5  24911787.676 5  24911776.609 5
  24911788.903 7  97759211.604 7

  21618832.678 7 113607716.944 7  88525484.201 6  21618834.013 6  21618832.330 6


  20174580.945 8 106018178.741 8  82611602.864 9  20174584.338 9  20174580.838 9
  20174584.391 9  79169459.078 9

 23  9  2 10  6  0.0000000  0 11G21G19G28G32G04G31G22G02G09G17G03
  22722070.981 7 119405201.811 7  93042997.857 5  22722074.390 5  22722069.913 5


  22461295.262 7 118034881.709 7  91975221.678 6  22461295.923 6  22461293.970 6


  24024453.605 6 126249408.411 6  98376221.279 4  24024461.717 4  24024453.427 4
  24024467.304 7  94277238.781 7

  24714395.596 6 129874977.212 6 101201297.380 6  24714404.856 6  24714395.543 6
  24714404.439 7  96984570.744 7

  22659444.103 7 119076226.251 7  92786717.328 5  22659451.014 5  22659443.920 5
  22659453.579 7  88920619.109 7

  24292188.678 6 127656315.252 6  99472520.583 5  24292198.182 5  24292188.303 5


  24811435.083 6 130384906.595 6 101598606.072 3  24811437.424 3  24811434.386 3


  22045281.039 7 115848674.044 7  90271659.549 6  22045281.867 6  22045280.029 6


  24889449.514 6 130794948.640 6 101918180.841 6  24889460.132 6  24889449.049 6
  24889461.327 7  97671594.651 7

  21613218.242 7 113578213.461 7  88502494.455 6  21613220.090 6  21613217.894 6


  20172290.500 8 106006142.017 8  82602223.585 9  20172293.830 9  20172290.393 9
  20172293.920 8  79160470.594 8

 23  9  2 10  6 30.0000000  0 11G21G19G28G32G04G31G22G02G09G17G03
  22736000.284 7 119478399.890 7  93100035.189 5  22736003.704 5  22735999.211 5


  22446331.910 7 117956249.534 7  91913949.832 6  22446333.137 6  22446330.605 6


  24018034.867 6 126215677.083 6  98349937.182 4  24018043.366 4  24018034.653 4
  24018048.328 7  94252049.861 7

  24732452.528 6 129969869.329 6 101275239.169 6  24732462.274 6  24732452.484 6
  24732461.991 7  97055431.604 7

  22640164.724 7 118974911.568 7  92707770.930 5  22640171.259 5  22640164.550 5
  22640174.065 7  88844962.147 7

  24277710.473 6 127580234.208 6  99413236.856 5  24277720.511 5  24277710.120 5


  24823871.939 6 130450255.711 6 101649527.382 3  24823874.038 3  24823871.206 3


  22057391.565 7 115912316.041 7  90321250.631 6  22057392.247 6  22057390.541 6


  24867126.734 5 130677644.481 5 101826775.219 5  24867137.513 5  24867126.269 5
  24867139.044 7  97583997.665 7

  21607704.091 8 113549234.941 8  88479913.770 6  21607705.607 6  21607703.752 6


  20170082.179 8 105994536.572 8  82593180.368 9  20170085.733 9  20170082.072 9
  20170085.503 8  79151804.170 8

 23  9  2 10  7  0.0000000  0 12G21G19G28G32G04G31G22G02G06G09G17G03
  22749970.065 7 119551809.939 7  93157237.703 5  22749973.075 5  22749968.997 5


  22431458.104 7 117878085.867 7  91853043.082 6  22431459.173 6  22431456.785 6


  24011714.678 6 126182463.774 6  98324056.722 4  24011722.750 4  24011714.504 4
  24011727.931 7  94227247.774 7

  24750555.101 6 130064994.171 6 101349362.300 6  24750564.002 6  24750555.079 6
  24750563.682 7  97126466.245 7

  22620936.287 7 118873867.011 7  92629035.018 5  22620942.815 5  22620936.113 5
  22620945.960 7  88769506.904 7

  24263294.480 6 127504477.411 6  99354205.804 5  24263304.449 5  24263294.127 5


  24836355.997 6 130515866.142 6 101700652.294 3  24836362.128 3  24836355.264 3


  22069560.608 7 115976264.831 7  90371080.772 6  22069561.570 6  22069559.580 6


  25060466.276 5 131693633.967 5
  25060470.925 7  98342673.932 7

  24844811.428 5 130560375.548 5 101735397.064 5  24844821.637 5  24844810.955 5
  24844823.268 7  97496426.998 7

  21602290.787 8 113520789.044 8  88457748.119 6  21602292.192 6  21602290.443 6


  20167956.826 8 105983368.437 8  82584477.908 9  20167960.630 9  20167956.724 9
  20167960.294 9  79143464.309 9

 23  9  2 10  7 30.0000000  0 12G21G19G28G32G04G31G22G02G06G09G17G03
  22763978.177 7 119625425.466 7  93214600.318 5  22763981.779 5  22763977.109 5


  22416672.764 7 117800387.297 7  91792498.745 6  22416673.783 6  22416671.450 6


  24005492.158 6 126149764.538 6  98298576.854 4  24005500.227 4  24005491.975 4
  24005505.511 7  94202829.578 7

  24768699.553 6 130160343.562 6 101423660.424 6  24768708.394 6  24768699.549 6
  24768708.359 7  97197668.590 7

  22601759.014 7 118773089.353 7  92550507.072 5  22601765.262 5  22601758.849 5
  22601768.695 8  88694250.990 8

  24248939.898 6 127429042.171 6  99295425.321 5  24248948.959 5  24248939.572 5


  24848891.271 6 130581729.755 6 101751974.518 3  24848894.672 3  24848890.471 3


  22081787.113 7 116040514.175 7  90421145.107 6  22081788.336 6  22081786.094 6


  25041062.281 5 131591661.618 5 102538978.270 3  25041066.175 3  25041062.343 3
  25041066.620 7  98266525.560 7

  24822501.012 5 130443138.551 5 101644043.799 5  24822511.929 5  24822500.521 5
  24822513.460 7  97408880.163 7

  21596978.270 7 113492870.806 7  88435993.636 6  21596980.059 6  21596977.917 6


  20165913.744 8 105972631.556 8  82576111.491 9  20165917.658 9  20165913.642 9
  20165917.208 9  79135446.485 9

 23  9  2 10  8  0.0000000  0 12G21G19G28G32G04G31G22G02G06G09G17G03
  22778025.636 7 119699244.799 7  93272121.741 5  22778029.237 5  22778024.568 5


  22401975.809 7 117723155.320 7  91732317.993 6  22401976.684 6  22401974.495 6


  23999367.185 6 126117580.000 6  98273498.071 4  23999375.968 4  23999366.953 4
  23999381.046 7  94178795.761 7

  24786885.803 6 130255914.027 6 101498130.815 6  24786894.916 6  24786885.847 6
  24786894.794 7  97269036.023 7

  22582632.788 7 118672580.081 7  92472188.257 5  22582638.904 5  22582632.605 5
  22582642.347 8  88619195.494 8

  24234646.599 6 127353930.565 6  99236897.019 5  24234655.624 5  24234646.282 5


  24861470.136 6 130647842.799 6 101803491.085 4  24861475.874 4  24861469.332 4


  22094070.285 8 116105062.482 8  90471442.404 6  22094071.818 6  22094069.275 6


  25021655.852 5 131489679.636 5 102459511.668 3  25021659.831 3  25021656.008 3
  25021660.337 7  98190370.006 7

  24800196.984 6 130325934.564 6 101552716.214 5  24800208.090 5  24800196.511 5
  24800210.301 7  97321357.984 7

  21591766.190 8 113465480.765 8  88414650.740 6  21591768.437 6  21591765.842 6


  20163952.322 8 105962324.482 8  82568079.987 9  20163956.341 9  20163952.220 9
  20163955.935 9  79127749.626 9

 23  9  2 10  8 30.0000000  0 12G21G19G28G32G04G31G22G02G06G09G17G03
  22792112.216 7 119773269.462 7  93329803.160 5  22792116.026 5  22792111.134 5


  22387368.596 7 117646394.612 7  91672504.444 6  22387368.999 6  22387367.282 6


  23993341.926 6 126085913.643 6  98248823.081 4  23993350.061 4  23993341.725 4
  23993354.919 7  94155148.921 7

  24805114.491 6 130351704.852 6 101572772.920 6  24805123.458 6  24805114.558 6
  24805123.363 7  97340568.017 7

  22563558.203 7 118572343.429 7  92394081.893 5  22563564.483 5  22563558.025 5
  22563567.887 8  88544343.585 8

  24220415.971 6 127279147.728 6  99178624.906 5  24220425.209 5  24220415.690 5


  24874100.762 6 130714204.275 6 101855201.222 4  24874104.645 4  24874099.967 4


  22106410.509 7 116169910.870 7  90521973.528 6  22106412.219 6  22106409.499 6


  25002247.513 5 131387690.978 5 102380039.859 3  25002252.292 3  25002247.638 3
  25002252.765 7  98114209.504 7

  24777901.723 6 130208767.662 6 101461417.537 5  24777912.220 5  24777901.267 5
  24777913.488 7  97233863.473 7

  21586654.803 8 113438621.378 8  88393721.346 6  21586656.819 6  21586654.450 6


  20162073.013 8 105952448.607 8  82560384.485 9  20162077.315 9  20162072.911 9
  20162076.736 9  79120374.765 9

 23  9  2 10  9  0.0000000  0 12G21G19G28G32G04G31G22G02G06G09G17G03
  22806238.183 7 119847500.858 7  93387645.664 5  22806242.004 5  22806237.092 5


  22372851.859 7 117570110.220 7  91613062.063 6  22372852.206 6  22372850.536 6


  23987415.350 6 126054769.610 6  98224555.097 4  23987423.033 4  23987415.172 4
  23987428.186 7  94131892.122 7

  24823384.983 6 130447716.024 6 101647586.734 6  24823393.803 6  24823385.067 6
  24823393.676 7  97412264.566 7

  22544536.199 7 118472384.362 7  92316191.827 5  22544542.329 5  22544536.025 5
  22544546.216 8  88469698.947 8

  24206247.693 6 127204699.069 6  99120613.197 5  24206257.265 5  24206247.416 5


  24886774.331 6 130780814.040 6 101907104.857 4  24886778.354 4  24886773.567 4


  22118808.445 7 116235061.325 7  90572740.030 6  22118810.017 6  22118807.426 6


  24982838.792 6 131285699.147 6 102300565.582 3  24982844.448 3  24982838.912 3
  24982844.401 7  98038046.641 7

  24755613.452 6 130091642.532 6 101370151.406 5  24755623.767 5  24755613.032 5
  24755625.275 7  97146400.111 7

  21581645.233 8 113412296.479 8  88373208.438 6  21581646.982 6  21581644.889 6


  20160276.338 8 105943005.937 8  82553026.540 9  20160280.479 9  20160276.236 9
  20160279.837 9  79113323.405 9

 23  9  2 10  9 30.0000000  0 12G21G19G28G32G04G31G22G02G06G09G17G03
  22820402.515 7 119921933.251 7  93445644.791 5  22820406.128 5  22820401.438 5


  22358425.681 7 117494299.816 7  91553989.033 6  22358425.941 6  22358424.340 6


  23981586.581 6 126024144.424 6  98200691.424 4  23981594.501 4  23981586.353 4
  23981600.418 7  94109022.807 7

  24841695.547 6 130543940.032 6 101722566.411 6  24841704.813 6  24841695.658 6
  24841704.582 7  97484120.073 7

  22525566.882 7 118372700.228 7  92238515.982 5  22525572.493 5  22525566.708 5
  22525576.940 8  88395259.630 8

  24192143.990 6 127130582.776 6  99062860.471 5  24192152.768 5  24192143.718 5


  24899496.537 6 130847664.534 6 101959196.047 4  24899500.213 4  24899495.813 4


  22131262.744 7 116300508.233 7  90623737.531 6  22131264.111 6  22131261.729 6


  24963429.494 6 131183700.361 6 102221085.875 3  24963435.288 3  24963429.534 3
  24963435.373 7  97961878.556 7

  24733331.933 6 129974556.272 6 101278915.532 6  24733342.441 6  24733331.504 6
  24733344.109 7  97058965.817 7

  21576736.937 8 113386502.026 8  88353108.860 6  21576738.712 6  21576736.598 6


  20158560.702 8 105933991.044 8  82546001.937 9  20158564.741 9  20158560.600 9
  20158564.311 9  79106591.490 9

 23  9  2 10 10  0.0000000  0 12G21G19G28G32G04G31G22G02G06G09G17G03
  22834605.608 7 119996571.807 7  93503804.564 5  22834609.526 5  22834604.531 5


  22344091.068 7 117418971.229 7  91495291.465 6  22344091.754 6  22344089.736 6


  23975859.423 6 125994045.276 6  98177237.674 4  23975867.057 4  23975859.164 4
  23975872.726 7  94086546.319 7

  24860046.781 6 130640379.952 6 101797714.344 6  24860056.786 6  24860046.888 6
  24860056.618 7  97556136.824 7

  22506651.437 7 118273299.068 7  92161060.635 5  22506656.762 5  22506651.259 5
  22506661.510 8  88321031.634 8

  24178104.534 6 127056807.397 6  99005373.385 5  24178113.770 5  24178104.262 5


  24912263.582 7 130914758.631 7 102011477.050 3  24912266.550 3  24912262.863 3


  22143774.344 7 116366256.640 7  90674969.965 6  22143775.700 6  22143773.316 6


  24944019.607 6 131081701.162 6 102141605.836 3  24944026.038 3  24944019.581 3
  24944025.837 7  97885710.168 7

  24711060.109 6 129857516.738 6 101187716.098 6  24711070.803 6  24711059.662 6
  24711071.621 7  96971566.362 7

  21571930.594 8 113361244.496 8  88333427.662 6  21571932.148 6  21571930.259 6


  20156927.668 8 105925409.001 8  82539314.626 9  20156931.144 9  20156927.561 9
  20156931.078 9  79100182.819 9

 23  9  2 10 10 30.0000000  0 12G21G19G28G32G04G31G22G02G06G09G17G03
  22848847.025 7 120071411.747 7  93562121.261 5  22848851.249 5  22848845.943 5


  22329848.345 7 117344123.152 7  91436968.332 6  22329849.267 6  22329847.031 6


  23970231.731 6 125964469.197 6  98154191.511 4  23970239.151 4  23970231.566 4
  23970244.364 7  94064460.444 7

  24878439.094 6 130737028.726 6 101873025.028 6  24878448.498 6  24878439.210 6
  24878448.317 7  97628309.554 7

  22487789.126 7 118174178.792 7  92083824.181 5  22487794.927 5  22487788.943 5
  22487799.326 8  88247013.414 8

  24164130.557 6 126983371.729 6  98948151.004 5  24164139.780 5  24164130.276 5


  24925075.925 6 130982088.737 6 102063941.979 3  24925077.604 3  24925075.215 3


  22156342.003 7 116432301.175 7  90726433.149 6  22156343.775 6  22156340.971 6


  24924609.048 6 130979698.136 6 102062122.836 3  24924616.002 3  24924608.959 3
  24924615.593 7  97809538.924 7

  24688796.903 6 129740521.525 6 101096551.181 6  24688807.144 6  24688796.438 6
  24688808.270 7  96884200.032 7

  21567225.634 8 113336520.655 8  88314162.331 6  21567226.647 6  21567225.299 6


  20155375.844 8 105917254.812 8  82532960.712 9  20155379.146 9  20155375.737 9
  20155379.221 8  79094093.652 8

 23  9  2 10 11  0.0000000  0 12G21G19G28G32G04G31G22G02G06G09G17G03
  22863126.981 7 120146452.085 7  93620594.118 5  22863131.460 5  22863125.899 5


  22315696.963 7 117269758.399 7  91379021.802 6  22315698.308 6  22315695.676 6


  23964702.519 6 125935418.290 6  98131554.590 4  23964710.515 4  23964702.318 4
  23964715.984 7  94042766.751 7

  24896870.411 6 130833884.481 6 101948497.004 6  24896879.641 6  24896870.563 6
  24896879.498 7  97700636.863 7

  22468981.228 7 118075342.356 7  92006808.916 5  22468987.315 5  22468981.050 5
  22468991.025 8  88173207.160 8

  24150221.484 6 126910279.198 6  98891195.997 5  24150230.996 5  24150221.221 5


  24937933.549 6 131049652.760 6 102116589.177 3  24937936.369 3  24937932.812 3


  22168966.254 7 116498642.080 7  90778127.271 6  22168968.009 6  22168965.213 6


  24905198.332 6 130877693.059 6 101982638.218 3  24905205.129 3  24905198.243 3
  24905204.694 7  97733366.146 7

  24666542.013 6 129623573.432 6 101005422.962 6  24666552.821 6  24666541.526 6
  24666553.077 7  96796868.837 7

  21562623.017 8 113312332.026 8  88295314.055 6  21562623.590 6  21562622.682 6


  20153905.773 8 105909528.581 8  82526940.277 9  20153909.041 9  20153905.671 9
  20153908.920 8  79088324.064 8

 23  9  2 10 11 30.0000000  0 12G21G19G28G32G04G31G22G02G06G09G17G03
  22877445.833 7 120221696.994 7  93679226.380 5  22877450.370 5  22877444.747 5


  22301638.965 7 117195884.426 7  91321457.718 6  22301640.647 6  22301637.687 6


  23959275.693 6 125906898.800 6  98109331.772 4  23959283.422 4  23959275.483 4
  23959288.873 7  94021469.921 7

  24915341.328 6 130930949.433 6 102024131.987 6  24915350.484 6  24915341.497 6
  24915350.355 7  97773120.371 7

  22450228.861 7 117976796.925 7  91930020.407 5  22450234.647 5  22450228.696 5
  22450238.118 8  88099618.194 8

  24136378.408 6 126837537.526 6  98834514.384 5  24136388.017 5  24136378.131 5


  24950835.772 6 131117452.725 6 102169420.205 3  24950838.694 3  24950835.035 3


  22181647.879 7 116565283.354 7  90830055.449 6  22181649.543 6  22181646.838 6


  24885788.738 5 130775691.675 5 101903156.489 3  24885794.539 3  24885788.649 3
  24885794.667 7  97657196.148 7

  24644297.808 6 129506679.356 6 100914336.798 6  24644308.449 6  24644297.312 6
  24644309.486 7  96709577.947 7

  21558122.597 8 113288684.242 8  88276887.212 6  21558124.147 6  21558122.267 6


  20152517.775 8 105902234.524 8  82521256.597 9  20152521.460 9  20152517.668 9
  20152520.817 8  79082877.206 8

 23  9  2 10 12  0.0000000  0 12G21G19G28G32G04G31G22G02G06G09G17G03
  22891802.245 7 120297141.411 7  93738014.113 5  22891806.966 5  22891801.150 5


  22287673.792 7 117122498.859 7  91264274.213 6  22287675.767 6  22287672.514 6


  23953948.575 6 125878907.382 6  98087520.449 4  23953957.275 4  23953948.374 4
  23953962.102 7  94000567.435 7

  24933850.137 6 131028216.193 6 102099924.248 6  24933859.694 6  24933850.302 6
  24933859.548 7  97845754.622 7

  22431530.972 7 117878540.043 7  91853456.737 5  22431536.542 5  22431530.803 5
  22431540.170 8  88026244.717 8

  24122603.045 6 126765144.907 6  98778104.765 5  24122611.785 5  24122602.755 5


  24963782.153 6 131185481.125 6 102222429.232 3  24963785.148 3  24963781.371 3


  22194385.314 7 116632219.365 7  90882213.289 6  22194387.240 6  22194384.273 6


  24866378.712 5 130673690.342 5 101823674.825 3  24866384.173 3  24866378.663 3
  24866384.376 7  97581026.157 7

  24622063.468 6 129389836.649 6 100823290.653 6  24622073.874 6  24622062.959 6
  24622074.684 7  96622325.367 7

  21553724.908 8 113265573.294 8  88258878.680 6  21553726.942 6  21553724.578 6


  20151210.911 8 105895367.275 8  82515905.496 9  20151214.878 9  20151210.800 9
  20151214.188 9  79077749.063 9

 23  9  2 10 12 30.0000000  0 12G21G19G28G32G04G31G22G02G06G09G17G03
  22906197.236 7 120372784.918 7  93796956.982 5  22906201.282 5  22906196.145 5


  22273802.672 7 117049605.006 7  91207473.881 5  22273803.841 5  22273801.385 5


  23948723.448 6 125851446.039 6  98066122.179 4  23948731.209 4  23948723.265 4
  23948736.212 7  93980060.804 7

  24952397.770 6 131125682.894 6 102175872.316 6  24952406.878 6  24952397.926 6
  24952406.866 7  97918538.205 7

  22412888.768 7 117780574.641 7  91777120.204 5  22412894.352 5  22412888.603 5
  22412897.862 8  87953088.912 8

  24108893.647 6 126693105.178 6  98721970.118 5  24108902.970 5  24108893.357 5


  24976768.891 6 131253735.829 6 102275614.579 3  24976775.950 3  24976768.149 3


  22207179.016 7 116699450.128 7  90934600.806 6  22207180.638 6  22207177.975 6


  24846969.151 5 130571690.612 5 101744194.406 3  24846974.363 3  24846969.191 3
  24846974.180 7  97504857.405 7

  24599838.604 6 129273048.070 6 100732286.643 6  24599849.577 6  24599838.104 6
  24599850.850 7  96535113.219 7

  21549429.834 7 113243000.560 7  88241289.542 6  21549431.620 6  21549429.495 6


  20149985.336 8 105888926.884 8  82510887.004 9  20149989.445 9  20149985.225 9
  20149988.820 9  79072939.676 9

 23  9  2 10 13  0.0000000  0 12G21G19G28G32G04G31G22G02G06G09G17G03
  22920630.414 7 120448630.534 7  93856057.337 5  22920634.103 5  22920629.319 5


  22260026.282 7 116977208.525 7  91151061.074 5  22260026.273 5  22260024.995 5


  23943598.659 6 125824519.547 6  98045140.668 4  23943607.024 4  23943598.449 4
  23943612.152 7  93959953.567 7

  24970982.738 6 131223350.330 6 102251976.800 6  24970992.348 6  24970982.894 6
  24970992.410 7  97991471.650 7

  22394303.328 7 117682906.467 7  91701015.303 5  22394308.928 5  22394303.154 5
  22394312.104 8  87880155.080 8

  24095253.424 6 126621424.459 6  98666115.210 5  24095262.256 5  24095253.165 5


  24989800.774 6 131322217.202 6 102328976.559 3  24989806.392 3  24989800.059 3


  22220029.226 7 116766978.290 7  90987220.072 6  22220030.369 6  22220028.198 6


  24827559.371 6 130469697.112 6 101664718.829 3  24827565.278 3  24827559.402 3
  24827565.477 7  97428693.271 7

  24577626.676 6 129156319.159 6 100641329.127 6  24577637.017 6  24577626.185 6
  24577638.106 7  96447945.601 7

  21545237.302 8 113220970.290 8  88224123.104 6  21545239.077 6  21545236.963 6


  20148841.366 8 105882916.163 8  82506203.318 9  20148845.658 9  20148841.259 9
  20148845.167 9  79068451.140 9

 23  9  2 10 13 30.0000000  0 12G21G19G28G32G04G31G22G02G06G09G17G03
  22935100.913 7 120524674.292 7  93915312.090 5  22935104.891 5  22935099.809 5


  22246344.555 7 116905309.607 7  91095035.991 5  22246344.419 5  22246343.295 5


  23938576.053 6 125798126.755 6  98024575.039 4  23938584.481 4  23938575.781 4
  23938589.566 7  93940244.882 7

  24989605.516 6 131321213.455 6 102328233.764 6  24989615.078 6  24989605.668 6
  24989615.055 7  98064551.236 7

  22375773.649 7 117585535.296 7  91625141.828 5  22375779.661 5  22375773.480 5
  22375782.659 7  87807443.028 7

  24081681.135 6 126550103.259 6  98610540.438 5  24081689.975 5  24081680.881 5


  25002873.976 6 131390920.200 6 102382511.246 4  25002880.700 4  25002873.288 4


  22232935.602 8 116834800.602 8  91040068.539 6  22232936.897 6  22232934.583 6


  24808152.237 6 130367708.365 6 101585246.950 3  24808156.902 3  24808152.245 3
  24808157.640 7  97352532.715 7

  24555424.639 6 129039649.579 6 100550417.818 6  24555435.175 6  24555424.152 6
  24555436.765 7  96360822.282 7

  21541147.991 8 113199480.846 8  88207378.086 6  21541149.676 6  21541147.643 6


  20147778.733 8 105877332.002 8  82501852.017 9  20147783.011 9  20147778.626 9
  20147782.512 9  79064281.137 9

