     2.10           OBSERVATION DATA    M (MIXED)           RINEX VERSION / TYPE
RTKCONV 2.4.2                           20231202 214903 UTC PGM / RUN BY / DATE 
log: C:\Users\adminlocal\Desktop\verniquet\verniquet\micro  COMMENT             
format: u-blox                                              COMMENT             
                                                            MARKER NAME         
                                                            MARKER NUMBER       
                                                            OBSERVER / AGENCY   
                                                            REC # / TYPE / VERS 
                                                            ANT # / TYPE        
  4202120.5552   178706.4247  4778947.4510                  APPROX POSITION XYZ 
        0.0000        0.0000        0.0000                  ANTENNA: DELTA H/E/N
     1     1                                                WAVELENGTH FACT L1/2
     4    C1    L1    D1    S1                              # / TYPES OF OBSERV 
  2023    12     2    15    27   18.9900000     GPS         TIME OF FIRST OBS   
  2023    12     2    15    32   13.9900000     GPS         TIME OF LAST OBS    
                                                            END OF HEADER       
 23 12  2 15 27 18.9900000  0  6G15G12G24G19G32G10
  21628417.953   113658122.5402      -3721.176          29.000  
  17206053.839    90418423.947         845.309          37.000  
  17971656.805    94441699.053       -1840.344          37.000  
  19681931.287   103429262.7712      -1796.302          30.000  
  19886765.572   104505648.467        2522.626          35.000  
  21436460.951   112649363.5002      -2089.668          32.000  
 23 12  2 15 27 19.9900000  0  6G15G12G24G19G32G10
  21629131.877   113661843.3242      -3720.341          27.000  
  17205893.193    90417578.330         845.688          36.000  
  17972009.264    94443540.020       -1841.260          33.000  
  19682278.930   103431060.3632      -1797.463          31.000  
  19886285.691   104503128.062        2519.902          36.000  
  21436858.851   112651453.9872      -2091.423          32.000  
 23 12  2 15 27 20.9900000  0  7G15G12G24G19G32G10G25
  21629833.340   113665564.3812      -3721.180          28.000  
  17205732.616    90416733.591         844.401          35.000  
  17972359.804    94445381.623       -1841.394          33.000  
  19682616.592                       -1800.284          30.000  
  19885806.438   104500608.411        2518.660          34.000  
  21437255.425   112653545.0592      -2091.355          31.000  
  18595405.380                        2999.445          28.000  
 23 12  2 15 27 21.9900000  0  7G15G12G24G19G32G10G25
  21630541.715   113669285.8282      -3720.771          28.000  
  17205572.283    90415889.713         843.117          37.000  
  17972709.926    94447224.050       -1842.316          36.000  
  19682959.593   103434647.5063      -1799.848          29.000  
  19885327.395   104498089.572        2518.566          37.000  
  21437654.616   112655636.8992      -2092.822          32.000  
  18594832.699                        2996.457          27.000  
 23 12  2 15 27 22.9900000  0  7G15G12G24G19G32G10G25
  21631255.324   113673007.4092      -3721.736          28.000  
  17205411.776    90415046.438         842.228          38.000  
  17973060.466    94449066.963       -1843.024          35.000  
  19683303.083   103436447.3642      -1800.679          33.000  
  19884848.491   104495571.276        2517.694          37.000  
  21438048.328   112657729.1122      -2093.221          32.000  
  18594264.345    97713507.3762       2997.527          33.000  
 23 12  2 15 27 23.9900000  0  7G15G12G24G19G32G10G25
  21631958.009   113676729.1722      -3721.865          29.000  
  17205251.339    90414203.979         842.124          32.000  
  17973411.285    94450910.625       -1844.067          33.000  
  19683654.077   103438248.1172      -1801.167          29.000  
  19884369.203   104493053.759        2516.864          35.000  
  21438454.953                       -2108.785          31.000  
  18593693.967    97710510.1202       2996.938          31.000  
 23 12  2 15 28 42.9900000  0  9G15G12G24G19G32G10G25E 7E20
  21687898.835                       -3721.786          32.000  
  17192906.671    90349338.0933        800.465          38.000  
  18001376.131    94597862.4283      -1875.929          45.000  
  19711053.815   103582278.9601      -1845.314          41.000  
  19846811.588   104295693.7163       2479.134          40.000  
  21470122.700   112826264.6883      -2120.352          29.000  
  18548839.474    97474826.9482       2970.487          35.000  
  22600197.395   118764827.385       -2568.408          36.000  
  25316665.426   133039990.864        1258.825          29.000  
 23 12  2 15 28 43.9900000  0 10G15G12G24G19G32G10G25E 7E20G 6
  21688612.305   113974397.6613      -3720.370          40.000  
  17192754.191    90348537.0892        802.172          43.000  
  18001732.918    94599737.8552      -1875.635          46.000  
  19711405.228   103584123.442       -1846.058          35.000  
  19846339.455   104293213.8442       2478.388          42.000  
  21470527.720   112828384.3242      -2120.320          40.000  
  18548275.134    97471856.2622       2970.583          37.000  
  22600685.512   118767394.669       -2567.581          45.000  
  25316424.718   133038731.593        1258.995          28.000  
  21483740.362   112897817.5652       2541.741          36.000  
 23 12  2 15 28 44.9900000  0 10G15G12G24G19G32G10G25E 7E20G 6
  21689317.154                       -3720.761          40.000  
  17192601.850    90347736.6192        799.028          44.000  
  18002089.810    94601613.6772      -1877.123          47.000  
  19711756.326   103585968.455       -1845.927          35.000  
  19845867.462   104290734.1902       2478.382          44.000  
  21470929.738   112830504.2102      -2121.040          42.000  
  18547710.201    97468885.7602       2969.624          37.000  
  22601174.397   118769962.295       -2568.562          46.000  
  25316185.929   133037472.675        1257.729          29.000  
  21483258.282   112895276.7522       2540.006          36.000  
 23 12  2 15 28 45.9900000  0 10G15G12G24G19G32G10G25E 7E20G 6
  21690026.296   113981851.3842      -3721.827          36.000  
  17192450.487    90346936.8922        799.317          44.000  
  18002447.260    94603490.1172      -1876.570          46.000  
  19712107.564   103587814.299       -1846.595          35.000  
  19845395.922   104288255.4762       2478.444          44.000  
  21471334.409   112832624.7672      -2120.881          41.000  
  18547145.197    97465916.0092       2969.733          36.000  
  22601663.073   118772530.548       -2568.805          47.000  
  25315945.500   133036214.652        1257.276          28.000  
  21482774.283   112892736.6412       2539.369          36.000  
 23 12  2 15 28 46.9900000  0  9G15G12G24G19G32G10G25E 7G 6
  21690733.798                       -3734.902          35.000  
  17192298.042                         785.646          43.000  
  18002804.292                       -1889.976          48.000  
  19712458.139                       -1860.358          38.000  
  19844924.138                        2465.077          45.000  
  21471739.847                       -2134.458          39.000  
  18546580.020                        2955.581          36.000  
  22602151.540                       -2581.570          44.000  
  21482289.655                        2527.673          35.000  
 23 12  2 15 28 47.9900000  0 10G15G12G24G19G32G10G25E 7E20G 6
  21691438.507                       -3716.742          36.000  
  17192145.806    90345335.7963        801.304          45.000  
  18003161.323                       -1874.698          47.000  
  19712809.796   103591514.4973      -1843.776          33.000  
  19844452.528                        2480.622          42.000  
  21472143.575   112836875.6413      -2118.563          42.000  
  18546015.366    97459967.6643       2970.929          36.000  
  22602640.390   118777686.7431      -2565.842          46.000  
  25315462.897                        1259.168          29.000  
  21481807.820                        2542.136          35.000  
 23 12  2 15 28 48.9900000  0 10G15G12G24G19G32G10G25E 7E20G 6
  21692147.963   113992995.1493      -3716.193          40.000  
  17191993.361    90344534.3012        802.387          41.000  
  18003517.796    94609125.0213      -1873.480          44.000  
  19713160.545   103593358.6572      -1843.849          37.000  
  19843980.291   104280819.9053       2481.097          43.000  
  21472544.267   112838993.8262      -2117.723          39.000  
  18545450.118    97456995.4582       2972.223          37.000  
  22603128.822   118780252.175       -2564.775          43.000  
  25315222.258   133032405.6121       1260.434          29.000  
  21481319.842   112885109.9063       2543.276          37.000  
 23 12  2 15 28 49.9900000  0 10G15G12G24G19G32G10G25E 7E20G 6
  21692855.954   113996712.0582      -3717.101          40.000  
  17191840.986    90343732.9422        801.365          42.000  
  18003873.920    94610999.3962      -1875.189          45.000  
  19713511.679   103595202.9592      -1844.361          37.000  
  19843508.192   104278339.3232       2480.584          43.000  
  21472948.449   112841111.9892      -2119.031          41.000  
  18544884.731    97454023.2942       2971.504          36.000  
  22603617.044   118782817.468       -2566.322          43.000  
  25314989.472   133031145.437        1258.716          28.000  
  21480838.007   112882567.4742       2541.873          36.000  
 23 12  2 15 28 50.9900000  0 10G15G12G24G19G32G10G25E 7E20G 6
  21693563.630   114000431.4862      -3721.670          40.000  
  17191689.030    90342934.6002        796.920          44.000  
  18004230.987    94612876.7012      -1880.102          46.000  
  19713863.440   103597050.4032      -1849.628          36.000  
  19843036.862   104275861.7232       2475.673          44.000  
  21473351.654   112843232.9742      -2123.588          40.000  
  18544319.693    97451053.9692       2966.477          39.000  
  22604105.755   118785385.517       -2571.458          44.000  
  25314748.275                        1255.482          27.000  
  21480353.833   112880027.8632       2536.895          35.000  
 23 12  2 15 28 51.9900000  0 10G15G12G24G19G32G10G25E 7E20G 6
  21694273.993   114004146.0772      -3712.468          38.000  
  17191536.410    90342131.9192        804.942          43.000  
  18004587.530    94614749.4542      -1870.552          46.000  
  19714214.154   103598893.8753      -1840.583          33.000  
  19842564.869   104273379.7792       2484.257          44.000  
  21473754.998   112845349.4592      -2114.077          42.000  
  18543753.852    97448080.0792       2976.360          36.000  
  22604593.628   118787948.830       -2561.416          46.000  
  25314507.148                        1262.758          27.000  
  21479869.799   112877476.7123       2547.090          34.000  
 23 12  2 15 28 52.9900000  0  9G15G12G24G19G32G10G25E 7G 6
  21694979.540   114007864.0522      -3718.478          38.000  
  17191384.314    90341333.6292        798.404          35.000  
  18004944.631    94616626.6112      -1878.220          44.000  
  19714566.509                       -1848.559          42.000  
  19842093.084   104270901.2132       2477.414          40.000  
  21474158.447   112847470.0282      -2121.853          43.000  
  18543189.163    97445110.2082       2968.481          36.000  
  22605081.815   118790516.130       -2568.546          46.000  
  21479386.498   112874936.5382       2538.811          32.000  
 23 12  2 15 28 53.9900000  0 10G15G12G24G19G32G10G25E 7E20G 6
  21695688.089                       -3716.504          40.000  
  17191232.113                         801.220          40.000  
  18005301.767                       -1874.316          42.000  
  19714918.306                       -1848.096          40.000  
  19841621.300                        2480.611          43.000  
  21474561.757                       -2118.359          40.000  
  18542624.370                        2970.459          40.000  
  22605570.386                       -2566.124          46.000  
  25314025.627                        1261.010          26.000  
  21478904.453                        2527.429          27.000  
 23 12  2 15 28 54.9900000  0 10G15G12G24G19G32G10G25E 7E20G 6
  21696395.591                       -3715.363          32.000  
  17191080.122    90339735.5193        798.800          36.000  
  18005658.694    94620374.3113      -1876.825          39.000  
  19715269.264   103604438.5602      -1847.565          38.000  
  19841149.377   104265942.7543       2479.157          45.000  
  21474964.892   112851701.9953      -2119.712          38.000  
  18542058.808    97439176.5353       2969.336          39.000  
  22606058.504   118795649.6611      -2567.313          33.000  
  25313789.211                        1259.218          31.000  
  21478421.152   112869864.7143       2541.050          33.000  
 23 12  2 15 28 55.9900000  0 10G15G12G24G19G32G10G25E 7E20G 6
  21697101.173   114019035.2433      -3705.127          35.000  
  17190924.605    90338918.1763        811.854          37.000  
  18006014.818    94622244.6232      -1866.474          35.000  
  19715617.361                       -1841.056          38.000  
  19840677.593                        2480.400          28.000  
  21475371.237                       -2104.976          28.000  
  18541495.375                        2974.309          34.000  
  22606545.435   118798207.7961      -2553.405          41.000  
  25313553.703                        1268.593          24.000  
  21477934.814                        2549.678          29.000  
 23 12  2 15 28 56.9900000  0 10G15G12G24G19G32G10G25E 7E20G 6
  21697810.559   114022746.7272      -3718.342          41.000  
  17190771.567    90338116.0422        795.089          34.000  
  18006371.605    94624116.0382      -1878.914          42.000  
  19715968.983                       -1852.060          32.000  
  19840202.284                        2473.433          36.000  
  21475770.080                       -2122.742          33.000  
  18540932.990                        2972.645          28.000  
  22607030.202                       -2569.691          39.000  
  25313309.505                        1254.239          30.000  
  21477449.209                        2538.424          37.000  
 23 12  2 15 28 57.9900000  0 10G15G12G24G19G32G10G25E 7E20G 6
  21698511.744                       -3716.946          20.000  
  17190619.052    90337318.3272        799.751          43.000  
  18006728.392    94625993.5482      -1875.127          42.000  
  19716324.619   103609965.6292      -1847.429          41.000  
  19839731.791   104258493.3863       2477.050          27.000  
  21476177.507   112858074.4202      -2118.773          38.000  
  18540361.251    97430255.4462       2972.891          44.000  
  22607518.878                       -2564.136          31.000  
  25313074.625   133021114.9791       1259.469          30.000  
  21476967.967   112862217.9012       2542.283          37.000  
 23 12  2 15 28 58.9900000  0 10G15G12G24G19G32G10G25E 7E20G 6
  21699221.723                       -3719.684          46.000  
  17190469.434    90336514.4372        794.587          43.000  
  18007083.748    94627864.9832      -1881.253          44.000  
  19716674.251   103611808.4612      -1847.374          38.000  
  19839261.891   104256009.6062       2483.475          39.000  
  21476576.384   112860188.9042      -2116.238          40.000  
  18539795.515    97427279.3932       2969.016          42.000  
  22608004.587   118805884.386       -2569.622          43.000  
  25312825.715                        1258.493          30.000  
  21476483.410   112859673.2702       2540.917          37.000  
 23 12  2 15 28 59.9900000  0  9G15G12G24G19G32G10G25E 7G 6
  21699924.374                       -3714.765          37.000  
  17190317.966    90335718.4362        798.975          37.000  
  18007443.328    94629743.1402      -1874.540          36.000  
  19717026.152                       -1846.466          39.000  
  19838792.550   104253533.9832       2479.469          30.000  
  21476981.892                       -2123.063          28.000  
  18539237.492                        2971.996          30.000  
  22608494.834   118808452.739       -2562.945          33.000  
  21476000.702   112857133.7492       2541.483          37.000  
 23 12  2 15 29  0.9900000  0 10G15G12G24G19G32G10G25E 7E20G 6
  21700636.936                       -3723.122          36.000  
  17190165.207                         801.446          32.000  
  18007801.930                       -1874.339          32.000  
  19717375.855                       -1845.832          36.000  
  19838321.150                        2475.970          39.000  
  21477382.864   112864408.4253      -2125.809          31.000  
  18538660.902                        2975.038          29.000  
  22608984.871                       -2565.995          36.000  
  25312358.363                        1258.203          29.000  
  21475516.737                        2546.130          34.000  
 23 12  2 15 29  1.9900000  0 10G15G12G24G19G32G10G25E 7E20G 6
  21701346.636                       -3722.223          29.000  
  17190014.437                         783.981          39.000  
  18008158.123                       -1881.891          32.000  
  19717728.908                       -1856.468          38.000  
  19837851.041                        2468.695          36.000  
  21477790.361   112866549.9913      -2128.607          40.000  
  18538100.785                        2958.127          40.000  
  22609478.642                       -2565.650          28.000  
  25312117.516                        1250.595          28.000  
  21475032.354                        2539.724          30.000  
 23 12  2 15 29  2.9900000  0 10G15G12G24G19G32G10G25E 7E20G 6
  21702053.230   114045059.3223      -3717.397          44.000  
  17189865.552    90333345.3813        791.845          44.000  
  18008514.631    94635382.1403      -1881.310          47.000  
  19718081.786   103619218.2803      -1852.550          42.000  
  19837383.166                        2472.522          34.000  
  21478192.589                       -2122.166          32.000  
  18537536.689                        2941.652          41.000  
  22609962.397   118816164.1901      -2569.187          44.000  
  25311875.830                        1253.365          31.000  
  21474551.985   112849531.6303       2532.941          35.000  
 23 12  2 15 29  3.9900000  0 10G15G12G24G19G32G10G25E 7E20G 6
  21702761.954   114048777.4512      -3718.233          44.000  
  17189714.712    90332552.7932        792.105          48.000  
  18008872.780    94637263.5592      -1881.997          46.000  
  19718435.257   103621071.7022      -1853.782          43.000  
  19836908.136   104243655.2523       2471.188          47.000  
  21478596.212   112870784.6272      -2127.283          35.000  
  18536970.080                        2968.604          37.000  
  22610449.642   118818733.909       -2570.092          44.000  
  25311637.076   133013560.628        1251.349          38.000  
  21474068.753   112846992.8662       2534.872          33.000  
 23 12  2 15 29  4.9900000  0 10G15G12G24G19G32G10G25E 7E20G 6
  21703466.803   114052495.6122      -3718.085          44.000  
  17189563.035    90331760.8172        791.805          47.000  
  18009230.928    94639145.4152      -1881.991          46.000  
  19718788.450   103622925.7762      -1854.155          43.000  
  19836438.725   104241183.3272       2471.593          45.000  
  21479000.429   112872909.1172      -2124.366          40.000  
  18536407.520    97409478.0353       2965.676          39.000  
  22610940.796   118821303.900       -2570.061          43.000  
  25311397.694   133012308.312        1252.302          38.000  
  21473588.000   112844457.2182       2535.323          33.000  
 23 12  2 15 29  5.9900000  0 10G15G12G24G19G32G10G25E 7E20G 6
  21704176.014   114056213.9632      -3718.600          44.000  
  17189412.614    90330969.5072        790.856          48.000  
  18009589.914    94641027.9242      -1883.008          46.000  
  19719140.421   103624780.5512      -1855.305          43.000  
  19835970.327   104238712.0682       2470.854          47.000  
  21479403.005   112875034.2252      -2125.709          38.000  
  18535842.901    97406513.0032       2964.497          37.000  
  22611431.286   118823874.215       -2570.885          43.000  
  25311161.418   133011056.616        1251.427          38.000  
  21473105.222   112841922.2232       2534.478          35.000  
 23 12  2 15 29  6.9900000  0 10G15G12G24G19G32G10G25E 7E20G 6
  21704882.958   114059932.7002      -3718.974          43.000  
  17189261.809    90330179.1802        789.767          48.000  
  18009947.224    94642911.2192      -1883.679          46.000  
  19719493.892   103626636.2872      -1856.352          43.000  
  19835498.508   104236241.7422       2469.758          47.000  
  21479810.189   112877160.1752      -2126.757          38.000  
  18535281.074    97403548.6892       2963.592          37.000  
  22611920.940   118826445.214       -2571.160          43.000  
  25310923.641   133009805.791        1250.071          38.000  
  21472622.863   112839387.9592       2533.665          34.000  
 23 12  2 15 29  7.9900000  0 10G15G12G24G19G32G10G25E 7E20G 6
  21705591.122   114063651.6562      -3719.029          44.000  
  17189112.156    90329389.5832        789.281          48.000  
  18010306.036    94644795.1262      -1883.901          46.000  
  19719847.155   103628492.8352      -1856.905          42.000  
  19835028.434   104233772.1082       2469.346          47.000  
  21480214.755   112879286.6522      -2126.698          38.000  
  18534716.350    97400584.8882       2963.936          38.000  
  22612410.628   118829016.647       -2571.542          43.000  
  25310689.634   133008555.594        1249.893          38.000  
  21472139.492   112836854.2622       2533.405          34.000  
 23 12  2 15 29  8.9900000  0 11G15G12G24G19G32G10G25E 7E20G 6G17
  21706297.961   114067370.8452      -3719.459          42.000  
  17188961.386    90328600.8202        788.124          46.000  
  18010665.475    94646679.7462      -1885.135          47.000  
  19720200.766   103630350.2222      -1858.143          43.000  
  19834558.011   104231303.2792       2468.400          45.000  
  21480620.193   112881413.8382      -2127.617          34.000  
  18534151.696    97397621.9042       2962.378          39.000  
  22612899.618   118831588.571       -2572.094          44.000  
  25310450.357   133007306.151        1248.680          38.000  
  21471661.077   112834321.2502       2533.269          35.000  
  22107398.056   116175160.8742      -2923.818          31.000  
 23 12  2 15 29  9.9900000  0 11G15G12G24G19G32G10G25E 7E20G 6G17
  21707005.497   114071090.2062      -3719.832          45.000  
  17188811.105    90327812.7122        787.289          45.000  
  18011023.798    94648564.9122      -1886.083          47.000  
  19720554.098   103632208.2522      -1858.677          44.000  
  19834088.530   104228835.0342       2467.466          45.000  
  21481024.340   112883541.3842      -2128.025          37.000  
  18533587.809    97394659.2782       2961.581          40.000  
  22613389.131   118834160.877       -2573.055          45.000  
  25310212.510   133006057.208        1247.715          37.000  
  21471178.299   112831788.6842       2532.173          36.000  
  22107959.011   116178084.5762      -2924.644          32.000  
 23 12  2 15 29 10.9900000  0 13G15G12G24G19G32G10G25E 7E20G 6G17E30
                                E27
  21707713.383   114074809.8492      -3719.403          42.000  
  17188661.626    90327025.3802        787.158          46.000  
  18011383.098    94650450.7632      -1886.227          47.000  
  19720908.337   103634067.1862      -1859.508          43.000  
  19833619.503   104226367.5272       2467.244          46.000  
  21481429.674   112885669.4602      -2126.824          35.000  
  18533024.760    97391697.1582       2962.655          38.000  
  22613878.645   118836733.703       -2573.090          44.000  
  25309976.548   133004808.960        1248.018          38.000  
  21470695.452   112829256.8732       2531.689          33.000  
  22108513.439   116181008.8032      -2925.324          32.000  
  21645788.622   113749397.458       -1504.888          45.000  
  20574236.538   108118352.630        1030.668          43.000  
 23 12  2 15 29 11.9900000  0 13G15G12G24G19G32G10G25E 7E20G 6G17E30
                                E27
  21708421.513   114078529.4942      -3719.724          43.000  
  17188511.903    90326238.6562        786.702          48.000  
  18011742.084    94652337.0732      -1886.559          47.000  
  19721262.507   103635926.6532      -1859.382          43.000  
  19833149.918   104223900.5912       2467.039          46.000  
  21481835.217   112887798.2402      -2129.200          39.000  
  18532461.328    97388735.5632       2961.969          44.000  
  22614368.018   118839306.692       -2572.742          44.000  
  25309738.388   133003561.232        1247.663          38.000  
  21470213.616   112826725.3722       2532.255          35.000  
  22109068.496   116183933.1562      -2924.166          31.000  
  21646077.074   113750902.382       -1504.880          45.000  
  20574039.246   108117321.682        1030.934          45.000  
 23 12  2 15 29 12.9900000  0 13G15G12G24G19G32G10G25E 7E20G 6G17E30
                                E27
  21709129.608   114082249.001       -3719.308          41.000  
  17188362.774    90325452.299         786.181          48.000  
  18012100.895    94654223.1091      -1886.772          47.000  
  19721616.467   103637786.0721      -1860.162          43.000  
  19832680.297   104221433.979        2466.607          45.000  
  21482240.271   112889926.5021      -2128.629          39.000  
  18531897.825    97385774.139        2961.472          43.000  
  22614857.462   118841879.926       -2572.720          34.000  
  25309500.855   133002313.770        1247.739          38.000  
  21469731.676   112824193.6681       2531.036          34.000  
  22109625.751   116186857.7012      -2925.223          31.000  
  21646362.595   113752407.316       -1504.826          45.000  
  20573843.385   108116290.878        1030.951          44.000  
 23 12  2 15 29 13.9900000  0 13G15G12G24G19G32G10G25E 7E20G 6G17E30
                                E27
  21709837.389   114085968.257       -3719.515          42.000  
  17188213.225    90324666.308         785.599          48.000  
  18012460.091    94656109.922       -1887.277          47.000  
  19721970.532   103639646.394       -1861.068          43.000  
  19832210.677   104218967.726        2466.009          45.000  
  21482645.779   112892055.465       -2128.650          37.000  
  18531334.079    97382812.903        2960.719          45.000  
  22615346.836   118844453.048       -2573.554          35.000  
  25309263.777   133001066.599        1247.242          38.000  
  21469249.841   112821662.615        2530.673          35.000  
  22110187.927   116189782.1782      -2923.775          30.000  
  21646648.674   113753912.303       -1505.168          45.000  
  20573647.942   108115260.230        1030.364          45.000  
 23 12  2 15 29 14.9900000  0 13G15G12G24G19G32G10G25E 7E20G 6G17E30
                                E27
  21710545.414   114089687.774       -3719.266          41.000  
  17188064.096    90323881.060         785.088          45.000  
  18012819.565    94657997.343       -1887.571          45.000  
  19722324.771   103641507.423       -1861.033          42.000  
  19831741.406   104216502.119        2465.581          43.000  
  21483051.078   112894185.006       -2129.655          37.000  
  18530770.751    97379852.223        2960.555          41.000  
  22615836.943   118847026.598       -2574.019          37.000  
  25309026.768   132999820.108        1246.212          35.000  
  21468768.180   112819132.142        2530.695          33.000  
  22110745.427   116192707.2292      -2924.586          29.000  
  21646936.812   113755417.667       -1505.521          44.000  
  20573453.477   108114230.060        1029.961          43.000  
 23 12  2 15 29 15.9900000  0 13G15G12G24G19G32G10G25E 7E20G 6G17E30
                                E27
  21711253.334   114093407.068       -3719.050          42.000  
  17187914.582    90323096.123         784.853          46.000  
  18013178.830    94659884.944       -1887.419          45.000  
  19722679.081   103643368.838       -1861.555          42.000  
  19831272.204   104214036.820        2465.345          43.000  
  21483456.307   112896314.617       -2129.446          36.000  
  18530207.702    97376891.671        2960.581          41.000  
  22616326.596   118849600.176       -2573.160          38.000  
  25308789.934   132998573.783        1246.492          37.000  
  21468286.519   112816601.836        2531.085          35.000  
  22111299.332   116195632.2092      -2924.610          31.000  
  21647223.728   113756922.966       -1505.116          44.000  
  20573257.197   108113199.913        1030.336          43.000  
 23 12  2 15 29 16.9900000  0 13G15G12G24G19G32G10G25E 7E20G 6G17E30
                                E27
  21711961.080   114097126.371       -3719.527          42.000  
  17187764.999    90322311.737         783.930          46.000  
  18013538.026    94661772.995       -1888.532          45.000  
  19723033.041   103645230.809       -1862.653          42.000  
  19830803.108   104211572.028        2464.280          43.000  
  21483861.606   112898444.594       -2130.396          37.000  
  18529644.130    97373931.507        2959.692          42.000  
  22616816.738   118852174.040       -2574.224          39.000  
  25308552.785   132997327.943        1245.031          37.000  
  21467805.032   112814071.980        2529.469          36.000  
  22111856.622   116198557.4362      -2925.738          32.000  
  21647509.667   113758428.470       -1505.791          44.000  
  20573061.022   108112170.102        1029.363          43.000  
 23 12  2 15 29 17.9900000  0 13G15G12G24G19G32G10G25E 7E20G 6G17E30
                                E27
  21712668.966   114100845.574       -3719.001          42.000  
  17187616.079    90321527.812         783.964          46.000  
  18013897.360    94663661.357       -1888.000          45.000  
  19723387.594   103647093.245       -1862.324          42.000  
  19830334.081   104209107.648        2464.407          43.000  
  21484267.219   112900574.831       -2130.068          37.000  
  18529080.872    97370971.572        2960.249          42.000  
  22617306.705   118854748.021       -2573.604          39.000  
  25308316.020   132996082.440        1245.703          37.000  
  21467323.616   112811542.364        2530.376          36.000  
  22112416.145   116201482.7382      -2923.597          32.000  
  21647796.200   113759934.081       -1505.206          44.000  
  20572864.777   108111140.479        1029.954          43.000  
 23 12  2 15 29 18.9900000  0 13G15G12G24G19G32G10G25E 7E20G 6G17E30
                                E27
  21713376.921   114104564.761       -3718.882          42.000  
  17187467.229    90320744.375         783.549          46.000  
  18014256.835    94665550.110       -1888.647          45.000  
  19723742.043   103648956.204       -1862.920          42.000  
  19829865.228   104206643.705        2463.927          43.000  
  21484672.832   112902705.335       -2130.326          40.000  
  18528517.544    97368011.946        2959.254          41.000  
  22617796.812   118857322.262       -2574.477          44.000  
  25308078.767   132994837.328        1245.165          37.000  
  21466842.374   112809013.013        2530.344          33.000  
  22112970.888   116204408.2722      -2925.169          33.000  
  21648082.453   113761439.829       -1505.691          44.000  
  20572668.915   108110111.079        1029.532          43.000  
 23 12  2 15 29 19.9900000  0 13G15G12G24G19G32G10G25E 7E20G 6G17E30
                                E27
  21714084.841   114108283.828       -3719.694          41.000  
  17187318.518    90319961.354         782.395          47.000  
  18014616.205    94667439.195       -1889.651          45.000  
  19724096.632   103650819.638       -1864.229          42.000  
  19829396.306   104204180.173        2462.722          45.000  
  21485078.584   112904836.188       -2131.212          40.000  
  18527954.181    97365052.721        2958.901          37.000  
  22618286.465   118859896.526       -2575.005          42.000  
  25307841.863   132993592.534        1244.385          37.000  
  21466361.481   112806484.095        2528.081          34.000  
  22113528.702   116207333.9892      -2926.095          33.000  
  21648369.021   113762945.635       -1506.199          44.000  
  20572473.229   108109081.877        1028.494          42.000  
 23 12  2 15 29 20.9900000  0 13G15G12G24G19G32G10G25E 7E20G 6G17E30
                                E27
  21714792.378   114112003.025       -3719.142          41.000  
  17187169.807    90319179.054         782.185          45.000  
  18014975.854    94669328.830       -1889.608          45.000  
  19724451.185   103652683.815       -1864.218          42.000  
  19828927.768   104201717.299        2462.989          45.000  
  21485484.057   112906967.536       -2131.547          39.000  
  18527391.027    97362093.940        2958.423          39.000  
  22618776.188   118862471.216       -2574.743          43.000  
  25307605.134   132992348.382        1244.468          36.000  
  21465880.273   112803955.656        2528.311          34.000  
  22114082.537   116210260.0402      -2926.644          33.000  
  21648655.798   113764451.833       -1506.259          43.000  
  20572277.612   108108053.142        1028.835          40.000  
 23 12  2 15 29 21.9900000  0 13G15G12G24G19G32G10G25E 7E20G 6G17E30
                                E27
  21715500.159   114115722.160       -3718.573          40.000  
  17187021.201    90318397.228         781.638          45.000  
  18015335.258    94671218.833       -1890.201          45.000  
  19724805.913   103654548.450       -1864.686          42.000  
  19828459.194   104199254.849        2462.367          45.000  
  21485889.984   112909099.122       -2131.661          39.000  
  18526827.944    97359135.354        2958.933          39.000  
  22619266.504   118865046.055       -2574.776          43.000  
  25307368.474   132991104.620        1243.416          36.000  
  21465399.415   112801427.494        2528.287          34.000  
  22114635.953   116213186.2332      -2926.519          32.000  
  21648942.540   113765958.105       -1506.145          43.000  
  20572081.925   108107024.612        1028.510          40.000  
 23 12  2 15 29 22.9900000  0 13G15G12G24G19G32G10G25E 7E20G 6G17E30
                                E27
  21716207.905   114119441.237       -3719.093          40.000  
  17186872.595    90317615.832         781.241          46.000  
  18015694.942    94673109.131       -1890.441          45.000  
  19725160.781   103656413.542       -1865.573          40.000  
  19827990.761   104196792.768        2462.080          43.000  
  21486295.248   112911230.973       -2132.224          39.000  
  18526264.965    97356177.077        2958.239          39.000  
  22619756.611   118867621.039       -2575.184          43.000  
  25307131.570   132989861.168        1242.942          36.000  
  21464918.208   112798899.700        2527.325          34.000  
  22115194.569   116216112.5962      -2926.746          33.000  
  21649228.968   113767464.493       -1506.758          43.000  
  20571886.552   108105996.244        1028.442          40.000  
 23 12  2 15 29 23.9900000  0 13G15G12G24G19G32G10G25E 7E20G 6G17E30
                                E27
  21716915.371   114123160.384       -3719.199          40.000  
  17186723.500    90316835.080         780.184          45.000  
  18016054.696    94674999.956       -1891.570          45.000  
  19725515.858   103658279.310       -1866.424          42.000  
  19827522.327   104194331.291        2460.959          43.000  
  21486701.036   112913363.221       -2132.590          37.000  
  18525701.777    97353219.192        2957.248          38.000  
  22620247.102   118870196.326       -2575.757          42.000  
  25306895.189   132988618.261        1242.425          36.000  
  21464437.036   112796372.235        2526.846          33.000  
  22115747.636   116219039.2242      -2927.734          31.000  
  21649515.465   113768971.116       -1506.941          44.000  
  20571691.040   108104968.291        1027.672          42.000  
 23 12  2 15 29 24.9900000  0 13G15G12G24G19G32G10G25E 7E20G 6G17E30
                                E27
  21717623.117   114126879.330       -3718.542          41.000  
  17186574.859    90316054.647         780.346          45.000  
  18016414.659    94676890.977       -1891.069          45.000  
  19725870.830   103660145.412       -1866.115          42.000  
  19827053.893   104191870.171        2461.075          43.000  
  21487106.858   112915495.682       -2132.686          37.000  
  18525139.007    97350261.546        2957.527          38.000  
  22620737.732   118872771.691       -2575.348          43.000  
  25306658.704   132987375.605        1242.602          36.000  
  21463956.038   112793845.013        2527.773          33.000  
  22116307.544   116221965.831       -2926.536          32.000  
  21649802.452   113770477.746       -1506.615          44.000  
  20571495.458   108103940.420        1028.125          40.000  
 23 12  2 15 29 25.9900000  0 13G15G12G24G19G32G10G25E 7E20G 6G17E30
                                E27
  21718330.968   114130598.376       -3719.210          41.000  
  17186426.358    90315274.853         779.205          45.000  
  18016774.552    94678782.509       -1891.809          45.000  
  19726225.942   103662012.206       -1867.386          42.000  
  19826585.634   104189409.605        2460.089          43.000  
  21487512.540   112917628.494       -2132.754          37.000  
  18524576.133    97347304.309        2956.750          39.000  
  22621228.118   118875347.338       -2575.907          43.000  
  25306422.393   132986133.470        1241.775          36.000  
  21463475.284   112791318.321        2525.449          34.000  
  22116860.751   116224892.862       -2927.321          32.000  
  21650089.438   113771984.649       -1507.116          44.000  
  20571299.701   108102912.956        1026.833          39.000  
 23 12  2 15 29 26.9900000  0 13G15G12G24G19G32G10G25E 7E20G 6G17E30
                                E27
  21719038.679   114134317.620       -3719.226          42.000  
  17186278.171    90314495.790         778.663          45.000  
  18017134.585    94680674.673       -1892.527          45.000  
  19726581.194   103663879.749       -1867.964          41.000  
  19826117.794   104186949.724        2459.614          44.000  
  21487918.537   112919761.923       -2133.600          36.000  
  18524013.363    97344347.658        2955.974          39.000  
  22621718.190   118877923.419       -2576.241          43.000  
  25306186.326   132984891.982        1241.280          36.000  
  21462994.601   112788792.127        2525.876          35.000  
  22117420.170   116227820.258       -2928.059          32.000  
  21650376.319   113773491.944       -1507.491          44.000  
  20571104.259   108101885.937        1026.623          39.000  
 23 12  2 15 29 27.9900000  0 13G15G12G24G19G32G10G25E 7E20G 6G17E30
                                E27
  21719746.425   114138036.634       -3718.816          41.000  
  17186130.088    90313717.068         778.698          45.000  
  18017494.897    94682567.035       -1892.513          44.000  
  19726936.724   103665747.621       -1867.451          41.000  
  19825649.674   104184490.144        2459.353          44.000  
  21488324.499   112921895.470       -2133.792          36.000  
  18523450.908    97341391.124        2956.518          38.000  
  22622208.262   118880499.488       -2575.886          40.000  
  25305950.329   132983650.701        1241.461          36.000  
  21462513.777   112786266.152        2525.479          32.000  
  22117975.820   116230747.698       -2927.413          33.000  
  21650663.201   113774999.202       -1507.018          44.000  
  20570909.026   108100859.002        1027.147          39.000  
 23 12  2 15 29 28.9900000  0 13G15G12G24G19G32G10G25E 7E20G 6G17E30
                                E27
  21720454.101   114141755.506       -3719.250          42.000  
  17185981.936    90312938.719         777.823          45.000  
  18017854.756    94684459.670       -1892.928          45.000  
  19727292.499   103667615.927       -1868.577          42.000  
  19825182.044   104182030.911        2458.581          44.000  
  21488730.286   112924029.226       -2133.632          37.000  
  18522888.453    97338434.795        2956.109          39.000  
  22622698.578   118883075.649       -2576.395          42.000  
  25305714.123   132982409.773        1240.503          36.000  
  21462033.129   112783740.408        2525.343          34.000  
  22118535.867   116233675.131       -2927.015          31.000  
  21650949.699   113776506.488       -1507.381          44.000  
  20570713.444   108099832.208        1026.604          39.000  
 23 12  2 15 29 29.9900000  0 13G15G12G24G19G32G10G25E 7E20G 6G17E30
                                E27
  21721161.812   114145474.654       -3718.850          41.000  
  17185834.098    90312161.219         777.440          45.000  
  18018215.347    94686352.995       -1893.273          44.000  
  19727648.414   103669485.133       -1869.305          40.000  
  19824714.378   104179572.454        2458.425          44.000  
  21489136.179   112926163.633       -2134.724          36.000  
  18522326.451    97335479.171        2955.261          39.000  
  22623188.824   118885652.335       -2576.779          41.000  
  25305477.987   132981169.542        1240.462          36.000  
  21461552.515   112781215.282        2525.077          34.000  
  22119088.446   116236603.193       -2927.596          31.000  
  21651236.825   113778014.301       -1507.814          44.000  
  20570518.141   108098805.989        1026.039          39.000  
 23 12  2 15 29 30.9900000  0 13G15G12G24G19G32G10G25E 7E20G 6G17E30
                                E27
  21721869.593   114149194.012       -3719.214          42.000  
  17185686.364    90311384.461         776.475          46.000  
  18018575.729    94688246.965       -1894.221          45.000  
  19728004.119   103671355.024       -1869.866          41.000  
  19824246.921   104177114.661        2457.498          44.000  
  21489542.350   112928298.515       -2135.178          33.000  
  18521763.995    97332523.947        2955.383          36.000  
  22623679.455   118888229.458       -2577.257          42.000  
  25305242.339   132979929.916        1239.473          36.000  
  21461071.971   112778690.778        2524.601          34.000  
  22119639.524   116239531.576       -2927.496          31.000  
  21651523.741   113779522.438       -1508.113          44.000  
  20570323.013   108097780.216        1025.787          41.000  
 23 12  2 15 29 31.9900000  0 13G15G12G24G19G32G10G25E 7E20G 6G17E30
                                E27
  21722577.095   114152913.287       -3719.203          42.000  
  17185538.735    90310608.176         775.628          46.000  
  18018936.634    94690141.274       -1894.416          44.000  
  19728360.208   103673225.421       -1871.235          39.000  
  19823779.430   104174657.271        2456.833          42.000  
  21489948.451   112930433.644       -2135.356          36.000  
  18521202.029    97329569.123        2954.611          36.000  
  22624169.876   118890806.735       -2577.870          41.000  
  25305006.412   132978690.688        1238.522          35.000  
  21460591.671   112776166.503        2523.530          34.000  
  22120194.440   116242460.227       -2928.231          30.000  
  21651810.553   113781030.702       -1508.474          44.000  
  20570127.989   108096754.715        1024.968          40.000  
 23 12  2 15 29 32.9900000  0 13G15G12G24G19G32G10G25E 7E20G 6G17E30
                                E27
  21723284.771   114156632.820       -3719.016          40.000  
  17185391.281    90309832.691         775.797          45.000  
  18019297.505    94692036.247       -1894.850          44.000  
  19728716.263   103675096.650       -1871.041          39.000  
  19823312.148   104172200.726        2456.566          39.000  
  21490354.937   112932569.425       -2135.552          39.000  
  18520639.992    97326614.975        2954.708          36.000  
  22624660.331   118893384.464       -2577.586          42.000  
  25304770.381   132977452.133        1238.471          35.000  
  21460111.615   112773642.911        2524.290          33.000  
  22120755.186   116245389.292       -2926.894          31.000  
  21652097.574   113782539.420       -1508.584          44.000  
  20569932.965   108095729.762        1024.969          40.000  
 23 12  2 15 29 33.9900000  0 13G15G12G24G19G32G10G25E 7E20G 6G17E30
                                E27
  21723992.272   114160352.068       -3719.427          40.000  
  17185243.826    90309057.439         775.194          44.000  
  18019658.061    94693931.354       -1895.203          44.000  
  19729072.736   103676968.152       -1871.677          41.000  
  19822845.110   104169744.405        2456.313          40.000  
  21490761.631   112934705.294       -2136.187          41.000  
  18520077.955    97323660.829        2953.917          36.000  
  22625151.136   118895962.164       -2577.610          43.000  
  25304534.838   132976213.774        1238.346          35.000  
  21459631.490   112771119.444        2523.248          33.000  
  22121311.394   116248318.256       -2928.766          30.000  
  21652384.525   113784048.009       -1508.648          44.000  
  20569737.907   108094704.781        1025.218          39.000  
 23 12  2 15 29 34.9900000  0 13G15G12G24G19G32G10G25E 7E20G 6G17E30
                                E27
  21724699.948   114164071.210       -3719.693          40.000  
  17185096.372    90308282.653         774.108          45.000  
  18020018.373    94695826.757       -1896.324          44.000  
  19729428.930   103678840.102       -1872.646          40.000  
  19822377.514   104167288.429        2455.129          40.000  
  21491168.326   112936841.371       -2136.591          41.000  
  18519516.163    97320706.956        2953.309          36.000  
  22625641.452   118898539.953       -2578.599          43.000  
  25304299.364   132974975.732        1237.320          35.000  
  21459151.330   112768596.258        2522.772          32.000  
  22121869.696   116251247.513       -2929.598          31.000  
  21652671.721   113785556.682       -1509.260          44.000  
  20569542.499   108093679.961        1024.327          39.000  
 23 12  2 15 29 35.9900000  0 13G15G12G24G19G32G10G25E 7E20G 6G17E30
                                E27
  21725407.729   114167790.303       -3719.694          40.000  
  17184948.953    90307508.339         773.841          45.000  
  18020379.209    94697722.535       -1896.336          44.000  
  19729785.123   103680712.563       -1872.673          42.000  
  19821910.197   104164832.904        2455.285          44.000  
  21491574.916   112938977.756       -2136.436          38.000  
  18518954.336    97317753.338        2953.340          35.000  
  22626132.118   118901117.919       -2578.220          42.000  
  25304063.647   132973738.112        1237.500          35.000  
  21458670.367   112766073.411        2522.135          30.000  
  22122426.742   116254176.653       -2929.121          31.000  
  21652958.603   113787065.503       -1509.072          45.000  
  20569347.441   108092655.414        1024.430          38.000  
 23 12  2 15 29 36.9900000  0 13G15G12G24G19G32G10G25E 7E20G 6G17E30
                                E27
  21726115.440   114171509.559       -3719.750          41.000  
  17184801.568    90306734.752         773.184          44.000  
  18020740.114    94699618.909       -1896.549          43.000  
  19730141.213   103682585.786       -1873.428          40.000  
  19821442.916   104162378.071        2454.468          41.000  
  21491981.611   112941114.657       -2137.212          39.000  
  18518392.509    97314800.295        2952.722          34.000  
  22626622.678   118903696.360       -2578.715          43.000  
  25303828.173   132972501.107        1236.854          35.000  
  21458187.833   112763551.163        2522.185          31.000  
  22122987.836   116257106.388       -2929.552          30.000  
  21653246.077   113788574.709       -1509.542          45.000  
  20569152.696   108091631.349        1024.051          38.000  
 23 12  2 15 29 37.9900000  0 13G15G12G24G19G32G10G25E 7E20G 6G17E30
                                E27
  21726823.326   114175228.811       -3719.532          41.000  
  17184654.288    90305961.700         772.662          44.000  
  18021101.124    94701515.723       -1897.148          43.000  
  19730497.825   103684459.600       -1874.548          41.000  
  19820975.913   104159923.744        2453.878          42.000  
  21492388.515   112943251.957       -2137.601          40.000  
  18517831.205    97311847.643        2952.596          34.000  
  22627112.994   118906274.999       -2579.042          43.000  
  25303593.294   132971264.586        1235.929          35.000  
  21457711.338   112761029.253        2521.661          31.000  
  22123545.441   116260036.305       -2929.722          29.000  
  21653533.483   113790084.076       -1509.555          45.000  
  20568957.847   108090607.574        1023.333          38.000  
 23 12  2 15 29 38.9900000  0 13G15G12G24G19G32G10G25E 7E20G 6G17E30
                                E27
  21727531.456   114178948.335       -3719.454          41.000  
  17184507.323    90305189.485         772.032          44.000  
  18021462.030    94703413.244       -1897.825          44.000  
  19730854.543   103686334.238       -1874.684          41.000  
  19820509.015   104157470.214        2453.515          43.000  
  21492795.315   112945389.873       -2138.070          36.000  
  18517269.587    97308895.624        2951.824          35.000  
  22627603.974   118908854.144       -2579.533          41.000  
  25303358.134   132970028.705        1235.635          35.000  
  21457230.410   112758508.025        2520.653          32.000  
  22124106.849   116262966.840       -2932.110          30.000  
  21653820.888   113791593.899       -1509.778          44.000  
  20568763.103   108089584.329        1022.853          40.000  
 23 12  2 15 29 39.9900000  0 13G15G12G24G19G32G10G25E 7E20G 6G17E30
                                E27
  21728239.202   114182667.707       -3719.131          41.000  
  17184360.357    90304417.588         771.893          44.000  
  18021823.110    94705310.984       -1898.351          43.000  
  19731211.539   103688209.260       -1875.410          42.000  
  19820041.838   104155017.002        2452.795          42.000  
  21493202.044   112947527.963       -2138.278          36.000  
  18516707.969    97305943.761        2952.209          35.000  
  22628094.569   118911433.321       -2579.614          43.000  
  25303123.080   132968793.174        1234.747          35.000  
  21456750.983   112755986.927        2521.610          33.000  
  22124662.813   116265897.228       -2930.184          31.000  
  21654108.258   113793103.764       -1510.027          44.000  
  20568568.289   108088561.213        1022.944          39.000  
 23 12  2 15 29 40.9900000  0 13G15G12G24G19G32G10G25E 7E20G 6G17E30
                                E27
  21728946.773   114186387.063       -3719.754          41.000  
  17184213.810    90303646.244         770.597          45.000  
  18022184.364    94707209.128       -1898.837          42.000  
  19731568.222   103690084.816       -1876.192          41.000  
  19819575.323   104152564.256        2452.022          43.000  
  21493609.332   112949666.435       -2138.759          38.000  
  18516146.282    97302992.132        2950.883          34.000  
  22628585.479   118914012.697       -2579.820          44.000  
  25302887.921   132967558.006        1234.722          34.000  
  21456271.660   112753466.298        2519.717          32.000  
  22125218.358   116268827.947       -2931.059          30.000  
  21654395.698   113794613.759       -1510.294          44.000  
  20568373.963   108087538.348        1022.504          39.000  
 23 12  2 15 29 41.9900000  0 13G15G12G24G19G32G10G25E 7E20G 6G17E30
                                E27
  21729654.310   114190106.752       -3719.418          40.000  
  17184067.123    90302875.810         769.806          45.000  
  18022545.374    94709108.045       -1899.630          42.000  
  19731925.358   103691961.329       -1877.246          40.000  
  19819108.949   104150112.375        2451.407          42.000  
  21494016.411   112951805.549       -2139.768          38.000  
  18515584.454    97300041.431        2948.984          36.000  
  22629076.667   118916592.714       -2580.455          43.000  
  25302652.901   132966323.686        1234.143          34.000  
  21455793.175   112750946.389        2518.761          32.000  
  22125776.800   116271759.227       -2931.298          30.000  
  21654682.789   113796124.323       -1510.939          44.000  
  20568179.323   108086516.174        1021.807          39.000  
 23 12  2 15 29 42.9900000  0 13G15G12G24G19G32G10G25E 7E20G 6G17E30
                                E27
  21730362.300   114193826.956       -3720.455          41.000  
  17183920.646    90302106.353         769.101          45.000  
  18022906.838    94711007.847       -1900.146          42.000  
  19732282.668   103693838.828       -1878.084          41.000  
  19818642.679   104147661.497        2450.626          42.000  
  21494423.978   112953945.422       -2140.408          36.000  
  18515023.325    97297091.537        2949.365          34.000  
  22629567.751   118919173.409       -2580.864          43.000  
  25302418.266   132965090.269        1232.916          35.000  
  21455315.458   112748427.281        2518.427          34.000  
  22126335.032   116274691.200       -2931.704          31.000  
  21654970.264   113797635.527       -1511.441          44.000  
  20567985.172   108085494.729        1021.198          39.000  
 23 12  2 15 29 43.9900000  0 13G15G12G24G19G32G10G25E 7E20G 6G17E30
                                E27
  21731070.395   114197547.402       -3720.486          41.000  
  17183774.169    90301337.740         768.325          45.000  
  18023268.581    94712908.355       -1900.904          42.000  
  19732640.119   103695717.192       -1878.542          41.000  
  19818176.340   104145211.372        2449.849          43.000  
  21494831.406   112956085.964       -2140.537          36.000  
  18514462.056    97294142.194        2949.300          33.000  
  22630058.766   118921754.607       -2581.315          42.000  
  25302183.560   132963857.587        1232.270          34.000  
  21454836.449   112745908.880        2517.603          34.000  
  22126893.649   116277623.721       -2932.762          31.000  
  21655258.227   113799147.208       -1511.736          44.000  
  20567790.567   108084473.857        1020.792          38.000  
 23 12  2 15 29 44.9900000  0 13G15G12G24G19G32G10G25E 7E20G 6G17E30
                                E27
  21731778.594   114201267.705       -3720.510          41.000  
  17183628.006    90300569.531         767.733          45.000  
  18023630.429    94714809.150       -1901.111          42.000  
  19732997.534   103697596.013       -1879.464          41.000  
  19817710.174   104142761.609        2449.176          43.000  
  21495238.904   112958226.754       -2140.690          37.000  
  18513900.823    97291193.118        2948.829          36.000  
  22630549.605   118924335.901       -2581.679          43.000  
  25301949.309   132962625.257        1231.628          35.000  
  21454356.429   112743390.739        2517.886          34.000  
  22127452.649   116280556.359       -2933.669          32.000  
  21655545.737   113800658.967       -1512.018          44.000  
  20567596.556   108083453.165        1020.177          38.000  
 23 12  2 15 29 45.9900000  0 13G15G12G24G19G32G10G25E 7E20G 6G17E30
                                E27
  21732486.375   114204988.180       -3720.376          41.000  
  17183481.948    90299802.019         767.382          45.000  
  18023991.997    94716710.512       -1901.497          42.000  
  19733355.194   103699475.501       -1879.710          41.000  
  19817243.974   104140312.509        2448.928          42.000  
  21495646.506   112960368.058       -2141.329          38.000  
  18513339.763    97288244.545        2948.446          36.000  
  22631040.794   118926917.583       -2581.695          43.000  
  25301715.127   132961393.489        1231.201          35.000  
  21453876.757   112740873.150        2517.939          33.000  
  22128011.056   116283489.288       -2932.557          32.000  
  21655833.456   113802171.028       -1512.026          44.000  
  20567402.579   108082432.883        1020.441          39.000  
 23 12  2 15 29 46.9900000  0 13G15G12G24G19G32G10G25E 7E20G 6G17E30
                                E27
  21733194.191   114208708.303       -3720.262          41.000  
  17183336.099    90299034.735         766.586          45.000  
  18024353.880    94718611.980       -1901.885          43.000  
  19733712.714   103701355.258       -1880.248          41.000  
  19816777.809   104137863.612        2448.197          43.000  
  21496053.584   112962509.382       -2141.752          38.000  
  18512778.913    97285296.047        2948.264          36.000  
  22631531.704   118929499.171       -2581.868          43.000  
  25301480.875   132960161.824        1231.223          35.000  
  21453397.609   112738355.641        2517.307          32.000  
  22128568.067   116286422.181       -2933.674          32.000  
  21656121.036   113803682.977       -1512.220          44.000  
  20567207.939   108081412.590        1019.936          39.000  
 23 12  2 15 29 47.9900000  0 13G15G12G24G19G32G10G25E 7E20G 6G17E30
                                E27
  21733902.007   114212428.636       -3720.157          41.000  
  17183190.215    90298268.159         766.018          45.000  
  18024715.728    94720514.038       -1902.487          44.000  
  19734070.687   103703235.734       -1880.949          42.000  
  19816311.539   104135415.327        2447.731          43.000  
  21496461.047   112964651.090       -2140.377          36.000  
  18512217.714    97282347.995        2948.169          39.000  
  22632022.997   118932081.138       -2582.181          43.000  
  25301246.553   132958930.796        1230.519          35.000  
  21452919.368   112735838.617        2516.021          31.000  
  22129124.450   116289355.329       -2932.573          31.000  
  21656409.383   113805195.277       -1512.575          44.000  
  20567014.137   108080392.745        1019.673          39.000  
 23 12  2 15 29 48.9900000  0 13G15G12G24G19G32G10G25E 7E20G 6G17E30
                                E27
  21734609.857   114216148.945       -3720.718          40.000  
  17183044.331    90297502.084         765.805          45.000  
  18025077.750    94722416.481       -1902.203          44.000  
  19734428.871   103705116.717       -1881.207          41.000  
  19815846.072   104132967.603        2447.162          43.000  
  21496868.440   112966793.334       -2143.395          36.000  
  18511656.480    97279400.238        2947.408          40.000  
  22632514.779   118934663.357       -2582.470          41.000  
  25301012.581   132957700.191        1230.363          35.000  
  21452438.406   112733321.970        2516.480          30.000  
  22129681.496   116292288.855       -2933.857          30.000  
  21656696.998   113806707.740       -1512.615          44.000  
  20566819.707   108079373.166        1019.336          40.000  
 23 12  2 15 29 49.9900000  0 13G15G12G24G19G32G10G25E 7E20G 6G17E30
                                E27
  21735317.952   114219869.241       -3720.020          41.000  
  17182898.587    90296736.528         765.538          45.000  
  18025439.981    94724319.331       -1902.794          45.000  
  19734786.984   103706998.294       -1881.694          41.000  
  19815380.326   104130520.321        2447.052          43.000  
  21497276.182   112968935.803       -2142.347          38.000  
  18511095.246    97276452.946        2947.273          42.000  
  22633006.142   118937245.808       -2582.652          35.000  
  25300778.120   132956470.007        1230.282          35.000  
  21451958.734   112730805.715        2515.887          32.000  
  22130243.846   116295222.519       -2934.013          30.000  
  21656984.787   113808220.371       -1512.580          44.000  
  20566626.114   108078353.898        1019.101          42.000  
 23 12  2 15 29 50.9900000  0 13G15G12G24G19G32G10G25E 7E20G 6G17E30
                                E27
  21736025.733   114223589.334       -3720.164          40.000  
  17182752.843    90295971.384         764.750          46.000  
  18025802.143    94726222.455       -1903.109          44.000  
  19735145.272   103708880.266       -1882.096          41.000  
  19814914.301   104128073.380        2446.878          43.000  
  21497683.993   112971078.479       -2142.640          40.000  
  18510534.257    97273505.842        2947.133          42.000  
  22633497.750   118939828.298       -2582.512          36.000  
  25300544.461   132955240.109        1230.237          35.000  
  21451484.158   112728289.693        2515.809          32.000  
  22130799.182   116298156.217       -2933.367          31.000  
  21657272.645   113809733.015       -1512.580          44.000  
  20566432.242   108077334.708        1019.268          42.000  
 23 12  2 15 29 51.9900000  0 13G15G12G24G19G32G10G25E 7E20G 6G17E30
                                E27
  21736733.444   114227309.609       -3720.116          41.000  
  17182607.552    90295206.924         764.338          46.000  
  18026164.410    94728126.153       -1903.834          44.000  
  19735503.630   103710762.944       -1882.739          41.000  
  19814448.589   104125627.109        2445.938          43.000  
  21498091.875   112973221.660       -2143.374          41.000  
  18509973.337    97270559.234        2946.616          42.000  
  22633989.113   118942411.147       -2582.872          36.000  
  25300310.733   132954010.851        1228.991          36.000  
  21451005.533   112725774.246        2514.734          33.000  
  22131358.147   116301090.355       -2934.301          30.000  
  21657560.155   113811246.021       -1512.980          44.000  
  20566238.650   108076315.981        1018.758          42.000  
 23 12  2 15 29 52.9900000  0 13G15G12G24G19G32G10G25E 7E20G 6G17E30
                                E27
  21737441.225   114231029.914       -3720.052          40.000  
  17182462.157    90294443.037         763.783          45.000  
  18026526.572    94730030.287       -1904.033          44.000  
  19735861.917   103712646.227       -1883.458          41.000  
  19813983.157   104123181.363        2445.620          43.000  
  21498499.930   112975365.202       -2143.297          41.000  
  18509412.452    97267613.020        2946.135          41.000  
  22634480.476   118944994.258       -2582.818          36.000  
  25300076.970   132952782.021        1228.890          36.000  
  21450526.734   112723259.137        2514.943          33.000  
  22131917.148   116304024.687       -2934.043          30.000  
  21657848.119   113812759.235       -1513.108          44.000  
  20566044.708   108075297.580        1018.551          42.000  
 23 12  2 15 29 53.9900000  0 13G15G12G24G19G32G10G25E 7E20G 6G17E30
                                E27
  21738149.076   114234750.022       -3719.980          40.000  
  17182316.762    90293679.514         763.281          45.000  
  18026888.943    94731934.659       -1904.486          44.000  
  19736220.589   103714529.893       -1883.936          41.000  
  19813517.864   104120735.954        2445.035          43.000  
  21498907.672   112977508.925       -2143.738          41.000  
  18508851.637    97264666.986        2945.904          41.000  
  22634972.154   118947577.440       -2583.004          36.000  
  25299843.032   132951553.485        1228.156          36.000  
  21450048.145   112720744.270        2514.760          34.000  
  22132473.426   116306959.134       -2935.549          30.000  
  21658136.187   113814272.446       -1513.204          45.000  
  20565851.115   108074279.286        1018.026          42.000  
 23 12  2 15 29 54.9900000  0 13G15G12G24G19G32G10G25E 7E20G 6G17E30
                                E27
  21738857.380   114238470.032       -3719.750          40.000  
  17182171.611    90292916.414         763.000          45.000  
  18027251.419    94733839.357       -1904.816          44.000  
  19736578.982   103716413.995       -1884.194          41.000  
  19813052.711   104118290.926        2444.926          43.000  
  21499315.623   112979652.897       -2144.095          41.000  
  18508291.101    97261721.198        2945.919          41.000  
  22635463.831   118950160.724       -2583.012          36.000  
  25299608.990   132950325.279        1227.665          36.000  
  21449565.262   112718229.687        2514.529          34.000  
  22133031.658   116309893.602       -2933.995          29.000  
  21658424.220   113815785.739       -1513.306          45.000  
  20565656.999   108073261.169        1018.021          42.000  
 23 12  2 15 29 55.9900000  0 13G15G12G24G19G32G10G25E 7E20G 6G17E30
                                E27
  21739565.091   114242190.081       -3720.339          40.000  
  17182026.425    90292153.875         762.313          45.000  
  18027613.825    94735744.485       -1905.554          44.000  
  19736937.758   103718298.733       -1885.185          40.000  
  19812587.837   104115846.449        2444.166          43.000  
  21499723.470   112981797.218       -2144.683          41.000  
  18507730.495    97258775.805        2945.299          41.000  
  22635955.404   118952744.285       -2583.835          36.000  
  25299375.018   132949097.548        1227.130          36.000  
  21449088.871   112715715.505        2513.679          34.000  
  22133592.369   116312828.431       -2935.272          29.000  
  21658712.219   113817299.258       -1513.821          45.000  
  20565463.127   108072243.360        1017.542          41.000  
 23 12  2 15 29 56.9900000  0 13G15G12G24G19G32G10G25E 7E20G 6G17E30
                                E27
  21740272.837   114245910.269       -3719.463          38.000  
  17181881.728    90291392.079         761.564          45.000  
  18027976.650    94737650.203       -1905.530          44.000  
  19737296.360   103720184.212       -1886.154          41.000  
  19812122.789   104113402.649        2444.053          43.000  
  21500131.526   112983942.084       -2145.466          39.000  
  18507170.099    97255830.934        2944.932          43.000  
  22636446.732   118955328.172       -2583.794          41.000  
  25299141.324   132947870.427        1226.809          36.000  
  21448611.014   112713201.887        2513.354          35.000  
  22134152.276   116315763.601       -2935.768          29.000  
  21659000.217   113818813.119       -1514.057          45.000  
  20565269.465   108071226.030        1017.332          42.000  
 23 12  2 15 29 57.9900000  0 13G15G12G24G19G32G10G25E 7E20G 6G17E30
                                E27
  21740980.688   114249630.517       -3720.076          40.000  
  17181736.717    90290630.872         760.866          44.000  
  18028339.405    94739556.463       -1906.654          45.000  
  19737655.451   103722070.275       -1886.241          40.000  
  19811657.671   104110959.430        2442.848          42.000  
  21500539.861   112986087.381       -2147.236          35.000  
  18506610.052    97252886.554        2943.939          36.000  
  22636938.688   118957912.441       -2584.701          42.000  
  25298907.805   132946643.824        1226.269          35.000  
  21448132.878   112710688.782        2512.456          35.000  
  22134715.290   116318699.042       -2935.877          29.000  
  21659288.529   113820327.223       -1513.954          45.000  
  20565076.081   108070209.099        1016.755          36.000  
 23 12  2 15 29 58.9900000  0 13G15G12G24G19G32G10G25E 7E20G 6G17E30
                                E27
  21741688.608   114253350.733       -3720.250          41.000  
  17181591.915    90289870.122         760.500          43.000  
  18028702.369    94741462.997       -1906.799          44.000  
  19738014.332   103723956.856       -1886.637          40.000  
  19811192.658   104108516.587        2442.518          44.000  
  21500948.266   112988232.905       -2145.659          39.000  
  18506049.900    97249942.412        2944.117          40.000  
  22637430.889   118960496.833       -2584.367          43.000  
  25298674.391   132945417.608        1226.142          36.000  
  21447654.393   112708175.899        2512.944          36.000  
  22135275.861   116321634.704       -2935.464          29.000  
  21659576.528   113821841.451       -1514.181          44.000  
  20564882.628   108069192.354        1016.553          36.000  
 23 12  2 15 29 59.9900000  0 13G15G12G24G19G32G10G25E 7E20G 6G17E30
                                E27
  21742396.459   114257071.116       -3720.479          40.000  
  17181447.008    90289110.113         759.971          44.000  
  18029065.264    94743370.193       -1907.231          44.000  
  19738373.388   103725844.177       -1887.769          41.000  
  19810727.644   104106074.492        2442.229          44.000  
  21501356.671   112990379.016       -2145.813          39.000  
  18505490.167    97246998.875        2943.790          39.000  
  22637922.602   118963081.651       -2584.816          44.000  
  25298441.082   132944192.036        1225.368          36.000  
  21447176.257   112705663.588        2512.463          36.000  
  22135835.769   116324570.699       -2936.126          29.000  
  21659864.701   113823356.084       -1514.519          44.000  
  20564689.489   108068176.044        1016.246          36.000  
 23 12  2 15 30  0.9900000  0 13G15G12G24G19G32G10G25E 7E20G 6G17E30
                                E27
  21743104.588   114260791.320       -3720.281          42.000  
  17181302.485    90288350.509         759.586          45.000  
  18029428.299    94745277.589       -1907.625          45.000  
  19738732.478   103727731.891       -1887.740          40.000  
  19810262.875   104103632.713        2441.524          42.000  
  21501765.250   112992525.217       -2146.050          35.000  
  18504929.910    97244055.388        2943.311          38.000  
  22638414.767   118965666.575       -2584.951          43.000  
  25298207.877   132942966.696        1225.135          35.000  
  21446698.156   112703151.523        2512.241          32.000  
  22136389.708   116327506.792       -2936.246          29.000  
  21660153.188   113824870.720       -1514.562          45.000  
  20564496.106   108067159.867        1016.049          39.000  
 23 12  2 15 30  1.9900000  0 13G15G12G24G19G32G10G25E 7E20G 6G17E30
                                E27
  21743812.439   114264511.539       -3720.736          41.000  
  17181158.172    90287591.446         758.496          43.000  
  18029791.158    94747185.474       -1908.414          44.000  
  19739091.604   103729620.189       -1888.483          40.000  
  19809798.001   104101191.458        2440.902          43.000  
  21502173.550   112994671.949       -2148.152          35.000  
  18504369.898    97241112.473        2942.438          38.000  
  22638906.933   118968251.660       -2585.361          42.000  
  25297974.603   132941741.883        1224.095          35.000  
  21446220.335   112700639.924        2511.849          36.000  
  22136953.281   116330443.066       -2936.176          29.000  
  21660441.361   113826385.555       -1515.441          45.000  
  20564302.827   108066144.056        1015.194          37.000  
 23 12  2 15 30  2.9900000  0 13G15G12G24G19G32G10G25E 7E20G 6G17E30
                                E27
  21744520.604   114268231.774       -3720.191          40.000  
  17181013.859    90286832.946         758.360          42.000  
  18030154.437    94749093.754       -1908.325          44.000  
  19739451.043   103731509.109       -1889.075          39.000  
  19809333.930   104098750.710        2440.546          45.000  
  21502582.060   112996818.859       -2146.887          40.000  
  18503810.129    97238169.864        2942.373          38.000  
  22639398.820   118970837.046       -2585.493          43.000  
  25297741.642   132940517.537        1223.923          36.000  
  21445742.268   112698128.693        2511.287          36.000  
  22137514.759   116333379.713       -2936.871          28.000  
  21660729.708   113827900.615       -1515.313          45.000  
  20564109.618   108065128.513        1015.816          37.000  
 23 12  2 15 30  3.9900000  0 13G15G12G24G19G32G10G25E 7E20G 6G17E30
                                E27
  21745228.559   114271952.020       -3720.435          40.000  
  17180869.720    90286074.996         757.457          42.000  
  18030517.785    94751002.473       -1909.207          44.000  
  19739810.588   103733398.579       -1890.144          39.000  
  19808869.475   104096310.502        2439.648          45.000  
  21502990.255   112998966.203       -2147.928          40.000  
  18503250.361    97235227.596        2941.689          39.000  
  22639890.847   118973422.674       -2586.085          43.000  
  25297509.170   132939293.603        1223.352          36.000  
  21445264.621   112695617.856        2510.182          36.000  
  22138068.733   116336316.585       -2938.074          27.000  
  21661018.055   113829415.830       -1515.485          45.000  
  20563916.200   108064113.278        1014.909          37.000  
 23 12  2 15 30  4.9900000  0 13G15G12G24G19G32G10G25E 7E20G 6G17E30
                                E27
  21745936.270   114275672.179       -3720.334          40.000  
  17180725.756    90285317.449         757.018          43.000  
  18030881.029    94752911.511       -1909.818          44.000  
  19740170.202   103735288.506       -1890.942          39.000  
  19808405.230   104093870.677        2439.251          45.000  
  21503398.940   113001113.748       -2147.764          40.000  
  18502690.628    97232285.569        2941.885          39.000  
  22640382.838   118976008.404       -2586.164          43.000  
  25297276.385   132938069.996        1223.392          36.000  
  21444786.974   112693107.292        2509.999          35.000  
  22138627.873   116339253.475       -2937.276          27.000  
  21661306.682   113830931.131       -1515.654          45.000  
  20563723.201   108063098.243        1014.471          36.000  
 23 12  2 15 30  5.9900000  0 13G15G12G24G19G32G10G25E 7E20G 6G17E30
                                E27
  21746644.260   114279392.213       -3720.016          40.000  
  17180581.687    90284560.371         756.660          43.000  
  18031244.098    94754820.849       -1909.760          44.000  
  19740529.781   103737178.871       -1891.005          40.000  
  19807940.984   104091431.245        2439.059          45.000  
  21503807.728   113003261.568       -2147.875          40.000  
  18502130.860    97229343.834        2941.239          40.000  
  22640875.109   118978594.266       -2586.321          43.000  
  25297043.668   132936846.748        1223.111          36.000  
  21444309.012   112690596.999        2509.856          35.000  
  22139198.007   116342190.514       -2937.889          26.000  
  21661594.995   113832446.526       -1515.757          45.000  
  20563529.992   108062083.381        1014.247          36.000  
 23 12  2 15 30  6.9900000  0 13G15G12G24G19G32G10G25E 7E20G 6G17E30
                                E27
  21747351.832   114283112.468       -3720.092          40.000  
  17180437.513    90283804.056         756.154          43.000  
  18031607.656    94756730.827       -1910.184          44.000  
  19740889.849   103739070.013       -1891.492          40.000  
  19807477.088   104088992.554        2438.494          45.000  
  21504216.692   113005409.957       -2148.341          40.000  
  18501571.232    97226402.682        2940.947          39.000  
  22641367.100   118981180.558       -2586.361          43.000  
  25296810.917   132935624.196        1222.259          36.000  
  21443831.400   112688087.338        2509.331          35.000  
  22139753.622   116345127.966       -2937.220          26.000  
  21661883.307   113833962.320       -1515.733          45.000  
  20563336.993   108061068.987        1014.340          37.000  
 23 12  2 15 30  7.9900000  0 13G15G12G24G19G32G10G25E 7E20G 6G17E30
                                E27
  21748059.962   114286832.517       -3719.749          40.000  
  17180293.828    90283048.076         755.810          43.000  
  18031970.830    94758641.039       -1910.103          43.000  
  19741249.916   103740961.518       -1891.395          40.000  
  19807013.086   104086554.181        2438.214          45.000  
  21504625.690   113007558.500       -2148.254          40.000  
  18501011.813    97223461.686        2940.948          39.000  
  22641859.231   118983766.898       -2586.311          43.000  
  25296578.376   132934401.894        1221.750          36.000  
  21443353.892   112685577.861        2509.558          35.000  
  22140311.505                       -2938.504          26.000  
  21662171.689   113835478.110       -1515.653          45.000  
  20563144.412   108060054.693        1014.417          37.000  
 23 12  2 15 30  8.9900000  0 13G15G12G24G19G32G10G25E 7E20G 6G17E30
                                E27
  21748767.777   114290552.617       -3720.605          40.000  
  17180149.933    90282292.683         754.702          43.000  
  18032334.597    94760551.714       -1911.543          44.000  
  19741609.880   103742853.648       -1892.734          39.000  
  19806549.155   104084116.333        2437.012          45.000  
  21505034.409   113009707.436       -2149.564          40.000  
  18500452.254    97220521.071        2939.862          39.000  
  22642352.165   118986353.508       -2587.134          43.000  
  25296346.113   132933180.025        1221.230          36.000  
  21442876.524   112683068.786        2508.752          35.000  
  22140869.424                       -2938.892          26.000  
  21662460.421   113836994.127       -1516.531          45.000  
  20562951.308   108059040.760        1013.252          37.000  
 23 12  2 15 30  9.9900000  0 13G15G12G24G19G32G10G25E 7E20G 6G17E30
                                E27
  21749476.082   114294273.336       -3720.739          40.000  
  17180006.458    90281538.440         754.177          43.000  
  18032698.400    94762463.414       -1912.052          44.000  
  19741970.017   103744746.956       -1893.553          40.000  
  19806085.817   104081679.633        2436.473          45.000  
  21505443.582   113011857.323       -2150.129          40.000  
  18499893.044    97217581.451        2939.517          40.000  
  22642844.401   118988940.953       -2587.449          43.000  
  25296113.851   132931959.244        1220.738          36.000  
  21442399.156   112680560.773        2507.471          35.000  
  22141428.145                       -2939.565          26.000  
  21662748.768   113838510.938       -1516.832          45.000  
  20562758.483   108058027.707        1012.947          37.000  
 23 12  2 15 30 10.9900000  0 13G15G12G24G19G32G10G25E 7E20G 6G17E30
                                E27
  21750184.212   114297993.863       -3720.947          40.000  
  17179863.122    90280784.565         753.507          43.000  
  18033062.167    94764375.343       -1912.523          44.000  
  19742330.504   103746640.641       -1894.368          40.000  
  19805622.199   104079243.227        2435.984          45.000  
  21505852.894   113014007.359       -2150.732          40.000  
  18499333.451    97214642.009        2938.940          40.000  
  22643336.567   118991528.467       -2588.179          43.000  
  25295881.624   132930738.712        1220.128          36.000  
  21441922.137   112678052.913        2507.771          35.000  
  22141987.878                       -2939.139          26.000  
  21663037.848   113840027.757       -1517.246          45.000  
  20562565.798   108057014.765        1012.444          37.000  
 23 12  2 15 30 11.9900000  0 12G15G12G24G19G32G10G25E 7E20G 6E30E27
  21750892.272   114301714.583       -3721.083          40.000  
  17179719.716    90280031.425         752.676          43.000  
  18033426.039    94766287.899       -1913.218          44.000  
  19742691.130   103748535.052       -1894.989          40.000  
  19805158.791   104076807.513        2435.264          45.000  
  21506262.032   113016157.911       -2151.073          40.000  
  18498774.206    97211703.128        2938.162          40.000  
  22643829.361   118994116.368       -2588.142          43.000  
  25295649.605   132929518.840        1219.625          36.000  
  21441444.838   112675545.636        2506.971          35.000  
  21663326.475   113841544.940       -1517.497          45.000  
  20562372.763   108056002.320        1011.817          37.000  
 23 12  2 15 30 12.9900000  0 12G15G12G24G19G32G10G25E 7E20G 6E30E27
  21751600.611   114305435.811       -3720.964          40.000  
  17179576.938    90279279.394         751.708          43.000  
  18033790.225    94768201.411       -1913.774          44.000  
  19743051.896   103750430.590       -1895.974          40.000  
  19804695.523   104074372.878        2434.268          45.000  
  21506671.693   113018309.398       -2151.921          40.000  
  18498214.892    97208765.157        2937.421          39.000  
  22644321.876   118996705.074       -2588.975          43.000  
  25295417.518   132928299.992        1218.528          36.000  
  21440967.610   112673039.351        2505.730          35.000  
  21663615.241   113843062.880       -1518.105          45.000  
  20562180.392   108054990.710        1011.580          37.000  
 23 12  2 15 30 13.9900000  0 12G15G12G24G19G32G10G25E 7E20G 6E30E27
  21752308.671   114309156.991       -3721.221          40.000  
  17179434.091    90278527.773         751.319          43.000  
  18034154.550    94770115.243       -1914.335          44.000  
  19743412.836   103752326.601       -1896.464          40.000  
  19804232.324   104071938.642        2433.735          45.000  
  21507081.284   113020461.098       -2152.269          40.000  
  18497655.577    97205827.434        2937.170          39.000  
  22644814.146   118999293.894       -2589.126          43.000  
  25295185.569   132927081.461        1217.952          36.000  
  21440490.765   112670533.321        2505.256          35.000  
  21663903.798   113844580.898       -1518.326          45.000  
  20561987.393   108053979.300        1010.913          36.000  
 23 12  2 15 30 14.9900000  0 12G15G12G24G19G32G10G25E 7E20G 6E30E27
  21753016.661   114312878.246       -3721.248          41.000  
  17179291.104    90277776.801         750.730          44.000  
  18034519.155    94772029.584       -1914.736          45.000  
  19743773.741   103754223.193       -1896.912          40.000  
  19803769.265   104069504.976        2433.455          44.000  
  21507490.667   113022613.194       -2152.716          34.000  
  18497096.577    97202890.104        2937.444          39.000  
  22645306.661   119001883.031       -2589.236          42.000  
  25294953.586   132925863.437        1218.151          36.000  
  21440014.060   112668027.773        2505.597          35.000  
  21664192.878   113846099.194       -1518.362          46.000  
  20561794.812   108052968.178        1011.815          37.000  
 23 12  2 15 30 15.9900000  0 12G15G12G24G19G32G10G25E 7E20G 6E30E27
  21753724.756   114316599.199       -3721.365          40.000  
  17179148.291    90277026.120         750.190          45.000  
  18034883.132    94773944.100       -1915.135          45.000  
  19744134.682   103756120.191       -1897.977          40.000  
  19803306.171   104067071.595        2432.713          44.000  
  21507900.153   113024765.478       -2152.748          39.000  
  18496537.577    97199952.907        2936.715          39.000  
  22645799.246   119004472.133       -2589.236          43.000  
  25294721.847   132924645.629        1217.317          35.000  
  21439537.494   112665522.386        2504.744          35.000  
  21664481.644   113847617.417       -1518.582          45.000  
  20561602.441   108051957.203        1010.620          39.000  
 23 12  2 15 30 16.9900000  0 12G15G12G24G19G32G10G25E 7E20G 6E30E27
  21754433.095   114320320.374       -3721.268          41.000  
  17179005.304    90276276.140         749.748          44.000  
  18035247.772    94775859.171       -1915.053          45.000  
  19744495.831   103758017.882       -1898.260          40.000  
  19802843.217   104064638.858        2432.561          44.000  
  21508309.954   113026918.249       -2152.590          40.000  
  18495978.576    97197016.261        2936.473          39.000  
  22646292.180   119007061.645       -2589.523          43.000  
  25294490.283   132923428.428        1217.160          35.000  
  21439060.894   112663017.462        2504.535          35.000  
  21664770.760   113849135.989       -1518.805          45.000  
  20561410.349   108050946.649        1010.591          39.000  
 23 12  2 15 30 17.9900000  0 13G15G12G24G19G32G10G25E 7E20G 6G17E30
                                E27
  21755141.330   114324041.590       -3721.775          39.000  
  17178862.421    90275526.740         749.140          44.000  
  18035612.307    94777774.734       -1915.928          45.000  
  19744857.295   103759916.176       -1898.667          41.000  
  19802380.647   104062206.683        2431.836          43.000  
  21508719.720   113029071.388       -2153.652          39.000  
  18495419.681    97194080.039        2936.385          37.000  
  22646785.218   119009651.424       -2590.130          43.000  
  25294258.858   132922211.773        1216.337          35.000  
  21438584.154   112660513.044        2504.177          36.000  
  22145894.633   116377461.4013      -2941.403          30.000  
  21665059.700   113850654.795       -1519.241          45.000  
  20561218.048   108049936.424        1009.706          38.000  
 23 12  2 15 30 18.9900000  0 13G15G12G24G19G32G10G25E 7E20G 6G17E30
                                E27
  21755849.425   114327762.715       -3720.844          39.000  
  17178719.993    90274777.831         748.629          45.000  
  18035976.842    94779690.623       -1916.126          45.000  
  19745218.689   103761814.971       -1899.099          41.000  
  19801918.007   104059774.948        2431.649          43.000  
  21509129.696   113031224.787       -2153.536          38.000  
  18494860.785    97191144.143        2935.780          37.000  
  22647278.012   119012241.374       -2590.079          43.000  
  25294027.608   132920995.445        1216.285          35.000  
  21438107.833   112658008.986        2503.348          35.000  
  22146455.797   116380402.4332      -2940.567          31.000  
  21665348.781   113852173.719       -1519.089          45.000  
  20561025.956   108048926.437        1009.659          38.000  
 23 12  2 15 30 19.9900000  0 13G15G12G24G19G32G10G25E 7E20G 6G17E30
                                E27
  21756557.240   114331483.560       -3720.877          40.000  
  17178577.599    90274029.189         748.500          45.000  
  18036341.516    94781606.683       -1916.271          45.000  
  19745580.048   103763714.085       -1899.684          41.000  
  19801455.192   104057343.468        2431.223          44.000  
  21509539.357   113033378.297       -2153.975          38.000  
  18494302.099    97188208.331        2935.252          37.000  
  22647770.981   119014831.281       -2590.079          43.000  
  25293796.497   132919779.342        1215.736          35.000  
  21437631.826   112655504.964        2504.185          35.000  
  22147015.739   116383343.4462      -2940.397          31.000  
  21665637.931   113853692.558       -1518.810          45.000  
  20560833.480   108047916.460        1009.722          38.000  
 23 12  2 15 30 20.9900000  0 13G15G12G24G19G32G10G25E 7E20G 6G17E30
                                E27
  21757265.335   114335204.514       -3721.132          40.000  
  17178435.450    90273281.194         747.622          45.000  
  18036706.051    94783523.257       -1916.864          45.000  
  19745941.338   103765613.827       -1899.899          41.000  
  19800992.656   104054912.579        2430.540          44.000  
  21509949.298   113035532.202       -2153.967          38.000  
  18493743.343    97185272.957        2934.554          37.000  
  22648263.775   119017421.499       -2590.313          43.000  
  25293565.386   132918563.750        1215.846          35.000  
  21437155.191   112653001.506        2503.309          35.000  
  22147572.611   116386284.7682      -2941.667          30.000  
  21665927.081   113855211.698       -1519.282          45.000  
  20560641.039   108046906.869        1009.505          38.000  
 23 12  2 15 30 21.9900000  0 13G15G12G24G19G32G10G25E 7E20G 6G17E30
                                E27
  21757973.919   114338925.297       -3720.847          40.000  
  17178293.230    90272533.585         747.307          45.000  
  18037070.796    94785440.115       -1917.255          45.000  
  19746303.185   103767513.989       -1900.381          41.000  
  19800530.295   104052482.053        2429.914          44.000  
  21510359.203   113037686.370       -2154.417          38.000  
  18493184.517    97182337.809        2934.857          38.000  
  22648756.395   119020011.835       -2590.613          43.000  
  25293333.822   132917348.495        1214.571          35.000  
  21436678.904   112650498.269        2502.572          35.000  
  22148131.716   116389226.2022      -2941.554          30.000  
  21666215.952   113856730.871       -1519.434          45.000  
  20560448.982   108045897.447        1009.050          38.000  
 23 12  2 15 30 22.9900000  0 13G15G12G24G19G32G10G25E 7E20G 6G17E30
                                E27
  21758681.979   114342646.076       -3720.923          40.000  
  17178151.046    90271786.505         746.687          45.000  
  18037435.820    94787357.347       -1917.480          45.000  
  19746665.033   103769414.702       -1901.186          41.000  
  19800067.795   104050052.001        2429.549          44.000  
  21510769.528   113039840.836       -2154.968          38.000  
  18492625.622    97179402.996        2934.634          38.000  
  22649249.224   119022602.356       -2591.163          43.000  
  25293102.607   132916133.656        1214.414          35.000  
  21436202.688   112647995.352        2502.985          35.000  
  22148687.435   116392167.8212      -2941.932          30.000  
  21666504.962   113858250.207       -1519.862          45.000  
  20560256.994   108044888.266        1008.808          38.000  
 23 12  2 15 30 23.9900000  0 13G15G12G24G19G32G10G25E 7E20G 6G17E30
                                E27
  21759390.318   114346366.913       -3720.997          40.000  
  17178008.966    90271040.018         745.977          45.000  
  18037800.494    94789275.081       -1918.227          45.000  
  19747027.160   103771316.034       -1902.046          41.000  
  19799605.573   104047622.522        2428.925          44.000  
  21511179.677   113041995.707       -2155.262          38.000  
  18492067.075    97176468.614        2933.999          38.000  
  22649742.262   119025193.141       -2590.913          43.000  
  25292871.496   132914919.273        1214.286          35.000  
  21435726.611   112645492.923        2502.283          35.000  
  22149254.253   116395109.7412      -2942.695          29.000  
  21666794.043   113859769.759       -1519.678          45.000  
  20560065.356   108043879.431        1008.831          38.000  
 23 12  2 15 30 24.9900000  0 13G15G12G24G19G32G10G25E 7E20G 6G17E30
                                E27
  21760098.588   114350087.819       -3721.266          40.000  
  17177867.096    90270294.155         745.228          45.000  
  18038165.413    94791193.297       -1918.982          45.000  
  19747388.938   103773217.983       -1902.731          41.000  
  19799143.213   104045193.629        2428.147          44.000  
  21511589.583   113044151.017       -2156.176          38.000  
  18491508.843    97173534.697        2932.918          38.000  
  22650235.405   119027784.265       -2591.544          43.000  
  25292640.664   132913705.503        1212.897          35.000  
  21435250.360   112642990.987        2501.234          35.000  
  22149802.958   116398051.866       -2942.222          29.000  
  21667083.297   113861289.609       -1520.405          45.000  
  20559873.753   108042870.995        1007.912          38.000  
 23 12  2 15 30 25.9900000  0 13G15G12G24G19G32G10G25E 7E20G 6G17E30
                                E27
  21760806.508   114353808.848       -3720.741          40.000  
  17177725.435    90269548.980         744.956          45.000  
  18038530.751    94793112.058       -1918.559          45.000  
  19747751.274   103775120.645       -1902.756          41.000  
  19798680.956   104042765.368        2428.154          44.000  
  21511999.873   113046306.804       -2155.764          38.000  
  18490950.575    97170601.256        2933.171          38.000  
  22650728.828   119030375.733       -2591.350          43.000  
  25292409.658   132912492.258        1213.348          35.000  
  21434774.527   112640489.514        2501.379          35.000  
  22150365.797   116400994.462       -2942.717          29.000  
  21667372.552   113862809.767       -1520.236          45.000  
  20559681.975   108041862.975        1007.943          38.000  
 23 12  2 15 30 26.9900000  0 13G15G12G24G19G32G10G25E 7E20G 6G17E30
                                E27
  21761514.359   114357529.581       -3720.787          40.000  
  17177583.495    90268804.058         744.610          45.000  
  18038895.705    94795030.957       -1918.750          45.000  
  19748113.296   103777023.560       -1903.021          41.000  
  19798218.595   104040337.369        2427.288          43.000  
  21512410.232   113048462.657       -2155.884          37.000  
  18490392.273    97167667.897        2932.994          38.000  
  22651222.076   119032967.162       -2591.715          43.000  
  25292178.722   132911279.147        1213.216          35.000  
  21434298.450   112637988.190        2501.210          35.000  
  22150923.855   116403936.896       -2940.439          29.000  
  21667661.493   113864329.828       -1520.251          45.000  
  20559490.441   108040854.928        1008.026          38.000  
 23 12  2 15 30 27.9900000  0 13G15G12G24G19G32G10G25E 7E20G 6G17E30
                                E27
  21762222.105   114361250.225       -3720.767          41.000  
  17177442.078    90268059.627         744.338          45.000  
  18039261.008    94796950.230       -1919.684          44.000  
  19748475.423   103778927.020       -1903.822          41.000  
  19797756.409   104037909.791        2427.188          41.000  
  21512820.347   113050618.739       -2155.795          40.000  
  18489834.285    97164734.925        2932.751          38.000  
  22651715.568   119035558.763       -2591.921          43.000  
  25291948.170   132910066.537        1212.735          35.000  
  21433822.618   112635487.173        2500.681          35.000  
  22151482.820   116406879.593       -2942.708          27.000  
  21667950.783   113865850.012       -1520.282          45.000  
  20559298.733   108039847.151        1007.776          39.000  
 23 12  2 15 30 28.9900000  0 12G15G12G24G19G32G10G25E 7E20G 6E30E27
  21762930.374   114364971.257       -3721.328          41.000  
  17177300.592    90267316.073         742.776          45.000  
  18039626.625    94798870.248       -1920.249          44.000  
  19748838.004   103780831.385       -1905.030          41.000  
  19797294.711   104035483.020        2426.589          43.000  
  21513230.776   113052775.553       -2156.550          40.000  
  18489276.087    97161802.593        2932.115          37.000  
  22652208.851   119038150.904       -2592.276          43.000  
  25291717.583   132908854.652        1211.425          35.000  
  21433346.855   112632986.936        2499.275          33.000  
  21668240.386   113867370.719       -1520.802          45.000  
  20559107.199   108038839.987        1006.890          39.000  
 23 12  2 15 30 29.9900000  0 12G15G12G24G19G32G10G25E 7E20G 6E30E27
  21763638.364   114368692.095       -3720.819          40.000  
  17177159.385    90266572.872         743.133          46.000  
  18039992.207    94800790.518       -1920.408          44.000  
  19749199.991   103782736.084       -1904.923          41.000  
  19796833.292   104033056.625        2426.034          43.000  
  21513640.891   113054932.567       -2157.043          39.000  
  18488718.169    97158870.466        2931.533          37.000  
  22652701.959   119040743.141       -2592.715          43.000  
  25291486.891   132907643.022        1211.657          36.000  
  21432870.953   112630486.895        2499.642          33.000  
  21668529.502   113868891.455       -1520.778          45.000  
  20558915.526   108037832.935        1007.002          40.000  
 23 12  2 15 30 30.9900000  0 12G15G12G24G19G32G10G25E 7E20G 6E30E27
  21764346.285   114372412.893       -3720.807          40.000  
  17177017.829    90265830.176         742.614          45.000  
  18040357.789    94802711.156       -1920.558          44.000  
  19749562.502   103784641.339       -1905.239          40.000  
  19796371.525   104030630.688        2425.791          43.000  
  21514051.320   113057089.856       -2157.284          40.000  
  18488160.251    97155938.617        2931.781          37.000  
  22653195.416   119043335.523       -2592.327          43.000  
  25291256.408   132906431.816        1211.209          35.000  
  21432395.155   112627987.210        2499.802          35.000  
  21668818.861   113870412.311       -1520.867          45.000  
  20558724.202   108036826.147        1006.811          39.000  
 23 12  2 15 30 31.9900000  0 12G15G12G24G19G32G10G25E 7E20G 6E30E27
  21765054.415   114376133.753       -3720.617          40.000  
  17176876.622    90265088.098         741.968          45.000  
  18040723.545    94804632.305       -1921.066          44.000  
  19749925.153   103786547.218       -1905.975          40.000  
  19795909.862   104028205.343        2425.263          43.000  
  21514461.924   113059247.553       -2157.572          40.000  
  18487602.367    97153007.189        2931.864          36.000  
  22653688.594   119045928.214       -2592.597          43.000  
  25291025.856   132905221.140        1210.862          35.000  
  21431919.462   112625487.966        2499.122          36.000  
  21669108.570   113871933.436       -1521.015          45.000  
  20558532.634   108035819.699        1006.661          39.000  
 23 12  2 15 30 32.9900000  0 12G15G12G24G19G32G10G25E 7E20G 6E30E27
  21765762.475   114379854.491       -3720.677          40.000  
  17176735.065    90264346.440         741.584          45.000  
  18041089.023    94806553.721       -1921.236          44.000  
  19750287.698   103788453.523       -1906.323          40.000  
  19795448.408   104025780.374        2424.875          43.000  
  21514872.318   113061405.488       -2158.231          40.000  
  18487044.798    97150076.027        2930.999          37.000  
  22654181.772   119048521.025       -2592.929          43.000  
  25290795.269   132904010.796        1209.625          35.000  
  21431444.118   112622989.001        2498.649          35.000  
  21669397.999   113873454.640       -1521.241          45.000  
  20558340.891   108034813.447        1006.235          39.000  
 23 12  2 15 30 33.9900000  0 12G15G12G24G19G32G10G25E 7E20G 6E30E27
  21766470.604   114383575.193       -3720.737          40.000  
  17176593.963    90263605.303         740.717          45.000  
  18041454.919    94808475.565       -1922.234          44.000  
  19750650.453   103790360.392       -1907.152          40.000  
  19794987.059   104023355.904        2423.935          43.000  
  21515282.922   113063563.705       -2158.293          40.000  
  18486487.089    97147145.179        2930.742          37.000  
  22654675.648   119051114.027       -2593.159          43.000  
  25290565.275   132902800.832        1209.815          35.000  
  21430968.740   112620490.392        2498.319          35.000  
  21669687.742   113874975.978       -1521.446          45.000  
  20558148.833   108033807.446        1005.749          39.000  
 23 12  2 15 30 34.9900000  0 12G15G12G24G19G32G10G25E 7E20G 6E30E27
  21767178.595   114387295.761       -3721.081          40.000  
  17176452.791    90262864.552         740.111          45.000  
  18041820.640    94810397.657       -1922.618          44.000  
  19751013.592   103792267.655       -1907.817          40.000  
  19794525.571   104020931.769        2423.592          42.000  
  21515693.770   113065722.144       -2158.864          39.000  
  18485929.589    97144214.576        2930.118          37.000  
  22655169.071   119053707.092       -2593.213          43.000  
  25290334.932   132901591.220        1209.058          36.000  
  21430493.186   112617992.010        2498.159          35.000  
  21669977.242   113876497.363       -1521.706          45.000  
  20557957.544   108032801.571        1005.536          39.000  
 23 12  2 15 30 35.9900000  0 12G15G12G24G19G32G10G25E 7E20G 6E30E27
  21767886.655   114391016.444       -3720.378          40.000  
  17176311.828    90262124.484         740.079          45.000  
  18042186.118    94812320.312       -1922.671          44.000  
  19751376.417   103794175.629       -1908.024          40.000  
  19794064.327   104018508.289        2423.461          42.000  
  21516104.757   113067881.038       -2158.402          39.000  
  18485372.020    97141284.475        2930.308          37.000  
  22655662.563   119056300.552       -2593.319          43.000  
  25290104.799   132900382.185        1209.000          35.000  
  21430018.087   112615494.214        2497.644          35.000  
  21670266.985   113878019.079       -1521.565          45.000  
  20557766.464   108031796.140        1005.466          39.000  
 23 12  2 15 30 36.9900000  0 12G15G12G24G19G32G10G25E 7E20G 6E30E27
  21768594.575   114394736.916       -3720.597          40.000  
  17176171.074    90261384.741         739.368          45.000  
  18042552.293    94814243.171       -1923.377          44.000  
  19751739.487   103796083.926       -1908.689          41.000  
  19793603.397   104016085.094        2422.925          43.000  
  21516515.396   113070040.092       -2159.502          39.000  
  18484814.451    97138354.521        2929.529          37.000  
  22656155.776   119058894.010       -2593.605          43.000  
  25289874.665   132899173.377        1208.142          35.000  
  21429542.847   112612996.563        2497.140          36.000  
  21670556.449   113879540.759       -1521.839          45.000  
  20557575.070   108030790.779        1005.132          39.000  
 23 12  2 15 30 37.9900000  0 12G15G12G24G19G32G10G25E 7E20G 6E30E27
  21769302.356   114398457.124       -3719.947          40.000  
  17176030.600    90260645.303         738.935          45.000  
  18042918.050    94816166.181       -1923.403          44.000  
  19752102.870   103797992.556       -1909.104          40.000  
  19793142.292   104013662.176        2422.656          43.000  
  21516926.279   113072199.227       -2159.803          39.000  
  18484257.300    97135424.712        2929.391          37.000  
  22656649.198   119061487.449       -2593.674          43.000  
  25289644.288   132897964.766        1208.216          35.000  
  21429067.852   112610499.060        2497.000          36.000  
  21670846.018   113881062.376       -1521.649          45.000  
  20557383.502   108029785.474        1005.140          39.000  
 23 12  2 15 30 38.9900000  0 12G15G12G24G19G32G10G25E 7E20G 6E30E27
  21770010.556   114402177.544       -3720.579          41.000  
  17175889.951    90259906.583         738.369          45.000  
  18043284.051    94818089.807       -1924.022          44.000  
  19752466.044   103799901.899       -1909.546          41.000  
  19792681.257   104011239.930        2422.178          43.000  
  21517336.777   113074358.819       -2160.089          39.000  
  18483699.975    97132495.427        2928.951          37.000  
  22657142.585   119064081.297       -2593.711          43.000  
  25289414.398   132896756.772        1207.475          35.000  
  21428592.858   112608002.081        2496.411          37.000  
  21671135.657   113882584.370       -1522.039          45.000  
  20557192.422   108028780.644        1004.720          38.000  
 23 12  2 15 30 39.9900000  0 12G15G12G24G19G32G10G25E 7E20G 6E30E27
  21770718.406   114405898.091       -3721.327          41.000  
  17175749.407    90259168.571         737.262          44.000  
  18043650.051    94820013.996       -1924.918          44.000  
  19752829.672   103801811.972       -1910.663          41.000  
  19792220.467   104008818.360        2421.008          43.000  
  21517747.695   113076519.017       -2160.985          40.000  
  18483142.755    97129566.638        2928.678          37.000  
  22657636.357   119066675.528       -2594.578          43.000  
  25289184.753   132895549.374        1206.910          35.000  
  21428117.863   112605505.737        2494.553          34.000  
  21671425.156   113884106.700       -1522.831          45.000  
  20557001.551   108027776.219        1004.232          37.000  
 23 12  2 15 30 40.9900000  0 12G15G12G24G19G32G10G25E 7E20G 6E30E27
  21771426.641   114409619.001       -3720.787          41.000  
  17175609.142    90258431.463         737.001          45.000  
  18044016.436    94821938.952       -1925.045          45.000  
  19753193.264   103803722.977       -1911.255          41.000  
  19791759.956   104006397.646        2420.649          42.000  
  21518158.927   113078679.838       -2160.905          39.000  
  18482585.604    97126638.403        2928.330          37.000  
  22658130.128   119069270.364       -2594.401          42.000  
  25288955.213   132894342.819        1206.558          35.000  
  21427642.798   112603010.046        2495.774          37.000  
  21671715.039   113885629.575       -1522.664          45.000  
  20556810.611   108026772.472        1003.888          38.000  
 23 12  2 15 30 41.9900000  0 12G15G12G24G19G32G10G25E 7E20G 6E30E27
  21772134.701   114413339.744       -3720.693          40.000  
  17175468.947    90257694.763         736.610          45.000  
  18044382.751    94823864.210       -1925.113          44.000  
  19753556.822   103805634.429       -1911.758          40.000  
  19791299.549   104003977.345        2419.996          44.000  
  21518570.264   113080840.950       -2161.422          40.000  
  18482028.488    97123710.605        2927.701          39.000  
  22658624.039   119071865.285       -2594.971          43.000  
  25288725.464   132893136.613        1206.055          36.000  
  21427168.047   112600514.727        2495.020          34.000  
  21672004.713   113887152.509       -1522.979          45.000  
  20556619.776   108025768.905        1003.558          39.000  
 23 12  2 15 30 42.9900000  0 13G15G12G24G19G32G10G25E 7E20G 6G17E30
                                E27
  21772842.900   114417060.654       -3720.966          40.000  
  17175328.927    90256958.745         735.695          45.000  
  18044749.241    94825790.046       -1926.235          43.000  
  19753920.694   103807546.546       -1912.562          40.000  
  19790839.003   104001557.668        2419.100          44.000  
  21518981.530   113083002.480       -2161.614          40.000  
  18481471.512    97120783.281        2927.029          39.000  
  22659117.741   119074460.561       -2595.421          43.000  
  25288496.482   132891930.947        1205.622          36.000  
  21426693.331   112598019.908        2494.652          35.000  
  22159901.538                       -2945.141          26.000  
  21672294.561   113888675.752       -1523.394          45.000  
  20556428.556   108024765.743        1003.055          40.000  
 23 12  2 15 30 43.9900000  0 13G15G12G24G19G32G10G25E 7E20G 6G17E30
                                E27
  21773550.926   114420781.864       -3720.966          40.000  
  17175189.255    90256223.580         735.109          45.000  
  18045116.149    94827716.604       -1926.642          43.000  
  19754284.880   103809459.561       -1913.110          40.000  
  19790378.806   103999138.812        2418.849          44.000  
  21519392.902   113085164.701       -2162.266          40.000  
  18480914.606    97117856.666        2926.451          39.000  
  22659611.617   119077056.399       -2595.625          43.000  
  25288267.535   132890726.091        1204.389          37.000  
  21426218.825   112595525.752        2494.481          35.000  
  22160472.998                       -2945.979          27.000  
  21672584.688   113890199.514       -1523.544          45.000  
  20556237.930   108023763.201        1002.655          40.000  
 23 12  2 15 30 44.9900000  0 13G15G12G24G19G32G10G25E 7E20G 6G17E30
                                E27
  21774259.090   114424503.462       -3722.018          40.000  
  17175049.549    90255489.344         733.552          45.000  
  18045482.883    94829643.947       -1927.958          43.000  
  19754649.031   103811373.496       -1914.504          39.000  
  19789918.888   103996720.862        2417.045          43.000  
  21519804.692   113087327.629       -2163.409          40.000  
  18480357.665    97114930.738        2925.477          39.000  
  22660106.051   119079652.833       -2596.874          43.000  
  25288038.623   132889522.004        1203.429          36.000  
  21425744.144   112593032.409        2493.079          35.000  
  22161019.993                       -2947.393          27.000  
  21672874.746   113891723.823       -1524.769          45.000  
  20556047.304   108022761.310        1001.397          40.000  
 23 12  2 15 30 45.9900000  0 13G15G12G24G19G32G10G25E 7E20G 6G17E30
                                E27
  21774967.046   114428225.287       -3721.624          40.000  
  17174909.842    90254755.895         733.234          45.000  
  18045849.826    94831571.964       -1928.130          43.000  
  19755013.427   103813288.253       -1915.018          39.000  
  19789458.970   103994303.640        2417.139          43.000  
  21520216.657   113089491.135       -2163.506          40.000  
  18479801.038    97112005.459        2925.349          39.000  
  22660599.997   119082249.738       -2596.851          43.000  
  25287809.746   132888318.642        1203.032          36.000  
  21425269.917   112590539.716        2492.421          35.000  
  22161578.818   116459893.3923      -2948.176          28.000  
  21673164.873   113893248.575       -1524.827          45.000  
  20555856.573   108021759.974        1001.229          40.000  
 23 12  2 15 30 46.9900000  0 13G15G12G24G19G32G10G25E 7E20G 6G17E30
                                E27
  21775675.176   114431947.134       -3721.974          40.000  
  17174770.450    90254022.994         732.902          45.000  
  18046216.769    94833500.403       -1928.421          43.000  
  19755378.206   103815203.585       -1915.649          39.000  
  19788999.017   103991886.952        2416.574          43.000  
  21520628.482   113091655.025       -2163.739          40.000  
  18479244.551    97109080.573        2924.655          39.000  
  22661093.978   119084846.887       -2597.090          43.000  
  25287580.764   132887115.775        1202.636          37.000  
  21424795.551   112588047.376        2492.825          35.000  
  22162140.890   116462841.4862      -2948.159          28.000  
  21673454.965   113894773.518       -1524.964          45.000  
  20555666.191   108020758.940        1000.733          40.000  
 23 12  2 15 30 47.9900000  0 13G15G12G24G19G32G10G25E 7E20G 6G17E30
                                E27
  21776383.270   114435668.996       -3721.771          40.000  
  17174631.442    90253290.672         731.979          46.000  
  18046583.712    94835429.336       -1929.620          44.000  
  19755742.916   103817119.474       -1916.796          41.000  
  19788539.204   103989470.798        2415.534          43.000  
  21521040.342   113093819.276       -2164.982          40.000  
  18478687.958    97106156.064        2924.054          37.000  
  22661587.959   119087444.308       -2597.762          43.000  
  25287352.306   132885913.364        1201.867          36.000  
  21424321.428   112585555.459        2491.368          35.000  
  22162706.835   116465789.7912      -2948.401          28.000  
  21673745.267   113896298.680       -1525.319          45.000  
  20555475.530   108019758.200        1000.380          39.000  
 23 12  2 15 30 48.9900000  0 13G15G12G24G19G32G10G25E 7E20G 6G17E30
                                E27
  21777091.540   114439390.950       -3721.510          41.000  
  17174492.259    90252558.954         731.906          44.000  
  18046950.690    94837358.730       -1929.176          45.000  
  19756107.730   103819036.007       -1916.389          41.000  
  19788079.705   103987055.261        2416.012          42.000  
  21521452.446   113095983.914       -2164.314          38.000  
  18478131.436    97103232.057        2924.080          39.000  
  22662082.288   119090041.990       -2597.336          42.000  
  25287123.638   132884711.456        1202.135          36.000  
  21423847.026   112583064.063        2491.096          35.000  
  22163268.488                       -2948.836          26.000  
  21674035.429   113897824.091       -1525.066          44.000  
  20555285.148   108018757.869        1001.080          35.000  
 23 12  2 15 30 49.9900000  0 13G15G12G24G19G32G10G25E 7E20G 6G17E30
                                E27
  21777799.391   114443112.883       -3722.112          41.000  
  17174353.181    90251827.821         730.677          44.000  
  18047317.913    94839288.555       -1930.230          44.000  
  19756472.579   103820953.156       -1917.753          41.000  
  19787620.206   103984640.207        2414.595          42.000  
  21521864.551   113098148.952       -2165.353          38.000  
  18477575.228    97100308.318        2923.499          38.000  
  22662577.002   119092639.956       -2598.182          42.000  
  25286894.657   132883510.018        1201.261          35.000  
  21423372.764   112580573.083        2490.035          34.000  
  22163829.687                       -2947.878          26.000  
  21674325.975   113899349.717       -1525.870          44.000  
  20555094.452   108017757.812         999.792          36.000  
 23 12  2 15 30 50.9900000  0 13G15G12G24G19G32G10G25E 7E20G 6G17E30
                                E27
  21778507.555   114446834.660       -3721.957          40.000  
  17174214.277    90251097.023         730.556          44.000  
  18047685.275    94841218.599       -1930.329          44.000  
  19756837.254   103822870.629       -1917.914          41.000  
  19787161.055   103982225.487        2414.304          42.000  
  21522276.690   113100314.102       -2165.326          38.000  
  18477018.845    97097384.824        2922.920          39.000  
  22663071.541   119095237.945       -2598.399          42.000  
  25286666.059   132882308.849        1200.775          35.000  
  21422898.747   112578082.245        2490.220          34.000  
  22164390.851                       -2948.651          26.000  
  21674616.452   113900875.327       -1525.615          44.000  
  20554904.524   108016757.852         999.719          36.000  
 23 12  2 15 30 51.9900000  0 12G15G12G24G19G32G10G25E 7E20G 6E30E27
  21779215.580   114450556.380       -3722.290          40.000  
  17174075.617    90250366.758         729.540          44.000  
  18048052.113    94843149.058       -1931.158          44.000  
  19757202.347   103824788.653       -1918.483          41.000  
  19786701.801   103979811.261        2413.705          42.000  
  21522689.178   113102479.617       -2166.056          38.000  
  18476462.393    97094461.643        2922.526          38.000  
  22663566.011   119097836.124       -2598.585          42.000  
  25286437.426   132881108.123        1199.968          35.000  
  21422424.938   112575591.833        2488.960          34.000  
  21674906.370   113902401.115       -1526.170          44.000  
  20554714.351   108015758.169         999.054          36.000  
 23 12  2 15 30 52.9900000  0 12G15G12G24G19G32G10G25E 7E20G 6E30E27
  21779923.501   114454278.125       -3721.445          40.000  
  17173936.469    90249637.064         729.808          44.000  
  18048419.370    94845079.963       -1930.778          45.000  
  19757567.510   103826707.282       -1918.699          41.000  
  19786242.441   103977397.577        2413.730          41.000  
  21523101.527   113104645.468       -2165.537          38.000  
  18475906.359    97091538.861        2923.162          38.000  
  22664060.271   119100434.596       -2598.431          42.000  
  25286208.968   132879907.893        1200.032          35.000  
  21421951.025   112573101.786        2490.634          34.000  
  21675197.020   113903927.137       -1525.920          45.000  
  20554524.388   108014758.817         999.583          36.000  
 23 12  2 15 30 53.9900000  0 12G15G12G24G19G32G10G25E 7E20G 6E30E27
  21780631.561   114457999.612       -3721.471          40.000  
  17173797.880    90248907.654         729.410          44.000  
  18048787.081    94847011.019       -1931.078          45.000  
  19757932.534   103828626.185       -1918.910          41.000  
  19785783.186   103974984.137        2413.215          41.000  
  21523513.596   113106811.432       -2166.360          38.000  
  18475350.046    97088616.202        2922.526          38.000  
  22664554.321   119103033.014       -2598.375          42.000  
  25285980.684   132878707.824        1199.556          35.000  
  21421477.043   112570611.965        2489.113          34.000  
  21675487.287   113905453.077       -1526.084          45.000  
  20554334.635   108013759.504         999.268          36.000  
 23 12  2 15 30 54.9900000  0 12G15G12G24G19G32G10G25E 7E20G 6E30E27
  21781340.075   114461720.988       -3721.100          41.000  
  17173658.767    90248178.664         728.678          45.000  
  18049154.583    94848942.354       -1931.658          44.000  
  19758297.802   103830545.548       -1919.786          41.000  
  19785323.966   103972571.063        2412.594          43.000  
  21523925.875   113108977.550       -2166.072          37.000  
  18474794.082    97085693.793        2921.689          36.000  
  22665048.756   119105631.551       -2598.350          42.000  
  25285752.645   132877508.056        1199.551          36.000  
  21421003.234   112568122.331        2489.666          35.000  
  21675777.659   113906979.061       -1526.190          45.000  
  20554144.148   108012760.295         999.071          39.000  
 23 12  2 15 30 55.9900000  0 12G15G12G24G19G32G10G25E 7E20G 6E30E27
  21782048.030   114465442.366       -3721.418          41.000  
  17173520.107    90247450.239         727.914          45.000  
  18049522.050    94850874.142       -1932.115          44.000  
  19758663.279   103832465.498       -1920.401          40.000  
  19784864.816   103970158.535        2412.395          43.000  
  21524338.224   113111144.080       -2167.068          36.000  
  18474237.943    97082771.750        2921.468          37.000  
  22665543.434   119108230.333       -2598.986          42.000  
  25285523.872   132876308.787        1198.647          36.000  
  21420529.217   112565633.192        2488.037          34.000  
  21676068.205   113908505.256       -1526.482          45.000  
  20553954.150   108011761.457         998.512          40.000  
 23 12  2 15 30 56.9900000  0 13G15G12G24G19G32G10G25E 7E20G 6G17E30
                                E27
  21782756.439   114469163.867       -3721.735          41.000  
  17173381.134    90246722.482         727.271          45.000  
  18049889.831    94852806.494       -1933.056          44.000  
  19759028.826   103834386.124       -1921.185          40.000  
  19784405.701   103967746.684        2411.391          43.000  
  21524750.502   113113311.091       -2167.131          36.000  
  18473682.119    97079850.216        2921.024          37.000  
  22666037.834   119110829.466       -2599.251          43.000  
  25285295.833   132875110.120        1198.056          36.000  
  21420055.862   112563144.539        2487.987          34.000  
  22167758.080                       -2950.345          27.000  
  21676358.577   113910031.773       -1526.805          45.000  
  20553764.117   108010763.030         998.188          40.000  
 23 12  2 15 30 57.9900000  0 13G15G12G24G19G32G10G25E 7E20G 6G17E30
                                E27
  21783464.883   114472885.438       -3721.563          41.000  
  17173242.474    90245995.331         726.982          45.000  
  18050257.611    94854739.320       -1933.074          44.000  
  19759394.513   103836307.381       -1921.265          40.000  
  19783946.830   103965335.386        2410.905          42.000  
  21525163.026   113115478.501       -2167.507          36.000  
  18473126.085    97076929.094        2921.228          37.000  
  22666532.373   119113428.914       -2599.632          43.000  
  25285067.759   132873911.935        1198.222          36.000  
  21419582.542   112560656.347        2488.312          35.000  
  22168323.502   116495305.2183      -2950.312          27.000  
  21676649.367   113911558.540       -1526.831          45.000  
  20553573.666   108009764.985         997.744          40.000  
 23 12  2 15 30 58.9900000  0 13G15G12G24G19G32G10G25E 7E20G 6G17E30
                                E27
  21784173.187   114476606.795       -3721.735          41.000  
  17173104.164    90245268.508         726.524          45.000  
  18050625.602    94856672.355       -1933.194          43.000  
  19759760.025   103838229.011       -1921.871          40.000  
  19783487.994   103962924.400        2410.359          42.000  
  21525575.584   113117646.078       -2167.985          35.000  
  18472570.226    97074008.162        2920.201          37.000  
  22667027.192   119116028.360       -2599.622          43.000  
  25284839.545   132872714.015        1197.657          36.000  
  21419109.223   112558168.360        2487.756          35.000  
  22168883.794   116498255.5542      -2950.339          27.000  
  21676939.739   113913085.287       -1526.872          45.000  
  20553383.877   108008766.985         997.888          40.000  
 23 12  2 15 30 59.9900000  0 13G15G12G24G19G32G10G25E 7E20G 6G17E30
                                E27
  21784881.177   114480328.195       -3721.645          41.000  
  17172965.818    90244542.298         725.669          45.000  
  18050993.522    94858605.894       -1934.240          43.000  
  19760125.887   103840151.246       -1922.599          40.000  
  19783029.228   103960513.965        2409.928          42.000  
  21525988.002   113119814.033       -2168.298          36.000  
  18472014.472    97071087.628        2919.910          37.000  
  22667522.115   119118628.087       -2600.062          43.000  
  25284611.610   132871516.606        1196.731          36.000  
  21418636.182   112555680.823        2487.144          35.000  
  22169435.186   116501206.1652      -2951.106          27.000  
  21677230.041   113914612.275       -1527.314          45.000  
  20553193.949   108007769.364         997.219          40.000  
 23 12  2 15 31  0.9900000  0 13G15G12G24G19G32G10G25E 7E20G 6G17E30
                                E27
  21785589.587   114484049.585       -3721.167          41.000  
  17172827.578    90243816.618         725.452          45.000  
  18051361.582    94860539.812       -1934.324          43.000  
  19760491.853   103842074.034       -1923.035          40.000  
  19782570.496   103958104.048        2409.575          42.000  
  21526400.665   113121982.320       -2168.738          35.000  
  18471458.961    97068167.465        2919.941          37.000  
  22668016.898   119121228.047       -2600.162          43.000  
  25284383.850   132870319.640        1196.702          37.000  
  21418163.246   112553193.674        2486.873          35.000  
  22170004.307   116504156.9502      -2950.808          27.000  
  21677520.866   113916139.454       -1527.524          45.000  
  20553004.230   108006772.006         997.246          40.000  
 23 12  2 15 31  1.9900000  0 13G15G12G24G19G32G10G25E 7E20G 6G17E30
                                E27
  21786297.612   114487770.891       -3721.642          41.000  
  17172689.581    90243091.364         724.880          45.000  
  18051729.537    94862474.046       -1934.290          43.000  
  19760857.539   103843997.272       -1923.746          40.000  
  19782111.940   103955694.518        2409.109          42.000  
  21526812.944   113124150.862       -2169.237          35.000  
  18470903.172    97065247.540        2920.024          37.000  
  22668511.926   119123828.126       -2600.204          43.000  
  25284156.229   132869123.018        1196.138          36.000  
  21417690.031   112550706.768        2486.908          35.000  
  22170561.981   116507107.9302      -2951.383          27.000  
  21677811.342   113917666.706       -1527.451          45.000  
  20552814.546   108005774.840         997.049          40.000  
 23 12  2 15 31  2.9900000  0 13G15G12G24G19G32G10G25E 7E20G 6G17E30
                                E27
  21787005.881   114491492.160       -3721.403          40.000  
  17172551.620    90242366.697         724.200          45.000  
  18052097.562    94864408.743       -1934.689          44.000  
  19761223.575   103845921.107       -1924.382          41.000  
  19781653.522   103953285.569        2408.824          42.000  
  21527225.641   113126319.738       -2168.999          38.000  
  18470348.011    97062328.060        2919.635          39.000  
  22669006.814   119126428.371       -2600.313          43.000  
  25283928.504   132867926.855        1196.231          36.000  
  21417216.886   112548220.373        2485.646          36.000  
  22171120.423   116510059.0762      -2951.534          28.000  
  21678102.272   113919194.129       -1527.456          45.000  
  20552624.758   108004778.000         996.680          39.000  
 23 12  2 15 31  3.9900000  0 13G15G12G24G19G32G10G25E 7E20G 6G17E30
                                E27
  21787714.395   114495213.375       -3721.158          40.000  
  17172414.043    90241642.492         723.802          44.000  
  18052465.762    94866343.802       -1935.155          44.000  
  19761589.890   103847845.396       -1924.418          41.000  
  19781195.349   103950877.020        2408.038          42.000  
  21527638.409   113128488.956       -2169.534          38.000  
  18469792.326    97059408.898        2918.397          37.000  
  22669501.563   119129028.891       -2600.681          43.000  
  25283700.848   132866731.080        1195.471          35.000  
  21416743.741   112545734.254        2485.172          35.000  
  22171682.564   116513010.4452      -2951.280          27.000  
  21678393.098   113920721.733       -1527.638          45.000  
  20552434.829   108003781.451         996.037          35.000  
 23 12  2 15 31  4.9900000  0 13G15G12G24G19G32G10G25E 7E20G 6G17E30
                                E27
  21788422.420   114498934.707       -3721.607          40.000  
  17172276.430    90240918.948         723.025          43.000  
  18052834.345    94868279.360       -1936.092          44.000  
  19761956.135   103849770.388       -1925.413          40.000  
  19780737.037   103948469.113        2407.428          42.000  
  21528051.106   113130658.547       -2169.976          38.000  
  18469236.920    97056490.129        2918.248          38.000  
  22669996.311   119131629.709       -2601.224          43.000  
  25283473.472   132865535.878        1195.228          35.000  
  21416270.805   112543248.616        2485.481          34.000  
  22172246.800   116515962.2252      -2952.715          27.000  
  21678683.958   113922249.590       -1528.036          44.000  
  20552245.041   108002785.210         995.504          36.000  
 23 12  2 15 31  5.9900000  0 13G15G12G24G19G32G10G25E 7E20G 6G17E30
                                E27
  21789130.724   114502656.064       -3721.395          40.000  
  17172138.957    90240196.012         722.373          44.000  
  18053202.719    94870215.384       -1936.579          44.000  
  19762322.276   103851695.996       -1925.922          40.000  
  19780278.759   103946061.759        2406.948          43.000  
  21528463.839   113132828.528       -2170.488          40.000  
  18468681.375    97053571.858        2917.754          38.000  
  22670491.269   119134230.802       -2601.331          43.000  
  25283246.200   132864341.221        1194.287          35.000  
  21415797.869   112540763.491        2484.500          37.000  
  22172806.184   116518914.0522      -2951.979          27.000  
  21678974.330   113923777.705       -1528.281          44.000  
  20552055.357   108001789.336         995.544          36.000  
 23 12  2 15 31  6.9900000  0 13G15G12G24G19G32G10G25E 7E20G 6G17E30
                                E27
  21789838.924   114506377.346       -3720.601          39.000  
  17172001.764    90239473.526         722.805          44.000  
  18053571.268    94872151.763       -1936.180          45.000  
  19762688.312   103853622.065       -1925.729          41.000  
  19779820.586   103943654.838        2407.109          43.000  
  21528876.781   113134998.815       -2170.098          40.000  
  18468126.005    97050653.829        2918.170          39.000  
  22670986.192   119136832.063       -2601.067          43.000  
  25283018.684   132863146.882        1194.359          36.000  
  21415324.794   112538278.622        2485.389          36.000  
  22173369.896   116521866.1822      -2952.089          27.000  
  21679265.329   113925305.930       -1527.792          44.000  
  20551866.197   108000793.660         995.812          37.000  
 23 12  2 15 31  7.9900000  0 13G15G12G24G19G32G10G25E 7E20G 6G17E30
                                E27
  21790546.879   114510098.496       -3721.389          39.000  
  17171864.151    90238751.407         721.598          43.000  
  18053939.677    94874088.385       -1937.253          44.000  
  19763054.662   103855548.544       -1926.802          41.000  
  19779362.693   103941248.230        2406.349          45.000  
  21529289.444   113137169.217       -2170.411          39.000  
  18467570.669    97047735.977        2917.377          39.000  
  22671481.011   119139433.365       -2601.462          42.000  
  25282791.029   132861952.838        1193.535          35.000  
  21414851.893   112535793.944        2484.771          34.000  
  22173932.351   116524818.4602      -2953.214          26.000  
  21679556.120   113926834.151       -1528.306          45.000  
  20551676.966   107999798.105         995.674          37.000  
 23 12  2 15 31  8.9900000  0 13G15G12G24G19G32G10G25E 7E20G 6G17E30
                                E27
  21791254.974   114513819.859       -3721.550          39.000  
  17171726.713    90238030.094         721.045          44.000  
  18054308.435    94876025.671       -1937.427          44.000  
  19763421.186   103857475.817       -1927.360          40.000  
  19778904.834   103938842.425        2405.684          44.000  
  21529702.386   113139340.274       -2171.412          39.000  
  18467015.403    97044818.757        2916.912          39.000  
  22671976.073   119142035.143       -2601.801          42.000  
  25282564.001   132860759.486        1193.221          35.000  
  21414378.748   112533309.965        2484.430          34.000  
  22174498.541   116527771.0142      -2952.958          27.000  
  21679847.155   113928362.824       -1528.602          45.000  
  20551487.562   107998803.139         994.661          37.000  
 23 12  2 15 31  9.9900000  0 13G15G12G24G19G32G10G25E 7E20G 6G17E30
                                E27
  21791963.244   114517541.514       -3721.372          39.000  
  17171589.869    90237309.657         720.188          44.000  
  18054677.542    94877963.723       -1938.458          44.000  
  19763787.885   103859403.992       -1928.416          40.000  
  19778446.940   103936437.460        2404.797          44.000  
  21530115.851   113141511.982       -2171.771          39.000  
  18466460.381    97041902.237        2916.456          39.000  
  22672471.345   119144637.502       -2602.630          42.000  
  25282337.183   132859566.936        1192.077          36.000  
  21413906.301   112530826.749        2482.821          34.000  
  22175061.659   116530724.1502      -2952.968          27.000  
  21680137.875   113929892.026       -1529.463          45.000  
  20551298.681   107997808.749         994.036          37.000  
 23 12  2 15 31 10.9900000  0 13G15G12G24G19G32G10G25E 7E20G 6G17E30
                                E27
  21792671.373   114521263.737       -3721.726          38.000  
  17171452.954    90236590.295         719.363          44.000  
  18055046.579    94879902.709       -1939.006          44.000  
  19764154.968   103861333.267       -1929.279          40.000  
  19777989.535   103934033.539        2404.003          44.000  
  21530529.212   113143684.588       -2172.480          39.000  
  18465905.639    97038986.613        2915.870          39.000  
  22672966.513   119147240.609       -2603.097          42.000  
  25282110.505   132858375.340        1191.767          36.000  
  21413433.853   112528344.424        2482.329          34.000  
  22175623.417   116533678.0872      -2954.053          27.000  
  21680428.840   113931421.927       -1529.688          45.000  
  20551109.555   107996815.182         993.674          37.000  
 23 12  2 15 31 11.9900000  0 13G15G12G24G19G32G10G25E 7E20G 6G17E30
                                E27
  21793379.748   114524985.679       -3721.922          39.000  
  17171315.970    90235871.194         718.749          43.000  
  18055415.547    94881841.827       -1939.380          44.000  
  19764522.260   103863262.806       -1930.088          40.000  
  19777531.851   103931629.871        2403.329          43.000  
  21530942.852   113145857.241       -2172.753          39.000  
  18465351.141    97036071.088        2915.348          39.000  
  22673461.959   119149843.646       -2603.365          42.000  
  25281883.862   132857183.941        1191.213          36.000  
  21412961.336   112525862.240        2481.508          37.000  
  22176185.035   116536631.8812      -2953.618          27.000  
  21680719.945   113932951.728       -1529.908          45.000  
  20550920.779   107995821.617         993.387          37.000  
 23 12  2 15 31 12.9900000  0 13G15G12G24G19G32G10G25E 7E20G 6G17E30
                                E27
  21794088.122   114528707.832       -3721.943          40.000  
  17171179.335    90235152.890         718.065          44.000  
  18055784.793    94883781.620       -1939.597          45.000  
  19764889.901   103865193.148       -1930.438          40.000  
  19777074.481   103929226.942        2402.788          42.000  
  21531356.736   113148030.501       -2173.708          39.000  
  18464796.538    97033156.158        2915.018          39.000  
  22673957.511   119152447.172       -2603.619          42.000  
  25281657.288   132855993.287        1190.237          36.000  
  21412489.064   112523380.649        2481.628          36.000  
  22176745.675   116539586.2152      -2953.863          28.000  
  21681011.398   113934481.971       -1530.236          45.000  
  20550731.549   107994828.578         993.186          36.000  
 23 12  2 15 31 13.9900000  0 13G15G12G24G19G32G10G25E 7E20G 6G17E30
                                E27
  21794796.496   114532429.798       -3722.274          42.000  
  17171042.769    90234434.916         717.691          44.000  
  18056153.935    94885721.664       -1940.187          45.000  
  19765257.368   103867123.832       -1931.036          40.000  
  19776617.250   103926824.326        2402.189          44.000  
  21531770.341   113150203.879       -2173.671          39.000  
  18464241.865    97030241.408        2914.497          39.000  
  22674452.713   119155050.729       -2603.846          43.000  
  25281431.063   132854802.809        1190.056          35.000  
  21412016.721   112520899.264        2481.298          36.000  
  22177305.548   116542540.6142      -2955.095          28.000  
  21681302.468   113936012.196       -1530.331          44.000  
  20550542.912   107993835.668         992.648          36.000  
 23 12  2 15 31 14.9900000  0 13G15G12G24G19G32G10G25E 7E20G 6G17E30
                                E27
  21795504.556   114536151.831       -3722.372          40.000  
  17170906.518    90233717.571         716.713          43.000  
  18056522.972    94887662.179       -1941.122          44.000  
  19765624.939   103869055.195       -1931.897          40.000  
  19776160.159   103924422.290        2401.551          44.000  
  21532184.505   113152377.692       -2174.373          40.000  
  18463687.263    97027327.077        2913.885          39.000  
  22674948.264   119157654.560       -2604.295          43.000  
  25281204.629   132853612.890        1189.038          36.000  
  21411544.588   112518418.398        2480.145          35.000  
  22177868.038   116545495.1722      -2955.034          27.000  
  21681593.747   113937542.691       -1530.832          44.000  
  20550353.891   107992843.136         991.810          36.000  
 23 12  2 15 31 15.9900000  0 13G15G12G24G19G32G10G25E 7E20G 6G17E30
                                E27
  21796212.965   114539873.946       -3722.146          40.000  
  17170770.197    90233000.893         716.367          44.000  
  18056892.289    94889603.218       -1941.247          44.000  
  19765992.615   103870987.219       -1932.322          40.000  
  19775703.173   103922020.913        2400.930          44.000  
  21532598.249   113154551.938       -2174.518          40.000  
  18463132.799    97024413.257        2913.516          39.000  
  22675443.920   119160258.763       -2604.367          43.000  
  25280978.160   132852423.552        1188.897          35.000  
  21411072.944   112515938.042        2480.596          35.000  
  22178430.633   116548439.1783      -2955.209          25.000  
  21681885.305   113939073.488       -1530.886          44.000  
  20550164.940   107991850.980         991.987          36.000  
 23 12  2 15 31 16.9900000  0 12G15G12G24G19G32G10G25E 7E20G 6E30E27
  21796921.723   114543595.921       -3721.880          40.000  
  17170633.841    90232284.575         715.878          43.000  
  18057261.710    94891544.511       -1941.534          44.000  
  19766360.221   103872919.645       -1932.892          40.000  
  19775246.326   103919619.844        2400.706          44.000  
  21533011.819   113156726.370       -2174.731          40.000  
  18462578.650    97021499.634        2913.472          39.000  
  22675939.611   119162863.011       -2604.366          42.000  
  25280751.657   132851234.464        1189.169          36.000  
  21410601.160   112513457.920        2479.905          35.000  
  21682176.584   113940604.287       -1530.732          44.000  
  20549976.198   107990858.955         991.990          36.000  
 23 12  2 15 31 17.9900000  0 13G15G12G24G19G32G10G25E 7E20G 6G11E30
                                E27
  21797629.958   114547317.758       -3722.335          41.000  
  17170497.590    90231568.685         715.427          43.000  
  18057631.201    94893486.105       -1942.096          44.000  
  19766728.212   103874852.488       -1933.901          40.000  
  19774789.863   103917219.172        2400.193          44.000  
  21533425.634   113158901.009       -2175.214          39.000  
  18462024.396    97018586.245        2913.021          39.000  
  22676435.337   119165467.385       -2604.928          43.000  
  25280525.606   132850045.741        1188.318          36.000  
  21410128.957   112510978.087        2478.514          35.000  
  22739010.502                        3224.000          11.000  
  21682467.724   113942135.172       -1531.389          44.000  
  20549786.898   107989867.095         991.765          36.000  
 23 12  2 15 31 18.9900000  0 13G15G12G24G19G32G10G25E 7E20G 6G11E30
                                E27
  21798337.913   114551039.504       -3721.628          41.000  
  17170361.304    90230853.281         715.190          44.000  
  18058000.762    94895428.055       -1942.100          44.000  
  19767096.237   103876785.792       -1933.661          40.000  
  19774333.296   103914818.972        2400.074          44.000  
  21533839.448   113161075.960       -2175.476          37.000  
  18461470.317    97015673.164        2912.877          39.000  
  22676930.748   119168071.930       -2604.710          42.000  
  25280299.417   132848857.376        1188.157          35.000  
  21409657.347   112508498.566        2479.049          35.000  
  22738401.699                        3238.893          11.000  
  21682759.212   113943666.183       -1531.290          44.000  
  20549598.366   107988875.454         991.393          36.000  
 23 12  2 15 31 19.9900000  0 14G15G12G24G19G32G10G25G17E 7E20G 6G11
                                E30E27
  21799046.217   114554761.148       -3721.785          41.000  
  17170225.297    90230138.311         714.496          45.000  
  18058370.532    94897370.290       -1942.812          45.000  
  19767464.541   103878719.579       -1934.398          41.000  
  19773876.833   103912419.130        2399.398          42.000  
  21534253.228   113163251.023       -2175.303          35.000  
  18460916.168    97012760.285        2912.634          37.000  
  22180666.285                       -2953.203          27.000  
  22677426.404   119170676.607       -2604.867          42.000  
  25280073.541   132847669.327        1187.774          35.000  
  21409185.423   112506019.295        2478.545          35.000  
  22737781.344                        3238.893          12.000  
  21683050.631   113945197.259       -1531.257          45.000  
  20549410.009   107987883.980         991.027          40.000  
 23 12  2 15 31 20.9900000  0 14G15G12G24G19G32G10G25G17E 7E20G 6G11
                                E30E27
  21799754.312   114558482.820       -3721.854          41.000  
  17170089.290    90229423.947         713.825          45.000  
  18058740.197    94899313.030       -1943.044          45.000  
  19767832.950   103880653.969       -1934.656          41.000  
  19773420.196   103910019.912        2398.284          43.000  
  21534667.252   113165426.693       -2176.604          35.000  
  18460362.193    97009847.958        2912.090          39.000  
  22181245.388                       -2953.203          26.000  
  22677922.200   119173281.503       -2605.472          42.000  
  25279847.700   132846481.856        1187.336          35.000  
  21408713.779   112503540.516        2479.220          35.000  
  22737165.560                        3238.893          13.000  
  21683341.596   113946728.565       -1531.521          45.000  
  20549221.477   107986892.876         990.842          39.000  
 23 12  2 15 31 21.9900000  0 13G15G12G24G19G32G10G25E 7E20G 6G11E30
                                E27
  21800462.756   114562204.404       -3720.912          40.000  
  17169953.457    90228710.033         714.010          46.000  
  18059110.002    94901256.094       -1943.127          44.000  
  19768201.429   103882588.882       -1934.700          41.000  
  19772964.012   103907621.076        2399.025          43.000  
  21535081.555   113167602.347       -2176.024          38.000  
  18459808.149    97006935.756        2912.306          42.000  
  22678418.065   119175886.564       -2604.848          42.000  
  25279620.603   132845294.869        1186.351          27.000  
  21408241.925   112501062.024        2478.926          35.000  
  22736546.880                        3238.893          12.000  
  21683632.944   113948259.983       -1531.208          45.000  
  20549033.049   107985902.000         990.665          41.000  
 23 12  2 15 31 22.9900000  0 12G15G12G24G19G32G10G25E 7G 6G11E30E27
  21801171.130   114565926.992       -3722.199          30.000  
  17169817.729    90227997.266         711.088          30.000  
  18059479.772    94903200.446       -1949.332          31.000  
  19768569.977   103884524.938       -1939.578          36.000  
  19772507.619                        2398.794          29.000  
  21535495.369   113169778.923       -2175.683          28.000  
  18459252.778                        2914.361          33.000  
  22678914.419                       -2608.276          28.000  
  21407770.211   112498584.828        2471.424          30.000  
  22735932.353                        3238.893          12.000  
  21683925.166   113949792.308       -1536.850          28.000  
  20548844.203                         991.500          28.000  
 23 12  2 15 31 23.9900000  0 12G15G12G24G19G32G10G25G17E 7G 6E30E27
  21801882.227                       -3720.861          24.000  
  17169682.351                         709.751          29.000  
  18059849.089                       -1945.635          31.000  
  19768938.700                       -1937.729          28.000  
  19772049.202   103902819.7973       2397.749          37.000  
  21535907.962                       -2174.317          27.000  
  18458699.153                        2907.603          21.000  
  22182932.510                       -2953.203          23.000  
  22679408.505                       -2606.610          27.000  
  21407299.474                        2482.717          27.000  
  21684215.607                       -1529.203          19.000  
  20548657.032                         996.579          16.000  
 23 12  2 15 31 24.9900000  0 12G15G12G24G19G32G10G25E 7E20G 6E30E27
  21802586.657   114573365.7823      -3720.144          44.000  
  17169545.611    90226571.1383        712.713          48.000  
  18060218.649    94907090.5233      -1942.292          47.000  
  19769304.527   103888396.1193      -1934.895          42.000  
  19771592.390   103900423.6582       2395.152          51.000  
  21536321.777   113174134.3263      -2179.071          46.000  
  18458144.096    96998201.2903       2909.624          50.000  
  22679904.545   119183712.8781      -2605.421          41.000  
  25278941.406   132841743.9181       1185.023          42.000  
  21406823.885   112493617.7943       2480.737          41.000  
  21684502.210   113952838.1221      -1529.335          44.000  
  20548462.532   107982909.0371        989.905          48.000  
 23 12  2 15 31 25.9900000  0 13G15G12G24G19G32G10G25G17E 7E20G 6E30
                                E27
  21803299.533                       -3713.563          13.000  
  17169407.859    90225858.9372        711.752          50.000  
  18060591.875    94909034.4392      -1944.889          47.000  
  19769675.379   103890333.8982      -1937.950          46.000  
  19771135.822   103898027.4742       2396.405          50.000  
  21536737.790   113176311.5362      -2176.927          40.000  
  18457589.738    96995290.2372       2910.967          48.000  
  22184054.455                       -2958.086          36.000  
  22680394.721   119186317.646       -2606.001          35.000  
  25278714.518   132840558.830        1185.177          42.000  
  21406356.324   112491140.9102       2476.123          44.000  
  21684797.328   113954370.268       -1532.487          46.000  
  20548271.068   107981918.853         989.709          47.000  
 23 12  2 15 31 26.9900000  0 13G15G12G24G19G32G10G25G17E 7E20G 6E30
                                E27
  21804020.856                       -3728.632          16.000  
  17169273.352    90225147.9822        710.250          48.000  
  18060952.989    94910979.8762      -1946.013          38.000  
  19770041.519   103892272.3832      -1938.912          38.000  
  19770680.162   103895631.7792       2395.107          48.000  
  21537150.278   113178489.0912      -2178.004          40.000  
  18457035.309    96992379.9782       2909.530          49.000  
  22184612.408                       -2958.230          29.000  
  22680891.599   119188923.704       -2606.249          32.000  
  25278489.271   132839374.351        1184.086          39.000  
  21405886.704                        2477.602          24.000  
  21685088.188   113955903.233       -1533.234          38.000  
  20548085.432   107980929.629         988.711          45.000  
 23 12  2 15 31 27.9900000  0 13G15G12G24G19G32G10G25G17E 7E20G 6E30
                                E27
  21804722.878   114584591.3552      -3721.869          30.000  
  17169140.277    90224438.2572        709.344          47.000  
  18061325.377    94912926.4512      -1947.643          31.000  
  19770412.127   103894211.3022      -1939.979          40.000  
  19770224.502   103893236.7402       2394.660          49.000  
  21537563.290   113180667.7242      -2178.954          38.000  
  18456481.579    96989470.9682       2908.928          47.000  
  22185180.029                       -2958.503          28.000  
  22681395.980                       -2607.731          23.000  
  25278267.304   132838190.703        1183.485          38.000  
  21405411.046                        2474.329          26.000  
  21685382.294   113957436.562       -1533.779          39.000  
  20547902.833   107979941.425         988.157          44.000  
 23 12  2 15 31 28.9900000  0 13G15G12G24G19G32G10G25G17E 7E20G 6E30
                                E27
  21805440.291   114588313.5872      -3721.940          25.000  
  17169004.968    90223728.7892        709.010          49.000  
  18061697.276    94914873.1852      -1947.124          38.000  
  19770780.362   103896151.1442      -1940.127          38.000  
  19769767.935   103890842.2402       2393.804          49.000  
  21537981.641   113182846.4362      -2179.294          42.000  
  18455929.280    96986562.0042       2908.535          49.000  
  22185745.904   116586866.2022      -2958.627          27.000  
  22681882.876                       -2607.837          31.000  
  25278039.893   132837007.439        1182.580          39.000  
  21404940.728                        2477.562          25.000  
  21685673.084   113958970.199       -1533.907          40.000  
  20547714.231   107978953.172         987.761          45.000  
 23 12  2 15 31 29.9900000  0 13G15G12G24G19G32G10G25G17E 7E20G 6E30
                                E27
  21806150.201                       -3725.182          22.000  
  17168870.252    90223020.1002        707.989          49.000  
  18062069.454    94916820.4962      -1948.051          40.000  
  19771149.538   103898091.3952      -1940.687          37.000  
  19769312.310   103888448.3732       2393.490          49.000  
  21538395.456   113185025.6852      -2179.625          42.000  
  18455375.445    96983653.6242       2907.854          49.000  
  22186311.431   116589824.6182      -2958.367          27.000  
  22682381.778   119196717.1521      -2609.049          33.000  
  25277817.053   132835824.768        1182.104          39.000  
  21404488.942   112481348.0813       2474.369          27.000  
  21685967.714   113960504.014       -1534.217          41.000  
  20547525.804   107977965.475         987.225          45.000  
 23 12  2 15 31 30.9900000  0 13G15G12G24G19G32G10G25G17E 7E20G 6E30
                                E27
  21806854.527                       -3726.619          23.000  
  17168735.641    90222312.1032        707.904          48.000  
  18062440.620    94918768.351       -1948.209          39.000  
  19771518.785   103900032.2552      -1941.138          38.000  
  19768856.929   103886054.6501       2393.095          49.000  
  21538811.783   113187205.4902      -2179.482          42.000  
  18454821.470    96980745.8052       2907.740          49.000  
  22186880.308   116592783.4162      -2958.711          27.000  
  22682874.083   119199325.246       -2608.201          33.000  
  25277592.713   132834642.697        1181.971          40.000  
  21404025.743   112478874.1372       2473.615          26.000  
  21686257.981   113962038.109       -1534.194          41.000  
  20547337.900   107976978.237         987.240          45.000  
 23 12  2 15 31 31.9900000  0 13G15G12G24G19G32G10G25G17E 7E20G 6E30
                                E27
  21807569.776                       -3716.354          22.000  
  17168600.856    90221604.5752        707.379          48.000  
  18062812.101    94920716.557       -1948.439          41.000  
  19771888.974   103901973.7042      -1941.614          39.000  
  19768401.722   103883661.907        2392.627          49.000  
  21539224.830   113189385.5992      -2180.073          41.000  
  18454268.438    96977838.3172       2907.285          49.000  
  22187449.394   116595742.3592      -2959.028          27.000  
  22683371.031   119201933.570       -2607.819          35.000  
  25277366.977   132833461.020        1181.414          39.000  
  21403543.244                        2473.804          26.000  
  21686548.562   113963572.364       -1534.286          41.000  
  20547150.345   107975991.212         987.142          45.000  
 23 12  2 15 31 32.9900000  0 13G15G12G24G19G32G10G25G17E 7E20G 6E30
                                E27
  21808277.208                       -3726.365          23.000  
  17168465.791    90220895.7192        710.210          49.000  
  18063182.325    94922663.270       -1945.065          42.000  
  19772259.512   103903914.7742      -1940.627          43.000  
  19767946.970   103881268.972        2393.914          49.000  
  21539640.285   113191566.0672      -2178.967          45.000  
  18453715.161    96974930.0142       2909.972          46.000  
  22188007.452   116598701.3572      -2959.887          28.000  
  22683872.829   119204540.645       -2604.812          38.000  
  25277141.939   132832278.669        1184.096          40.000  
  21403065.806                        2472.898          28.000  
  21686840.783   113965105.229       -1531.521          42.000  
  20546962.057   107975002.676         990.806          46.000  
 23 12  2 15 31 33.9900000  0 13G15G12G24G19G32G10G25G17E 7E20G 6E30
                                E27
  21808961.187   114606863.8283      -3721.371          39.000  
  17168331.110    90220188.3672        707.524          38.000  
  18063553.246    94924611.215       -1948.605          40.000  
  19772636.192   103905857.1012      -1942.494          36.000  
  19767492.740   103878877.637        2391.377          43.000  
  21540054.972   113193747.3202      -2180.420          41.000  
  18453161.850    96972022.9642       2907.391          46.000  
  22188574.584                       -2956.094          26.000  
  22684369.392   119207148.543       -2607.503          41.000  
  25276917.460   132831097.926        1180.366          34.000  
  21402588.369                        2467.561          24.000  
  21687132.586   113966638.926       -1534.016          34.000  
  20546773.909   107974015.563         987.000          41.000  
 23 12  2 15 31 34.9900000  0 13G15G12G24G19G32G10G25G17E 7E20G 6E30
                                E27
  21809667.188   114610586.5292      -3724.089          34.000  
  17168197.302    90219482.8222        705.445          36.000  
  18063924.517    94926560.957       -1948.123          26.000  
  19773012.175                       -1940.354          21.000  
  19767038.093   103876486.558        2390.964          41.000  
  21540469.973   113195928.6372      -2181.537          44.000  
  18452609.550    96969116.7702       2905.570          45.000  
  22189132.363                       -2959.451          26.000  
  22684866.375   119209757.810       -2610.191          39.000  
  25276692.841   132829917.772        1180.188          34.000  
  21402121.296   112468905.6743       2470.858          36.000  
  21687444.840   113968174.484       -1535.320          30.000  
  20546586.738   107973029.505         985.615          37.000  
 23 12  2 15 31 35.9900000  0 13G15G12G24G19G32G10G25G17E 7E20G 6E30
                                E27
  21810384.008   114614309.2762      -3723.173          38.000  
  17168062.691    90218777.6352        704.969          35.000  
  18064295.125    94928510.744       -1950.684          32.000  
  19773383.899   103909833.6673      -1941.984          31.000  
  19766583.794   103874095.717        2390.386          41.000  
  21540885.148   113198110.0552      -2181.804          39.000  
  18452056.623    96966210.7862       2905.587          42.000  
  22189671.854                       -2960.146          26.000  
  22685363.252   119212367.289       -2609.498          40.000  
  25276468.187   132828737.926        1179.492          34.000  
  21401652.548   112466434.2432       2472.803          32.000  
  21687733.746                       -1535.620          31.000  
  20546398.031   107972043.825         985.815          34.000  
 23 12  2 15 31 36.9900000  0 13G15G12G24G19G32G10G25G17E 7E20G 6E30
                                E27
  21811091.335   114618031.6972      -3722.555          40.000  
  17167928.220    90218072.4471        704.005          38.000  
  18064670.200    94930460.958       -1950.562          33.000  
  19773753.530   103911777.9782      -1945.188          31.000  
  19766129.180   103871705.670        2389.327          39.000  
  21541300.533   113200291.932       -2182.209          41.000  
  18451503.311    96963305.188        2905.295          43.000  
  22190231.203   116610472.5613      -2960.517          27.000  
  22685858.978   119214976.703       -2609.653          41.000  
  25276243.986   132827558.608        1178.481          36.000  
  21401177.833   112463962.7292       2470.734          32.000  
  21688030.923   113971355.2371      -1535.255          30.000  
  20546209.045   107971058.414         984.342          33.000  
 23 12  2 15 31 37.9900000  0 12G15G12G24G19G32G10G25G17E 7G 6E30E27
  21811793.671                       -3722.466          36.000  
  17167793.993    90217368.356         702.570          45.000  
  18065035.433    94932401.0113      -1952.309          45.000  
  19774104.384   103913723.1942      -1946.912          42.000  
  19765674.463   103869316.907        2388.354          43.000  
  21541716.721                       -2183.663          41.000  
  18450950.872    96960400.843        2903.326          40.000  
  22190804.827                       -2960.641          32.000  
  22686355.402   119217586.609       -2610.667          38.000  
  21400709.015   112461484.8853       2469.562          41.000  
  21688296.829   113972890.715       -1536.739          42.000  
  20546022.887   107970073.488         984.546          42.000  
 23 12  2 15 31 38.9900000  0 13G15G12G24G19G32G10G25G17E 7E20G 6E30
                                E27
  21812499.253   114625457.0343      -3722.209          33.000  
  17167660.254    90216664.284         704.209          46.000  
  18065409.042    94934351.6762      -1950.837          45.000  
  19774474.293   103915668.2612      -1944.479          44.000  
  19765219.675   103866927.549        2389.677          40.000  
  21542130.221   113204667.3273      -2181.897          31.000  
  18450397.700    96957495.338        2905.289          41.000  
  22191373.076   116616426.3313      -2959.625          33.000  
  22686847.952   119220200.7581      -2610.183          37.000  
  25275791.293   132825189.7211       1178.941          30.000  
  21400239.569   112459013.6952       2471.270          42.000  
  21688584.269   113974425.971       -1534.746          44.000  
  20545833.866   107969088.125         985.618          42.000  
 23 12  2 15 31 39.9900000  0 13G15G12G24G19G32G10G25G17E 7E20G 6E30
                                E27
  21813207.627   114629179.2352      -3723.000          33.000  
  17167526.062    90215961.011         702.589          45.000  
  18065778.009    94936303.0382      -1952.076          45.000  
  19774846.402   103917613.9112      -1946.255          43.000  
  19764764.504   103864538.864        2388.324          43.000  
  21542547.561   113206849.9732      -2182.717          31.000  
  18449844.738    96954590.640        2904.551          43.000  
  22191932.739   116619386.8232      -2961.103          31.000  
  22687351.844   119222810.576       -2609.807          37.000  
  25275566.883   132824011.574        1177.445          35.000  
  21399770.961   112456543.0722       2469.609          42.000  
  21688883.994   113975961.499       -1535.795          43.000  
  20545646.311   107968103.362         984.496          42.000  
 23 12  2 15 31 40.9900000  0 13G15G12G24G19G32G10G25G17E 7E20G 6E30
                                E27
  21813915.687   114632902.7942      -3724.269          33.000  
  17167392.882    90215259.538         701.068          41.000  
  18066147.570    94938256.0992      -1953.531          41.000  
  19775219.173   103919561.4572      -1947.695          38.000  
  19764310.379   103862151.989        2386.508          38.000  
  21542963.993   113209034.5042      -2184.773          29.000  
  18449292.264    96951687.688        2902.716          40.000  
  22192500.255   116622348.8782      -2961.408          25.000  
  22687842.998   119225422.112       -2611.841          37.000  
  25275340.623   132822835.157        1176.446          31.000  
  21399299.666   112454074.2872       2468.173          39.000  
  21689177.472   113977498.519       -1537.298          38.000  
  20545457.953   107967120.141         982.860          36.000  
 23 12  2 15 31 41.9900000  0 13G15G12G24G19G32G10G25G17E 7E20G 6E30
                                E27
  21814622.316   114636626.4752      -3724.147          32.000  
  17167259.109    90214558.795         700.116          40.000  
  18066522.820    94940209.7432      -1953.994          40.000  
  19775589.467   103921509.7912      -1949.109          38.000  
  19763856.325   103859765.807        2385.833          38.000  
  21543378.575                       -2186.355          26.000  
  18448739.860    96948785.221        2902.384          39.000  
  22193065.677   116625311.4012      -2963.467          27.000  
  22688342.772   119228033.951       -2612.311          36.000  
  25275111.188   132821659.438        1175.101          30.000  
  21398828.580   112451606.0432       2467.493          38.000  
  21689469.519   113979035.901       -1537.756          37.000  
  20545269.386   107966137.369         982.046          35.000  
 23 12  2 15 31 42.9900000  0 13G15G12G24G19G32G10G25G17E 7E20G 6E30
                                E27
  21815335.507   114640350.4212      -3723.609          35.000  
  17167126.138    90213858.890         699.741          44.000  
  18066894.125    94942164.2552      -1954.825          44.000  
  19775960.145   103923458.998       -1949.409          45.000  
  19763402.375   103857380.290        2385.383          44.000  
  21543797.066   113213417.3563      -2185.386          32.000  
  18448187.421    96945883.411        2902.026          39.000  
  22193626.457   116628274.2672      -2962.476          32.000  
  22688840.417   119230646.248       -2612.367          40.000  
  25274898.574   132820484.338        1175.306          34.000  
  21398359.622   112449138.5612       2467.145          43.000  
  21689763.590   113980573.857       -1537.733          44.000  
  20545085.915   107965155.171         982.384          39.000  
 23 12  2 15 31 43.9900000  0 13G15G12G24G19G32G10G25G17E 7E20G 6E30
                                E27
  21816042.520   114644074.9382      -3723.499          33.000  
  17166993.132    90213159.982         698.694          46.000  
  18067267.141    94944119.4922      -1955.098          46.000  
  19776333.021   103925409.181       -1950.329          43.000  
  19762948.390   103854995.853        2383.932          45.000  
  21544211.404   113215594.5383      -2186.251          36.000  
  18447635.121    96942982.395        2900.853          42.000  
  22194186.260   116631238.0282      -2964.180          32.000  
  22689336.911   119233259.359       -2612.538          37.000  
  25274668.022   132819310.243        1174.015          35.000  
  21397891.677   112446671.9392       2466.631          42.000  
  21690056.160   113982112.345       -1538.381          43.000  
  20544899.860   107964173.704         981.525          41.000  
 23 12  2 15 31 44.9900000  0 13G15G12G24G19G32G10G25G17E 7E20G 6E30
                                E27
  21816752.709   114647799.1262      -3724.475          40.000  
  17166860.685    90212461.342         698.480          51.000  
  18067640.820    94946075.0262      -1955.535          50.000  
  19776704.431   103927359.710       -1950.607          48.000  
  19762494.719   103852611.541        2384.106          48.000  
  21544629.651   113217780.7372      -2186.543          43.000  
  18447083.450    96940081.435        2900.828          48.000  
  22194751.578   116634201.5912      -2963.998          35.000  
  22689836.755   119235872.398       -2613.041          46.000  
  25274453.105   132818136.213        1174.167          39.000  
  21397420.661   112444205.4622       2466.486          47.000  
  21690349.324   113983650.845       -1538.391          47.000  
  20544714.260   107963192.280         981.302          47.000  
 23 12  2 15 31 45.9900000  0 13G15G12G24G19G32G10G25G17E 7E20G 6E30
                                E27
  21817462.025   114651523.0972      -3724.079          40.000  
  17166728.098    90211763.070         697.867          50.000  
  18068013.033    94948030.7172      -1955.962          49.000  
  19777075.493   103929310.551       -1951.149          47.000  
  19762041.013   103850227.674        2383.396          48.000  
  21545042.418   113219967.2772      -2187.068          42.000  
  18446531.849    96937180.745        2900.425          47.000  
  22195316.371   116637165.1932      -2962.983          35.000  
  22690333.004   119238485.477       -2613.357          45.000  
  25274229.603   132816962.576        1173.053          39.000  
  21396952.158   112441739.1892       2466.010          46.000  
  21690642.208   113985189.298       -1538.677          46.000  
  20544527.508   107962210.979         981.054          46.000  
 23 12  2 15 31 46.9900000  0 13G15G12G24G19G32G10G25G17E 7E20G 6E30
                                E27
  21818171.097   114655246.9042      -3723.642          39.000  
  17166595.267    90211065.152         697.691          50.000  
  18068385.212    94949986.6242      -1956.037          49.000  
  19777446.694   103931261.777       -1951.558          47.000  
  19761587.587   103847844.122        2383.251          47.000  
  21545458.536   113222153.9162      -2186.549          42.000  
  18445979.829    96934280.245        2900.396          47.000  
  22195881.340   116640128.8952      -2963.588          35.000  
  22690830.685   119241098.600       -2613.382          45.000  
  25274006.414   132815789.133        1173.552          38.000  
  21396482.747   112439273.1152       2465.930          45.000  
  21690934.813   113986727.747       -1538.494          46.000  
  20544340.755   107961229.766         981.099          46.000  
 23 12  2 15 31 47.9900000  0 13G15G12G24G19G32G10G25G17E 7E20G 6E30
                                E27
  21818879.402   114658970.7672      -3724.839          34.000  
  17166462.401    90210367.769         696.813          44.000  
  18068757.460    94951942.9042      -1957.163          44.000  
  19777817.616   103933213.456       -1951.975          42.000  
  19761134.300   103845461.175        2381.755          42.000  
  21545874.829   113224341.1222      -2187.500          35.000  
  18445428.088    96931380.224        2899.057          41.000  
  22196447.495   116643092.7712      -2965.324          32.000  
  22691327.946   119243712.022       -2614.644          39.000  
  25273782.738   132814616.222        1171.412          30.000  
  21396013.545   112436807.3892       2465.172          41.000  
  21691227.907   113988266.313       -1539.004          41.000  
  20544154.108   107960248.905         979.619          40.000  
 23 12  2 15 31 48.9900000  0 13G15G12G24G19G32G10G25G17E 7E20G 6E30
                                E27
  21819589.312   114662694.298       -3722.754          31.000  
  17166329.710    90209670.719         696.902          42.000  
  18069129.533    94953899.432       -1956.469          42.000  
  19778189.026   103935165.601       -1952.001          39.000  
  19760681.013   103843078.387        2382.997          38.000  
  21546291.679   113226528.2102      -2187.373          31.000  
  18444876.277    96928480.223        2899.602          38.000  
  22197012.253   116646056.1341      -2964.250          29.000  
  22691825.626   119246325.358       -2613.576          37.000  
  25273553.930   132813443.531        1172.576          29.000  
  21395544.344   112434341.4091       2465.646          37.000  
  21691520.582   113989804.929       -1538.260          38.000  
  20543967.635   107959268.035         980.859          37.000  
 23 12  2 15 31 49.9900000  0 13G15G12G24G19G32G10G25G17E 7E20G 6E30
                                E27
  21820294.929   114666417.841       -3724.121          33.000  
  17166197.053    90208974.164         695.975          44.000  
  18069501.746    94955856.346       -1957.618          45.000  
  19778560.367   103937118.216       -1953.020          42.000  
  19760227.936   103840696.130        2381.891          41.000  
  21546704.482   113228715.5452      -2187.390          31.000  
  18444324.396    96925580.533        2899.409          40.000  
  22197576.628   116649020.165       -2964.021          30.000  
  22692322.748   119248938.875       -2614.253          40.000  
  25273330.533   132812271.219        1171.887          31.000  
  21395075.387   112431876.336        2464.021          39.000  
  21691813.223   113991343.664       -1538.955          42.000  
  20543780.708   107958287.418         980.357          40.000  
 23 12  2 15 31 50.9900000  0 13G15G12G24G19G32G10G25G17E 7E20G 6E30
                                E27
  21821005.816   114670141.329       -3724.144          33.000  
  17166064.816    90208278.119         695.016          45.000  
  18069874.588    94957813.602       -1958.296          45.000  
  19778931.952   103939071.358       -1953.684          43.000  
  19759774.614   103838314.387        2380.700          42.000  
  21547126.637   113230903.2922      -2188.817          38.000  
  18443772.411    96922681.187        2898.341          40.000  
  22198142.155   116651984.427       -2964.749          34.000  
  22692820.149   119251552.582       -2614.729          39.000  
  25273109.124   132811099.364        1170.406          35.000  
  21394605.836   112429411.531        2464.099          40.000  
  21692106.351   113992882.568       -1539.861          42.000  
  20543594.654   107957307.094         979.240          41.000  
 23 12  2 15 31 51.9900000  0 14G15G12G24G19G32G10G25G17E 7E20G 6G11
                                E30E27
  21821715.097   114673864.335       -3723.898          38.000  
  17165932.508    90207582.271         696.022          50.000  
  18070246.975    94959770.976       -1957.453          49.000  
  19779303.746   103941024.780       -1952.932          46.000  
  19759321.606   103835932.713        2381.684          47.000  
  21547543.035   113233090.9082      -2187.661          41.000  
  18443220.565    96919781.827        2898.680          44.000  
  22198704.296   116654948.581       -2964.146          32.000  
  22693317.201   119254166.037       -2613.843          41.000  
  25272884.924   132809927.542        1171.382          35.000  
  21394136.635   112426946.908        2465.179          45.000  
  22719483.639                        3244.193          15.000  
  21692399.236   113994421.329       -1538.569          46.000  
  20543408.216   107956326.676         980.486          45.000  
 23 12  2 15 31 52.9900000  0 13G15G12G24G19G32G10G25G17E 7E20G 6E30
                                E27
  21822422.354   114677587.606       -3723.789          38.000  
  17165800.724    90206887.099         695.141          50.000  
  18070620.201    94961728.863       -1958.168          49.000  
  19779676.029   103942978.822       -1954.805          45.000  
  19758868.180   103833551.712        2380.976          48.000  
  21547957.163   113235279.0012      -2187.985          43.000  
  18442669.348    96916882.970        2899.025          46.000  
  22199264.937   116657913.040       -2964.548          35.000  
  22693814.637   119256780.074       -2614.203          43.000  
  25272670.321   132808756.308        1171.197          39.000  
  21393667.817   112424482.692        2464.187          45.000  
  21692691.946   113995960.360       -1538.964          47.000  
  20543221.673   107955346.698         980.280          45.000  
 23 12  2 15 31 53.9900000  0 13G15G12G24G19G32G10G25G17E 7E20G 6E30
                                E27
  21823130.449   114681310.760       -3723.186          36.000  
  17165668.347    90206192.367         695.050          50.000  
  18070992.972    94963687.067       -1958.050          49.000  
  19780047.823   103944933.278       -1954.344          44.000  
  19758414.893   103831171.174        2380.840          47.000  
  21548372.618   113237467.4262      -2187.946          41.000  
  18442117.537    96913984.424        2898.934          45.000  
  22199829.975   116660877.643       -2964.937          35.000  
  22694312.247   119259394.147       -2613.780          41.000  
  25272447.203   132807585.453        1171.377          39.000  
  21393199.209   112422018.823        2463.975          45.000  
  21692984.621   113997499.488       -1538.846          46.000  
  20543035.479   107954366.930         980.094          45.000  
 23 12  2 15 31 54.9900000  0 13G15G12G24G19G32G10G25G17E 7E20G 6E30
                                E27
  21823839.766   114685033.686       -3723.262          34.000  
  17165536.283    90205498.202         693.203          46.000  
  18071365.569    94965645.717       -1959.369          44.000  
  19780420.036   103946888.332       -1956.028          44.000  
  19757961.885   103828791.223        2378.963          45.000  
  21548790.760   113239655.7531      -2189.651          39.000  
  18441566.005    96911086.335        2897.479          44.000  
  22200397.002   116663842.471       -2967.103          34.000  
  22694809.578   119262008.386       -2615.063          36.000  
  25272221.641   132806415.117        1169.658          35.000  
  21392730.287   112419555.305        2463.784          40.000  
  21693277.575   113999038.791       -1539.770          44.000  
  20542849.460   107953387.497         978.823          43.000  
 23 12  2 15 31 55.9900000  0 13G15G12G24G19G32G10G25G17E 7E20G 6E30
                                E27
  21824549.431   114688756.681       -3722.657          26.000  
  17165404.360    90204804.359         693.989          40.000  
  18071737.922    94967604.516       -1959.139          39.000  
  19780792.075   103948843.687       -1955.966          39.000  
  19757509.331   103826411.596        2379.166          40.000  
  21549207.017   113241844.776       -2188.995          29.000  
  18441014.579    96908188.339        2897.992          33.000  
  22200956.875   116666807.231       -2965.138          30.000  
  22695301.430   119264622.833       -2614.339          29.000  
  25271998.348   132805245.045        1169.961          31.000  
  21392261.399   112417092.034        2463.356          35.000  
  21693570.390   114000578.026       -1539.254          37.000  
  20542662.673   107952408.089         979.608          34.000  
 23 12  2 15 31 56.9900000  0 13G15G12G24G19G32G10G25G17E 7E20G 6E30
                                E27
  21825259.481   114692479.853       -3723.446          29.000  
  17165272.297    90204111.272         692.893          41.000  
  18072110.205    94969563.969       -1959.269          42.000  
  19781164.358   103950799.845       -1956.158          44.000  
  19757056.254   103824032.579        2379.060          42.000  
  21549621.390   113244034.154       -2189.010          33.000  
  18440463.012    96905290.873        2898.213          34.000  
  22201522.716   116669772.450       -2965.728          33.000  
  22695798.901   119267237.579       -2614.553          33.000  
  25271774.881   132804075.589        1169.233          33.000  
  21391792.407   112414629.359        2462.771          37.000  
  21693862.995   114002117.708       -1539.506          41.000  
  20542476.200   107951429.173         979.018          38.000  
 23 12  2 15 31 57.9900000  0 13G15G12G24G19G32G10G25G17E 7E20G 6E30
                                E27
  21825965.656   114696202.748       -3722.942          39.000  
  17165140.198    90203418.574         692.200          44.000  
  18072482.453    94971523.796       -1960.285          46.000  
  19781536.920   103952756.501       -1957.056          44.000  
  19756603.246   103821653.988        2377.815          39.000  
  21550043.441   113246223.709       -2190.110          37.000  
  18439911.236    96902393.681        2896.873          39.000  
  22202084.613   116672737.776       -2965.962          32.000  
  22696298.396   119269852.377       -2614.907          40.000  
  25271553.158   132802906.414        1169.271          33.000  
  21391323.590   112412167.067        2462.252          40.000  
  21694155.565   114003657.516       -1539.930          43.000  
  20542289.796   107950450.432         978.166          39.000  
 23 12  2 15 31 58.9900000  0 13G15G12G24G19G32G10G25G17E 7E20G 6E30
                                E27
  21826672.146   114699925.615       -3722.285          40.000  
  17165008.624    90202726.413         692.025          52.000  
  18072855.504    94973483.978       -1960.354          50.000  
  19781909.726   103954713.662       -1957.636          48.000  
  19756151.041   103819275.720        2378.075          48.000  
  21550461.723   113248413.468       -2190.040          44.000  
  18439359.705    96899496.763        2896.838          47.000  
  22202650.838   116675703.229       -2965.592          36.000  
  22696801.800   119272467.453       -2615.047          44.000  
  25271331.052   132801737.625        1168.268          39.000  
  21390855.052   112409705.025        2462.006          45.000  
  21694449.148   114005197.438       -1540.047          47.000  
  20542103.707   107949471.946         978.383          47.000  
 23 12  2 15 31 59.9900000  0 13G15G12G24G19G32G10G25G17E 7E20G 6E30
                                E27
  21827383.137   114703648.684       -3723.066          41.000  
  17164877.014    90202034.885         691.160          50.000  
  18073228.554    94975444.630       -1961.158          48.000  
  19782282.044   103956671.420       -1958.226          46.000  
  19755698.592   103816898.206        2377.182          47.000  
  21550874.491   113250603.832       -2190.865          43.000  
  18438808.382    96896600.356        2896.202          46.000  
  22203216.992   116678669.069       -2965.964          35.000  
  22697296.514   119275082.795       -2615.687          44.000  
  25271109.294   132800569.421        1167.646          39.000  
  21390386.618   112407243.510        2460.999          43.000  
  21694742.346   114006737.602       -1540.376          46.000  
  20541917.374   107948493.839         977.707          45.000  
 23 12  2 15 32  0.9900000  0 13G15G12G24G19G32G10G25G17E 7E20G 6E30
                                E27
  21828091.756   114707372.073       -3723.890          40.000  
  17164745.579    90201344.123         689.982          46.000  
  18073601.745    94977405.964       -1962.041          46.000  
  19782654.467   103958629.907       -1959.184          44.000  
  19755246.352   103814521.350        2376.100          43.000  
  21551291.446   113252794.658       -2191.239          40.000  
  18438257.130    96893704.501        2895.290          43.000  
  22203785.241   116681635.303       -2967.147          34.000  
  22697794.264   119277698.729       -2616.414          42.000  
  25270887.363   132799401.822        1167.169          36.000  
  21389918.289   112404782.555        2460.127          41.000  
  21695035.126   114008278.150       -1541.081          44.000  
  20541731.145   107947516.230         977.067          42.000  
 23 12  2 15 32  1.9900000  0 13G15G12G24G19G32G10G25G17E 7E20G 6E30
                                E27
  21828798.385   114711095.176       -3722.664          41.000  
  17164614.319    90200653.893         690.302          48.000  
  18073974.796    94979367.642       -1961.314          46.000  
  19783026.575   103960589.067       -1959.815          46.000  
  19754794.112   103812145.136        2376.015          45.000  
  21551708.541   113254985.908       -2191.213          39.000  
  18437705.808    96890809.122        2895.010          44.000  
  22204352.932   116684601.765       -2966.541          33.000  
  22698292.747   119280314.697       -2615.455          43.000  
  25270665.535   132798234.835        1166.928          36.000  
  21389450.100   112402322.078        2460.277          43.000  
  21695328.220   114009818.939       -1540.865          45.000  
  20541544.847   107946538.953         977.861          42.000  
 23 12  2 15 32  2.9900000  0 13G15G12G24G19G32G10G25G17E 7E20G 6E30
                                E27
  21829508.329   114714818.354       -3723.194          40.000  
  17164483.163    90199964.309         689.417          50.000  
  18074348.684    94981329.845       -1962.260          48.000  
  19783399.731   103962548.802       -1960.054          46.000  
  19754341.838   103809769.512        2375.566          47.000  
  21552123.926   113257177.617       -2191.356          41.000  
  18437154.765    96887914.131        2894.861          45.000  
  22204912.490   116687568.509       -2965.685          34.000  
  22698789.485   119282930.979       -2616.169          43.000  
  25270444.057   132797068.313        1166.556          38.000  
  21388981.840   112399862.101        2459.769          43.000  
  21695620.895   114011359.947       -1540.822          46.000  
  20541358.862   107945562.032         977.041          45.000  
 23 12  2 15 32  3.9900000  0 13G15G12G24G19G32G10G25G17E 7E20G 6E30
                                E27
  21830217.262   114718541.337       -3722.982          40.000  
  17164351.867    90199274.973         689.067          50.000  
  18074722.433    94983292.190       -1962.692          48.000  
  19783772.677   103964508.814       -1960.472          46.000  
  19753889.528   103807394.075        2375.215          47.000  
  21552540.916   113259369.367       -2191.813          42.000  
  18436603.966    96885019.248        2894.525          45.000  
  22205476.272   116690535.199       -2966.622          34.000  
  22699287.444   119285547.255       -2616.282          43.000  
  25270222.056   132795901.977        1166.263          38.000  
  21388513.511   112397402.211        2459.510          43.000  
  21695914.163   114012900.881       -1541.100          46.000  
  20541173.157   107944585.131         976.817          45.000  
 23 12  2 15 32  4.9900000  0 13G15G12G24G19G32G10G25G17E 7E20G 6E30
                                E27
  21830925.357   114722264.433       -3718.895          40.000  
  17164220.816    90198586.332         691.774          50.000  
  18075096.251    94985255.058       -1958.804          48.000  
  19784145.483   103966469.519       -1957.118          46.000  
  19753437.847   103805019.312        2378.290          47.000  
  21552957.837   113261561.541       -2188.115          42.000  
  18436053.237    96882124.824        2898.502          45.000  
  22206040.822   116693502.344       -2965.371          34.000  
  22699785.264   119288163.919       -2612.698          43.000  
  25270000.298   132794736.232        1169.631          39.000  
  21388045.497   112394942.839        2463.348          44.000  
  21696207.606   114014442.138       -1537.397          46.000  
  20540987.452   107943608.631         980.881          45.000  
 23 12  2 15 32  5.9900000  0 14G15G12G24G19G32G10G25G17E 7E20G 6G11
                                E30E27
  21831634.185   114725989.094       -3724.474          41.000  
  17164090.254    90197899.751         686.906          50.000  
  18075470.349    94987219.946       -1964.599          48.000  
  19784518.883   103968432.329       -1962.512          46.000  
  19752986.374   103802646.600        2373.068          47.000  
  21553375.072   113263755.660       -2193.840          42.000  
  18435502.823    96879232.373        2892.776          45.000  
  22206605.545   116696471.103       -2969.014          34.000  
  22700283.572   119290782.328       -2618.064          43.000  
  25269779.169   132793572.491        1164.001          39.000  
  21387577.936   112392485.456        2457.697          44.000  
  22710192.619                        3238.419          10.000  
  21696501.468   114015985.110       -1542.545          46.000  
  20540802.095   107942634.014         974.788          45.000  
 23 12  2 15 32  6.9900000  0 14G15G12G24G19G32G10G25G17E 7E20G 6G11
                                E30E27
  21832342.838   114729713.166       -3725.502          41.000  
  17163959.482    90197213.170         685.253          50.000  
  18075844.133    94989184.655       -1966.071          48.000  
  19784892.283   103970395.124       -1964.147          46.000  
  19752534.833   103800273.850        2371.323          47.000  
  21553792.341   113265949.514       -2195.215          42.000  
  18434952.617    96876339.716        2891.205          46.000  
  22207170.095   116699439.535       -2969.643          35.000  
  22700781.846   119293400.414       -2619.550          43.000  
  25269557.761   132792408.649        1162.103          39.000  
  21387110.479   112390027.912        2456.110          44.000  
  22709578.127                        3238.419          11.000  
  21696795.155   114017527.723       -1544.067          46.000  
  20540616.600   107941659.095         973.508          45.000  
 23 12  2 15 32  7.9900000  0 14G15G12G24G19G32G10G25G17E 7E20G 6G11
                                E30E27
  21833051.457   114733436.829       -3723.076          39.000  
  17163828.780    90196526.753         686.472          48.000  
  18076217.951    94991149.408       -1964.375          46.000  
  19785265.857   103972358.107       -1962.773          43.000  
  19752083.430   103797901.244        2372.757          45.000  
  21554209.820   113268143.307       -2193.573          39.000  
  18434402.237    96873447.030        2893.164          43.000  
  22207735.063   116702407.850       -2968.263          32.000  
  22701280.084   119296018.320       -2617.224          41.000  
  25269336.317   132791244.849        1164.220          36.000  
  21386642.988   112387570.394        2457.572          42.000  
  22708963.356                        3238.419          13.000  
  21697088.842   114019070.121       -1541.861          44.000  
  20540431.488   107940684.081         975.581          43.000  
 23 12  2 15 32  8.9900000  0 14G15G12G24G19G32G10G25G17E 7E20G 6G11
                                E30E27
  21833760.808   114737165.053       -3730.901          42.000  
  17163698.880    90195845.414         678.400          50.000  
  18076593.061    94993119.134       -1972.802          48.000  
  19785640.723   103974326.189       -1971.108          46.000  
  19751632.901   103795533.698        2364.517          47.000  
  21554628.172   113270341.999       -2201.567          41.000  
  18433853.044    96870559.281        2884.706          46.000  
  22208300.729   116705380.896       -2976.331          35.000  
  22701779.335   119298641.027       -2625.421          44.000  
  25269116.131   132790086.073        1155.914          39.000  
  21386176.439   112385117.818        2449.569          44.000  
  22708346.212                        3238.419          12.000  
  21697383.402   114020617.263       -1549.797          46.000  
  20540246.934   107939713.929         967.357          45.000  
 23 12  2 15 32  9.9900000  0 14G15G12G24G19G32G10G25G17E 7E20G 6G11
                                E30E27
  21834470.543   114740894.168       -3727.989          42.000  
  17163569.784    90195165.549         680.867          50.000  
  18076968.066    94995090.188       -1970.017          48.000  
  19786015.867   103976295.728       -1968.566          46.000  
  19751182.929   103793167.588        2367.009          47.000  
  21555046.523   113272541.947       -2198.777          41.000  
  18433303.990    96867672.800        2887.555          46.000  
  22208866.640   116708355.101       -2973.244          35.000  
  22702278.970   119301264.838       -2622.255          44.000  
  25268896.083   132788928.637        1159.163          39.000  
  21385710.343   112382666.553        2452.493          45.000  
  22707727.741                        3238.419          11.000  
  21697678.241   114022165.489       -1546.678          46.000  
  20540062.311   107938744.959         970.345          45.000  
 23 12  2 15 32 10.9900000  0 13G15G12G24G19G32G10G25G17E 7E20G 6E30
                                E27
  21835180.348   114744624.405       -3731.305          42.000  
  17163440.861    90194487.350         676.985          50.000  
  18077342.827    94997062.779       -1973.748          48.000  
  19786390.873   103978266.951       -1972.378          46.000  
  19750733.202   103790803.112        2363.274          47.000  
  21555465.329   113274743.352       -2202.598          41.000  
  18432755.356    96864787.831        2883.850          46.000  
  22209432.969   116711357.1043      -2976.723          35.000  
  22702778.674   119303890.054       -2626.542          43.000  
  25268676.141   132787772.845        1154.463          39.000  
  21385244.527   112380216.845        2448.605          45.000  
  21697973.289   114023715.080       -1551.066          46.000  
  20539878.421   107937777.454         966.062          45.000  
 23 12  2 15 32 11.9900000  0 13G15G12G24G19G32G10G25G17E 7E20G 6E30
                                E27
  21835890.747   114748356.433       -3731.369          42.000  
  17163312.532    90193811.494         676.214          50.000  
  18077718.530    94999037.597       -1974.438          48.000  
  19786766.436   103980240.530       -1973.312          46.000  
  19750283.615   103788440.961        2362.551          47.000  
  21555884.588   113276946.886       -2203.242          42.000  
  18432206.895    96861905.026        2883.211          46.000  
  22209999.648   116714334.6812      -2976.833          34.000  
  22703278.937   119306517.249       -2626.546          43.000  
  25268456.722   132786619.255        1153.976          39.000  
  21384778.816   112377769.337        2447.678          45.000  
  21698268.547   114025266.604       -1551.096          46.000  
  20539694.425   107936811.993         965.747          45.000  
 23 12  2 15 32 12.9900000  0 13G15G12G24G19G32G10G25G17E 7E20G 6E30
                                E27
  21836597.899   114752071.417       -3720.551          41.000  
  17163180.748    90193119.165         686.605          49.000  
  18078090.744    95000995.791       -1963.699          47.000  
  19787138.789   103982197.623       -1962.888          45.000  
  19749831.201   103786062.289        2373.093          47.000  
  21556300.566   113279133.720       -2192.433          41.000  
  18431655.259    96859005.552        2893.771          46.000  
  22210563.011   116717295.4022      -2965.913          34.000  
  22703775.291   119309154.6441      -2615.953          43.000  
  25268233.708   132785474.0881       1164.488          38.000  
  21384309.859   112375305.166        2458.544          44.000  
  21698560.035   114026712.2721      -1540.183          46.000  
  20539507.394   107935849.7871        976.522          45.000  
 23 12  2 15 32 13.9900000  0 13G15G12G24G19G32G10G25G17E 7E20G 6E30
                                E27
  21837305.610   114755789.462       -3717.528          41.000  
  17163049.767    90192430.500         688.419          49.000  
  18078463.864    95002957.518       -1961.696          47.000  
  19787511.875   103984158.381       -1960.876          45.000  
  19749379.240   103783687.258        2374.764          47.000  
  21556717.277   113281323.970       -2189.883          41.000  
  18431103.902    96856109.554        2896.040          45.000  
  22211127.036   116720259.4312      -2963.841          34.000  
  22704272.727   119311768.393       -2613.582          43.000  
  25268011.811   132784307.507        1166.486          38.000  
  21383841.495   112372844.515        2460.907          44.000  
  21698853.059   114028250.271       -1537.875          46.000  
  20539321.270   107934871.001         978.962          45.000        
 23 12  2 15 32 14.9900000  0 15G15G12G24G19G32G10G25G17E 7E21E20G 6
                                E19E30E27
  21838010.774   114759495.791       -3703.814          41.000  
  17162916.622    90191730.630         701.507          50.000  
  18078834.856    95004907.913       -1948.442          47.000  
  19787882.552   103986107.954       -1947.808          45.000  
  19748925.081   103781300.991        2387.962          47.000  
  21557131.964   113283502.836       -2177.041          41.000  
  18430550.381    96853202.190        2909.212          45.000  
  22211688.724   116723211.9802      -2950.151          34.000  
  22704767.755                       -2600.211          43.000  
  24069015.517                        2765.334          40.000  
  25267787.960                        1179.656          38.000  
  21383371.072   112370372.550        2473.798          44.000  
  23291134.054                        2211.741          39.000  
  21699143.780                       -1524.237          46.000  
  20539132.494                         992.505          45.000  
 23 12  2 15 32 15.9900000  0 15G15G12G24G19G32G10G25G17E 7E21E20G 6
                                E19E30E27
  21838714.820   114763196.007       -3700.490          41.000  
  17162782.465    90191025.187         704.730          50.000  
  18079205.184    95006852.616       -1945.227          47.000  
  19788252.497   103988051.976       -1944.707          45.000  
  19748470.049   103778909.120        2391.340          47.000  
  21557545.604   113285675.896       -2173.257          41.000  
  18429995.639    96850289.077        2912.708          45.000  
  22212249.609   116726158.6282      -2947.491          34.000  
  22705261.910   119316966.884       -2595.676          43.000  
  24068486.985   126480770.906        2769.016          40.000  
  25267563.166   132781946.079        1182.979          38.000  
  21382899.323   112367894.856        2477.185          44.000  
  23290713.504   122393530.522        2215.212          39.000  
  21699432.755   114031297.177       -1520.614          46.000  
  20538942.740   107932884.693         995.928          45.000  
 23 12  2 15 32 16.9900000  0 15G15G12G24G19G32G10G25G17E 7E21E20G 6
                                E19E30E27
  21839419.250   114766922.3803      -3704.853          41.000  
  17162648.901    90190328.4803        699.686          49.000  
  18079575.966    95008812.4383      -1950.372          47.000  
  19788623.070   103989915.7413      -1949.757          45.000  
  19748015.331   103776520.4713       2386.092          46.000  
  21557959.698   113287842.5433      -2178.875          41.000  
  18429441.908    96847370.5353       2907.548          45.000  
  22212810.808   116729108.1113      -2951.822          34.000  
  22705756.554   119319565.6741      -2601.954          42.000  
  24067961.314   126478000.1431       2763.760          39.000  
  25267338.267   132780769.1831       1177.740          38.000  
  21382428.062   112365419.768        2472.180          43.000  
  23290290.825   122391314.5381       2209.616          38.000  
  21699722.324   114032820.0601      -1526.041          45.000  
  20538754.068   107931891.1251        990.435          44.000  
 23 12  2 15 32 17.9900000  0 15G15G12G24G19G32G10G25G17E 7E21E20G 6
                                E19E30E27
  21840125.251   114770632.8182      -3713.709          41.000  
  17162516.942    90189634.3722        690.441          49.000  
  18079948.354    95010768.2212      -1959.503          47.000  
  19788995.248   103991871.1432      -1959.315          45.000  
  19747562.428   103774139.8952       2376.882          46.000  
  21558375.432   113290026.5292      -2187.416          41.000  
  18428889.958    96844468.4232       2898.527          45.000  
  22213373.927   116732065.4122      -2960.875          34.000  
  22706252.419   119322172.679       -2610.311          42.000  
  24067435.469   126475241.564        2754.815          39.000  
  25267114.974   132779596.798        1168.774          38.000  
  21381958.407   112362953.136        2462.987          43.000  
  23289869.507   122389109.941        2201.050          38.000  
  21700013.534   114034351.162       -1534.530          45.000  
  20538566.304   107930905.887         981.648          44.000  
 23 12  2 15 50 27.9900000  0 17G15G12G24G19G32G10G25G28E 7E21E20G 6
                                G11E19E30E27G29
  22604049.855   118785072.687       -3641.987          39.000  
  17078615.807    89748734.9951        114.962          48.000  
  18530318.651    97377480.749       -2382.474          44.000  
  20252888.765   106429643.441       -2503.179          44.000  
  19314875.449   101500357.1581       1773.157          47.000  
  22043712.719   115840692.7812      -2476.547          26.000  
  17869588.562    93905318.5701       2479.883          46.000  
  22269072.544   117024760.189        3721.557          35.000  
  23269139.242   122280175.058       -2812.544          41.000  
  23509815.995   123544923.813        2612.093          39.000  
  25075953.598   131775036.642         661.370          36.000  
  20919609.025   109933282.9411       1968.085          40.000  
  22045666.689   115850763.5331       3105.612          43.000  
  22873704.185   120202137.680        1793.928          38.000  
  22036298.564   115801542.867       -1708.952          44.000  
  20365964.071   107023871.734         677.342          44.000  
  22143306.556   116363864.2441       4162.508          31.000  
 23 12  2 15 50 28.9900000  0 17G15G12G24G19G32G10G25G28E 7E21E20G 6
                                G11E19E30E27G29
  22604743.013   118788714.682       -3641.846          39.000  
  17078594.029    89748620.224         114.622          48.000  
  18530771.937    97379863.088       -2382.234          44.000  
  20253365.226   106432146.721       -2503.290          44.000  
  19314537.962   101498584.163        1773.041          47.000  
  22044184.293   115843169.3982      -2476.459          26.000  
  17869116.533    93902838.782        2479.810          46.000  
  22268364.344   117021038.793        3721.375          35.000  
  23269674.859   122282987.616       -2812.429          41.000  
  23509319.048   123542311.837        2612.276          39.000  
  25075827.607   131774375.343         661.246          36.000  
  20919234.334   109931315.075        1967.883          40.000  
  22045075.441   115847657.793        3105.865          43.000  
  22873362.754   120200343.989        1793.844          38.000  
  22036623.627   115803251.919       -1708.898          44.000  
  20365835.009   107023194.416         677.457          44.000  
  22142509.500   116359701.660        4162.366          31.000  
 23 12  2 15 50 29.9900000  0 17G15G12G24G19G32G10G25G28E 7E21E20G 6
                                G11E19E30E27G29
  22605436.065   118792356.312       -3641.021          39.000  
  17078572.251    89748505.739         114.641          48.000  
  18531225.050    97382245.579       -2382.135          44.000  
  20253841.931   106434650.247       -2503.300          44.000  
  19314200.649   101496811.545        1772.797          47.000  
  22044653.111   115845646.0892      -2477.229          26.000  
  17868644.575    93900359.186        2479.828          46.000  
  22267656.179   117017317.123        3722.519          35.000  
  23270209.917   122285800.112       -2812.181          41.000  
  23508821.856   123539699.803        2612.055          39.000  
  25075701.651   131773714.286         661.650          36.000  
  20918859.817   109929347.518        1967.670          40.000  
  22044484.472   115844552.013        3106.001          43.000  
  22873022.126   120198550.508        1793.661          38.000  
  22036948.794   115804960.902       -1708.667          44.000  
  20365706.122   107022517.152         677.542          44.000  
  22141719.075   116355518.3593       4163.647          31.000  
 23 12  2 15 50 30.9900000  0 17G15G12G24G19G32G10G25G28E 7E21E20G 6
                                G11E19E30E27G29
  22606129.048   118795997.607       -3641.119          39.000  
  17078550.299    89748391.519         114.080          48.000  
  18531678.406    97384628.167       -2382.666          44.000  
  20254318.322   106437153.928       -2503.730          44.000  
  19313863.546   101495039.254        1772.224          47.000  
  22045122.627   115848122.6192      -2476.608          26.000  
  17868172.581    93897879.734        2479.333          46.000  
  22266947.700   117013595.240        3721.982          35.000  
  23270745.325   122288612.481       -2812.227          41.000  
  23508324.700   123537087.601        2612.241          39.000  
  25075575.801   131773053.484         660.922          36.000  
  20918485.440   109927380.180        1967.187          40.000  
  22043893.503   115841446.116        3106.098          43.000  
  22872681.184   120196757.123        1793.558          38.000  
  22037273.752   115806669.743       -1708.807          44.000  
  20365576.816   107021839.897         677.201          44.000  
  22140926.730   116351355.4082       4161.083          31.000  
 23 12  2 15 50 31.9900000  0 17G15G12G24G19G32G10G25G28E 7E21E20G 6
                                G11E19E30E27G29
  22606821.613   118799638.312       -3640.594          39.000  
  17078529.219    89748277.365         114.121          48.000  
  18532131.379    97387010.684       -2382.291          44.000  
  20254794.748   106439657.647       -2503.859          44.000  
  19313526.513   101493267.121        1772.004          47.000  
  22045590.816   115850598.8902      -2476.066          25.000  
  17867700.693    93895400.246        2479.364          46.000  
  22266239.396   117009872.820        3723.356          35.000  
  23271280.697   122291424.589       -2811.848          41.000  
  23507827.613   123534475.139        2612.260          39.000  
  25075449.845   131772392.713         661.078          36.000  
  20918110.958   109925412.931        1967.218          40.000  
  22043302.255   115838339.965        3106.217          43.000  
  22872339.648   120194963.715        1793.543          38.000  
  22037598.954   115808378.299       -1708.347          44.000  
  20365448.103   107021162.474         677.541          44.000  
  22140131.977   116347191.8882       4163.906          32.000  
 23 12  2 15 50 32.9900000  0 17G15G12G24G19G32G10G25G28E 7E21E20G 6
                                G11E19E30E27G29
  22607514.421   118803278.716       -3640.518          39.000  
  17078507.406    89748163.541         113.438          49.000  
  18532584.596    97389393.369       -2382.806          44.000  
  20255271.208   106442161.590       -2504.116          44.000  
  19313189.444   101491495.384        1771.267          47.000  
  22046056.457   115853075.1812      -2476.580          25.000  
  17867229.013    93892920.952        2478.900          46.000  
  22265531.092   117006150.259        3723.173          35.000  
  23271815.896   122294236.628       -2812.186          41.000  
  23507330.735   123531862.575        2612.697          39.000  
  25075323.994   131771732.243         660.023          36.000  
  20917736.581   109923445.974        1966.327          40.000  
  22042711.111   115835233.779        3106.189          43.000  
  22871998.706   120193170.549        1792.756          38.000  
  22037924.506   115810086.794       -1708.460          44.000  
  20365319.495   107020485.135         677.134          44.000  
  22139341.413   116343028.2502       4163.078          31.000  
 23 12  2 15 50 33.9900000  0 17G15G12G24G19G32G10G25G28E 7E21E20G 6
                                G11E19E30E27G29
  22608206.985   118806918.337       -3638.874          39.000  
  17078486.186    89748049.575         114.498          49.000  
  18533037.918    97391775.771       -2381.952          44.000  
  20255747.704   106444665.341       -2503.216          44.000  
  19312851.957   101489723.583        1772.075          47.000  
  22046523.670                       -2474.731          24.000  
  17866756.880    93890441.406        2480.109          46.000  
  22264822.648   117002427.065        3723.941          35.000  
  23272351.164   122297048.191       -2811.074          41.000  
  23506833.788   123529249.520        2613.645          39.000  
  25075198.632   131771071.574         661.056          36.000  
  20917362.274   109921478.879        1967.706          40.000  
  22042119.688   115832127.106        3107.283          43.000  
  22871657.135   120191377.081        1793.831          38.000  
  22038249.499   115811794.793       -1707.357          44.000  
  20365190.329   107019807.418         678.400          44.000  
  22138550.220   116338863.8852       4166.058          31.000  
 23 12  2 15 50 34.9900000  0 17G15G12G24G19G32G10G25G28E 7E21E20G 6
                                G11E19E30E27G29
  22608899.131   118810556.107       -3636.832          39.000  
  17078464.234    89747934.387         115.560          49.000  
  18533491.065    97394156.780       -2380.487          44.000  
  20256224.130   106447167.805       -2502.089          44.000  
  19312514.679   101487950.623        1773.418          47.000  
  22046991.335                       -2473.529          24.000  
  17866284.922    93887960.522        2481.519          46.000  
  22264113.611   116998702.086        3725.651          35.000  
  23272886.013   122299858.135       -2809.195          42.000  
  23506336.526   123526634.854        2615.348          39.000  
  25075072.571   131770409.635         662.680          36.000  
  20916987.688   109919510.556        1968.872          39.000  
  22041528.405   115829018.848        3109.031          43.000  
  22871315.529   120189582.290        1795.178          38.000  
  22038574.457   115813501.177       -1705.673          44.000  
  20365061.267   107019128.216         679.766          44.000  
  22137757.177   116334697.9062       4166.859          32.000  
 23 12  2 15 50 35.9900000  0 17G15G12G24G19G32G10G25G28E 7E21E20G 6
                                G11E19E30E27G29
  22609591.172   118814192.676       -3637.534          39.000  
  17078442.561    89747818.592         114.865          49.000  
  18533944.247    97396537.040       -2381.191          44.000  
  20256700.311   106449669.580       -2502.807          44.000  
  19312177.297   101486177.147        1772.433          47.000  
  22047461.235                       -2472.734          25.000  
  17865812.509    93885478.927        2480.719          46.000  
  22263404.713   116994975.965        3725.786          35.000  
  23273420.513   122302667.138       -2809.760          42.000  
  23505839.265   123524019.219        2614.758          39.000  
  25074946.685   131769747.111         661.172          36.000  
  20916613.171   109917541.629        1967.853          39.000  
  22040936.843   115825909.648        3108.428          43.000  
  22870973.680   120187786.769        1794.595          38.000  
  22038898.647   115815206.589       -1706.053          44.000  
  20364931.681   107018448.180         679.077          44.000  
  22136966.368   116330530.7452       4166.531          32.000  
 23 12  2 15 50 36.9900000  0 17G15G12G24G19G32G10G25G28E 7E21E20G 6
                                G11E19E30E27G29
  22610283.177   118817828.631       -3635.366          39.000  
  17078420.539    89747702.837         116.108          49.000  
  18534397.430    97398917.177       -2379.807          44.000  
  20257176.528   106452171.325       -2501.354          45.000  
  19311839.984   101484403.783        1773.714          47.000  
  22047937.137                       -2471.826          26.000  
  17865340.306    93882997.257        2481.958          46.000  
  22262695.745   116991249.364        3727.245          35.000  
  23273955.467   122305475.795       -2808.273          42.000  
  23505341.480   123521403.231        2616.588          39.000  
  25074820.590   131769084.514         662.697          36.000  
  20916238.410   109915572.709        1968.951          39.000  
  22040345.246   115822800.129        3109.808          43.000  
  22870631.935   120185991.185        1795.962          38.000  
  22039223.151   115816911.669       -1704.511          44.000  
  20364802.375   107017767.935         680.531          44.000  
  22136168.614   116326362.6591       4167.956          32.000  
 23 12  2 15 50 37.9900000  0 17G15G12G24G19G32G10G25G28E 7E21E20G 6
                                G11E19E30E27G29
  22610974.974   118821463.522       -3634.646          39.000  
  17078398.412    89747586.633         116.222          49.000  
  18534850.751    97401296.714       -2379.390          45.000  
  20257652.639   106454672.549       -2500.886          44.000  
  19311502.497   101482630.047        1773.740          47.000  
  22048416.355   115865163.2503      -2471.495          27.000  
  17864868.348    93880515.020        2482.404          46.000  
  22261986.254   116987521.806        3728.111          35.000  
  23274489.827   122308283.648       -2807.592          42.000  
  23504843.067   123518786.402        2617.258          39.000  
  25074694.460   131768421.449         663.333          36.000  
  20915863.580   109913603.338        1969.818          39.000  
  22039753.334   115819689.828        3110.699          43.000  
  22870290.120   120184195.056        1796.174          38.000  
  22039547.201   115818615.929       -1703.984          44.000  
  20364672.755   107017086.989         681.106          44.000  
  22135378.364   116322194.054        4169.808          32.000  
 23 12  2 15 50 38.9900000  0 17G15G12G24G19G32G10G25G28E 7E21E20G 6
                                G11E19E30E27G29
  22611666.386   118825097.314       -3633.215          39.000  
  17078376.180    89747469.962         117.020          49.000  
  18535303.829    97403675.642       -2378.545          45.000  
  20258128.472   106457173.255       -2500.383          44.000  
  19311164.695   101480855.927        1774.493          47.000  
  22048892.851   115867634.8732      -2470.707          27.000  
  17864395.761    93878032.214        2483.124          46.000  
  22261276.729   116983793.267        3728.826          35.000  
  23275024.013   122311090.660       -2806.210          42.000  
  23504345.212   123516168.748        2618.339          39.000  
  25074568.399   131767757.900         664.328          36.000  
  20915488.575   109911633.495        1970.276          39.000  
  22039161.458   115816578.707        3111.651          43.000  
  22869948.270   120182398.315        1797.344          38.000  
  22039871.741   115820319.346       -1702.742          44.000  
  20364542.960   107016405.336         682.284          45.000  
  22134583.087   116318024.535        4170.511          32.000  
 23 12  2 15 50 39.9900000  0 17G15G12G24G19G32G10G25G28E 7E21E20G 6
                                G11E19E30E27G29
  22612357.520   118828730.033       -3632.318          39.000  
  17078353.739    89747352.869         117.261          49.000  
  18535756.592    97406053.958       -2378.042          45.000  
  20258604.095   106459673.429       -2499.777          44.000  
  19310826.999   101479081.434        1774.680          47.000  
  22049365.821   115870105.6652      -2470.400          28.000  
  17863923.419    93875548.843        2483.667          46.000  
  22260566.889   116980063.716        3730.340          35.000  
  23275558.479   122313896.872       -2805.748          42.000  
  23503846.939   123513550.287        2618.671          39.000  
  25074442.374   131767093.865         664.351          36.000  
  20915113.639   109909663.178        1970.721          39.000  
  22038569.476   115813466.780        3112.515          43.000  
  22869606.525   120180601.042        1797.291          38.000  
  22040195.721   115822021.946       -1702.165          44.000  
  20364413.480   107015723.006         682.598          45.000  
  22133790.010   116313854.086        4170.497          32.000  
 23 12  2 15 50 40.9900000  0 17G15G12G24G19G32G10G25G28E 7E21E20G 6
                                G11E19E30E27G29
  22613048.653   118832361.516       -3630.896          39.000  
  17078331.368    89747235.191         117.788          49.000  
  18536209.076    97408431.549       -2377.158          45.000  
  20259079.928   106462172.969       -2499.347          45.000  
  19310489.372   101477306.447        1775.109          47.000  
  22049839.560   115872575.6212      -2469.518          28.000  
  17863450.832    93873064.784        2484.283          46.000  
  22259856.735   116976333.070        3731.009          35.000  
  23276092.141   122316702.142       -2804.821          42.000  
  23503348.456   123510930.843        2619.806          39.000  
  25074315.755   131766429.235         664.813          36.000  
  20914738.250   109907692.312        1970.837          39.000  
  22037977.495   115810353.947        3113.222          43.000  
  22869264.675   120178803.036        1798.319          38.000  
  22040519.493   115823723.596       -1701.352          44.000  
  20364283.092   107015039.843         683.475          44.000  
  22132995.676   116309682.490        4172.453          32.000  
 23 12  2 15 50 41.9900000  0 17G15G12G24G19G32G10G25G28E 7E21E20G 6
                                G11E19E30E27G29
  22613739.053   118835990.606       -3628.429          39.000  
  17078308.543    89747115.730         119.689          49.000  
  18536661.142    97410807.217       -2375.597          45.000  
  20259554.958   106464670.640       -2497.253          45.000  
  19310151.082   101475529.741        1776.926          47.000  
  22050313.368   115875043.4532      -2467.400          27.000  
  17862977.721    93870578.805        2486.462          46.000  
  22259146.546   116972600.145        3732.973          35.000  
  23276625.315   122319505.280       -2803.106          42.000  
  23502849.380   123508309.252        2621.344          39.000  
  25074188.962   131765762.801         666.021          36.000  
  20914363.001   109905719.621        1972.968          39.000  
  22037384.711   115807238.959        3115.405          43.000  
  22868922.127   120177003.144        1800.063          38.000  
  22040842.566   115825423.079       -1699.309          44.000  
  20364152.599   107014354.668         685.000          45.000  
  22132202.145   116305508.626        4174.600          32.000  
 23 12  2 15 50 42.9900000  0 17G15G12G24G19G32G10G25G28E 7E21E20G 6
                                G11E19E30E27G29
  22614429.140   118839615.940       -3626.033          39.000  
  17078285.404    89746993.123         121.448          49.000  
  18537112.718    97413179.553       -2373.159          44.000  
  20260029.952   106467165.098       -2495.438          44.000  
  19309812.408   101473749.954        1778.821          47.000  
  22050782.256                       -2462.837          26.000  
  17862503.913    93868089.595        2488.257          46.000  
  22258435.240   116968863.482        3736.346          35.000  
  23277157.826   122322304.859       -2800.256          42.000  
  23502349.780   123505684.073        2624.595          39.000  
  25074061.715   131765093.121         668.662          36.000  
  20913987.193   109903743.781        1974.786          39.000  
  22036791.264   115804120.485        3117.609          43.000  
  22868579.126   120175200.007        1801.929          38.000  
  22041165.639   115827119.026       -1696.612          44.000  
  20364021.408   107013666.064         687.700          45.000  
  22131407.985   116301331.154        4176.912          32.000  
 23 12  2 15 50 43.9900000  0 16G15G12G24G19G32G25G28E 7E21E20G 6G11
                                E19E30E27G29
  22615119.645   118843244.563       -3627.281          39.000  
  17078263.033    89746874.459         119.948          49.000  
  18537564.470    97415555.707       -2375.074          44.000  
  20260505.157   106469663.430       -2497.076          44.000  
  19309474.537   101471974.217        1776.774          47.000  
  17862030.838    93865604.190        2486.646          46.000  
  22257724.842   116965130.298        3734.710          35.000  
  23277691.209   122325108.078       -2802.204          42.000  
  23501851.088   123503062.544        2622.578          39.000  
  25073935.166   131764427.390         666.683          36.000  
  20913612.222   109901771.875        1973.175          39.000  
  22036198.655   115801005.611        3116.029          44.000  
  22868236.683   120173400.700        1799.886          38.000  
  22041489.376   115828818.590       -1698.301          44.000  
  20363891.544   107012981.213         685.757          45.000  
  22130615.501   116297157.031        4175.875          32.000  
 23 12  2 15 50 44.9900000  0 16G15G12G24G19G32G25G28E 7E21E20G 6G11
                                E19E30E27G29
  22615809.696   118846871.810       -3628.407          39.000  
  17078239.894    89746755.057         118.272          49.000  
  18538015.942    97417930.941       -2376.271          44.000  
  20260980.222   106472160.930       -2498.431          44.000  
  19309136.247   101470197.767        1775.312          47.000  
  17861557.727    93863117.933        2485.156          46.000  
  22257014.513   116961395.838        3733.260          35.000  
  23278224.174   122327910.110       -2802.911          42.000  
  23501352.046   123500439.835        2621.513          39.000  
  25073808.512   131763760.843         665.399          36.000  
  20913237.392   109899799.199        1971.472          39.000  
  22035605.766   115797889.614        3115.083          44.000  
  22867893.821   120171600.477        1798.861          38.000  
  22041812.484   115830516.994       -1699.562          44.000  
  20363761.086   107012295.320         684.745          45.000  
  22129819.841   116292981.775        4173.492          32.000  
 23 12  2 15 50 45.9900000  0 16G15G12G24G19G32G25G28E 7E21E20G 6G11
                                E19E30E27G29
  22616500.376   118850501.447       -3633.047          39.000  
  17078217.767    89746638.693         112.679          49.000  
  18538468.391    97420309.067       -2381.758          44.000  
  20261455.984   106474661.412       -2504.275          44.000  
  19308798.725   101468424.463        1769.350          47.000  
  17861084.931    93860634.600        2479.633          46.000  
  22256304.359   116957663.836        3728.559          35.000  
  23278757.941   122330714.849       -2808.260          42.000  
  23500853.459   123497819.774        2616.512          40.000  
  25073681.859   131763097.286         660.354          36.000  
  20912862.701   109897829.562        1965.741          40.000  
  22035013.331   115794776.323        3109.730          43.000  
  22867551.552   120169803.216        1793.656          38.000  
  22042135.871   115832218.062       -1704.670          44.000  
  20363631.047   107011612.229         679.402          44.000  
  22129026.345   116288808.946        4169.125          32.000  
 23 12  2 15 50 46.9900000  0 17G15G12G24G19G32G10G25G28E 7E21E20G 6
                                G11E19E30E27G29
  22617191.439   118854133.775       -3628.647          39.000  
  17078196.373    89746525.639         116.250          49.000  
  18538921.084    97422690.361       -2377.930          44.000  
  20261932.375   106477165.145       -2500.569          44.000  
  19308462.041   101466654.530        1773.021          46.000  
  22052636.760                       -2471.047          26.000  
  17860613.217    93858154.464        2483.484          46.000  
  22255594.414   116953934.664        3732.882          35.000  
  23279292.127   122333522.537       -2804.204          41.000  
  23500355.394   123495202.670        2620.699          39.000  
  25073555.973   131762437.035         663.668          36.000  
  20912488.952   109895863.245        1969.525          40.000  
  22034421.385   115791665.991        3113.944          43.000  
  22867210.226   120168009.190        1797.469          38.000  
  22042460.131   115833922.080       -1700.593          44.000  
  20363501.636   107010932.216         683.426          44.000  
  22128232.639   116284638.936        4173.745          32.000  
 23 12  2 15 50 47.9900000  0 16G15G12G24G19G32G25G28E 7E21E20G 6G11
                                E19E30E27G29
  22617882.433   118857764.999       -3631.399          39.000  
  17078174.386    89746412.096         113.173          49.000  
  18539374.092    97425071.009       -2381.053          44.000  
  20262408.592   106479668.311       -2503.874          44.000  
  19308125.286   101464884.190        1769.961          46.000  
  17860140.874    93855673.740        2480.341          46.000  
  22254884.574   116950204.479        3730.069          35.000  
  23279826.313   122336329.359       -2806.538          41.000  
  23499857.191   123492584.657        2618.604          39.000  
  25073430.401   131761776.240         661.354          36.000  
  20912114.750   109893896.402        1966.534          40.000  
  22033829.369   115788554.825        3111.018          43.000  
  22866868.411   120166214.529        1794.577          38.000  
  22042784.287   115835625.216       -1702.864          44.000  
  20363372.086   107010251.448         681.219          44.000  
  22127439.282   116280467.961        4170.893          33.000  
 23 12  2 15 50 48.9900000  0 16G15G12G24G19G32G25G28E 7E21E20G 6G11
                                E19E30E27G29
  22618573.741   118861396.772       -3634.236          39.000  
  17078153.411    89746299.744         109.404          49.000  
  18539827.030    97427452.699       -2384.485          44.000  
  20262885.017   106482172.589       -2507.104          44.000  
  19307788.672   101463115.128        1766.224          46.000  
  17859669.021    93853194.100        2476.770          46.000  
  22254174.769   116946474.935        3727.487          35.000  
  23280360.185   122339137.062       -2810.799          41.000  
  23499358.882   123489967.550        2614.035          39.000  
  25073304.864   131761116.665         656.347          36.000  
  20911740.512   109891930.790        1962.579          40.000  
  22033237.144   115785444.507        3107.836          43.000  
  22866527.085   120164420.977        1790.617          38.000  
  22043108.512   115837329.226       -1707.095          44.000  
  20363242.884   107009571.692         676.798          44.000  
  22126645.856   116276297.673        4167.616          32.000  
 23 12  2 15 50 49.9900000  0 17G15G12G24G19G32G10G25G28E 7E21E20G 6
                                G11E19E30E27G29
  22619266.235   118865036.473       -3648.963          39.000  
  17078133.343    89746195.934          94.032          49.000  
  18540281.713    97429842.805       -2400.028          44.000  
  20263363.084   106484685.366       -2522.510          44.000  
  19307453.697   101461354.699        1750.418          47.000  
  22054064.781                       -2471.535          25.000  
  17859198.737    93850722.887        2461.548          46.000  
  22253466.814   116942753.505        3711.364          35.000  
  23280896.465                       -2825.882          41.000  
  23498861.900                        2598.595          39.000  
  25073180.898                         640.757          36.000  
  20911367.741   109889973.680        1947.424          40.000  
  22032646.803   115782342.422        3092.299          43.000  
  22866187.574                        1774.388          38.000  
  22043433.749                       -1722.149          44.000  
  20363115.044                         661.103          44.000  
  22125853.790   116272135.428        4152.917          33.000  
 23 12  2 15 50 50.9900000  0 17G15G12G24G19G32G10G25G28E 7E21E20G 6
                                G11E19E30E27G29
  22619959.567   118868679.803       -3624.602          39.000  
  17078114.916    89746096.388         117.626          48.000  
  18540737.303    97432236.981       -2375.936          44.000  
  20263841.987   106487202.328       -2499.147          44.000  
  19307119.421   101459598.589        1774.232          46.000  
  22054527.631                       -2481.667          25.000  
  17858728.977    93848255.844        2484.650          46.000  
  22252759.312   116939035.698        3736.652          35.000  
  23281432.780                       -2800.854          41.000  
  23498366.174                        2624.130          39.000  
  25073057.943                         665.134          36.000  
  20910996.086   109888020.850        1970.825          40.000  
  22032057.020   115779244.200        3116.520          43.000  
  22865848.725                        1799.286          38.000  
  22043760.591                       -1697.244          44.000  
  20362987.692                         686.549          44.000  
  22125062.493                        4176.172          33.000  
 23 12  2 15 50 51.9900000  0 16G15G12G24G19G32G25G28E 7E21E20G 6G11
                                E19E30E27G29
  22620649.968   118872307.836       -3619.792          39.000  
  17078092.824    89745982.156         122.199          49.000  
  18541190.276    97434616.350       -2371.318          44.000  
  20264317.855   106489704.535       -2494.114          44.000  
  19306782.597   101457827.898        1778.595          46.000  
  17858256.635    93845773.961        2490.082          46.000  
  22252048.879   116935302.750        3741.577          35.000  
  23281966.792   122347577.353       -2796.527          41.000  
  23497867.308   123482133.289        2628.197          39.000  
  25072932.232   131759157.067         669.355          36.000  
  20910621.220   109886053.309        1975.586          40.000  
  22031464.690   115776130.978        3121.543          43.000  
  22865506.701   120159059.080        1803.684          38.000  
  22044083.909   115842458.383       -1693.016          44.000  
  20362857.723   107007550.347         690.518          44.000  
  22124268.508   116263803.251        4182.228          33.000  
 23 12  2 15 50 52.9900000  0 16G15G12G24G19G32G25G28E 7E21E20G 6G11
                                E19E30E27G29
  22621339.286                       -3615.190          39.000  
  17078070.627                         126.133          49.000  
  18541642.655                       -2367.103          44.000  
  20264793.234                       -2489.716          44.000  
  19306444.761                        1782.663          47.000  
  17857784.083                        2494.031          46.000  
  22251337.608                        3746.216          35.000  
  23282499.652                       -2793.639          41.000  
  23497367.952                        2631.834          39.000  
  25072805.229                         671.507          36.000  
  20910245.866                        1979.504          40.000  
  22030871.767                        3125.703          43.000  
  22865164.049                        1806.129          38.000  
  22044406.738                       -1689.887          44.000  
  20362726.986                         692.784          44.000  
  22123473.336                        4186.298          33.000  
 23 12  2 15 50 53.9900000  0 16G15G12G24G19G32G25G28E 7E21E20G 6G11
                                E19E30E27G29
  22622028.919   118879561.8213      -3624.121          39.000  
  17078048.186    89745748.0073        116.513          49.000  
  18542095.209    97439363.9463      -2376.736          45.000  
  20265268.647   106494704.5733      -2499.490          44.000  
  19306107.169   101454277.0513       1772.768          47.000  
  17857311.182    93840802.2393       2484.406          46.000  
  22250626.267   116927829.5903       3736.600          35.000  
  23283032.337                       -2801.862          41.000  
  23496868.422   123476886.6491       2623.057          39.000  
  25072678.750   131757826.5811        663.667          36.000  
  20909870.617   109882111.0533       1969.836          39.000  
  22030278.808   115769893.7913       3116.479          43.000  
  22864821.291   120155458.0451       1797.762          38.000  
  22044729.218   115845845.0621      -1698.223          44.000  
  20362596.633   107006175.6831        684.577          44.000  
  22122678.200   116255457.2283       4177.267          33.000  
 23 12  2 15 50 54.9900000  0 16G15G12G24G19G32G25G28E 7E21E20G 6G11
                                E19E30E27G29
  22622717.679                       -3622.070          38.000  
  17078025.291                         119.238          49.000  
  18542547.030                       -2373.682          45.000  
  20265743.503                       -2497.607          44.000  
  19305768.600                        1774.854          46.000  
  17856838.037                        2487.354          46.000  
  22249914.054                        3739.355          35.000  
  23283564.604                       -2800.950          41.000  
  23496368.578                        2624.434          39.000  
  25072551.887                         664.198          36.000  
  20909494.739                        1972.070          39.000  
  22029684.907                        3117.725          42.000  
  22864478.325                        1798.733          38.000  
  22045052.082                       -1696.658          44.000  
  20362465.721                         687.446          44.000  
  22121882.156                        4180.158          33.000  
 23 12  2 15 50 55.9900000  0 16G15G12G24G19G32G25G28E 7E21E20G 6G11
                                E19E30E27G29
  22623405.741                       -3627.501          38.000  
  17078002.152                         112.291          49.000  
  18542998.363                       -2380.923          45.000  
  20266217.800                       -2503.795          44.000  
  19305430.100                        1768.193          46.000  
  17856364.194                        2480.493          46.000  
  22249201.457                        3733.511          35.000  
  23284096.102                       -2805.509          41.000  
  23495867.547                        2619.050          39.000  
  25072424.082                         659.443          36.000  
  20909118.477                        1966.187          39.000  
  22029090.553                        3112.920          43.000  
  22864134.730                        1793.372          38.000  
  22045374.178                       -1702.009          44.000  
  20362333.902                         680.924          44.000  
  22121083.006                        4173.523          33.000  
 23 12  2 15 50 56.9900000  0 16G15G12G24G19G32G25G28E 7E21E20G 6G11
                                E19E30E27G29
  22624096.002   118890427.5223      -3626.285          38.000  
  17077980.898    89745395.4613        112.741          49.000  
  18543452.138    97446495.8673      -2380.018          45.000  
  20266694.540   106502198.5833      -2503.393          44.000  
  19305094.114   101448952.5733       1768.716          46.000  
  17855892.514    93833348.0103       2480.847          46.000  
  22248491.373   116916610.1053       3733.808          35.000  
  23284630.114   122361566.9001      -2803.966          41.000  
  23495368.960   123469008.295        2620.777          39.000  
  25072298.964   131755829.020         660.481          36.000  
  20908744.414   109876194.5823       1965.625          39.000  
  22028498.537   115760540.6463       3113.111          43.000  
  22863793.753   120150056.0111       1794.942          38.000  
  22045698.333   115850936.2061      -1700.260          44.000  
  20362204.492   107004116.2461        682.352          44.000  
  22120289.963   116242902.8543       4174.202          33.000  
 23 12  2 15 50 57.9900000  0 16G15G12G24G19G32G25G28E 7E21E20G 6G11
                                E19E30E27G29
  22624786.193   118894054.5102      -3627.425          38.000  
  17077959.853    89745283.9272        110.880          49.000  
  18543905.355    97448877.0152      -2381.724          45.000  
  20267171.140   106504703.0802      -2505.109          44.000  
  19304757.988   101447185.0502       1766.739          46.000  
  17855420.660    93830868.1872       2479.236          46.000  
  22247780.800   116912876.7132       3732.808          35.000  
  23285164.091   122364372.154       -2806.182          41.000  
  23494870.582   123466388.581        2618.980          39.000  
  25072173.392   131755169.940         657.763          36.000  
  20908370.421   109874229.6862       1964.355          40.000  
  22027906.277   115757428.0432       3112.038          43.000  
  22863452.741   120148262.261        1792.709          38.000  
  22046022.349   115852637.681       -1702.312          44.000  
  20362074.627   107003435.112         680.355          44.000  
  22119492.593   116238728.8352       4173.799          33.000  
 23 12  2 15 50 58.9900000  0 16G15G12G24G19G32G25G28E 7E21E20G 6G11
                                E19E30E27G29
  22625476.419   118897680.2482      -3623.248          38.000  
  17077938.284    89745171.7972        114.420          49.000  
  18544358.712    97451257.4142      -2377.935          45.000  
  20267647.740   106507206.9252      -2501.515          44.000  
  19304421.373   101445416.9972       1770.386          46.000  
  17854948.388    93828387.6682       2482.837          46.000  
  22247070.262   116909142.1992       3736.843          35.000  
  23285697.404   122367176.369       -2801.198          41.000  
  23494371.889   123463767.847        2623.876          39.000  
  25072048.064   131754510.185         661.976          36.000  
  20907996.603   109872264.2442       1967.432          40.000  
  22027313.562   115754314.5142       3116.073          43.000  
  22863111.414   120146467.781        1797.381          38.000  
  22046345.806   115854338.135       -1697.487          44.000  
  20361944.867   107002753.103         684.998          44.000  
  22118702.935   116234553.7712       4177.823          34.000  
 23 12  2 15 50 59.9900000  0 17G15G12G24G19G32G10G25G28E 7E21E20G 6
                                G11E19E30E27G29
  22626165.877   118901304.1002      -3623.166          38.000  
  17077916.856    89745058.3932        113.513          49.000  
  18544811.301    97453636.3852      -2378.633          45.000  
  20268124.027   106509709.4212      -2502.270          44.000  
  19304084.723   101443647.7672       1769.207          47.000  
  22058749.013                       -2470.844          27.000  
  17854475.940    93825905.7602       2481.964          46.000  
  22246359.270   116905405.8502       3737.125          35.000  
  23286230.788   122369979.014       -2802.000          41.000  
  23493872.604   123461145.515        2622.982          39.000  
  25071922.248   131753849.150         661.101          36.000  
  20907622.784   109870297.4712       1966.980          40.000  
  22026720.918   115751199.3502       3115.408          43.000  
  22862769.599   120144671.966        1796.337          38.000  
  22046669.368   115856036.991       -1698.449          44.000  
  20361815.107   107002069.626         683.882          44.000  
  22117908.078   116230376.8922       4177.521          34.000  
 23 12  2 15 51  0.9900000  0 16G15G12G24G19G32G25G28E 7E21E20G 6G11
                                E19E30E27G29
  22626856.173   118904931.2022      -3628.511          38.000  
  17077895.950    89744948.8602        107.730          49.000  
  18545264.448    97456019.1022      -2384.423          45.000  
  20268600.906   106512215.7342      -2508.101          44.000  
  19303748.737   101441882.4812       1763.402          47.000  
  17854003.982    93823427.6072       2476.294          46.000  
  22245649.221   116901672.9232       3730.985          35.000  
  23286764.974   122372785.174       -2808.050          41.000  
  23493374.260   123458526.676        2617.309          39.000  
  25071797.200   131753191.943         655.402          36.000  
  20907249.385   109868334.6012       1960.846          40.000  
  22026129.077   115748087.7322       3109.740          43.000  
  22862428.483   120142879.889        1790.060          38.000  
  22046993.733   115857739.339       -1704.012          44.000  
  20361686.081   107001389.780         678.003          44.000  
  22117113.570   116226203.4162       4172.436          34.000  
 23 12  2 15 51  1.9900000  0 17G15G12G24G19G32G10G25G28E 7E21E20G 6
                                G11E19E30E27G29
  22627546.643   118908559.6032      -3625.033          38.000  
  17077875.394    89744841.2522        110.849          49.000  
  18545717.770    97458403.5792      -2381.467          44.000  
  20269077.821   106514723.8862      -2505.036          44.000  
  19303413.134   101440119.2152       1766.332          47.000  
  22059720.606                       -2470.044          27.000  
  17853532.826    93820951.2792       2479.468          46.000  
  22244939.067   116897941.3802       3734.585          36.000  
  23287299.125   122375592.860       -2804.462          41.000  
  23492876.266   123455909.359        2620.658          39.000  
  25071673.024   131752536.608         658.593          36.000  
  20906876.508   109866373.6582       1964.062          40.000  
  22025537.200   115744977.6822       3113.234          43.000  
  22862088.238   120141089.618        1793.453          38.000  
  22047317.853   115859443.229       -1700.715          44.000  
  20361557.158   107000711.592         681.325          44.000  
  22116319.445   116222031.3842       4175.551          33.000  
 23 12  2 15 51  2.9900000  0 17G15G12G24G19G32G10G25G28E 7E21E20G 6
                                G11E19E30E27G29
  22628237.043   118912188.1392      -3632.173          38.000  
  17077855.431    89744734.4232        102.929          49.000  
  18546171.266    97460788.6802      -2388.931          44.000  
  20269555.259   106517232.7682      -2512.849          44.000  
  19303077.776   101438356.7962       1758.327          47.000  
  22060188.621                       -2478.103          27.000  
  17853061.530    93818475.6032       2471.783          46.000  
  22244228.913   116894210.0622       3727.628          35.000  
  23287833.730   122378400.973       -2811.898          41.000  
  23492377.993   123453292.469        2613.244          39.000  
  25071548.744   131751882.054         650.756          36.000  
  20906504.016   109864413.4702       1956.488          40.000  
  22024945.254   115741868.0632       3105.984          42.000  
  22861747.470   120139300.002        1785.798          38.000  
  22047642.113   115861147.525       -1707.962          44.000  
  20361428.062   107000033.953         673.785          44.000  
  22115525.704   116217859.5702       4168.557          33.000  
 23 12  2 15 51  3.9900000  0 17G15G12G24G19G32G10G25G28E 7E21E20G 6
                                G11E19E30E27G29
  22628927.199   118915815.7292      -3626.184          38.000  
  17077834.979    89744627.2882        108.045          49.000  
  18546624.797    97463173.3212      -2383.646          44.000  
  20270032.557   106519741.2602      -2507.576          44.000  
  19302742.383   101436594.1422       1763.659          47.000  
  22060652.099   115929561.0973      -2472.825          27.000  
  17852590.340    93815999.5172       2477.216          46.000  
  22243518.759   116890477.9332       3733.422          35.000  
  23288367.602   122381208.422       -2806.484          41.000  
  23491879.789   123450674.890        2618.488          39.000  
  25071423.940   131751227.142         655.831          36.000  
  20906131.489   109862452.9972       1961.377          40.000  
  22024353.482   115738757.8052       3111.337          42.000  
  22861407.017   120137510.018        1790.932          37.000  
  22047966.199   115862851.138       -1702.407          44.000  
  20361298.930   106999355.761         679.172          44.000  
  22114731.789   116213687.0182       4173.666          34.000  
 23 12  2 15 51  4.9900000  0 17G15G12G24G19G32G10G25G28E 7E21E20G 6
                                G11E19E30E27G29
  22629616.832   118919440.9582      -3624.028          38.000  
  17077814.597    89744518.4182        109.943          49.000  
  18547077.944    97465556.0862      -2381.615          44.000  
  20270509.436   106522247.9462      -2505.593          44.000  
  19302406.292   101434829.8432       1765.372          47.000  
  22061123.290   115932032.1882      -2468.732          27.000  
  17852119.044    93813521.5882       2478.937          46.000  
  22242808.186   116886743.5672       3735.532          36.000  
  23288901.229   122384013.756       -2804.026          41.000  
  23491381.027   123448055.180        2621.079          39.000  
  25071298.822   131750570.472         657.733          36.000  
  20905758.228   109860490.7722       1963.062          40.000  
  22023760.908   115735645.4732       3113.499          42.000  
  22861065.935   120135718.175        1792.755          37.000  
  22048289.970   115864552.658       -1700.174          44.000  
  20361169.170   106998675.592         681.327          44.000  
  22113937.421   116209512.1752       4176.423          33.000  
 23 12  2 15 51  5.9900000  0 17G15G12G24G19G32G10G25G28E 7E21E20G 6
                                G11E19E30E27G29
  22630306.779   118923066.2132      -3624.671          38.000  
  17077793.587    89744410.1912        108.702          49.000  
  18547531.301    97467939.3452      -2382.871          44.000  
  20270986.421   106524755.2022      -2506.779          44.000  
  19302070.584   101433066.2742       1764.072          46.000  
  22061595.004                       -2471.056          27.000  
  17851647.470    93811044.2022       2477.820          46.000  
  22242097.648   116883009.3022       3734.947          36.000  
  23289435.415   122386819.386       -2805.136          41.000  
  23490882.788   123445435.749        2620.240          39.000  
  25071173.669   131749914.405         656.651          36.000  
  20905384.968   109858529.1772       1961.999          40.000  
  22023168.577   115732533.4292       3112.534          42.000  
  22860724.957   120133926.857        1791.655          37.000  
  22048613.357   115866254.441       -1701.049          44.000  
  20361039.724   106997995.827         680.347          44.000  
  22113143.122   116205337.4802       4175.278          33.000  
 23 12  2 15 51  6.9900000  0 17G15G12G24G19G32G10G25G28E 7E21E20G 6
                                G11E19E30E27G29
  22630997.214   118926693.8091      -3652.555          38.000  
  17077773.938    89744305.458          80.243          49.000  
  18547985.565    97470325.4451      -2411.376          44.000  
  20271464.382   106527265.3831      -2535.141          44.000  
  19301735.715   101431305.7701       1735.514          46.000  
  22062058.831                       -2467.614          26.000  
  17851176.872    93808569.6811       2449.670          46.000  
  22241387.843   116879277.5041       3707.091          36.000  
  23289969.776   122389628.118       -2832.802          41.000  
  23490384.829   123442819.430        2592.443          39.000  
  25071049.423   131749261.812         627.885          36.000  
  20905012.825   109856570.5791       1933.533          40.000  
  22022576.736   115729424.0421       3084.383          42.000  
  22860384.469   120132138.877        1763.851          37.000  
  22048937.966   115867959.337       -1728.916          44.000  
  20360910.977   106997319.298         652.477          44.000  
  22112349.486   116201165.793        4147.267          34.000  
 23 12  2 15 51  7.9900000  0 17G15G12G24G19G32G10G25G28E 7E21E20G 6
                                G11E19E30E27G29
  22631686.253                       -3608.889          38.000  
  17077752.335                         123.417          49.000  
  18548438.154                       -2367.539          44.000  
  20271940.773                       -2491.790          44.000  
  19301399.658                        1778.531          47.000  
  22062522.204                       -2458.494          26.000  
  17850704.669                        2492.944          46.000  
  22240676.432                        3750.336          36.000  
  23290502.845                       -2792.135          41.000  
  23489885.718                        2635.447          39.000  
  25070923.956                         668.656          36.000  
  20904639.425                        1977.039          40.000  
  22021983.847                        3128.167          42.000  
  22860042.898                        1807.016          37.000  
  22049260.830                       -1687.513          44.000  
  20360780.728                         694.835          44.000  
  22111554.279                        4191.387          34.000  
 23 12  2 15 51  8.9900000  0 17G15G12G24G19G32G10G25G28E 7E21E20G 6
                                G11E19E30E27G29
  22632374.036   118933927.4273      -3613.326          38.000  
  17077729.964    89744076.3233        117.653          49.000  
  18548889.800    97475073.9663      -2372.881          44.000  
  20272416.082   106532265.3623      -2497.841          44.000  
  19301062.311   101427767.3233       1772.960          47.000  
  22062989.346                       -2459.747          26.000  
  17850231.454    93803599.1713       2487.225          46.000  
  22239963.766   116871798.1833       3745.518          36.000  
  23291034.449   122395223.8631      -2794.646          41.000  
  23489384.931   123437562.9901       2630.585          39.000  
  25070797.093   131747939.7691        665.918          36.000  
  20904264.560   109852650.2173       1970.819          40.000  
  22021389.807   115723184.0373       3122.996          42.000  
  22859700.455   120128546.9951       1801.407          37.000  
  22049582.508   115871349.3551      -1690.808          44.000  
  20360649.363   106995945.8741        690.292          44.000  
  22110757.712   116192816.2153       4186.395          34.000  
 23 12  2 15 51  9.9900000  0 17G15G12G24G19G32G10G25G28E 7E21E20G 6
                                G11E19E30E27G29
  22633062.866   118937547.0112      -3617.047          38.000  
  17077708.500    89743964.9652        113.354          49.000  
  18549342.564    97477453.4882      -2377.487          44.000  
  20272892.089   106534769.2072      -2501.762          44.000  
  19300726.429   101426000.9512       1768.317          47.000  
  22063456.698                       -2466.132          27.000  
  17849759.496    93801118.2132       2482.959          46.000  
  22239252.320   116868058.6822       3741.819          36.000  
  23291567.448   122398024.911       -2799.112          41.000  
  23488885.890   123434938.962        2625.975          39.000  
  25070671.417   131747280.447         661.428          36.000  
  20903890.357   109850685.4792       1966.467          40.000  
  22020796.569   115720067.4932       3118.773          42.000  
  22859358.885   120126752.123        1796.842          37.000  
  22049905.337   115873046.540       -1695.185          44.000  
  20360519.394   106995262.036         685.794          44.000  
  22109962.331   116188636.3872       4182.168          34.000  
 23 12  2 15 51 10.9900000  0 17G15G12G24G19G32G10G25G28E 7E21E20G 6
                                G11E19E30E27G29
  22633750.893   118941163.3302      -3607.373          38.000  
  17077686.478    89743850.9552        122.624          49.000  
  18549795.083    97479830.1772      -2367.616          44.000  
  20273368.131   106537270.3092      -2492.311          44.000  
  19300389.884   101424231.9872       1777.549          47.000  
  22063924.119                       -2454.997          27.000  
  17849286.944    93798634.4912       2492.157          46.000  
  22238540.142   116864316.0362       3751.777          36.000  
  23292099.819   122400822.938       -2789.226          41.000  
  23488386.011   123432311.833        2636.514          39.000  
  25070545.182   131746618.410         671.407          36.000  
  20903515.841   109848718.0962       1975.867          40.000  
  22020202.599   115716947.9652       3127.922          41.000  
  22859016.965   120124954.439        1806.897          38.000  
  22050227.991   115874740.663       -1684.898          44.000  
  20360388.657   106994575.252         696.148          44.000  
  22109166.252   116184453.4312       4191.604          34.000  
 23 12  2 15 51 11.9900000  0 17G15G12G24G19G32G10G25G28E 7E21E20G 6
                                G11E19E30E27G29
  22634439.863   118944785.0822      -3628.348          38.000  
  17077666.201    89743743.0442        100.895          48.000  
  18550248.474    97482212.8422      -2389.686          44.000  
  20273845.290   106539777.4592      -2514.271          44.000  
  19300054.665   101422469.2002       1755.672          47.000  
  22064392.588                       -2478.564          27.000  
  17848815.404    93796156.7362       2470.636          46.000  
  22237829.150   116860578.9492       3730.460          36.000  
  23292633.656   122403626.682       -2810.935          41.000  
  23487886.760   123429690.466        2614.382          39.000  
  25070420.448   131745962.478         648.693          36.000  
  20903142.022   109846756.7752       1954.425          39.000  
  22019609.640   115713834.1542       3106.755          41.000  
  22858676.197   120123162.763        1784.386          38.000  
  22050551.623   115876440.540       -1707.060          44.000  
  20360259.072   106993894.365         673.770          45.000  
  22108371.778   116180276.0412       4170.657          34.000  
 23 12  2 15 51 12.9900000  0 17G15G12G24G19G32G10G25G28E 7E21E20G 6
                                G11E19E30E27G29
  22635130.263   118948412.8702      -3623.625          38.000  
  17077646.691    89743641.7762        105.170          48.000  
  18550703.018    97484601.9932      -2385.453          44.000  
  20274323.635   106542291.1622      -2509.954          44.000  
  19299720.214   101420713.1652       1759.576          46.000  
  22064863.918                       -2471.879          27.000  
  17848345.086    93793685.5162       2475.189          46.000  
  22237119.171   116856848.0062       3734.851          36.000  
  23293168.506   122406436.684       -2805.780          41.000  
  23487389.185   123427075.352        2619.037          39.000  
  25070297.040   131745313.129         652.541          36.000  
  20902769.600   109844802.1212       1958.203          39.000  
  22019017.869   115710726.6552       3111.542          41.000  
  22858336.372   120121377.584        1789.064          37.000  
  22050876.127   115878146.646       -1702.045          44.000  
  20360130.673   106993219.837         678.685          45.000  
  22107577.863   116176104.8072       4175.531          34.000  
 23 12  2 15 51 13.9900000  0 17G15G12G24G19G32G10G25G28E 7E21E20G 6
                                G11E19E30E27G29
  22635819.442   118952034.3622      -3620.705          38.000  
  17077626.589    89743534.8482        107.300          48.000  
  18551156.409    97486985.3192      -2382.899          45.000  
  20274800.724   106544799.1712      -2507.676          44.000  
  19299384.856   101418951.5242       1761.894          46.000  
  22065336.331                       -2470.234          28.000  
  17847873.720    93791208.5492       2477.478          46.000  
  22236407.900   116853110.8332       3738.266          37.000  
  23293702.133   122409240.707       -2803.279          41.000  
  23486890.632   123424454.215        2621.656          39.000  
  25070172.271   131744658.089         654.967          36.000  
  20902395.955   109842841.7602       1961.139          39.000  
  22018425.434   115707613.1712       3113.786          41.000  
  22857995.150   120119586.683        1791.225          37.000  
  22051199.654   115879846.770       -1699.642          44.000  
  20360001.506   106992539.448         680.842          45.000  
  22106783.110   116171927.4122       4177.675          34.000  
 23 12  2 15 51 14.9900000  0 17G15G12G24G19G32G10G25G28E 7E21E20G 6
                                G11E19E30E27G29
  22636509.703   118955661.4032      -3644.060          38.000  
  17077607.149    89743434.0892         83.406          48.000  
  18551611.162    97489374.6582      -2406.631          45.000  
  20275279.139   106547313.2652      -2531.312          44.000  
  19299050.894   101417196.1422       1737.798          46.000  
  22065810.348                       -2491.578          29.000  
  17847403.542    93788737.6192       2453.540          46.000  
  22235697.920   116849379.3602       3714.717          37.000  
  23294236.773   122412050.500       -2826.835          41.000  
  23486393.161   123421838.835        2598.549          39.000  
  25070048.898   131744009.155         631.730          36.000  
  20902023.568   109840887.6232       1936.823          39.000  
  22017834.011   115704505.5052       3090.387          41.000  
  22857655.674   120117801.800        1768.063          37.000  
  22051524.158   115881552.648       -1722.716          44.000  
  20359872.759   106991864.956         657.422          45.000  
  22105989.509   116167755.6572       4154.783          34.000  
 23 12  2 15 51 15.9900000  0 17G15G12G24G19G32G10G25G28E 7E21E20G 6
                                G11E19E30E27G29
  22637201.779   118959297.8722      -3634.274          38.000  
  17077589.943    89743343.4172         92.153          48.000  
  18552067.660    97491773.9422      -2397.539          44.000  
  20275759.544   106549837.3892      -2522.442          44.000  
  19298718.328   101415450.9182       1746.811          46.000  
  22066283.144   115959100.5013      -2485.284          29.000  
  17846934.864    93786276.6802       2462.518          46.000  
  22234989.511   116845657.4302       3723.734          37.000  
  23294772.983   122414870.049       -2817.877          41.000  
  23485897.296   123419233.194        2607.402          39.000  
  25069926.886   131743370.302         640.390          36.000  
  20901653.344   109838943.5452       1945.215          38.000  
  22017244.333   115701407.5712       3099.956          41.000  
  22857318.047   120116026.928        1776.576          37.000  
  22051850.443   115883268.275       -1713.950          44.000  
  20359746.803   106991200.327         666.374          45.000  
  22105197.654   116163593.5162       4163.445          34.000  
 23 12  2 15 51 16.9900000  0 17G15G12G24G19G32G10G25G28E 7E21E20G 6
                                G11E19E30E27G29
  22637893.470   118962931.7542      -3633.453          38.000  
  17077572.039    89743250.7372         92.661          49.000  
  18552523.389    97494171.0712      -2396.903          44.000  
  20276239.460   106552359.4152      -2522.027          44.000  
  19298385.657   101413703.7762       1746.993          46.000  
  22066759.221   115961583.9512      -2483.555          29.000  
  17846466.186    93783813.6172       2463.287          46.000  
  22234281.172   116841932.9912       3724.667          37.000  
  23295309.019   122417687.194       -2817.068          41.000  
  23485401.361   123416625.151        2608.627          39.000  
  25069804.804   131742729.416         641.049          36.000  
  20901282.736   109836997.4352       1946.301          38.000  
  22016654.271   115698307.2962       3100.743          41.000  
  22856979.896   120114249.907        1777.163          37.000  
  22052176.308   115884981.509       -1713.060          44.000  
  20359619.591   106990533.458         666.929          45.000  
  22104405.274   116159428.8752       4164.723          34.000  
 23 12  2 15 51 17.9900000  0 17G15G12G24G19G32G10G25G28E 7E21E20G 6
                                G11E19E30E27G29
  22638584.918   118966564.9432      -3632.867          38.000  
  17077554.589    89743158.0352         92.804          49.000  
  18552979.538    97496568.0112      -2396.790          45.000  
  20276719.376   106554881.3492      -2521.860          43.000  
  19298053.090   101411956.6712       1747.462          46.000  
  22067225.317   115964067.1302      -2483.202          29.000  
  17845997.647    93781350.4112       2463.556          46.000  
  22233572.309   116838207.9842       3724.901          37.000  
  23295844.950   122420503.956       -2816.452          41.000  
  23484905.391   123414016.730        2608.879          39.000  
  25069682.862   131742088.449         641.385          36.000  
  20900912.198   109835051.3222       1946.094          38.000  
  22016064.384   115695206.6512       3100.912          41.000  
  22856641.816   120112472.783        1777.015          37.000  
  22052502.138   115886694.331       -1712.484          44.000  
  20359492.763   106989866.298         667.372          45.000  
  22103612.546   116155263.6542       4165.464          34.000  
 23 12  2 15 51 18.9900000  0 17G15G12G24G19G32G10G25G28E 7E21E20G 6
                                G11E19E30E27G29
  22639276.505   118970197.573       -3632.012          38.000  
  17077536.860    89743065.394          92.745          49.000  
  18553435.617    97498964.3721      -2396.588          44.000  
  20277198.908   106557402.7801      -2521.628          43.000  
  19297720.699   101410209.736        1747.110          46.000  
  22067704.953   115966550.0822      -2482.883          29.000  
  17845529.109    93778886.6841       2463.428          46.000  
  22232863.586   116834482.0061       3725.996          37.000  
  23296381.265   122423320.426       -2816.030          41.000  
  23484409.071   123411407.997        2608.936          39.000  
  25069561.025   131741447.567         640.454          36.000  
  20900541.695   109833104.7511       1946.313          37.000  
  22015474.532   115692105.2541       3100.702          41.000  
  22856303.421   120110695.622        1777.240          37.000  
  22052828.213   115888406.881       -1712.206          44.000  
  20359366.283   106989198.982         667.462          45.000  
  22102820.166   116151098.030        4166.146          34.000  
 23 12  2 15 51 19.9900000  0 17G15G12G24G19G32G10G25G28E 7E21E20G 6
                                G11E19E30E27G29
  22639967.848   118973829.863       -3632.035          38.000  
  17077519.689    89742973.041          92.141          49.000  
  18553891.696    97501361.348       -2396.986          44.000  
  20277678.684   106559924.923       -2522.196          43.000  
  19297388.516   101408463.165        1746.333          46.000  
  22068175.795   115969032.9662      -2483.430          29.000  
  17845060.536    93776423.614        2462.976          46.000  
  22232154.619   116830756.314        3725.758          37.000  
  23296916.743   122426136.804       -2816.086          41.000  
  23483912.508   123408799.166        2608.934          39.000  
  25069439.292   131740806.885         640.260          36.000  
  20900171.157   109831158.957        1945.593          37.000  
  22014884.470   115689004.246        3100.871          41.000  
  22855965.131   120108918.611        1777.029          37.000  
  22053154.148   115890119.316       -1712.322          44.000  
  20359239.176   106988531.690         667.197          45.000  
  22102027.228   116146932.212        4166.053          34.000  
 23 12  2 15 51 20.9900000  0 17G15G12G24G19G32G10G25G28E 7E21E20G 6
                                G11E19E30E27G29
  22640658.911   118977461.908       -3632.014          38.000  
  17077501.924    89742881.085          91.756          49.000  
  18554347.775    97503758.580       -2397.343          44.000  
  20278158.635   106562447.378       -2522.554          43.000  
  19297056.474   101406717.054        1745.984          46.000  
  22068645.485   115971515.9252      -2482.740          29.000  
  17844592.067    93773960.839        2462.640          46.000  
  22231445.756   116827030.492        3726.003          37.000  
  23297452.918   122428953.246       -2816.491          41.000  
  23483416.224   123406190.328        2609.058          40.000  
  25069317.140   131740166.572         639.764          36.000  
  20899800.934   109829213.593        1945.300          38.000  
  22014294.479   115685903.346        3100.831          41.000  
  22855627.051   120107141.893        1776.754          37.000  
  22053479.630   115891831.782       -1712.483          44.000  
  20359112.278   106987864.557         667.154          44.000  
  22101234.604   116142766.266        4166.828          35.000  
 23 12  2 15 51 21.9900000  0 17G15G12G24G19G32G10G25G28E 7E21E20G 6
                                G11E19E30E27G29
  22641350.009   118981093.726       -3631.551          38.000  
  17077484.718    89742789.522          91.479          49.000  
  18554804.028    97506156.048       -2397.521          44.000  
  20278638.830   106564970.166       -2522.766          43.000  
  19296724.501   101404971.442        1745.294          46.000  
  22069113.325   115973999.0012      -2483.709          29.000  
  17844123.738    93771498.353        2462.305          46.000  
  22230736.823   116823304.558        3725.792          37.000  
  23297989.268   122431769.671       -2816.192          41.000  
  23482920.009   123403581.549        2608.692          40.000  
  25069195.268   131739526.608         639.666          36.000  
  20899430.849   109827268.609        1944.714          38.000  
  22013704.452   115682802.452        3101.116          41.000  
  22855288.726   120105365.445        1776.224          37.000  
  22053805.844   115893544.267       -1712.481          44.000  
  20358985.031   106987197.581         667.081          44.000  
  22100441.771   116138600.232        4165.971          35.000  
 23 12  2 15 51 22.9900000  0 17G15G12G24G19G32G10G25G28E 7E21E20G 6
                                G11E19E30E27G29
  22642040.933   118984725.284       -3631.510          38.000  
  17077467.233    89742698.374          90.966          49.000  
  18555260.491    97508553.772       -2397.926          44.000  
  20279118.955   106567493.291       -2523.255          43.000  
  19296392.423   101403226.293        1744.804          46.000  
  22069587.622   115976482.0822      -2483.990          30.000  
  17843655.200    93769036.146        2462.061          46.000  
  22230027.786   116819578.464        3726.101          38.000  
  23298525.234   122434586.160       -2816.607          41.000  
  23482423.411   123400972.762        2608.737          40.000  
  25069073.500   131738886.999         639.300          36.000  
  20899060.975   109825324.008        1944.183          39.000  
  22013114.634   115679701.649        3100.618          40.000  
  22854950.401   120103589.308        1775.780          37.000  
  22054131.919   115895256.776       -1712.541          44.000  
  20358857.994   106986530.757         666.717          44.000  
  22099649.043   116134434.083        4166.194          35.000  
 23 12  2 15 51 23.9900000  0 17G15G12G24G19G32G10G25G28E 7E21E20G 6
                                G11E19E30E27G29
  22642732.137   118988356.650       -3631.816          37.000  
  17077449.713    89742607.600          90.345          49.000  
  18555716.744    97510951.714       -2398.208          44.000  
  20279599.290   106570016.696       -2523.818          43.000  
  19296060.310   101401481.611        1744.210          46.000  
  22070063.525   115978965.2062      -2482.705          30.000  
  17843186.801    93766574.212        2461.511          46.000  
  22229318.749   116815852.258        3725.990          38.000  
  23299061.549   122437402.655       -2816.609          42.000  
  23481927.336   123398363.993        2608.446          40.000  
  25068951.768   131738247.757         638.909          36.000  
  20898691.135   109823379.768        1944.043          39.000  
  22012524.573   115676600.858        3100.513          41.000  
  22854612.425   120101813.419        1775.513          37.000  
  22054458.098   115896969.290       -1712.675          44.000  
  20358731.235   106985864.077         666.452          44.000  
  22098856.279   116130267.843        4165.578          35.000  
 23 12  2 15 51 24.9900000  0 17G15G12G24G19G32G10G25G28E 7E21E20G 6
                                G11E19E30E27G29
  22643423.130   118991987.840       -3630.731          38.000  
  17077432.752    89742517.332          90.220          49.000  
  18556173.347    97513350.014       -2398.073          44.000  
  20280079.939   106572540.561       -2524.050          44.000  
  19295728.547   101399737.517        1744.096          46.000  
  22070532.866   115981448.6112      -2483.683          30.000  
  17842718.228    93764112.666        2461.438          46.000  
  22228609.502   116812126.024        3726.458          38.000  
  23299597.899   122440219.297       -2816.690          42.000  
  23481431.401   123395755.349        2608.807          40.000  
  25068830.454   131737608.992         638.562          36.000  
  20898321.225   109821436.058        1943.933          39.000  
  22011934.511   115673500.249        3100.661          40.000  
  22854274.729   120100037.970        1775.185          37.000  
  22054784.138   115898681.938       -1712.503          44.000  
  20358604.023   106985197.667         666.409          44.000  
  22098063.376   116126101.563        4165.977          35.000  
 23 12  2 15 51 25.9900000  0 17G15G12G24G19G32G10G25G28E 7E21E20G 6
                                G11E19E30E27G29
  22644114.543   118995618.981       -3631.364          38.000  
  17077415.371    89742427.624          89.201          49.000  
  18556630.019    97515748.747       -2399.232          44.000  
  20280560.378   106575064.900       -2524.711          43.000  
  19295396.365   101397994.073        1742.866          46.000  
  22071006.360   115983932.2182      -2483.459          30.000  
  17842249.829    93761651.584        2460.681          46.000  
  22227900.395   116808399.865        3725.628          38.000  
  23300134.004   122443036.130       -2817.130          42.000  
  23480934.873   123393146.905        2608.152          40.000  
  25068709.349   131736970.711         638.063          36.000  
  20897951.525   109819492.924        1942.694          39.000  
  22011344.415   115670399.843        3100.179          40.000  
  22853936.962   120098262.960        1774.564          37.000  
  22055110.108   115900394.786       -1712.990          44.000  
  20358477.544   106984531.569         665.828          44.000  
  22097270.613   116121935.378        4165.320          35.000  
 23 12  2 15 51 26.9900000  0 17G15G12G24G19G32G10G25G28E 7E21E20G 6
                                G11E19E30E27G29
  22644805.606   118999249.981       -3631.522          38.000  
  17077398.724    89742338.394          88.768          49.000  
  18557086.656    97518147.786       -2399.520          44.000  
  20281041.306   106577589.650       -2525.177          43.000  
  19295064.601   101396251.179        1742.372          46.000  
  22071483.205   115986415.9832      -2483.860          29.000  
  17841781.710    93759190.872        2460.284          46.000  
  22227191.358   116804673.623        3725.805          38.000  
  23300670.215   122445853.079       -2817.334          42.000  
  23480438.484   123390538.551        2608.090          40.000  
  25068588.070   131736332.931         637.023          36.000  
  20897581.720   109817550.259        1942.181          39.000  
  22010754.318   115667299.573        3100.110          40.000  
  22853599.650   120096488.306        1773.995          37.000  
  22055436.323   115902107.731       -1713.264          44.000  
  20358350.681   106983865.707         665.453          44.000  
  22096477.884   116117769.121        4166.493          35.000  
 23 12  2 15 51 27.9900000  0 17G15G12G24G19G32G10G25G28E 7E21E20G 6
                                G11E19E30E27G29
  22645496.635   119002880.894       -3630.857          38.000  
  17077381.832    89742249.737          88.243          49.000  
  18557543.503    97520547.249       -2399.926          44.000  
  20281521.990   106580114.904       -2525.640          43.000  
  19294732.942   101394508.948        1741.692          46.000  
  22071945.461   115988900.0312      -2484.351          29.000  
  17841313.381    93756730.610        2459.930          46.000  
  22226481.972   116800947.442        3726.095          38.000  
  23301206.320   122448670.233       -2817.436          42.000  
  23479942.234   123387930.395        2607.857          40.000  
  25068466.826   131735695.679         636.558          36.000  
  20897212.403   109815608.124        1941.754          39.000  
  22010164.326   115664199.583        3099.406          40.000  
  22853262.023   120094714.113        1773.715          37.000  
  22055762.537   115903820.878       -1713.377          44.000  
  20358224.062   106983200.172         665.288          44.000  
  22095685.330   116113603.004        4165.807          34.000  
 23 12  2 15 51 28.9900000  0 17G15G12G24G19G32G10G25G28E 7E21E20G 6
                                G11E19E30E27G29
  22646187.594   119006511.577       -3630.502          38.000  
  17077365.394    89742161.480          87.934          49.000  
  18558000.385    97522946.947       -2399.902          45.000  
  20282002.673   106582640.500       -2525.993          44.000  
  19294401.528   101392767.186        1741.397          46.000  
  22072422.375   115991384.1132      -2483.865          30.000  
  17840845.226    93754270.648        2459.912          46.000  
  22225772.830   116797221.149        3726.194          38.000  
  23301742.356   122451487.423       -2817.215          42.000  
  23479446.334   123385322.254        2608.051          40.000  
  25068345.303   131735058.786         636.305          36.000  
  20896843.331   109813666.411        1941.669          39.000  
  22009574.509   115661099.594        3099.876          40.000  
  22852924.361   120092940.206        1773.862          37.000  
  22056088.612   115905534.050       -1713.277          44.000  
  20358097.373   106982534.812         665.090          44.000  
  22094892.323   116109436.769        4166.160          35.000  
 23 12  2 15 51 29.9900000  0 17G15G12G24G19G32G10G25G28E 7E21E20G 6
                                G11E19E30E27G29
  22646878.448   119010142.171       -3631.125          38.000  
  17077348.223    89742073.743          87.146          49.000  
  18558457.266    97525347.015       -2400.728          45.000  
  20282483.427   106585166.526       -2526.825          43.000  
  19294070.288   101391026.033        1740.473          46.000  
  22072895.835   115993868.4232      -2484.873          29.000  
  17840377.142    93751811.100        2458.990          46.000  
  22225063.862   116793494.824        3726.225          37.000  
  23302278.811   122454304.769       -2817.757          42.000  
  23478950.155   123382714.279        2607.532          40.000  
  25068224.094   131734422.385         635.711          36.000  
  20896474.189   109811725.227        1940.375          39.000  
  22008984.482   115657999.806        3099.532          40.000  
  22852586.839   120091166.751        1772.991          37.000  
  22056414.303   115907247.371       -1713.626          44.000  
  20357970.720   106981869.711         664.750          44.000  
  22094099.559   116105270.524        4166.216          35.000  
 23 12  2 15 51 30.9900000  0 17G15G12G24G19G32G10G25G28E 7E21E20G 6
                                G11E19E30E27G29
  22647569.407   119013772.615       -3630.862          38.000  
  17077331.889    89741986.508          86.653          49.000  
  18558913.973    97527747.424       -2400.983          45.000  
  20282963.971   106587692.965       -2526.637          43.000  
  19293739.257   101389285.460        1740.077          46.000  
  22073366.956   115996352.4121      -2484.479          29.000  
  17839908.917    93749351.938        2458.661          46.000  
  22224354.790   116789768.511        3726.122          38.000  
  23302814.986   122457122.253       -2817.863          42.000  
  23478453.905   123380106.414        2607.486          40.000  
  25068103.024   131733786.451         635.478          36.000  
  20896104.943   109809784.560        1939.777          39.000  
  22008394.246   115654900.182        3099.163          40.000  
  22852249.142   120089393.659        1772.422          37.000  
  22056740.412   115908960.822       -1713.772          44.000  
  20357844.171   106981204.872         664.401          44.000  
  22093306.761   116101104.303        4166.006          35.000  
 23 12  2 15 51 31.9900000  0 17G15G12G24G19G32G10G25G28E 7E21E20G 6
                                G11E19E30E27G29
  22648260.191   119017403.297       -3630.452          38.000  
  17077315.416    89741900.146          86.131          49.000  
  18559370.925    97530148.557       -2401.168          45.000  
  20283444.899   106590220.243       -2527.481          43.000  
  19293408.261   101387545.844        1739.430          47.000  
  22073838.495   115998837.485       -2485.343          29.000  
  17839441.112    93746893.541        2458.350          46.000  
  22223645.648   116786042.566        3726.000          38.000  
  23303351.161   122459940.238       -2817.896          42.000  
  23477957.586   123377499.057        2607.195          40.000  
  25067982.059   131733151.351         634.565          36.000  
  20895736.185   109807844.717        1939.856          40.000  
  22007804.359   115651801.104        3098.754          40.000  
  22851911.795   120087621.296        1772.122          38.000  
  22057066.382   115910674.778       -1713.946          44.000  
  20357717.447   106980540.672         664.200          44.000  
  22092513.893   116096938.444        4166.406          35.000  
 23 12  2 15 51 32.9900000  0 17G15G12G24G19G32G10G25G28E 7E21E20G 6
                                G11E19E30E27G29
  22648951.324   119021033.748       -3630.107          38.000  
  17077299.257    89741814.166          85.832          49.000  
  18559827.771    97532549.932       -2401.461          45.000  
  20283926.141   106592747.823       -2527.879          44.000  
  19293077.475   101385806.707        1738.927          47.000  
  22074313.106   116001322.588       -2484.910          29.000  
  17838973.132    93744435.411        2458.221          46.000  
  22222936.471   116782316.460        3726.273          38.000  
  23303887.721   122462758.255       -2818.118          42.000  
  23477461.163   123374891.697        2607.198          40.000  
  25067861.304   131732516.619         634.127          36.000  
  20895367.182   109805905.281        1939.239          40.000  
  22007214.751   115648702.047        3099.191          40.000  
  22851574.482   120085849.223        1772.023          37.000  
  22057391.969   115912388.734       -1713.927          44.000  
  20357591.247   106979876.617         663.978          44.000  
  22091721.060   116092772.523        4165.698          35.000  
 23 12  2 15 51 33.9900000  0 17G15G12G24G19G32G10G25G28E 7E21E20G 6
                                G11E19E30E27G29
  22649642.283   119024664.480       -3631.062          38.000  
  17077283.064    89741729.094          84.627          49.000  
  18560284.723    97534952.036       -2402.285          44.000  
  20284407.139   106595276.222       -2528.957          44.000  
  19292746.793   101384068.525        1737.758          47.000  
  22074786.461   116003808.313       -2486.403          29.000  
  17838504.943    93741978.084        2457.074          46.000  
  22222227.574   116778590.738        3725.396          38.000  
  23304424.175   122465576.797       -2819.016          42.000  
  23476964.983   123372284.855        2606.449          40.000  
  25067740.932   131731882.726         633.189          36.000  
  20894998.773   109803966.759        1938.361          39.000  
  22006625.073   115645603.542        3098.518          40.000  
  22851237.798   120084077.959        1770.717          37.000  
  22057718.427   115914103.239       -1714.915          44.000  
  20357464.803   106979213.218         662.970          44.000  
  22090928.401   116088606.952        4165.289          35.000  
 23 12  2 15 51 34.9900000  0 17G15G12G24G19G32G10G25G28E 7E21E20G 6
                                G11E19E30E27G29
  22650333.347   119028295.382       -3630.823          38.000  
  17077266.870    89741644.821          84.150          48.000  
  18560741.709    97537354.810       -2402.771          44.000  
  20284888.555   106597805.370       -2529.567          44.000  
  19292416.007   101382331.256        1737.038          47.000  
  22075261.665   116006294.467       -2486.410          29.000  
  17838037.451    93739521.467        2456.464          46.000  
  22221518.676   116774865.313        3725.605          38.000  
  23304960.630   122468395.770       -2818.959          42.000  
  23476468.664   123369678.435        2606.512          40.000  
  25067620.700   131731249.624         632.573          36.000  
  20894630.225   109802029.050        1937.457          41.000  
  22006035.674   115642505.515        3097.704          42.000  
  22850900.904   120082307.412        1770.269          37.000  
  22058044.607   115915818.141       -1714.922          44.000  
  20357338.847   106978550.376         662.770          44.000  
  22090135.777   116084441.656        4165.882          35.000  
 23 12  2 15 51 35.9900000  0 17G15G12G24G19G32G10G25G28E 7E21E20G 6
                                G11E19E30E27G29
  22651024.271   119031926.097       -3630.794          38.000  
  17077251.374    89741561.003          83.740          49.000  
  18561198.800    97539757.890       -2402.988          44.000  
  20285370.286   106600334.865       -2529.539          44.000  
  19292085.430   101380594.505        1736.824          46.000  
  22075734.147   116008780.731       -2486.004          29.000  
  17837569.786    93737065.182        2456.152          46.000  
  22220809.569   116771139.815        3725.483          38.000  
  23305496.770   122471214.851       -2819.110          42.000  
  23475972.554   123367072.130        2606.129          40.000  
  25067500.189   131730616.935         632.677          36.000  
  20894261.013   109800091.730        1937.353          40.000  
  22005446.241   115639407.626        3097.552          42.000  
  22850564.359   120080537.202        1770.124          37.000  
  22058371.100   115917533.155       -1714.913          44.000  
  20357212.473   106977887.761         662.536          44.000  
  22089343.363   116080276.405        4165.521          35.000  
 23 12  2 15 51 36.9900000  0 17G15G12G24G19G32G10G25G28E 7E21E20G 6
                                G11E19E30E27G29
  22651715.125   119035556.544       -3630.409          38.000  
  17077235.041    89741477.593          82.978          49.000  
  18561655.996    97542161.220       -2403.774          44.000  
  20285852.087   106602864.712       -2530.433          44.000  
  19291755.097   101378858.267        1735.609          46.000  
  22076208.375   116011267.172       -2486.738          29.000  
  17837102.224    93734609.193        2455.566          46.000  
  22220100.567   116767414.208        3725.165          38.000  
  23306033.504   122474033.954       -2819.494          42.000  
  23475476.654   123364465.827        2605.873          40.000  
  25067379.503   131729984.637         631.444          36.000  
  20893892.255   109798154.864        1936.145          39.000  
  22004856.493   115636309.769        3097.455          40.000  
  22850227.325   120078767.285        1769.401          37.000  
  22058697.629   115919248.211       -1715.538          44.000  
  20357086.378   106977225.299         662.023          44.000  
  22088550.530   116076110.991        4165.135          35.000  
 23 12  2 15 51 37.9900000  0 17G15G12G24G19G32G10G25G28E 7E21E20G 6
                                G11E19E30E27G29
  22652406.014   119039186.942       -3630.250          37.000  
  17077219.580    89741394.722          82.443          49.000  
  18562112.773    97544564.934       -2403.793          44.000  
  20286333.782   106605395.022       -2530.648          45.000  
  19291424.695   101377122.632        1735.215          47.000  
  22076681.450   116013753.754       -2486.574          29.000  
  17836635.012    93732153.621        2455.261          46.000  
  22219391.494   116763688.595        3725.390          38.000  
  23306569.924   122476853.244       -2819.528          41.000  
  23474980.684   123361859.673        2606.212          40.000  
  25067258.992   131729352.802         631.399          36.000  
  20893523.532   109796218.507        1935.998          39.000  
  22004267.444   115633212.121        3097.781          41.000  
  22849890.571   120076997.801        1769.024          37.000  
  22059023.738   115920963.397       -1715.398          44.000  
  20356960.492   106976563.129         661.875          44.000  
  22087758.150   116071945.674        4164.781          35.000  
 23 12  2 15 51 38.9900000  0 17G15G12G24G19G32G10G25G28E 7E21E20G 6
                                G11E19E30E27G29
  22653097.252   119042817.256       -3630.301          37.000  
  17077203.735    89741312.398          82.188          48.000  
  18562570.283    97546969.053       -2404.120          44.000  
  20286815.478   106607925.813       -2530.942          45.000  
  19291094.397   101375387.626        1734.792          47.000  
  22077156.724   116016240.593       -2486.511          29.000  
  17836168.079    93729698.505        2455.145          46.000  
  22218682.946   116759963.032        3725.632          38.000  
  23307106.169   122479672.715       -2819.410          42.000  
  23474484.469   123359253.720        2606.096          40.000  
  25067138.585   131728721.509         631.481          36.000  
  20893154.879   109794282.726        1935.645          39.000  
  22003678.220   115630114.704        3097.399          41.000  
  22849553.886   120075228.745        1769.399          37.000  
  22059350.302   115922678.777       -1715.086          44.000  
  20356834.536   106975901.270         661.978          44.000  
  22086965.387   116067780.345        4165.781          35.000  
 23 12  2 15 51 39.9900000  0 17G15G12G24G19G32G10G25G28E 7E21E20G 6
                                G11E19E30E27G29
  22653788.176   119046447.382       -3630.184          38.000  
  17077187.890    89741230.540          81.453          48.000  
  18563027.792    97549373.472       -2404.645          44.000  
  20287297.488   106610456.993       -2531.605          45.000  
  19290764.553   101373653.165        1734.088          46.000  
  22077626.519   116018727.576       -2487.224          29.000  
  17835701.007    93727243.737        2454.462          46.000  
  22217973.804   116756237.404        3725.664          38.000  
  23307642.624   122482492.262       -2819.648          42.000  
  23473988.674   123356647.829        2605.766          40.000  
  25067018.667   131728090.635         630.767          36.000  
  20892786.155   109792347.389        1934.796          39.000  
  22003088.926   115627017.382        3096.927          41.000  
  22849216.993   120073460.066        1768.307          37.000  
  22059676.656   115924394.245       -1715.615          44.000  
  20356708.929   106975239.624         661.693          44.000  
  22086172.798   116063614.996        4165.705          35.000  
 23 12  2 15 51 40.9900000  0 17G15G12G24G19G32G10G25G28E 7E21E20G 6
                                G11E19E30E27G29
  22654479.204   119050077.505       -3629.856          38.000  
  17077172.709    89741149.275          81.251          48.000  
  18563485.372    97551778.326       -2404.973          44.000  
  20287779.324   106612988.684       -2531.705          45.000  
  19290434.465   101371919.384        1733.698          46.000  
  22078105.178   116021214.838       -2487.541          29.000  
  17835234.388    93724789.449        2454.333          46.000  
  22217264.906   116752511.844        3725.963          38.000  
  23308179.322   122485312.061       -2819.643          42.000  
  23473492.809   123354042.176        2605.752          40.000  
  25066898.854   131727460.353         630.161          36.000  
  20892417.956   109790412.619        1935.211          39.000  
  22002499.981   115623920.322        3096.900          41.000  
  22848880.587   120071691.856        1768.085          37.000  
  22060003.394   115926109.932       -1715.637          44.000  
  20356582.974   106974578.341         661.378          44.000  
  22085380.244   116059449.787        4164.946          35.000  
 23 12  2 15 51 41.9900000  0 17G15G12G24G19G32G10G25G28E 7E21E20G 6
                                G11E19E30E27G29
  22655169.954   119053707.363       -3630.182          38.000  
  17077156.899    89741068.407          80.359          48.000  
  18563943.266    97554183.432       -2405.593          44.000  
  20288261.299   106615520.713       -2532.610          45.000  
  19290104.656   101370186.093        1732.702          46.000  
  22078580.034   116023702.119       -2487.032          29.000  
  17834767.315    93722335.453        2453.412          46.000  
  22216555.904   116748786.166        3725.455          38.000  
  23308715.672   122488131.876       -2820.220          41.000  
  23472996.769   123351436.558        2604.905          40.000  
  25066779.181   131726830.424         629.497          36.000  
  20892049.686   109788478.284        1933.783          39.000  
  22001910.652   115620823.305        3096.611          41.000  
  22848543.798   120069923.940        1767.296          37.000  
  22060330.306   115927825.636       -1716.121          44.000  
  20356457.402   106973917.208         660.743          44.000  
  22084587.550   116055284.440        4164.341          35.000  
 23 12  2 15 51 42.9900000  0 17G15G12G24G19G32G10G25G28E 7E21E20G 6
                                G11E19E30E27G29
  22655860.808   119057337.317       -3630.212          38.000  
  17077141.752    89740988.246          79.653          48.000  
  18564401.229    97556589.083       -2406.256          44.000  
  20288743.378   106618053.373       -2533.420          45.000  
  19289774.707   101368453.591        1731.658          46.000  
  22079053.842   116026189.874       -2488.050          28.000  
  17834300.452    93719882.064        2452.777          46.000  
  22215847.216   116745060.699        3724.692          38.000  
  23309252.301   122490952.046       -2820.569          41.000  
  23472501.113   123348831.233        2604.755          40.000  
  25066659.333   131726201.178         628.618          36.000  
  20891681.626   109786544.668        1932.703          39.000  
  22001321.812   115617726.676        3096.218          41.000  
  22848207.079   120068156.611        1766.888          37.000  
  22060656.869   115929541.692       -1716.553          44.000  
  20356332.040   106973256.545         660.226          44.000  
  22083795.276   116051119.297        4164.476          35.000  
 23 12  2 15 51 43.9900000  0 17G15G12G24G19G32G10G25G28E 7E21E20G 6
                                G11E19E30E27G29
  22656551.871   119060967.251       -3629.976          38.000  
  17077126.012    89740908.732          78.960          48.000  
  18564859.542    97558995.214       -2406.360          44.000  
  20289225.423   106620586.569       -2533.558          44.000  
  19289445.282   101366721.796        1731.314          46.000  
  22079525.556   116028677.907       -2488.401          28.000  
  17833833.554    93717429.184        2452.649          46.000  
  22215138.458   116741335.312        3725.169          38.000  
  23309789.175   122493772.487       -2820.774          41.000  
  23472005.666   123346226.192        2604.612          40.000  
  25066539.764   131725572.556         627.721          36.000  
  20891313.950   109784611.652        1932.349          39.000  
  22000732.623   115614630.325        3096.152          41.000  
  22847870.848   120066389.823        1766.310          37.000  
  22060982.909   115931258.003       -1716.594          44.000  
  20356206.224   106972596.274         659.938          44.000  
  22083002.826   116046954.285        4164.672          35.000  
 23 12  2 15 51 44.9900000  0 17G15G12G24G19G32G10G25G28E 7E21E20G 6
                                G11E19E30E27G29
  22657242.691   119064597.034       -3629.539          38.000  
  17077110.900    89740829.671          79.017          48.000  
  18565317.645    97561401.671       -2406.611          44.000  
  20289707.433   106623120.190       -2533.625          45.000  
  19289115.682   101364990.561        1730.997          46.000  
  22080000.586   116031166.089       -2488.077          29.000  
  17833366.936    93714976.663        2452.631          46.000  
  22214429.595   116737609.904        3725.249          38.000  
  23310325.944   122496593.026       -2820.681          41.000  
  23471510.045   123343621.238        2604.843          40.000  
  25066419.811   131724944.314         627.927          36.000  
  20890946.588   109782679.110        1932.391          39.000  
  22000143.364   115611534.116        3096.486          41.000  
  22847534.861   120064623.373        1766.289          37.000  
  22061309.298   115932974.410       -1716.441          44.000  
  20356080.477   106971936.218         660.168          44.000  
  22082210.028   116042789.255        4165.354          35.000  
 23 12  2 15 51 45.9900000  0 17G15G12G24G19G32G10G25G28E 7E21E20G 6
                                G11E19E30E27G29
  22657933.684   119068226.800       -3629.553          38.000  
  17077096.486    89740751.243          78.306          48.000  
  18565775.783    97563808.579       -2406.963          45.000  
  20290189.652   106625654.351       -2534.235          44.000  
  19288786.501   101363260.021        1730.337          46.000  
  22080474.639   116033654.592       -2488.411          29.000  
  17832900.107    93712524.676        2451.752          46.000  
  22213720.802   116733884.553        3725.581          38.000  
  23310862.363   122499413.819       -2820.849          41.000  
  23471014.389   123341016.504        2604.916          40.000  
  25066300.696   131724316.650         627.740          36.000  
  20890579.506   109780747.191        1931.659          39.000  
  21999554.245   115608438.184        3095.896          41.000  
  22847198.770   120062857.435        1765.900          37.000  
  22061635.792   115934691.059       -1716.642          44.000  
  20355955.499   106971276.550         659.630          44.000  
  22081417.334   116038624.359        4164.631          35.000  
 23 12  2 15 51 46.9900000  0 17G15G12G24G19G32G10G25G28E 7E21E20G 6
                                G11E19E30E27G29
  22658624.224   119071856.485       -3629.030          38.000  
  17077081.304    89740673.383          77.676          48.000  
  18566233.851    97566215.905       -2407.318          45.000  
  20290671.592   106628189.001       -2534.528          44.000  
  19288457.216   101361530.128        1729.741          46.000  
  22080950.157   116036143.335       -2488.730          29.000  
  17832434.082    93710073.125        2451.575          46.000  
  22213012.009   116730159.291        3725.251          38.000  
  23311398.608   122502234.798       -2820.960          41.000  
  23470518.663   123338411.969        2604.629          40.000  
  25066181.441   131723689.516         627.410          36.000  
  20890212.493   109778815.845        1931.232          39.000  
  21998965.056   115605342.483        3095.672          41.000  
  22846862.679   120061091.967        1765.680          37.000  
  22061962.809   115936407.896       -1716.731          44.000  
  20355830.311   106970617.202         659.385          44.000  
  22080624.885   116034459.514        4164.936          35.000  
 23 12  2 15 51 47.9900000  0 17G15G12G24G19G32G10G25G28E 7E21E20G 6
                                G11E19E30E27G29
  22659315.009   119075486.317       -3630.074          38.000  
  17077066.786    89740596.269          76.741          48.000  
  18566692.233    97568623.832       -2408.472          45.000  
  20291153.951   106630724.323       -2535.754          44.000  
  19288127.895   101359801.061        1728.645          46.000  
  22081426.129   116038632.509       -2489.607          29.000  
  17831967.952    93707622.222        2450.250          46.000  
  22212303.076   116726434.210        3725.281          38.000  
  23311935.447   122505056.162       -2821.661          41.000  
  23470023.077   123335807.827        2603.878          40.000  
  25066062.605   131723063.142         626.100          36.000  
  20889845.270   109776885.249        1930.072          40.000  
  21998376.041   115602247.191        3094.736          40.000  
  22846527.216   120059327.149        1764.517          37.000  
  22062289.896   115938125.119       -1717.439          44.000  
  20355705.088   106969958.367         658.279          44.000  
  22079832.471   116030294.933        4164.188          35.000  
 23 12  2 15 51 48.9900000  0 17G15G12G24G19G32G10G25G28E 7E21E20G 6
                                G11E19E30E27G29
  22660005.793   119079116.055       -3629.656          38.000  
  17077051.988    89740519.739          76.315          48.000  
  18567150.476    97571032.155       -2408.425          45.000  
  20291635.926   106633260.139       -2536.075          44.000  
  19287799.063   101358072.649        1728.113          46.000  
  22081899.030   116041121.896       -2489.362          29.000  
  17831502.031    93705171.768        2450.201          46.000  
  22211594.179   116722709.219        3724.945          38.000  
  23312472.565   122507877.728       -2821.576          41.000  
  23469527.351   123333203.834        2604.087          40.000  
  25065943.420   131722437.281         625.564          36.000  
  20889478.432   109774955.208        1929.523          40.000  
  21997786.922   115599152.108        3094.957          40.000  
  22846191.753   120057562.768        1764.392          37.000  
  22062616.669   115939842.520       -1717.343          44.000  
  20355579.656   106969299.838         658.457          44.000  
  22079040.056   116026130.395        4164.646          35.000  
