     2.11           OBSERVATION DATA    G (GPS)             RINEX VERSION / TYPE
teqc  2019Feb25                         20231029 20:32:50UTCPGM / RUN BY / DATE
Linux 2.6.32-573.12.1.x86_64|x86_64|gcc|Linux 64|=+         COMMENT
teqc  2019Feb25                         20231029 20:32:50UTCCOMMENT
     2.11           OBSERVATION DATA    M (MIXED)           COMMENT
teqc  2019Feb25     IGN-RGP             20231029 18:02:14UTCCOMMENT
teqc  2019Feb25     Administrateur RGP  20231029 18:02:14UTCCOMMENT
teqc  2019Feb25     IGN-RGP             20231029 18:02:12UTCCOMMENT
teqc  2019Feb25     IGN-RGP             20231029 18:02:11UTCCOMMENT
BIT 2 OF LLI FLAGS DATA COLLECTED UNDER A/S CONDITION       COMMENT
IGNF                                                        MARKER NAME
10001M009                                                   MARKER NUMBER
Automatic           IGN                                     OBSERVER / AGENCY
1834194             LEICA GR50          4.51                REC # / TYPE / VERS
5000113963          TRM57971.00     NONE                    ANT # / TYPE
  4201694.1440   177888.8370  4779371.7670                  APPROX POSITION XYZ
        0.0000        0.0000        0.0000                  ANTENNA: DELTA H/E/N
     1     1                                                WAVELENGTH FACT L1/2
    21    L1    L2    C1    P1    P2    D1    D2    S1    S2# / TYPES OF OBSERV
          L5    C5    D5    S5    L7    C7    D7    S7    L8# / TYPES OF OBSERV
          C8    D8    S8                                    # / TYPES OF OBSERV
    30.0000                                                 INTERVAL
DefaultJobName                                              COMMENT
DefaultUserDiscription                                      COMMENT
Project creator:                                            COMMENT
 SNR is mapped to RINEX snr flag value [0-9]                COMMENT
  L1 & L2: min(max(int(snr_dBHz/6), 0), 9)                  COMMENT
    18                                                      LEAP SECONDS
Forced Modulo Decimation to 30 seconds                      COMMENT
teqc_2019 edited: all GLONASS satellites excluded           COMMENT
teqc_2019 edited: all SBAS satellites excluded              COMMENT
teqc_2019 edited: all Galileo satellites excluded           COMMENT
  2023    10    29    17     0    0.0000000     GPS         TIME OF FIRST OBS
                                                            END OF HEADER
 23 10 29 17  0  0.0000000  0 11G10G12G13G15G17G19G22G23G24G25G32
 123504356.195 7  96237183.60746  23502097.000                    23502099.280
      -973.765        -758.778          45.200          41.750    92227301.547 7
  23502098.640        -727.180          45.850


 109373830.022 8  85226494.17148  20813099.300                    20813097.880
      1986.884        1548.223          50.250          50.250



 129595667.853 6 100983699.72445  24661218.420                    24661221.620
     -3856.190       -3004.824          39.400          35.950



 118134406.134 8  92052816.39048  22480219.200                    22480218.800
     -3513.379       -2737.701          48.850          49.050



 123652054.911 7  96352336.63547  23530170.440                    23530169.760
     -2093.436       -1631.248          43.900          43.900



 115795086.930 8  90229993.75047  22035049.640                    22035047.180
      -209.852        -163.520          49.150          43.850



 131534775.095 6 102494764.90446  25030175.700                    25030174.640
     -3297.308       -2569.329          40.950          37.100



 125967916.184 6  98156828.51846  23970897.480                    23970899.420
     -2840.948       -2213.731          41.700          37.650    94066978.338 8
  23970907.540       -2121.382          48.150


 105881302.393 8  82505028.23348  20148495.720                    20148496.260
      -735.390        -573.030          51.700          51.900    79067345.161 9
  20148498.560        -549.197          58.050


 122375582.803 7  95357717.30646  23287276.840                    23287279.840
      3558.735        2773.048          44.050          40.800    91384506.711 8
  23287283.500        2657.388          48.100


 128596363.348 7 100204990.11446  24471072.640                    24471075.600
      3317.178        2584.814          43.950          39.850    96029781.328 7
  24471076.160        2477.206          45.400


 23 10 29 17  0 30.0000000  0 11G10G12G13G15G17G19G22G23G24G25G32
 123533840.216 7  96260158.11347  23507707.620                    23507709.800
      -991.597        -772.674          45.250          42.750    92249318.788 7
  23507709.520        -740.437          45.300


 109314447.583 8  85180222.17148  20801799.240                    20801797.800
      1972.072        1536.681          50.950          50.900



 129711383.327 6 101073867.54845  24683238.340                    24683241.860
     -3858.103       -3006.312          38.950          35.050



 118239935.512 8  92135047.01748  22500300.960                    22500300.400
     -3521.756       -2744.227          48.800          48.750



 123715075.495 7  96401443.58447  23542162.960                    23542162.680
     -2107.837       -1642.471          44.600          44.150



 115801698.154 8  90235145.38347  22036307.860                    22036304.760
      -230.545        -179.644          49.450          43.200



 131633699.522 6 102571848.94645  25049000.340                    25048999.080
     -3297.405       -2569.402          41.800          34.200



 126053270.659 6  98223338.33346  23987139.700                    23987141.720
     -2849.029       -2220.028          41.500          39.300    94130716.910 7
  23987149.980       -2127.595          47.600


 105903582.175 8  82522389.11548  20152735.440                    20152736.040
      -749.784        -584.247          52.050          52.000    79083982.670 9
  20152738.180        -559.807          57.650


 122268919.021 7  95274602.80746  23266979.400                    23266981.900
      3552.482        2768.172          43.900          40.750    91304855.368 8
  23266986.120        2652.862          48.800


 128496943.792 7 100127520.35746  24452153.740                    24452156.140
      3310.936        2579.949          44.150          38.600    95955539.500 7
  24452156.920        2472.423          44.900


 23 10 29 17  1  0.0000000  0 11G10G12G13G15G17G19G22G23G24G25G32
 123563864.154 7  96283553.34046  23513421.040                    23513423.240
     -1009.188        -786.383          45.200          41.750    92271739.232 7
  23513423.020        -753.914          45.400


 109255520.203 8  85134304.77448  20790585.840                    20790584.300
      1956.869        1524.833          51.000          51.050



 129827156.669 6 101164080.43546  24705269.200                    24705272.840
     -3860.104       -3007.884          39.100          36.050



 118345723.790 8  92217479.37948  22520431.980                    22520431.220
     -3530.332       -2750.909          48.850          48.700



 123778526.785 7  96450886.15147  23554237.540                    23554237.500
     -2122.124       -1653.604          44.750          44.750



 115808936.322 8  90240785.55147  22037685.280                    22037681.620
      -251.466        -195.946          48.950          44.000



 131732633.410 6 102648940.34946  25067826.820                    25067825.680
     -3297.874       -2569.771          41.150          37.500



 126138879.357 7  98290046.29646  24003430.640                    24003432.660
     -2857.468       -2226.604          42.600          39.300    94194645.324 8
  24003440.800       -2133.951          48.100


 105926296.261 8  82540088.41148  20157057.940                    20157058.580
      -764.104        -595.404          52.050          52.100    79100944.502 9
  20157060.340        -570.643          57.850


 122162443.849 7  95191635.31546  23246717.800                    23246720.120
      3546.087        2763.189          44.500          39.650    91225344.872 8
  23246724.460        2648.099          48.600


 128397721.948 7 100050204.69446  24433272.460                    24433274.320
      3304.322        2574.799          44.100          38.350    95881445.329 7
  24433275.380        2467.396          45.300


 23 10 29 17  1 30.0000000  0 11G10G12G13G15G17G19G22G23G24G25G32
 123594430.370 7  96307371.11847  23519237.680                    23519240.140
     -1028.547        -801.468          45.850          42.300    92294564.584 7
  23519239.580        -767.869          45.200


 109197053.669 8  85088746.47048  20779460.160                    20779458.500
      1940.636        1512.185          51.100          51.100



 129942991.164 6 101254341.02145  24727311.700                    24727315.580
     -3862.455       -3009.710          40.850          35.850



 118451772.865 8  92300114.95847  22540612.560                    22540611.760
     -3539.896       -2758.362          48.050          47.900



 123842411.190 7  96500666.21147  23566394.420                    23566394.620
     -2137.228       -1665.372          44.850          45.000



 115816805.593 7  90246917.48947  22039182.620                    22039178.960
      -273.312        -212.969          47.800          44.800



 131831580.116 6 102726041.75446  25086655.580                    25086654.600
     -3298.996       -2570.644          40.300          36.800



 126224743.638 7  98356953.38346  24019770.060                    24019772.360
     -2866.923       -2233.972          42.200          39.550    94258764.594 7
  24019780.080       -2140.814          47.250


 105949448.989 8  82558129.50648  20161463.920                    20161464.660
      -779.555        -607.445          52.150          51.950    79118233.892 9
  20161466.100        -582.123          57.700


 122056163.350 7  95108819.50646  23226493.260                    23226495.380
      3538.933        2757.616          44.250          40.900    91145979.761 8
  23226499.860        2642.661          48.550


 128298704.857 7  99973048.55246  24414430.180                    24414431.720
      3296.545        2568.737          43.750          39.750    95807504.036 7
  24414432.700        2461.698          45.100


 23 10 29 17  2  0.0000000  0 11G10G12G13G15G17G19G22G23G24G25G32
 123625528.056 7  96331603.03646  23525155.520                    23525158.120
     -1045.944        -815.022          46.000          41.050    92317786.838 7
  23525157.200        -780.998          45.450


 109139039.786 8  85043540.87548  20768420.600                    20768418.740
      1925.798        1500.622          51.250          51.000



 130058875.072 6 101344640.14445  24749363.860                    24749367.960
     -3864.086       -3010.977          40.500          33.550



 118558070.974 8  92382944.58148  22560840.480                    22560839.720
     -3547.852       -2764.562          48.200          48.100



 123906717.655 7  96550775.14347  23578631.640                    23578631.960
     -2151.125       -1676.202          45.050          44.900



 115825296.808 7  90253534.05547  22040798.200                    22040794.680
      -293.899        -229.011          47.200          44.700



 131930528.873 6 102803144.72546  25105484.780                    25105484.080
     -3298.662       -2570.385          40.100          37.650



 126310850.979 7  98424049.87946  24036155.880                    24036158.620
     -2874.806       -2240.110          42.100          40.550    94323065.352 7
  24036165.640       -2146.684          47.400


 105973030.887 8  82576505.01548  20165951.500                    20165952.200
      -793.765        -618.518          52.300          52.250    79135843.755 9
  20165953.720        -592.653          57.850


 121950069.801 7  95026149.36246  23206304.360                    23206306.220
      3532.841        2752.871          44.600          40.250    91066754.249 8
  23206311.020        2638.146          49.200


 128199885.681 7  99896046.64146  24395625.540                    24395626.900
      3290.271        2563.849          44.200          39.800    95733710.546 7
  24395627.780        2457.054          45.300


 23 10 29 17  2 30.0000000  0 11G10G12G13G15G17G19G22G23G24G25G32
 123657165.598 7  96356255.62746  23531176.080                    23531178.820
     -1063.913        -829.024          45.550          41.850    92341412.237 7
  23531177.620        -794.366          45.800


 109081488.579 8  84998695.81448  20757469.080                    20757466.860
      1910.469        1488.678          51.050          51.100



 130174816.265 6 101434983.89645  24771426.960                    24771430.640
     -3865.845       -3012.345          39.800          35.750



 118664624.472 7  92465973.21648  22581117.000                    22581116.220
     -3556.147       -2771.025          47.900          48.150



 123971453.528 7  96601218.69547  23590950.540                    23590950.940
     -2165.177       -1687.151          44.950          44.950



 115834418.961 7  90260642.25147  22042533.960                    22042530.660
      -314.875        -245.357          47.500          45.000



 132029488.086 6 102880255.85746  25124316.160                    25124315.620
     -3299.023       -2570.665          41.050          37.150



 126397207.720 7  98491340.70946  24052589.420                    24052592.320
     -2882.894       -2246.415          42.750          41.200    94387552.366 7
  24052598.660       -2152.702          46.700


 105997051.278 8  82595222.21748  20170522.420                    20170523.040
      -808.116        -629.701          51.800          51.800    79153781.076 9
  20170524.760        -603.528          57.800


 121844174.289 7  94943633.50546  23186153.160                    23186154.940
      3526.418        2747.859          45.050          41.500    90987676.598 8
  23186159.520        2633.361          48.650


 128101276.503 7  99819208.35846  24376860.800                    24376862.220
      3283.053        2558.225          44.200          39.600    95660073.866 7
  24376863.020        2451.870          45.100


 23 10 29 17  3  0.0000000  0 11G10G12G13G15G17G19G22G23G24G25G32
 123689334.208 7  96381322.05047  23537297.600                    23537300.520
     -1081.001        -842.340          44.550          42.350    92365434.202 7
  23537299.280        -807.177          46.250


 109024394.303 8  84954206.80248  20746604.400                    20746601.960
      1895.578        1477.075          51.350          51.300



 130290806.110 6 101525365.53446  24793499.180                    24793503.200
     -3867.218       -3013.412          39.350          36.900



 118771424.252 7  92549193.74847  22601440.360                    22601439.740
     -3563.959       -2777.113          47.550          47.550



 124036609.791 7  96651989.81447  23603349.320                    23603349.680
     -2178.815       -1697.777          44.850          45.000



 115844165.212 7  90268236.76247  22044388.520                    22044385.540
      -335.113        -261.127          47.750          43.850



 132128449.242 6 102957368.51046  25143147.740                    25143147.300
     -3298.473       -2570.239          41.000          36.000



 126483803.941 7  98558818.13946  24069068.360                    24069071.540
     -2890.254       -2252.152          42.400          40.900    94452218.202 7
  24069077.200       -2158.302          46.450


 106021503.247 8  82614275.71048  20175175.380                    20175176.000
      -822.267        -640.727          51.700          51.850    79172040.661 9
  20175177.820        -613.850          57.750


 121738471.586 7  94861267.91647  23166038.580                    23166040.660
      3520.110        2742.950          44.200          42.350    90908742.942 8
  23166044.820        2628.922          48.950


 128002873.048 7  99742530.39246  24358135.220                    24358136.940
      3276.864        2553.403          44.400          41.300    95586590.837 7
  24358137.480        2447.073          45.650


 23 10 29 17  3 30.0000000  0 11G10G12G13G15G17G19G22G23G24G25G32
 123722039.881 7  96406806.95546  23543521.120                    23543524.180
     -1099.342        -856.632          45.100          41.550    92389857.228 7
  23543523.260        -820.679          46.900


 108967765.481 8  84910080.49548  20735828.260                    20735825.640
      1879.860        1464.828          51.650          51.650



 130406850.076 6 101615789.29145  24815581.700                    24815585.880
     -3868.569       -3014.471          40.700          35.300



 118878475.158 7  92632609.97148  22621811.500                    22621810.900
     -3572.575       -2783.827          47.950          48.050



 124102191.813 7  96703092.70847  23615829.060                    23615829.380
     -2193.118       -1708.924          45.600          46.050



 115854542.927 7  90276323.32847  22046363.300                    22046360.460
      -356.370        -277.689          47.850          44.700



 132227418.789 6 103034487.71546  25161980.960                    25161980.880
     -3298.979       -2570.632          41.100          38.000



 126570643.823 7  98626485.43146  24085593.760                    24085596.860
     -2898.598       -2258.651          43.750          40.050    94517065.985 7
  24085601.880       -2164.523          45.000


 106046393.901 8  82633671.03548  20179911.880                    20179912.380
      -836.937        -652.158          51.850          51.800    79190627.854 9
  20179914.300        -624.937          57.700


 121632970.614 7  94779059.52247  23145962.300                    23145964.620
      3513.009        2737.415          45.350          42.200    90829959.921 8
  23145968.480        2623.651          48.850


 127904685.253 7  99666020.46347  24339450.560                    24339452.540
      3269.372        2547.563          44.400          42.250    95513268.838 7
  24339453.080        2441.491          45.850


 23 10 29 17  4  0.0000000  0 11G10G12G13G15G17G19G22G23G24G25G32
 123755276.774 7  96432705.79446  23549845.680                    23549848.920
     -1116.634        -870.106          44.850          41.300    92414676.929 7
  23549848.520        -833.811          47.050


 108911599.136 8  84866314.54348  20725140.080                    20725137.440
      1864.532        1452.883          51.750          51.750



 130522942.252 7 101706250.68545  24837673.460                    24837677.520
     -3870.390       -3015.890          42.100          35.250



 118985770.672 8  92716216.80348  22642229.180                    22642228.740
     -3580.453       -2789.965          48.050          48.200



 124168194.102 7  96754523.08547  23628388.800                    23628389.080
     -2207.016       -1719.752          45.400          45.350



 115865547.881 7  90284898.64547  22048457.420                    22048454.740
      -377.085        -293.831          47.650          43.750



 132326391.002 7 103111608.99646  25180814.800                    25180814.540
     -3298.887       -2570.561          42.300          36.050



 126657720.191 7  98694337.03546  24102164.060                    24102167.020
     -2906.458       -2264.776          43.300          39.950    94582090.395 7
  24102171.460       -2170.387          45.650


 106071719.097 8  82653404.96848  20184731.140                    20184731.560
      -851.391        -663.421          52.650          52.450    79209539.545 9
  20184733.460        -635.768          57.700


 121527668.905 7  94697006.38547  23125923.800                    23125926.580
      3506.837        2732.604          45.700          42.000    90751325.713 8
  23125930.040        2618.708          48.600


 127806711.626 7  99589677.44447  24320806.580                    24320809.060
      3262.353        2542.096          44.950          42.100    95440106.787 7
  24320809.420        2436.131          46.200


 23 10 29 17  4 30.0000000  0 11G10G12G13G15G17G19G22G23G24G25G32
 123789040.595 7  96459015.24047  23556270.500                    23556273.960
     -1134.249        -883.832          44.750          42.200    92439890.111 7
  23556274.200        -846.812          47.000


 108855893.398 8  84822907.51148  20714539.540                    20714537.060
      1849.409        1441.099          51.600          51.400



 130639078.165 6 101796746.14745  24859773.420                    24859777.440
     -3871.665       -3016.885          41.450          32.750



 119093305.470 8  92800010.07047  22662692.420                    22662692.220
     -3588.151       -2795.965          48.000          47.900



 124234611.676 7  96806277.05147  23641027.600                    23641027.840
     -2220.694       -1730.411          45.350          45.600



 115877177.182 7  90293960.46347  22050670.340                    22050667.760
      -397.823        -309.991          47.250          44.500



 132425362.167 7 103188729.48146  25199648.320                    25199647.980
     -3298.613       -2570.349          42.550          36.550



 126745027.330 7  98762368.39746  24118778.040                    24118781.220
     -2913.752       -2270.462          43.750          38.500    94647287.086 7
  24118785.280       -2175.893          45.300


 106097476.060 8  82673475.33548  20189632.580                    20189632.980
      -865.604        -674.496          52.700          52.750    79228773.641 9
  20189634.900        -646.315          58.000


 121422565.518 7  94615107.80847  23105923.080                    23105926.400
      3500.437        2727.619          45.450          42.050    90672839.600 8
  23105929.320        2613.871          48.700


 127708952.182 7  99513501.31647  24302203.440                    24302206.320
      3255.270        2536.575          45.050          42.600    95367104.682 7
  24302206.640        2430.858          46.900


 23 10 29 17  5  0.0000000  0 11G10G12G13G15G17G19G22G23G24G25G32
 123823335.140 7  96485738.23846  23562796.400                    23562800.100
     -1152.050        -897.702          44.200          41.700    92465499.649 7
  23562800.860        -860.316          46.750


 108800654.460 8  84779864.21948  20704027.900                    20704025.600
      1833.342        1428.579          51.750          51.700



 130755261.405 7 101887278.49345  24881882.600                    24881885.980
     -3873.709       -3018.475          42.000          31.950



 119201082.174 7  92883991.86747  22683201.720                    22683201.540
     -3596.596       -2802.544          47.750          47.650



 124301447.768 7  96858357.11947  23653746.020                    23653746.260
     -2234.770       -1741.379          45.600          45.500



 115889435.829 7  90303512.69247  22053003.140                    22053000.360
      -419.243        -326.682          47.600          44.700



 132524336.202 6 103265852.20545  25218482.400                    25218482.020
     -3299.273       -2570.863          41.700          34.500



 126832567.316 7  98830581.24446  24135436.260                    24135438.940
     -2922.285       -2277.111          42.550          37.650    94712657.686 7
  24135443.200       -2182.032          44.600


 106123669.852 8  82693886.09648  20194617.120                    20194617.440
      -880.502        -686.104          52.350          52.350    79248333.956 9
  20194619.600        -657.518          58.050


 121317667.240 7  94533369.04647  23085961.320                    23085965.180
      3493.020        2721.839          45.200          42.950    90594506.631 8
  23085967.520        2608.479          48.650


 127611414.770 7  99437498.21747  24283642.540                    24283645.660
      3247.273        2530.346          44.950          42.750    95294268.375 7
  24283645.980        2424.953          47.050


 23 10 29 17  5 30.0000000  0 11G10G12G13G15G17G19G22G23G24G25G32
 123858150.754 7  96512867.24047  23569421.520                    23569425.520
     -1169.494        -911.295          44.500          42.100    92491498.265 7
  23569426.620        -873.372          46.000


 108745875.602 8  84737179.42648  20693603.820                    20693601.740
      1817.921        1416.562          51.450          51.450



 130871482.132 7 101977840.06645  24903998.880                    24904001.640
     -3875.127       -3019.576          42.450          31.500



 119309090.342 7  92968153.99247  22703754.960                    22703755.160
     -3604.446       -2808.663          47.600          47.350



 124368692.287 7  96910755.47047  23666542.280                    23666542.360
     -2248.636       -1752.183          45.900          45.600



 115902315.501 7  90313548.85147  22055454.060                    22055451.340
      -440.036        -342.883          47.250          44.600



 132623303.544 6 103342969.70745  25237315.140                    25237314.780
     -3299.022       -2570.662          41.900          34.600



 126920328.989 7  98898966.83846  24152136.640                    24152139.180
     -2929.600       -2282.810          42.900          38.850    94778193.851 7
  24152143.800       -2187.567          44.600


 106150292.356 8  82714630.90648  20199683.180                    20199683.500
      -894.799        -697.246          51.950          52.000    79268214.401 9
  20199685.900        -668.271          57.850


 121212967.711 7  94451785.15347  23066037.360                    23066041.620
      3486.344        2716.637          45.450          43.250    90516322.094 8
  23066043.640        2603.355          48.400


 127514093.962 7  99361663.89747  24265122.900                    24265126.200
      3239.967        2524.651          44.650          43.350    95221593.840 7
  24265126.540        2419.488          47.250


 23 10 29 17  6  0.0000000  0 11G10G12G13G15G17G19G22G23G24G25G32
 123893493.647 7  96540407.11047  23576147.060                    23576151.160
     -1186.621        -924.641          44.650          42.250    92517890.648 7
  23576152.640        -886.149          45.450


 108691565.457 8  84694859.86548  20683268.900                    20683267.020
      1802.815        1404.792          51.400          51.600



 130987746.426 7 102068435.56845  24926123.420                    24926126.040
     -3876.057       -3020.306          42.300          34.800



 119417335.549 7  93052500.84747  22724353.320                    22724353.720
     -3611.817       -2814.405          47.300          47.250



 124436351.660 7  96963477.08047  23679417.360                    23679417.360
     -2261.929       -1762.541          45.250          45.200



 115915824.342 7  90324075.25747  22058024.840                    22058022.060
      -460.560        -358.876          47.750          45.400



 132722271.792 6 103420087.92145  25256147.940                    25256147.560
     -3298.773       -2570.470          40.300          34.600



 127008317.382 7  98967529.06746  24168880.140                    24168882.320
     -2936.503       -2288.189          42.050          39.200    94843899.307 7
  24168887.840       -2192.828          44.850


 106177351.400 8  82735715.89348  20204832.280                    20204832.780
      -908.997        -708.309          51.950          51.950    79288420.846 9
  20204835.040        -678.839          57.550


 121108476.552 7  94370363.60547  23046153.140                    23046157.780
      3479.845        2711.573          44.500          43.700    90438293.137 8
  23046159.120        2598.578          48.400


 127417000.429 7  99286006.68047  24246646.460                    24246650.040
      3232.884        2519.131          44.100          43.100    95149089.027 7
  24246650.280        2414.160          47.000


 23 10 29 17  6 30.0000000  0 11G10G12G13G15G17G19G22G23G24G25G32
 123929357.052 7  96568352.58647  23582971.840                    23582975.920
     -1204.204        -938.343          44.950          42.750    92544671.738 7
  23582977.620        -899.308          45.250


 108637719.699 8  84652902.17448  20673022.320                    20673020.640
      1786.923        1392.409          51.200          51.100



 131104047.526 6 102159059.75745  24948254.980                    24948257.840
     -3877.485       -3021.416          41.650          32.200



 119525810.176 7  93137026.44847  22744995.200                    22744995.840
     -3619.897       -2820.702          47.500          47.600



 124504418.432 7  97016516.14947  23692369.980                    23692370.060
     -2275.999       -1773.504          44.950          44.800



 115929956.840 7  90335087.62747  22060714.280                    22060711.580
      -481.600        -375.271          47.750          45.250



 132821234.281 6 103497201.65345  25274979.520                    25274979.260
     -3298.896       -2570.560          41.200          34.100



 127096524.250 7  99036261.52046  24185665.460                    24185667.380
     -2943.962       -2294.005          42.250          40.800    94909767.895 7
  24185673.520       -2198.461          45.300


 106204841.765 8  82757136.96048  20210063.380                    20210063.980
      -923.722        -719.782          51.400          51.400    79308949.379 9
  20210066.120        -689.837          57.700


 121004190.281 7  94289101.70347  23026307.880                    23026312.640
      3472.582        2705.911          44.700          43.200    90360417.186 8
  23026313.840        2593.076          48.750


 127320131.722 7  99210524.65347  24228212.860                    24228216.620
      3224.896        2512.908          44.400          43.800    95076752.106 7
  24228216.700        2408.251          47.350


 23 10 29 17  7  0.0000000  0 11G10G12G13G15G17G19G22G23G24G25G32
 123965744.008 7  96596706.02547  23589896.420                    23589900.180
     -1221.240        -951.616          44.700          43.050    92571843.800 7
  23589901.920        -912.260          44.650


 108584344.375 8  84611311.04748  20662865.240                    20662863.720
      1771.494        1380.387          51.250          51.250



 131220388.150 6 102249714.72545  24970393.880                    24970396.340
     -3878.662       -3022.336          41.700          31.650



 119634516.275 7  93221732.42047  22765681.220                    22765682.060
     -3627.254       -2826.435          46.700          46.600



 124572895.144 7  97069874.63247  23705400.480                    23705400.720
     -2289.037       -1783.665          44.650          44.600



 115944717.113 7  90346589.16447  22063523.100                    22063520.500
      -502.325        -391.420          47.650          45.600



 132920194.413 6 103574313.55145  25293810.840                    25293811.040
     -3298.744       -2570.442          41.100          33.050



 127184951.082 7  99105165.40946  24202492.780                    24202494.440
     -2951.054       -2299.528          42.850          38.950    94975800.768 7
  24202501.120       -2203.669          44.650


 106232767.896 8  82778897.58848  20215377.320                    20215378.000
      -938.162        -731.036          51.050          50.900    79329803.316 9
  20215380.160        -700.502          57.400


 120900115.246 7  94208004.38847  23006502.860                    23006507.700
      3465.549        2700.432          44.150          43.750    90282698.934 8
  23006508.500        2588.000          48.800


 127223495.088 7  99135223.48047  24209823.500                    24209827.400
      3217.410        2507.076          44.550          43.050    95004588.503 7
  24209827.260        2402.593          47.100


 23 10 29 17  7 30.0000000  0 11G10G12G13G15G17G19G22G23G24G25G32
 124002646.368 7  96625461.08046  23596918.980                    23596922.420
     -1239.339        -965.720          45.700          41.000    92599400.715 7
  23596923.960        -925.441          44.250


 108531433.717 8  84570082.00448  20652796.560                    20652795.120
      1755.234        1367.716          51.300          51.150



 131336760.232 7 102340394.24145  24992538.760                    24992540.440
     -3880.233       -3023.564          42.600          33.300



 119743444.908 7  93306611.78747  22786409.560                    22786410.340
     -3635.283       -2832.690          47.550          47.250



 124641773.955 7  97123546.45047  23718507.440                    23718507.760
     -2303.234       -1794.728          44.000          43.850



 115960098.702 7  90358574.84447  22066450.000                    22066447.700
      -523.711        -408.085          47.100          45.700



 133019144.677 6 103651417.71345  25312640.340                    25312640.700
     -3298.893       -2570.564          41.350          34.550



 127273588.453 7  99174233.31546  24219360.020                    24219362.060
     -2958.613       -2305.419          43.200          39.250    95041990.846 7
  24219368.540       -2209.416          45.250


 106261123.266 8  82800992.68848  20220773.040                    20220773.880
      -953.008        -742.603          51.500          51.450    79350977.791 9
  20220775.920        -711.678          57.300


 120796246.567 7  94127067.85347  22986737.120                    22986741.960
      3458.022        2694.565          44.200          43.350    90205134.798 8
  22986742.620        2582.306          49.200


 127127086.830 7  99060100.25747  24191477.600                    24191481.600
      3209.093        2500.596          44.950          43.600    94932595.440 7
  24191481.140        2396.325          46.800


 23 10 29 17  8  0.0000000  0 11G10G12G13G15G17G19G22G23G24G25G32
 124040067.872 7  96654620.65946  23604040.340                    23604043.140
     -1255.659        -978.437          45.750          40.500    92627345.314 7
  23604044.720        -937.729          44.500


 108478993.912 8  84529219.85748  20642817.520                    20642816.060
      1740.506        1356.239          51.100          51.000



 131453167.297 7 102431101.02744  25014690.340                    25014691.860
     -3880.573       -3023.825          42.550          29.350



 119852599.144 7  93391666.95647  22807180.960                    22807181.620
     -3641.861       -2837.817          47.350          47.300



 124711057.785 7  97177533.86847  23731691.520                    23731691.800
     -2315.884       -1804.585          44.200          43.750



 115976106.717 7  90371048.62747  22069495.980                    22069494.020
      -543.933        -423.844          45.950          45.450



 133118089.046 7 103728517.34145  25331468.860                    25331468.880
     -3297.605       -2569.558          42.300          33.950



 127362438.604 7  99243467.04346  24236267.860                    24236270.200
     -2964.877       -2310.300          43.500          37.900    95108339.810 7
  24236276.360       -2214.098          44.100


 106289913.086 8  82823426.32548  20226251.600                    20226252.460
      -966.590        -753.187          51.900          51.750    79372476.692 9
  20226254.400        -721.837          57.350


 120692591.300 7  94046297.61647  22967012.000                    22967016.820
      3452.189        2690.021          43.200          42.450    90127730.036 8
  22967017.300        2577.658          48.700


 127030914.962 7  98985161.23147  24173176.700                    24173180.820
      3202.141        2495.178          44.400          44.050    94860778.897 7
  24173179.900        2391.077          46.550


 23 10 29 17  8 30.0000000  0 11G10G12G13G15G17G19G22G23G24G25G32
 124078003.868 7  96684181.13446  23611259.560                    23611261.600
     -1273.286        -992.172          46.400          39.200    92655674.099 7
  23611263.160        -950.853          44.900


 108427023.353 8  84488723.35948  20632927.760                    20632926.300
      1724.313        1343.621          50.900          50.900



 131569604.640 7 102521831.37845  25036847.660                    25036849.420
     -3881.808       -3024.786          42.900          31.800



 119961973.314 7  93476893.52547  22827994.200                    22827994.480
     -3649.680       -2843.907          47.700          47.800



 124780741.752 7  97231833.07747  23744951.920                    23744951.880
     -2329.493       -1815.189          43.550          43.300



 115992737.732 7  90384007.88047  22072660.500                    22072658.760
      -564.866        -440.155          45.900          45.750



 133217023.702 6 103805609.38945  25350295.460                    25350295.840
     -3297.884       -2569.776          41.550          35.450



 127451495.498 7  99312861.89246  24253214.960                    24253217.840
     -2972.174       -2315.983          43.400          40.100    95174843.170 7
  24253223.040       -2219.562          44.700


 106319134.228 8  82846196.05348  20231812.300                    20231813.020
      -981.409        -764.734          52.150          52.200    79394297.684 9
  20231815.020        -732.883          57.450


 120589148.236 7  93965692.73747  22947327.180                    22947332.140
      3444.056        2683.681          43.600          42.450    90050483.681 8
  22947332.420        2572.053          49.550


 126934979.226 7  98910406.21247  24154920.800                    24154924.880
      3193.653        2488.565          45.100          43.650    94789138.673 7
  24154923.620        2384.860          46.250


 23 10 29 17  9  0.0000000  0 11G10G12G13G15G17G19G22G23G24G25G32
 124116455.146 7  96714143.14046  23618576.620                    23618578.240
     -1290.099       -1005.274          45.100          40.750    92684387.673 7
  23618579.620        -963.354          45.050


 108375525.974 8  84448595.57048  20623128.080                    20623126.620
      1708.883        1331.599          50.600          50.650



 131686073.625 6 102612586.36245  25059010.900                    25059012.740
     -3882.638       -3025.430          41.500          35.100



 120071567.801 7  93562291.75947  22848849.480                    22848849.540
     -3656.487       -2849.213          47.500          47.550



 124850826.471 7  97286444.57947  23758288.480                    23758288.280
     -2342.638       -1825.431          42.850          42.800



 116009994.478 7  90397454.71347  22075944.220                    22075942.500
      -585.398        -456.153          46.100          45.850



 133315950.417 7 103882695.22945  25369120.620                    25369121.040
     -3297.280       -2569.305          42.250          35.250



 127540759.105 7  99382417.78546  24270201.260                    24270204.800
     -2978.938       -2321.254          42.600          38.750    95241500.860 7
  24270208.380       -2224.313          42.550


 106348789.523 8  82869304.07948  20237455.580                    20237456.160
      -995.590        -775.784          51.800          51.950    79416442.880 9
  20237458.140        -743.418          57.000


 120485921.775 7  93885256.63647  22927683.520                    22927688.660
      3437.449        2678.534          42.900          42.800    89973399.127 8
  22927688.860        2566.874          49.000


 126839285.261 7  98835839.57347  24136710.940                    24136714.920
      3185.898        2482.522          44.850          43.850    94717678.988 7
  24136713.280        2379.104          45.850


 23 10 29 17  9 30.0000000  0 11G10G12G13G15G17G19G22G23G24G25G32
 124155414.542 7  96744501.09146  23625990.300                    23625991.500
     -1306.689       -1018.199          45.550          38.550    92713480.683 7
  23625992.820        -975.852          45.600


 108324495.948 8  84408831.95448  20613417.340                    20613415.880
      1693.307        1319.462          50.800          50.750



 131802566.692 6 102703360.12145  25081178.640                    25081180.620
     -3882.833       -3025.589          40.300          30.650



 120181374.431 7  93647855.29447  22869745.120                    22869744.880
     -3663.431       -2854.622          47.800          47.950



 124921304.586 7  97341362.61247  23771700.020                    23771699.640
     -2355.588       -1835.521          42.900          42.750



 116027870.697 7  90411384.26147  22079345.960                    22079343.980
      -605.845        -472.086          46.900          46.150



 133414862.334 7 103959769.54645  25387943.020                    25387943.100
     -3296.430       -2568.646          42.100          34.950



 127630220.300 6  99452127.67946  24287225.260                    24287229.180
     -2984.834       -2325.850          41.950          40.200    95308306.135 7
  24287231.840       -2229.037          43.050


 106378872.901 8  82892745.66648  20243180.140                    20243180.900
     -1009.721        -786.796          51.000          50.900    79438907.740 9
  20243182.700        -753.962          56.950


 120382907.787 7  93804986.11147  22908080.420                    22908085.660
      3430.472        2673.097          43.350          42.150    89896473.211 8
  22908085.680        2561.700          48.850


 126743829.857 7  98761458.83047  24118546.440                    24118550.500
      3178.074        2476.425          45.250          43.500    94646397.437 7
  24118548.400        2373.274          45.600


 23 10 29 17 10  0.0000000  0 11G10G12G13G15G17G19G22G23G24G25G32
 124194881.619 7  96775254.61446  23633500.580                    23633501.600
     -1324.349       -1031.961          45.500          38.150    92742952.774 7
  23633502.720        -988.787          46.100


 108273936.154 8  84369434.74348  20603796.140                    20603794.620
      1677.278        1306.972          50.850          50.650



 131919083.469 6 102794152.34545  25103351.060                    25103352.900
     -3884.500       -3026.887          40.250          33.600



 120291391.933 7  93733583.16047  22890680.860                    22890680.320
     -3670.871       -2860.421          46.900          46.850



 124992175.550 7  97396586.77047  23785186.380                    23785185.960
     -2368.920       -1845.911          44.150          43.650



 116046367.561 7  90425797.42647  22082865.860                    22082863.460
      -627.055        -488.613          46.900          45.550



 133513759.225 6 104036832.19845  25406762.520                    25406762.100
     -3296.307       -2568.540          41.350          35.050



 127719877.722 6  99521990.43746  24304286.540                    24304290.740
     -2991.999       -2331.431          41.750          41.200    95375257.878 7
  24304292.380       -2234.247          42.550


 106409385.700 8  82916521.88148  20248986.500                    20248987.460
     -1024.435        -798.260          51.600          51.750    79461693.283 9
  20248989.200        -764.986          57.300


 120280109.404 7  93724883.57347  22888518.400                    22888523.600
      3422.841        2667.151          42.600          42.350    89819708.310 8
  22888523.860        2556.023          49.000


 126648617.256 7  98687267.25947  24100428.120                    24100432.020
      3169.443        2469.698          45.050          43.050    94575297.195 7
  24100429.700        2366.828          45.550


 23 10 29 17 10 30.0000000  0 11G10G12G13G15G17G19G22G23G24G25G32
 124234856.611 7  96806403.92346  23641107.580                    23641108.900
     -1341.120       -1045.029          46.100          37.550    92772804.182 7
  23641109.320       -1001.484          46.250


 108223849.465 8  84330406.19148  20594265.080                    20594263.420
      1661.321        1294.537          51.300          51.300



 132035623.826 6 102884962.96145  25125528.020                    25125530.340
     -3885.217       -3027.437          41.800          31.250



 120401619.839 7  93819474.95947  22911656.660                    22911656.140
     -3677.945       -2865.933          46.750          46.500



 125063439.044 7  97452116.78847  23798747.540                    23798747.100
     -2382.247       -1856.296          43.950          43.800



 116065486.189 7  90440695.09747  22086504.020                    22086501.220
      -647.887        -504.845          47.150          45.400



 133612642.465 6 104113884.19045  25425579.280                    25425578.840
     -3295.938       -2568.260          40.700          35.550



 127809730.010 6  99592005.04946  24321385.280                    24321389.280
     -2998.593       -2336.572          41.900          41.300    95442355.156 7
  24321390.800       -2239.104          43.650


 106440329.524 8  82940633.96848  20254874.980                    20254875.920
     -1038.886        -809.521          51.850          51.750    79484800.698 9
  20254877.660        -775.734          57.150


 120177530.094 7  93644951.77047  22868998.240                    22869003.300
      3415.368        2661.332          43.650          43.000    89743107.005 8
  22869003.380        2550.512          48.850


 126553652.005 7  98613268.44747  24082356.780                    24082360.740
      3161.085        2463.185          45.200          42.500    94504381.685 7
  24082358.300        2360.591          45.650


 23 10 29 17 11  0.0000000  0 11G10G12G13G15G17G19G22G23G24G25G32
 124275339.609 7  96837949.08646  23648811.360                    23648812.940
     -1357.751       -1057.988          46.650          39.350    92803034.943 7
  23648812.760       -1013.877          46.200


 108174239.008 8  84291748.72548  20584824.680                    20584822.820
      1645.988        1282.590          51.600          51.600



 132152188.642 6 102975792.70945  25147709.620                    25147711.780
     -3885.582       -3027.724          41.550          30.950



 120512058.153 7  93905530.71247  22932672.360                    22932671.900
     -3684.575       -2871.100          46.650          46.700



 125135095.362 7  97507952.89747  23812383.360                    23812383.120
     -2394.965       -1866.207          44.550          44.350



 116085228.453 7  90456078.71747  22090260.820                    22090257.860
      -668.270        -520.729          46.400          46.150



 133711513.291 6 104190926.50045  25444393.520                    25444393.000
     -3295.349       -2567.795          40.800          32.300



 127899776.391 7  99662170.90346  24338520.900                    24338524.740
     -3004.674       -2341.310          43.000          40.850    95509597.358 7
  24338526.800       -2243.538          43.150


 106471706.505 8  82965083.57248  20260845.860                    20260846.780
     -1052.932        -820.466          51.750          51.900    79508231.571 9
  20260848.240        -786.283          57.000


 120075173.780 7  93565193.71047  22849520.560                    22849525.200
      3408.043        2655.623          43.600          42.700    89666672.201 8
  22849525.580        2545.157          48.750


 126458938.966 7  98539466.14947  24064333.380                    24064337.280
      3153.089        2456.954          45.050          43.050    94433654.502 7
  24064334.960        2354.475          45.750


 23 10 29 17 11 30.0000000  0 11G10G12G13G15G17G19G22G23G24G25G32
 124316322.619 7  96869883.83846  23656610.280                    23656612.040
     -1374.993       -1071.424          46.550          40.300    92833639.049 7
  23656611.640       -1026.634          46.450


 108125099.100 8  84253457.91448  20575473.760                    20575471.740
      1629.776        1269.957          51.350          51.350



 132268769.733 6 103066635.03245  25169894.300                    25169896.140
     -3886.775       -3028.662          40.800          31.900



 120622697.838 7  93991743.39247  22953726.500                    22953726.180
     -3691.749       -2876.688          46.350          46.250



 125207136.060 7  97564088.52047  23826092.200                    23826092.240
     -2408.139       -1876.471          44.500          44.300



 116105587.743 7  90471943.11147  22094134.980                    22094131.880
      -689.328        -537.138          46.350          45.550



 133810363.721 6 104267952.92245  25463204.060                    25463202.740
     -3295.214       -2567.691          41.700          32.450



 127990007.575 7  99732480.77946  24355691.700                    24355695.200
     -3011.267       -2346.445          43.900          40.150    95576977.641 7
  24355697.860       -2248.682          44.250


 106503510.222 8  82989865.69148  20266898.000                    20266898.840
     -1067.727        -831.994          52.400          52.400    79531981.111 9
  20266900.160        -797.295          57.050


 119973035.857 7  93485605.82247  22830084.540                    22830088.660
      3400.562        2649.791          44.600          42.800    89590400.497 8
  22830089.300        2539.316          48.400


 126364474.701 7  98465857.70047  24046357.360                    24046361.240
      3144.361        2450.154          45.100          43.650    94363113.084 7
  24046359.020        2347.909          45.850


 23 10 29 17 12  0.0000000  0 11G10G12G13G15G17G19G22G23G24G25G32
 124357806.366 7  96902208.75846  23664504.420                    23664506.680
     -1391.187       -1084.044          46.250          40.300    92864617.103 7
  23664505.800       -1038.772          46.600


 108076432.819 8  84215536.15548  20566212.880                    20566210.760
      1614.218        1257.833          51.250          51.300



 132385368.013 6 103157490.83045  25192082.220                    25192084.360
     -3886.799       -3028.677          41.050          31.800



 120733538.844 7  94078112.92947  22974818.760                    22974818.660
     -3697.936       -2881.511          46.700          46.700



 125279561.093 7  97620523.63347  23839874.320                    23839874.500
     -2420.491       -1886.096          44.700          44.750



 116126565.818 7  90488289.69647  22098126.880                    22098123.820
      -709.549        -552.895          46.400          45.950



 133909195.297 6 104344964.64245  25482010.880                    25482009.440
     -3294.259       -2566.946          39.750          35.850



 128080422.865 7  99802934.07446  24372897.360                    24372900.980
     -3016.981       -2350.898          44.850          38.600    95644495.334 7
  24372904.740       -2252.918          45.000


 106535742.786 8  83014981.97948  20273031.700                    20273032.460
     -1081.438        -842.680          51.700          51.600    79556050.895 9
  20273033.940        -807.645          57.350


 119871120.259 7  93406191.18547  22810690.780                    22810694.280
      3393.452        2644.252          44.900          42.450    89514294.824 8
  22810695.260        2534.023          49.150


 126270264.251 7  98392447.02047  24028429.640                    24028433.360
      3136.110        2443.725          45.550          43.100    94292761.189 7
  24028431.480        2341.799          46.250


 23 10 29 17 12 30.0000000  0 12G06G10G12G13G15G17G19G22G23G24G25G32
 133772488.784 5 104238319.58345  25456057.580                    25456062.160
      2817.566        2195.507          35.650          35.750    99895062.676 6
  25456064.000        2104.008          41.450


 124399791.022 7  96934924.02146  23672493.820                    23672496.360
     -1407.623       -1096.851          46.000          40.700    92895969.246 7
  23672495.380       -1051.285          46.800


 108028243.502 8  84177986.06948  20557042.620                    20557040.560
      1598.398        1245.507          51.100          51.100



 132501983.822 6 103248360.23245  25214273.500                    25214275.560
     -3887.405       -3029.154          40.800          32.500



 120844580.872 7  94164639.12847  22995949.480                    22995949.400
     -3704.601       -2886.705          45.950          46.050



 125352371.336 7  97677258.91147  23853729.720                    23853729.880
     -2433.271       -1896.054          44.600          44.650



 116148164.469 7  90505119.83947  22102237.080                    22102233.820
      -730.115        -568.921          47.500          45.700



 134008009.468 6 104421962.81044  25500814.300                    25500813.520
     -3293.339       -2566.228          39.050          25.600



 128171021.345 7  99873530.13246  24390137.880                    24390141.320
     -3023.016       -2355.604          43.150          39.750    95712149.847 7
  24390146.320       -2257.295          45.850


 106568406.242 8  83040434.03148  20279247.400                    20279248.160
     -1095.890        -853.939          52.100          52.000    79580442.436 9
  20279249.760        -818.329          57.450


 119769430.890 7  93326952.79647  22791340.060                    22791343.140
      3385.915        2638.376          44.750          42.800    89438358.062 8
  22791344.400        2528.481          49.200


 126176312.509 7  98319237.92147  24010551.060                    24010554.660
      3127.519        2437.028          46.000          42.000    94222602.478 7
  24010553.120        2335.548          46.400


 23 10 29 17 13  0.0000000  0 12G06G10G12G13G15G17G19G22G23G24G25G32
 133688034.625 6 104172511.14446  25439986.720                    25439991.200
      2813.412        2192.271          36.400          36.750    99831996.229 6
  25439993.200        2100.646          41.800


 124442272.522 7  96968026.43146  23680577.740                    23680580.280
     -1423.967       -1109.586          45.650          39.650    92927692.377 7
  23680579.640       -1063.390          46.900


 107980529.683 8  84140806.50048  20547962.800                    20547960.900
      1582.623        1233.213          50.850          50.950



 132618612.773 6 103339239.89345  25236467.260                    25236469.520
     -3887.475       -3029.208          40.900          33.400



 120955819.237 7  94251318.29647  23017117.420                    23017117.400
     -3710.964       -2891.661          46.150          46.100



 125425562.064 7  97734290.66647  23867657.460                    23867657.420
     -2445.848       -1905.854          44.850          44.550



 116170380.541 7  90522431.07547  22106464.900                    22106461.500
      -750.643        -584.916          47.650          45.900



 134106802.668 6 104498944.61145  25519613.800                    25519613.560
     -3292.566       -2565.635          38.800          34.200



 128261797.503 7  99944264.64346  24407412.100                    24407415.200
     -3028.498       -2359.873          43.950          37.600    95779937.061 7
  24407421.900       -2261.678          46.650


 106601497.844 8  83066219.69948  20285544.580                    20285545.480
     -1110.010        -864.943          51.750          51.850    79605153.708 9
  20285547.060        -828.883          57.300


 119667966.846 7  93247890.03446  22772032.120                    22772034.940
      3378.583        2632.665          45.950          41.650    89362589.588 8
  22772036.320        2522.986          49.150


 126082619.741 7  98246230.63747  23992721.720                    23992725.420
      3118.897        2430.312          45.450          42.750    94152637.170 7
  23992724.060        2329.060          46.600


 23 10 29 17 13 30.0000000  0 12G06G10G12G13G15G17G19G22G23G24G25G32
 133603721.520 6 104106812.65946  25423942.640                    25423947.100
      2807.869        2187.953          38.250          37.750    99769035.160 7
  25423948.940        2096.973          42.550


 124485250.932 7  97001516.05246  23688756.260                    23688758.620
     -1440.887       -1122.770          45.300          39.100    92959786.591 7
  23688758.520       -1075.921          46.850


 107933294.539 8  84103999.93148  20538974.060                    20538972.400
      1566.545        1220.686          50.550          50.450



 132735255.508 6 103430130.26745  25258663.660                    25258665.880
     -3888.495       -3029.996          40.300          32.300



 121067253.294 7  94338149.98147  23038322.800                    23038322.640
     -3717.718       -2896.925          45.750          45.700



 125499133.796 7  97791619.31747  23881657.680                    23881657.420
     -2458.634       -1915.818          44.050          43.950



 116193216.190 8  90540225.11847  22110810.640                    22110806.960
      -771.610        -601.253          48.000          45.600



 134205576.168 6 104575911.09545  25538409.660                    25538409.880
     -3292.323       -2565.442          37.900          32.600



 128352750.966 6 100015137.29946  24424719.800                    24424722.760
     -3034.946       -2364.897          41.400          38.500    95847856.631 7
  24424731.020       -2266.167          46.350


 106635020.007 8  83092340.87748  20291923.660                    20291924.500
     -1124.506        -876.238          52.050          52.100    79630186.497 9
  20291926.120        -839.784          57.000


 119566732.374 7  93169006.11546  22752767.860                    22752770.340
      3370.608        2626.450          45.500          41.100    89286992.541 8
  22752772.120        2517.060          49.300


 125989191.248 7  98173429.26347  23974942.660                    23974946.300
      3109.718        2423.158          44.200          43.250    94082869.189 7
  23974945.240        2322.335          46.500


 23 10 29 17 14  0.0000000  0 12G06G10G12G13G15G17G19G22G23G24G25G32
 133519546.438 6 104041221.68446  25407924.800                    25407929.140
      2803.195        2184.310          38.850          39.050    99706177.160 7
  25407930.880        2093.527          43.200


 124528718.436 7  97035386.79346  23697027.760                    23697030.060
     -1457.297       -1135.556          44.150          40.300    92992246.044 7
  23697030.400       -1088.172          46.900


 107886532.666 8  84067562.12948  20530075.420                    20530073.920
      1550.740        1208.369          50.350          50.300



 132851904.715 6 103521025.63845  25280861.140                    25280863.180
     -3888.362       -3029.895          37.850          35.800



 121178874.688 7  94425127.61147  23059563.680                    23059563.720
     -3723.833       -2901.689          46.500          46.550



 125573077.962 7  97849238.20547  23895728.720                    23895728.200
     -2470.963       -1925.424          43.650          43.800



 116216664.476 8  90558496.53847  22115272.820                    22115269.180
      -791.937        -617.092          48.100          45.650



 134304322.683 6 104652856.53745  25557200.340                    25557200.880
     -3291.325       -2564.665          38.650          33.300



 128443872.232 6 100086140.71846  24442059.400                    24442062.180
     -3040.255       -2369.038          41.000          38.150    95915901.605 7
  24442071.540       -2270.326          46.350


 106668966.201 8  83118792.46148  20298383.440                    20298384.120
     -1138.737        -887.327          52.200          52.300    79655535.940 9
  20298385.760        -850.371          56.800


 119465722.765 7  93090297.43647  22733546.280                    22733548.760
      3363.011        2620.531          45.850          43.050    89211563.416 8
  22733550.740        2511.351          49.250


 125896023.503 7  98100831.08347  23957213.240                    23957216.860
      3101.089        2416.436          44.350          43.550    94013295.947 7
  23957216.000        2315.735          46.650


 23 10 29 17 14 30.0000000  0 12G06G10G12G13G15G17G19G22G23G24G25G32
 133435517.454 6 103975744.52746  25391934.580                    25391939.020
      2798.799        2180.882          38.300          38.500    99643428.251 7
  25391940.640        2090.000          42.300


 124572677.992 7  97069640.95846  23705392.940                    23705394.880
     -1473.309       -1148.034          44.050          39.850    93025072.927 7
  23705395.920       -1100.108          47.250


 107840249.204 8  84031497.11248  20521267.960                    20521266.440
      1535.164        1196.232          50.650          50.750



 132968563.363 6 103611928.41745  25303060.460                    25303062.220
     -3888.290       -3029.840          39.000          31.500



 121290686.233 7  94512253.42447  23080840.800                    23080840.900
     -3729.884       -2906.406          46.000          46.200



 125647397.496 7  97907149.54647  23909871.260                    23909870.600
     -2483.098       -1934.882          43.850          43.700



 116240729.853 8  90577248.81347  22119852.240                    22119848.640
      -812.201        -632.883          48.100          45.650



 134403046.417 6 104729784.21345  25575986.780                    25575987.500
     -3290.148       -2563.755          37.600          32.550



 128535163.313 6 100157276.39746  24459431.140                    24459434.320
     -3045.210       -2372.899          40.700          37.200    95984073.282 7
  24459444.580       -2274.169          47.650


 106703341.146 8  83145578.13448  20304924.820                    20304925.400
     -1152.604        -898.133          52.400          52.300    79681205.546 9
  20304926.960        -860.712          56.850


 119364944.598 7  93011769.08047  22714368.760                    22714371.320
      3355.800        2614.912          45.750          42.300    89136307.101 8
  22714373.500        2505.871          49.750


 125803124.147 7  98028442.02747  23939534.880                    23939538.380
      3092.505        2409.746          44.200          43.750    93943923.124 7
  23939537.800        2309.327          46.950


 23 10 29 17 15  0.0000000  0 12G06G10G12G13G15G17G19G22G23G24G25G32
 133351635.332 6 103910381.83946  25375972.480                    25375976.780
      2793.303        2176.598          40.100          40.800    99580789.012 7
  25375978.260        2085.945          42.550


 124617125.075 7  97104275.00546  23713850.840                    23713852.800
     -1489.991       -1161.032          44.350          40.550    93058263.880 7
  23713854.260       -1112.579          47.550


 107794442.775 8  83995803.81748  20512551.320                    20512549.720
      1518.685        1183.392          51.150          50.850



 133085226.692 6 103702834.81145  25325260.600                    25325262.680
     -3889.029       -3030.421          38.150          33.950



 121402682.429 7  94599523.12447  23102153.000                    23102153.500
     -3736.475       -2911.540          46.950          46.900



 125722087.683 7  97965349.72347  23924084.340                    23924083.680
     -2496.074       -1944.992          43.550          43.500



 116265408.987 7  90596479.32947  22124548.340                    22124545.020
      -833.034        -649.117          47.850          45.000



 134501743.416 6 104806691.06045  25594768.240                    25594768.500
     -3289.999       -2563.637          38.000          34.250



 128626618.392 6 100228539.99546  24476834.380                    24476837.560
     -3051.538       -2377.830          38.250          37.650    96052367.491 7
  24476848.260       -2278.622          45.850


 106738141.938 8  83172695.63548  20311547.180                    20311547.760
     -1167.361        -909.632          52.000          52.050    79707193.152 9
  20311549.200        -871.710          56.800


 119264396.820 7  92933420.25847  22695235.060                    22695237.880
      3347.625        2608.541          46.350          42.350    89061222.839 8
  22695240.140        2499.754          50.000


 125710493.238 7  97956262.16347  23921907.760                    23921911.040
      3083.061        2402.387          44.750          42.350    93874750.760 7
  23921910.620        2302.215          47.300


 23 10 29 17 15 30.0000000  0 12G06G10G12G13G15G17G19G22G23G24G25G32
 133267905.675 6 103845137.93246  25360039.400                    25360043.580
      2788.239        2172.650          40.650          40.750    99518263.595 7
  25360044.940        2082.499          43.050


 124662059.666 7  97139288.92846  23722401.640                    23722403.700
     -1505.730       -1173.300          44.650          39.550    93091818.899 7
  23722405.360       -1124.413          47.300


 107749116.437 8  83960484.62348  20503926.080                    20503924.320
      1503.012        1171.179          51.650          51.600



 133201895.529 6 103793745.44444  25347461.820                    25347464.560
     -3888.715       -3030.183          39.350          29.300



 121514862.938 7  94686936.44447  23123500.260                    23123501.140
     -3742.191       -2915.996          46.150          46.350



 125797148.042 7  98023838.33947  23938367.920                    23938367.360
     -2508.205       -1954.444          43.950          44.300



 116290703.049 8  90616189.00747  22129361.420                    22129358.380
      -853.224        -664.850          48.250          44.500



 134600414.790 6 104883577.99145  25613544.800                    25613544.800
     -3288.293       -2562.306          38.050          32.600



 128718236.612 6 100299930.63046  24494268.760                    24494272.640
     -3056.527       -2381.713          40.700          39.200    96120783.506 7
  24494282.420       -2282.406          46.700


 106773370.397 8  83200146.38248  20318250.840                    20318251.400
     -1181.230        -920.439          52.250          52.250    79733500.123 9
  20318252.780        -882.114          56.650


 119164083.175 7  92855253.89847  22676145.840                    22676149.020
      3339.923        2602.543          45.850          43.550    88986313.420 8
  22676151.280        2494.129          50.000


 125618135.616 7  97884295.23646  23904332.760                    23904335.760
      3074.245        2395.518          45.100          41.800    93805782.481 7
  23904335.480        2295.557          47.300


 23 10 29 17 16  0.0000000  0 12G06G10G12G13G15G17G19G22G23G24G25G32
 133184328.976 6 103780013.24246  25344135.400                    25344139.300
      2783.396        2168.883          40.000          40.000    99455852.418 7
  25344140.580        2078.611          43.000


 124707477.325 7  97174679.28247  23731044.340                    23731046.780
     -1521.943       -1185.931          44.000          42.250    93125734.622 7
  23731048.360       -1136.433          47.800


 107704268.072 8  83925537.87848  20495391.760                    20495389.840
      1487.089        1158.771          51.250          51.250



 133318565.575 6 103884657.09845  25369663.300                    25369666.800
     -3888.927       -3030.328          37.750          32.850



 121627222.958 7  94774489.62747  23144881.660                    23144882.900
     -3748.149       -2920.639          46.350          46.300



 125872574.996 7  98082612.61147  23952721.200                    23952720.680
     -2520.169       -1963.768          44.000          44.000



 116316609.163 7  90636375.62547  22134291.040                    22134288.200
      -873.396        -680.567          47.650          45.650



 134699057.489 6 104960442.58845  25632315.640                    25632315.920
     -3287.620       -2561.770          37.750          35.950



 128810012.574 6 100371444.16246  24511733.440                    24511737.360
     -3061.576       -2385.651          40.150          38.000    96189317.278 7
  24511746.120       -2286.307          45.350


 106809024.005 8  83227928.41748  20325035.300                    20325035.960
     -1195.414        -931.491          51.350          51.300    79760124.564 9
  20325037.260        -892.669          56.800


 119064002.956 7  92777269.42047  22657101.160                    22657104.700
      3332.182        2596.511          45.900          44.750    88911578.309 8
  22657106.860        2488.396          50.200


 125526051.737 7  97812541.61347  23886809.900                    23886812.580
      3064.918        2388.248          45.250          42.900    93737018.585 7
  23886812.360        2288.878          47.650


 23 10 29 17 16 30.0000000  0 12G06G10G12G13G15G17G19G22G23G24G25G32
 133100909.024 6 103715010.67846  25328261.220                    25328265.040
      2778.196        2164.828          40.700          40.200    99393558.296 7
  25328266.200        2074.521          43.300


 124753376.452 7  97210444.78747  23739778.600                    23739781.460
     -1537.969       -1198.419          44.300          42.300    93160009.903 7
  23739783.000       -1148.529          47.150


 107659899.140 8  83890964.70548  20486948.640                    20486946.580
      1470.792        1146.073          51.250          51.350



 133435235.587 6 103975568.63045  25391865.100                    25391868.020
     -3889.398       -3030.700          39.050          34.550



 121739760.242 7  94862180.93147  23166296.720                    23166298.380
     -3754.229       -2925.375          46.100          45.850



 125948366.357 7  98141670.84547  23967143.840                    23967143.200
     -2532.288       -1973.210          43.650          43.850



 116343126.907 8  90657038.82147  22139337.080                    22139334.280
      -894.238        -696.808          48.100          44.750



 134797670.187 6 105037283.75445  25651080.760                    25651081.100
     -3286.544       -2560.942          37.600          34.650



 128901943.385 6 100443078.38946  24529227.400                    24529231.660
     -3066.913       -2389.809          39.700          39.550    96257966.703 7
  24529238.440       -2290.231          43.700


 106845102.562 8  83256041.58848  20331900.640                    20331901.440
     -1209.828        -942.723          51.350          51.250    79787066.361 9
  20331902.740        -903.398          56.600


 118964157.831 7  92699468.12847  22638101.180                    22638104.920
      3324.193        2590.285          46.300          43.600    88837018.762 8
  22638107.060        2482.379          49.950


 125434244.397 7  97741003.46947  23869339.600                    23869342.040
      3055.636        2381.016          45.850          42.650    93668461.234 7
  23869341.940        2281.729          47.350


 23 10 29 17 17  0.0000000  0 12G06G10G12G13G15G17G19G22G23G24G25G32
 133017649.419 6 103650133.07646  25312417.440                    25312421.140
      2772.639        2160.498          40.400          40.100    99331383.947 7
  25312422.380        2070.400          44.100


 124799755.535 7  97246584.29547  23748604.160                    23748607.400
     -1554.215       -1211.077          43.850          42.550    93194643.581 7
  23748608.720       -1160.501          47.100


 107616010.211 8  83856765.56648  20478596.820                    20478594.680
      1454.797        1133.608          50.850          51.000



 133551904.298 6 104066479.21945  25414066.660                    25414070.200
     -3889.473       -3030.758          38.050          35.250



 121852472.817 7  94950008.83847  23187745.180                    23187747.060
     -3760.219       -2930.044          45.300          45.350



 126024520.481 7  98201011.75047  23981635.460                    23981634.660
     -2544.627       -1982.826          42.100          42.600



 116370256.054 7  90678178.45347  22144499.640                    22144496.660
      -914.674        -712.731          47.700          46.000



 134896252.729 6 105114101.46045  25669840.380                    25669840.500
     -3285.591       -2560.201          36.300          32.800



 128994026.367 6 100514831.20346  24546750.900                    24546754.980
     -3071.786       -2393.603          39.500          39.200    96326729.781 7
  24546760.020       -2294.146          43.950


 106881606.306 8  83284486.07448  20338846.980                    20338847.760
     -1224.035        -953.793          51.400          51.300    79814325.654 9
  20338849.140        -914.102          56.600


 118864549.939 7  92621851.68647  22619146.360                    22619150.160
      3316.174        2584.036          45.550          45.300    88762636.371 8
  22619152.300        2476.350          50.350


 125342716.853 7  97669683.35246  23851922.620                    23851924.900
      3045.982        2373.494          45.750          41.650    93600112.794 7
  23851924.740        2274.568          47.500


 23 10 29 17 17 30.0000000  0 12G06G10G12G13G15G17G19G22G23G24G25G32
 132934552.642 6 103585382.35146  25296604.700                    25296608.360
      2767.151        2156.222          39.850          40.250    99269331.179 7
  25296609.440        2066.298          43.800


 124846611.533 7  97283095.41346  23757520.340                    23757524.080
     -1569.790       -1223.216          43.250          41.500    93229633.409 7
  23757525.180       -1172.351          46.650


 107572601.705 8  83822940.77948  20470336.380                    20470334.280
      1438.867        1121.195          50.650          50.400



 133668569.209 6 104157386.78545  25436267.420                    25436270.500
     -3888.986       -3030.378          36.800          35.750



 121965357.288 7  95037970.68547  23209226.340                    23209228.480
     -3765.726       -2934.335          45.200          44.950



 126101034.147 7  98260632.80547  23996195.420                    23996194.600
     -2556.583       -1992.142          42.250          42.650



 116397994.911 8  90699793.15347  22149778.200                    22149775.260
      -934.908        -728.499          48.450          45.800



 134994803.470 6 105190894.40746  25688593.800                    25688594.120
     -3284.719       -2559.517          37.100          36.500



 129086258.013 6 100586699.75846  24564301.960                    24564306.480
     -3077.256       -2397.871          39.200          38.750    96395603.779 7
  24564310.040       -2297.710          43.950


 106918534.275 8  83313261.11748  20345874.120                    20345874.920
     -1238.133        -964.779          51.400          51.350    79841901.735 9
  20345876.320        -924.576          56.550


 118765180.154 7  92544420.80747  22600236.880                    22600240.700
      3308.230        2577.846          45.900          44.500    88688431.787 8
  22600242.700        2470.440          50.250


 125251471.116 7  97598582.83546  23834559.220                    23834561.560
      3036.610        2366.192          46.100          41.800    93531974.807 7
  23834561.240        2267.642          47.200


 23 10 29 17 18  0.0000000  0 12G06G10G12G13G15G17G19G22G23G24G25G32
 132851623.255 6 103520762.08046  25280823.700                    25280827.340
      2761.493        2151.815          39.550          40.100    99207403.431 7
  25280828.560        2061.984          43.950


 124893943.734 7  97319977.62847  23766527.240                    23766531.240
     -1585.786       -1235.677          43.300          42.050    93264978.845 7
  23766531.820       -1184.217          46.250


 107529675.236 8  83789491.60148  20462167.720                    20462165.640
      1422.681        1108.583          50.550          50.600



 133785229.772 6 104248290.91345  25458467.620                    25458470.640
     -3889.203       -3030.555          38.900          32.300



 122078412.355 7  95126065.46947  23230740.140                    23230742.260
     -3771.457       -2938.800          45.800          45.700



 126177906.112 7  98320533.04747  24010823.580                    24010822.820
     -2568.414       -2001.361          42.700          43.550



 116426343.804 8  90721883.23147  22155172.880                    22155169.740
      -955.346        -744.426          48.300          44.950



 135093322.568 6 105267662.68745  25707341.440                    25707341.220
     -3283.545       -2558.602          38.200          35.800



 129178636.134 6 100658682.57446  24581881.140                    24581885.600
     -3081.812       -2401.419          37.800          37.300    96464587.251 7
  24581888.560       -2301.349          43.050


 106955887.299 8  83342367.37548  20352982.240                    20352983.120
     -1252.418        -975.910          51.800          51.700    79869795.237 9
  20352984.420        -935.265          56.650


 118666051.214 7  92467177.57847  22581373.140                    22581377.020
      3300.134        2571.536          45.200          44.800    88614407.039 8
  22581378.780        2464.380          50.400


 125160511.084 7  97527704.92547  23817250.100                    23817252.580
      3026.986        2358.692          46.600          42.750    93464050.159 7
  23817252.140        2260.409          47.300


 23 10 29 17 18 30.0000000  0 12G06G10G12G13G15G17G19G22G23G24G25G32
 132768862.543 6 103456273.25846  25265074.820                    25265078.500
      2756.172        2147.668          37.800          36.350    99145601.673 7
  25265079.500        2057.733          43.100


 124941748.169 7  97357227.78446  23775624.180                    23775628.320
     -1601.968       -1248.288          42.700          41.900    93300676.903 7
  23775628.180       -1196.119          45.900


 107487229.406 8  83756416.94848  20454090.580                    20454088.500
      1406.484        1095.963          51.150          51.050



 133901882.279 6 104339188.81345  25480666.060                    25480669.240
     -3888.957       -3030.356          37.000          32.350



 122191634.052 7  95214290.09847  23252285.600                    23252287.560
     -3777.204       -2943.279          45.800          45.550



 126255133.291 7  98380710.08647  24025519.440                    24025518.660
     -2580.532       -2010.804          43.400          43.500



 116455299.972 8  90744446.50347  22160683.120                    22160680.040
      -975.820        -760.378          48.550          46.000



 135191806.893 6 105344403.84146  25726082.300                    25726081.960
     -3282.763       -2557.997          39.650          37.100



 129271155.881 6 100730775.70646  24599487.060                    24599491.960
     -3086.994       -2405.460          38.850          39.450    96533676.451 7
  24599494.520       -2305.067          43.900


 106993663.142 8  83371803.10148  20360170.840                    20360171.680
     -1266.734        -987.066          52.150          52.200    79898004.472 9
  20360172.940        -945.860          56.600


 118567162.729 7  92390121.71647  22562555.200                    22562558.980
      3291.856        2565.086          45.250          44.900    88540561.856 8
  22562560.780        2458.281          50.200


 125069837.483 7  97457050.23047  23799995.480                    23799998.080
      3017.269        2351.121          46.450          42.800    93396339.410 7
  23799997.640        2253.165          47.450


 23 10 29 17 19  0.0000000  0 12G06G10G12G13G15G17G19G22G23G24G25G32
 132686275.351 6 103391919.60546  25249358.940                    25249362.660
      2749.880        2142.765          38.050          37.300    99083929.396 7
  25249364.000        2053.593          44.250


 124990023.568 7  97394844.92947  23784810.620                    23784814.800
     -1616.865       -1259.896          43.050          42.600    93336726.677 7
  23784814.180       -1207.327          45.350


 107445266.358 8  83723718.49448  20446105.320                    20446103.300
      1391.002        1083.898          51.550          51.600



 134018526.431 6 104430080.21845  25502862.940                    25502866.100
     -3887.691       -3029.377          39.550          35.200



 122305020.357 7  95302642.98847  23273862.460                    23273864.440
     -3781.857       -2946.905          46.250          46.200



 126332714.244 7  98441162.78947  24040282.620                    24040281.960
     -2591.603       -2019.431          43.600          43.750



 116484863.961 7  90767483.38747  22166308.940                    22166305.840
      -995.517        -775.727          47.800          46.000



 135290256.649 6 105421118.12046  25744816.680                    25744816.300
     -3280.721       -2556.400          39.850          37.400



 129363815.365 6 100802977.70846  24617119.640                    24617124.720
     -3090.729       -2408.373          38.400          38.300    96602870.017 7
  24617127.540       -2308.231          44.350


 107031862.639 8  83401568.94548  20367440.040                    20367440.780
     -1280.183        -997.544          52.100          52.100    79926530.086 9
  20367442.060        -956.080          56.400


 118468517.445 7  92313255.37347  22543783.560                    22543787.160
      3284.438        2559.306          46.000          44.450    88466898.297 8
  22543788.920        2452.470          50.500


 124979454.263 7  97386621.79447  23782796.120                    23782798.800
      3008.007        2343.902          46.300          42.300    93328845.515 7
  23782798.440        2246.181          47.250


 23 10 29 17 19 30.0000000  0 12G06G10G12G13G15G17G19G22G23G24G25G32
 132603863.570 6 103327702.67746  25233676.420                    25233680.280
      2743.438        2137.740          38.250          37.000    99022388.180 7
  25233681.480        2049.166          43.950


 125038767.178 7  97432826.90547  23794086.420                    23794090.400
     -1632.487       -1272.070          43.350          42.700    93373126.094 7
  23794089.220       -1219.130          45.100


 107403785.470 8  83691395.75948  20438211.860                    20438210.000
      1374.566        1071.092          51.700          51.700



 134135159.286 6 104520962.83845  25525057.540                    25525060.740
     -3887.687       -3029.371          38.550          30.750



 122418567.937 7  95391121.56247  23295469.960                    23295471.740
     -3787.573       -2951.357          46.300          46.350



 126410646.131 7  98501888.94347  24055112.580                    24055112.120
     -2603.641       -2028.812          44.000          43.900



 116515033.590 8  90790992.21447  22172050.120                    22172046.900
     -1015.847        -791.569          48.900          45.850



 135388670.149 6 105497804.11645  25763544.060                    25763543.600
     -3280.182       -2555.981          41.050          34.600



 129456610.494 6 100875285.43646  24634778.000                    24634783.220
     -3095.351       -2411.967          40.850          38.350    96672164.895 7
  24634786.560       -2311.571          43.900


 107070484.475 8  83431663.89248  20374789.560                    20374790.240
     -1294.512       -1008.711          51.700          51.700    79955371.081 9
  20374791.580        -966.696          56.350


 118370115.957 7  92236579.00147  22525058.380                    22525061.620
      3275.907        2552.660          46.100          43.750    88393416.800 8
  22525063.620        2446.276          50.700


 124889363.122 7  97316420.95646  23765652.220                    23765654.980
      2998.076        2336.165          46.400          41.600    93261569.720 7
  23765654.800        2238.800          47.500


 23 10 29 17 20  0.0000000  0 12G06G10G12G13G15G17G19G22G23G24G25G32
 132521631.842 6 103263626.06446  25218028.140                    25218032.100
      2738.202        2133.664          37.350          38.200    98960981.476 7
  25218033.520        2044.672          42.900


 125087978.147 7  97471173.07146  23803451.220                    23803454.960
     -1647.912       -1284.090          44.400          41.700    93409874.470 7
  23803453.540       -1230.579          45.850


 107362788.802 8  83659450.33248  20430410.480                    20430408.880
      1358.667        1058.703          51.900          51.850



 134251780.952 6 104611836.59045  25547250.060                    25547252.340
     -3887.018       -3028.852          37.600          30.600



 122532275.856 7  95479725.07447  23317108.040                    23317109.620
     -3792.727       -2955.375          46.100          45.650



 126488927.659 7  98562887.55147  24070009.040                    24070008.660
     -2614.926       -2037.605          44.050          44.200



 116545809.571 8  90814973.50647  22177906.620                    22177903.280
     -1035.707        -807.044          49.200          45.400



 135487047.482 6 105574461.97945  25782264.640                    25782263.700
     -3278.443       -2554.627          39.700          34.150



 129549539.596 6 100947697.52046  24652462.020                    24652467.240
     -3099.746       -2415.392          41.950          36.900    96741559.761 7
  24652471.200       -2314.641          44.250


 107109529.606 8  83462088.67648  20382219.560                    20382220.240
     -1308.308       -1019.460          51.450          51.600    79984528.164 9
  20382221.660        -976.979          56.400


 118271961.143 7  92160094.84247  22506380.080                    22506382.800
      3267.796        2546.338          46.500          42.650    88320119.493 8
  22506385.120        2440.266          51.000


 124799568.124 7  97246450.87147  23748564.640                    23748567.400
      2988.283        2328.534          46.150          42.600    93194515.065 7
  23748567.560        2231.569          47.600


 23 10 29 17 20 30.0000000  0 12G06G10G12G13G15G17G19G22G23G24G25G32
 132439579.519 6 103199689.26246  25202413.900                    25202418.240
      2731.946        2128.793          36.800          36.950    98899708.708 7
  25202419.560        2039.954          43.900


 125137649.709 7  97509878.13246  23812903.640                    23812907.040
     -1663.349       -1296.119          45.300          41.150    93446966.837 7
  23812905.920       -1242.194          46.250


 107322272.681 8  83627879.35748  20422700.600                    20422699.120
      1342.503        1046.107          51.550          51.600



 134368385.280 6 104702696.89145  25569439.220                    25569442.080
     -3886.377       -3028.358          36.450          31.700



 122646137.298 7  95568448.19647  23338775.260                    23338776.760
     -3797.977       -2959.466          45.750          45.300



 126567552.123 7  98624153.38347  24084970.860                    24084970.300
     -2626.640       -2046.731          43.800          44.050



 116577186.741 8  90839423.26947  22183877.660                    22183874.100
     -1055.927        -822.800          48.800          46.000



 135585383.920 6 105651087.97145  25800977.280                    25800976.280
     -3277.192       -2553.646          40.650          34.950



 129642595.343 7 101020208.32446  24670170.360                    24670175.260
     -3104.052       -2418.746          42.900          38.950    96811049.229 7
  24670179.840       -2317.889          43.950


 107148993.483 8  83492839.75148  20389729.200                    20389729.940
     -1322.488       -1030.511          51.400          51.450    80013997.950 9
  20389731.400        -987.655          56.350


 118174050.318 7  92083800.80947  22487748.140                    22487750.520
      3259.385        2539.783          46.600          42.150    88247004.400 8
  22487753.360        2434.063          51.150


 124710067.729 7  97176710.35847  23731533.180                    23731536.040
      2978.313        2320.764          46.050          42.600    93127680.421 7
  23731536.260        2224.070          47.850


 23 10 29 17 21  0.0000000  0 12G06G10G12G13G15G17G19G22G23G24G25G32
 132357714.640 6 103135898.50646  25186835.440                    25186839.840
      2725.516        2123.781          37.100          36.500    98838575.920 7
  25186841.280        2035.357          44.000


 125187784.821 7  97548944.40546  23822444.280                    23822447.280
     -1679.202       -1308.471          45.900          40.750    93484405.318 7
  23822446.580       -1253.730          46.400


 107282242.401 8  83596686.96648  20415083.120                    20415081.660
      1326.115        1033.339          51.000          50.850



 134484976.004 6 104793546.67745  25591625.780                    25591628.280
     -3886.207       -3028.232          36.550          31.650



 122760154.736 7  95657292.89747  23360472.040                    23360473.120
     -3803.371       -2963.667          45.850          46.050



 126646522.625 7  98685688.84447  24099998.520                    24099997.720
     -2638.145       -2055.697          44.200          44.150



 116609168.911 8  90864344.44947  22189963.640                    22189960.300
     -1076.247        -838.633          48.450          46.850



 135683683.090 6 105727684.85645  25819682.740                    25819681.980
     -3275.951       -2552.687          39.800          33.600



 129735779.619 6 101092819.23146  24687903.240                    24687908.060
     -3108.289       -2422.056          41.000          38.600    96880634.681 7
  24687912.820       -2321.145          44.800


 107188880.629 8  83523920.65048  20397319.420                    20397320.340
     -1336.765       -1041.635          51.350          51.200    80043783.807 9
  20397321.520        -998.200          56.100


 118076389.896 7  92007701.87747  22469163.920                    22469165.680
      3250.933        2533.199          46.200          42.050    88174076.298 8
  22469169.120        2427.728          50.950


 124620869.537 7  97107205.32947  23714559.220                    23714562.100
      2968.266        2312.937          45.850          43.550    93061071.450 7
  23714562.420        2216.455          47.800


 23 10 29 17 21 30.0000000  0 12G06G10G12G13G15G17G19G22G23G24G25G32
 132276037.468 6 103072254.02546  25171292.860                    25171297.140
      2719.313        2118.946          38.000          38.100    98777583.296 7
  25171298.720        2030.529          43.400


 125238378.021 7  97588367.61946  23832072.020                    23832074.640
     -1694.244       -1320.192          46.600          39.500    93522185.886 7
  23832074.540       -1265.188          47.200


 107242695.968 8  83565871.58648  20407557.580                    20407556.060
      1309.986        1020.770          50.950          50.850



 134601548.225 6 104884274.97145  25613808.700                    25613811.140
     -3885.664       -3027.800          36.200          30.400



 122874322.762 7  95746254.92247  23382197.480                    23382198.520
     -3808.266       -2967.482          45.350          45.050



 126725834.432 7  98747490.26847  24115091.180                    24115090.120
     -2649.327       -2064.410          44.650          44.600



 116641752.117 7  90889733.96447  22196163.880                    22196160.720
     -1096.292        -854.253          46.850          46.900



 135781941.128 6 105804249.74145  25838380.400                    25838379.720
     -3274.517       -2551.567          41.200          33.750



 129829086.318 6 101165525.57546  24705659.260                    24705663.860
     -3112.646       -2425.443          41.950          37.650    96950311.525 7
  24705669.060       -2324.148          44.250


 107229187.607 8  83555328.69148  20404989.660                    20404990.700
     -1350.661       -1052.463          51.600          51.650    80073883.182 9
  20404991.500       -1008.628          56.400


 117978978.354 7  91931796.88447  22450627.020                    22450628.460
      3242.850        2526.900          46.700          42.550    88101334.049 8
  22450632.420        2421.577          51.500


 124531973.239 7  97037935.54247  23697642.780                    23697645.660
      2957.897        2304.856          46.050          43.650    92994687.914 8
  23697645.940        2208.876          48.250


 23 10 29 17 22  0.0000000  0 12G06G10G12G13G15G17G19G22G23G24G25G32
 132194552.628 6 103008759.37546  25155786.700                    25155791.040
      2712.681        2113.777          38.150          38.000    98716734.252 7
  25155792.720        2025.812          42.600


 125289428.631 7  97628147.27646  23841786.760                    23841789.140
     -1709.518       -1332.094          46.000          39.250    93560308.026 7
  23841789.560       -1276.438          47.000


 107203634.727 8  83535434.28848  20400124.360                    20400122.680
      1293.777        1008.140          50.850          50.600



 134718101.451 6 104975095.45044  25635988.020                    25635990.160
     -3884.890       -3027.197          37.400          29.550



 122988640.152 7  95835333.32547  23403951.320                    23403952.300
     -3813.216       -2971.339          45.400          45.350



 126805486.439 7  98809556.79847  24130248.620                    24130247.320
     -2660.701       -2073.272          45.350          45.350



 116674936.762 7  90915592.13347  22202478.480                    22202475.820
     -1116.230        -869.788          47.100          46.900



 135880158.367 6 105880782.85345  25857070.360                    25857069.680
     -3273.180       -2550.522          40.400          35.000



 129922513.762 6 101238325.97346  24723438.160                    24723442.460
     -3116.290       -2428.284          41.200          39.700    97020078.529 7
  24723448.260       -2327.100          44.400


 107269915.483 8  83587064.70248  20412739.960                    20412741.000
     -1364.810       -1063.488          51.300          51.450    80104296.858 9
  20412741.740       -1019.074          56.300


 117881818.644 7  91856088.10747  22432137.920                    22432139.280
      3234.405        2520.318          46.400          42.100    88028779.832 8
  22432143.380        2415.221          51.350


 124443382.942 7  96968904.20747  23680784.560                    23680787.560
      2947.617        2296.847          46.150          44.000    92928532.889 8
  23680787.680        2201.260          48.300


 23 10 29 17 22 30.0000000  0 12G06G10G12G13G15G17G19G22G23G24G25G32
 132113262.329 6 102945416.33246  25140317.500                    25140322.000
      2705.836        2108.444          38.350          38.500    98656030.532 7
  25140323.840        2020.657          42.250


 125340933.488 7  97668280.87846  23851587.760                    23851590.220
     -1724.825       -1344.022          45.400          39.600    93598769.377 7
  23851591.020       -1288.043          47.100


 107165058.347 8  83505374.80048  20392783.400                    20392781.540
      1277.373         995.357          50.950          50.750



 134834632.598 5 105065898.75945  25658163.100                    25658166.440
     -3884.503       -3026.897          34.300          31.350



 123103103.164 7  95924525.21947  23425732.960                    23425733.520
     -3818.226       -2975.244          45.250          44.900



 126885475.202 7  98871885.72947  24145470.160                    24145468.720
     -2672.460       -2082.436          45.800          45.750



 116708720.608 7  90941917.21447  22208906.960                    22208904.680
     -1136.619        -885.677          46.400          46.550



 135978333.099 6 105957282.84145  25875752.420                    25875751.140
     -3272.203       -2549.761          40.750          33.650



 130016057.810 7 101311217.24046  24741239.160                    24741243.540
     -3120.710       -2431.722          42.400          38.900    97089932.603 7
  24741249.480       -2330.244          43.650


 107311062.755 8  83619127.52248  20420570.020                    20420571.000
     -1379.124       -1074.643          51.350          51.350    80135023.728 9
  20420571.800       -1029.882          56.150


 117784911.200 7  91780575.90347  22413696.900                    22413698.300
      3225.638        2513.487          46.700          42.800    87956414.003 8
  22413702.440        2408.675          51.200


 124355100.235 7  96900112.55347  23663984.860                    23663987.880
      2937.224        2288.747          46.600          43.550    92862607.579 8
  23663987.920        2193.238          48.400


 23 10 29 17 23  0.0000000  0 12G06G10G12G13G15G17G19G22G23G24G25G32
 132032169.297 6 102882226.98046  25124886.000                    25124890.460
      2699.561        2103.557          39.300          39.200    98595474.069 6
  25124892.420        2016.043          41.600


 125392889.775 7  97708766.23046  23861474.700                    23861477.040
     -1739.469       -1355.433          44.500          39.600    93637567.818 7
  23861478.220       -1298.832          47.300


 107126967.275 8  83475693.46648  20385534.860                    20385532.820
      1261.577         983.048          51.000          51.050



 134951140.652 6 105156683.96945  25680333.840                    25680338.100
     -3882.859       -3025.610          36.650          31.600



 123217708.848 7  96013828.28247  23447541.760                    23447542.060
     -3822.684       -2978.717          45.650          45.450



 126965797.862 7  98934474.83147  24160755.160                    24160753.700
     -2682.987       -2090.640          45.700          45.500



 116743102.103 7  90968707.98747  22215449.360                    22215447.460
     -1156.031        -900.806          47.500          47.050



 136076463.719 6 106033748.40846  25894426.020                    25894424.900
     -3270.294       -2548.273          39.700          37.450



 130109715.021 6 101384196.67545  24759061.520                    24759065.660
     -3123.823       -2434.154          41.550          35.650    97159871.184 7
  24759072.300       -2332.710          45.400


 107352628.511 8  83651516.42548  20428479.720                    20428480.560
     -1392.513       -1085.074          51.250          51.250    80166063.098 9
  20428481.400       -1039.897          56.150


 117688257.091 7  91705261.09247  22395304.120                    22395305.640
      3217.542        2507.178          46.150          43.500    87884237.337 8
  22395309.580        2402.686          50.900


 124267127.373 7  96831562.34547  23647244.160                    23647247.120
      2927.244        2280.973          46.600          43.200    92796913.627 8
  23647247.080        2185.891          48.600


 23 10 29 17 23 30.0000000  0 12G06G10G12G13G15G17G19G22G23G24G25G32
 131951277.960 6 102819194.78946  25109492.940                    25109497.340
      2693.257        2098.642          38.350          38.250    98535068.228 6
  25109499.400        2011.107          41.100


 125445295.897 7  97749602.10846  23871447.100                    23871449.660
     -1754.341       -1367.022          44.150          40.300    93676702.205 7
  23871450.900       -1310.124          47.500


 107089362.601 8  83446391.14148  20378378.920                    20378376.720
      1245.440         970.474          51.450          51.350



 135067624.620 6 105247458.31345  25702500.240                    25702503.960
     -3881.973       -3024.944          37.950          34.850



 123332455.614 7  96103241.26547  23469377.400                    23469377.680
     -3827.228       -2982.258          44.950          44.750



 127046453.416 7  98997323.33047  24176103.360                    24176102.080
     -2694.065       -2099.271          44.950          44.900



 116778081.124 7  90995964.37247  22222105.600                    22222103.680
     -1175.912        -916.296          47.950          46.350



 136174550.401 6 106110179.72445  25913091.180                    25913090.280
     -3269.338       -2547.525          39.250          33.100



 130203483.235 6 101457262.61846  24776904.820                    24776908.840
     -3127.605       -2437.103          41.200          37.700    97229892.616 7
  24776916.360       -2335.392          43.650


 107394613.373 8  83684231.90648  20436469.140                    20436469.880
     -1406.413       -1095.906          51.200          51.300    80197415.439 9
  20436470.740       -1050.257          56.200


 117591858.770 7  91630145.61247  22376960.080                    22376961.960
      3209.084        2500.588          46.700          43.550    87812251.688 8
  22376965.460        2396.370          50.700


 124179468.056 7  96763256.44147  23630563.060                    23630565.980
      2916.771        2272.810          46.550          43.050    92731453.828 8
  23630565.940        2178.066          48.850


 23 10 29 17 24  0.0000000  0 12G06G10G12G13G15G17G19G22G23G24G25G32
 131870589.881 6 102756320.98546  25094138.440                    25094142.660
      2686.302        2093.220          38.850          38.750    98474814.174 6
  25094145.240        2005.798          41.350


 125498148.027 7  97790785.53546  23881504.440                    23881507.100
     -1769.538       -1378.862          43.600          40.650    93716169.622 7
  23881508.260       -1321.347          47.000


 107052242.999 8  83417466.79648  20371315.360                    20371312.960
      1229.130         957.765          51.800          51.700



 135183999.240 5 105338201.73744  25724661.280                    25724666.820
     -3881.604       -3024.639          35.250          29.250



 123447339.394 7  96192761.03447  23491239.200                    23491239.180
     -3831.824       -2985.840          45.250          45.250



 127127437.953 7  99060428.19747  24191514.020                    24191512.960
     -2704.981       -2107.776          44.200          44.050



 116813655.027 8  91023684.32447  22228875.260                    22228873.060
     -1195.791        -931.785          48.000          46.350



 136272590.474 6 106186574.76046  25931747.680                    25931745.980
     -3267.265       -2545.911          38.650          36.500



 130297357.741 6 101530411.34246  24794768.340                    24794772.520
     -3131.187       -2439.896          40.550          37.150    97299993.504 7
  24794780.160       -2338.109          44.400


 107437015.182 8  83717272.27748  20444537.880                    20444538.640
     -1420.420       -1106.820          51.100          51.250    80229079.128 9
  20444539.500       -1060.746          55.850


 117495716.101 7  91555229.33147  22358664.640                    22358666.800
      3200.461        2493.868          46.500          43.750    87740456.942 8
  22358669.880        2389.828          50.200


 124092123.218 7  96695195.60247  23613941.820                    23613944.620
      2905.875        2264.321          46.200          43.400    92666228.863 8
  23613944.580        2170.137          48.300


 23 10 29 17 24 30.0000000  0 12G06G10G12G13G15G17G19G22G23G24G25G32
 131790111.501 6 102693610.55546  25078824.140                    25078828.060
      2679.111        2087.620          39.450          39.650    98414716.720 6
  25078830.580        2000.347          40.400


 125551447.064 7  97832317.18346  23891646.880                    23891649.640
     -1783.854       -1390.019          44.350          39.600    93755970.786 7
  23891650.640       -1332.248          47.300


 107015612.120 8  83388923.27648  20364344.820                    20364342.180
      1212.807         945.045          52.350          52.550



 135300430.090 5 105428926.72445  25746817.620                    25746823.500
     -3880.235       -3023.566          34.800          32.700



 123562361.279 7  96282388.40547  23513127.260                    23513127.220
     -3836.307       -2989.332          45.450          45.250



 127208752.464 7  99123790.18347  24206987.380                    24206986.580
     -2716.063       -2116.411          44.200          44.150



 116849825.806 7  91051869.36047  22235758.500                    22235756.120
     -1215.628        -947.240          47.650          46.250



 136370586.609 6 106262935.54145  25950395.680                    25950393.520
     -3265.996       -2544.937          39.300          30.550



 130391338.675 6 101603643.09745  24812652.180                    24812655.760
     -3134.301       -2442.312          40.250          35.450    97370173.787 7
  24812664.720       -2340.521          44.650


 107479836.721 8  83750639.70848  20452686.520                    20452687.320
     -1434.435       -1117.741          51.200          51.050    80261056.248 9
  20452688.280       -1071.124          56.200


 117399833.712 7  91480515.89547  22340418.720                    22340421.320
      3191.519        2486.901          46.400          43.750    87668856.574 8
  22340423.760        2383.431          50.350


 124005098.759 7  96627384.40446  23597381.520                    23597384.200
      2895.378        2256.142          46.750          41.450    92601243.162 8
  23597384.200        2162.209          48.650


 23 10 29 17 25  0.0000000  0 12G06G10G12G13G15G17G19G22G23G24G25G32
 131709842.471 6 102631063.26546  25063549.560                    25063553.260
      2672.889        2082.768          39.700          40.050    98354775.553 6
  25063555.840        1995.882          40.650


 125605187.240 7  97874192.56946  23901873.360                    23901876.140
     -1797.872       -1400.944          44.550          39.850    93796101.341 7
  23901876.840       -1342.704          47.350


 106979467.176 8  83360758.41848  20357466.780                    20357463.840
      1197.527         933.140          52.450          52.550



 135416829.315 5 105519627.03445  25768967.540                    25768971.940
     -3878.304       -3022.062          32.900          31.000



 123677514.816 7  96372118.34847  23535040.400                    23535040.360
     -3839.913       -2992.145          45.200          45.000



 127290391.090 7  99187404.71347  24222522.360                    24222521.840
     -2725.812       -2124.008          43.500          43.050



 116886588.684 7  91080515.77847  22242754.380                    22242751.620
     -1234.657        -962.070          46.750          46.650



 136468534.075 6 106339258.42544  25969034.080                    25969032.080
     -3263.516       -2542.995          38.650          28.900



 130485419.359 6 101676952.43346  24830555.300                    24830559.080
     -3136.909       -2444.351          40.250          37.600    97440428.614 7
  24830568.040       -2342.481          44.350


 107523073.974 8  83784331.06948  20460914.300                    20460915.120
     -1447.451       -1127.884          51.550          51.450    80293343.814 9
  20460916.200       -1080.958          56.300


 117304209.563 7  91406003.66447  22322221.940                    22322224.860
      3183.987        2481.033          46.250          44.400    87597449.050 8
  22322226.680        2377.519          50.300


 123918393.790 7  96559822.14847  23580882.020                    23580884.500
      2885.530        2248.469          46.200          42.650    92536496.033 8
  23580884.580        2154.753          48.400


 23 10 29 17 25 30.0000000  0 11G06G10G12G15G17G19G22G23G24G25G32
 131629783.086 6 102568679.33946  25048314.920                    25048318.540
      2664.969        2076.598          41.050          41.050    98294990.918 6
  25048320.760        1990.198          41.100


 125659362.901 7  97916407.29846  23912182.740                    23912185.720
     -1812.980       -1412.718          45.400          39.400    93836557.110 7
  23912185.980       -1353.996          47.300


 106943805.129 8  83332969.84448  20350680.600                    20350677.520
      1180.606         919.954          52.250          52.250



 123792794.164 7  96461946.34647  23556977.400                    23556977.380
     -3844.786       -2995.940          45.800          45.700



 127372348.195 7  99251267.39247  24238118.040                    24238117.680
     -2737.271       -2132.938          43.250          42.900



 116923939.419 7  91109620.24347  22249861.920                    22249859.080
     -1254.871        -977.820          47.150          45.900



 136566429.148 6 106415540.46245  25987662.700                    25987661.060
     -3262.309       -2542.049          36.900          32.500



 130579593.639 6 101750334.73645  24848476.440                    24848480.120
     -3140.742       -2447.338          39.900          35.200    97510753.290 7
  24848489.140       -2345.486          45.400


 107566723.328 8  83818343.55948  20469220.540                    20469221.400
     -1461.946       -1139.180          51.650          51.700    80325939.113 9
  20469222.640       -1091.712          56.550


 117208842.002 7  91331691.39947  22304074.000                    22304077.280
      3174.510        2473.648          46.750          44.000    87526233.134 8
  22304078.460        2370.624          50.250


 123832007.864 7  96492508.52047  23564443.180                    23564445.620
      2874.136        2239.590          45.650          42.400    92471987.159 8
  23564445.640        2146.267          48.300


 23 10 29 17 26  0.0000000  0 11G06G10G12G15G17G19G22G23G24G25G32
 131549939.238 6 102506463.39746  25033121.200                    25033124.880
      2658.349        2071.442          41.550          41.550    98235367.330 7
  25033126.820        1984.845          42.650


 125713974.284 7  97958961.55846  23922575.100                    23922578.080
     -1827.418       -1423.964          45.200          40.100    93877338.252 7
  23922578.040       -1364.752          47.000


 106908629.480 8  83305560.27648  20343986.960                    20343983.820
      1164.555         907.446          52.750          52.650



 123908199.678 7  96551872.65247  23578938.500                    23578938.720
     -3848.749       -2999.027          45.750          45.950



 127454624.680 7  99315378.97247  24253774.840                    24253774.320
     -2747.755       -2141.107          43.500          43.250



 116961879.532 7  91139183.99047  22257081.700                    22257078.600
     -1274.308        -992.966          46.550          46.000



 136664273.599 6 106491782.98245  26006281.660                    26006279.740
     -3260.251       -2540.457          40.000          34.000



 130673861.292 6 101823789.84846  24866415.500                    24866418.860
     -3143.878       -2449.785          40.900          38.100    97581147.670 7
  24866427.940       -2347.562          44.400


 107610787.118 8  83852678.98848  20477605.680                    20477606.440
     -1475.610       -1149.825          51.800          51.900    80358843.896 9
  20477607.940       -1101.896          56.650


 117113735.245 7  91257582.32847  22285975.620                    22285979.060
      3166.017        2467.029          46.200          44.650    87455211.968 8
  22285980.000        2364.270          50.200


 123745946.474 7  96425447.75447  23548066.080                    23548068.540
      2863.535        2231.328          46.000          42.350    92407720.619 7
  23548068.480        2138.259          47.950


 23 10 29 17 26 30.0000000  0 11G06G10G12G15G17G19G22G23G24G25G32
 131470317.345 6 102444420.36946  25017969.600                    25017973.400
      2650.123        2065.032          41.550          41.250    98175909.417 7
  25017974.680        1979.010          42.650


 125769022.485 7  98001856.20646  23933050.520                    23933053.860
     -1842.376       -1435.616          45.050          40.650    93918445.595 7
  23933053.280       -1375.874          46.700


 106873943.510 8  83278532.28348  20337386.480                    20337383.380
      1147.815         894.403          52.700          52.750



 124023732.229 7  96641897.93347  23600923.760                    23600924.200
     -3853.152       -3002.459          46.150          46.250



 127537221.454 7  99379740.11547  24269492.540                    24269492.020
     -2758.669       -2149.612          43.900          43.850



 117000411.062 7  91169208.55347  22264413.860                    22264411.020
     -1294.356       -1008.590          47.000          45.550



 136762069.483 6 106567987.71545  26024891.400                    26024890.340
     -3258.781       -2539.310          36.200          31.000



 130768222.327 6 101897317.68646  24884372.040                    24884375.500
     -3147.074       -2452.272          40.400          37.050    97651611.828 7
  24884383.840       -2350.113          43.150


 107655267.943 8  83887339.37848  20486070.120                    20486070.800
     -1489.801       -1160.884          51.100          51.100    80392060.096 9
  20486072.620       -1112.544          56.600


 117018893.879 7  91183680.07547  22267927.820                    22267931.400
      3156.771        2459.826          46.350          43.900    87384388.984 8
  22267931.940        2357.280          50.150


 123660215.329 7  96358644.34847  23531751.820                    23531754.500
      2851.999        2222.339          45.250          43.600    92343700.698 7
  23531754.200        2129.761          47.650


 23 10 29 17 27  0.0000000  0 11G06G10G12G15G17G19G22G23G24G25G32
 131390919.308 6 102382551.79446  25002860.740                    25002864.560
      2643.229        2059.661          40.900          40.250    98116618.707 7
  25002865.500        1973.665          43.200


 125824503.455 7  98045088.03846  23943608.380                    23943612.080
     -1856.126       -1446.335          45.400          41.550    93959876.103 7
  23943610.980       -1386.179          46.250


 106839746.238 8  83251885.09148  20330878.900                    20330875.980
      1131.957         882.046          52.300          52.000



 124139387.906 7  96732019.15647  23622932.560                    23622932.960
     -3857.209       -3005.620          46.300          46.400



 127620134.579 7  99444347.77347  24285270.440                    24285270.020
     -2768.968       -2157.636          42.950          42.800



 117039531.126 7  91199691.72547  22271858.160                    22271855.320
     -1313.639       -1023.614          46.750          45.950



 136859815.085 5 106643739.32145  26043491.780                    26043490.380
     -3256.929       -2537.854          34.050          33.000



 130862672.367 6 101970914.90145  24902345.660                    24902349.280
     -3149.617       -2454.251          41.150          35.250    97722142.394 7
  24902356.700       -2351.879          42.950


 107700163.987 8  83922323.31448  20494613.520                    20494614.220
     -1503.310       -1171.410          51.350          51.400    80425586.364 9
  20494616.160       -1122.518          56.350


 116924317.991 7  91109984.67747  22249930.520                    22249934.160
      3148.518        2453.394          46.250          45.300    87313764.266 8
  22249934.700        2351.005          50.100


 123574815.808 7  96292099.33647  23515500.700                    23515503.660
      2841.033        2213.795          44.900          43.900    92279928.407 7
  23515503.120        2121.750          47.600


 23 10 29 17 27 30.0000000  0 11G06G10G12G15G17G19G22G23G24G25G32
 131311747.556 6 102320859.53446  24987794.740                    24987798.700
      2635.543        2053.671          41.400          41.500    98057496.983 7
  24987799.200        1968.019          43.900


 125880414.155 7  98088654.75046  23954247.980                    23954251.840
     -1870.633       -1457.638          45.650          40.600    94001627.518 7
  23954250.520       -1396.910          46.250


 106806037.093 8  83225618.25548  20324464.100                    20324461.400
      1115.621         869.316          51.800          51.900



 124255163.024 7  96822233.46247  23644964.000                    23644964.480
     -3861.043       -3008.606          46.450          46.150



 127703361.190 7  99509199.68447  24301107.880                    24301107.720
     -2779.056       -2165.498          42.850          42.550



 117079237.593 7  91230631.84447  22279414.080                    22279411.200
     -1333.203       -1038.859          47.200          45.700



 136957508.517 5                  26062082.300
     -3256.034                          30.000



 130957207.478 6 102044578.37046  24920335.100                    24920338.740
     -3152.496       -2456.496          38.850          37.900    97792736.474 7
  24920345.640       -2354.028          42.250


 107745473.882 8  83957629.71848  20503235.700                    20503236.420
     -1517.114       -1182.167          51.800          51.850    80459421.670 9
  20503238.260       -1132.874          56.300


 116830008.198 7  91036496.63047  22231983.880                    22231987.520
      3139.033        2446.004          45.650          45.100    87243338.229 8
  22231988.000        2344.321          50.500


 123489749.643 7  96225814.08447  23499313.040                    23499316.260
      2830.038        2205.228          44.900          43.750    92216405.056 7
  23499315.580        2113.405          47.950


 23 10 29 17 28  0.0000000  0 10G06G10G12G15G17G19G23G24G25G32
 131232802.109 6 102259343.62646  24972771.960                    24972775.920
      2627.034        2047.039          41.200          41.900    97998544.209 7
  24972776.060        1962.013          44.150


 125936748.724 7  98132551.72846  23964968.280                    23964972.200
     -1885.468       -1469.199          45.400          41.500    94043695.452 7
  23964970.740       -1407.798          45.750


 106772813.380 8  83199729.67648  20318141.680                    20318139.100
      1098.874         856.267          51.400          51.150



 124371052.324 7  96912536.74747  23667017.220                    23667017.820
     -3865.252       -3011.886          46.500          46.200



 127786895.573 7  99574291.43147  24317003.960                    24317004.060
     -2790.186       -2174.170          42.750          43.000



 117119525.932 7  91262025.33947  22287080.760                    22287078.080
     -1353.053       -1054.327          46.400          46.200



 131051821.439 6 102118303.25946  24938339.460                    24938343.220
     -3155.782       -2459.062          39.250          37.200    97863389.422 6
  24938349.900       -2356.227          40.550


 107791193.887 8  83993255.70148  20511935.980                    20511936.680
     -1531.284       -1193.208          51.800          51.750    80493563.241 9
  20511938.360       -1143.473          56.100


 116735962.761 7  90963214.57247  22214087.580                    22214091.100
      3130.009        2438.970          45.800          45.200    87173109.612 8
  22214091.780        2337.368          50.650


 123405016.311 7  96159788.19347  23483188.780                    23483192.160
      2818.409        2196.166          45.050          44.700    92153130.252 8
  23483191.420        2104.672          48.050


 23 10 29 17 28 30.0000000  0 10G06G10G12G15G17G19G23G24G25G32
 131154090.914 6 102198010.27446  24957793.700                    24957797.640
      2620.021        2041.577          40.500          40.700    97939766.430 7
  24957797.680        1956.398          45.250


 125993509.550 7  98176780.87247  23975769.640                    23975773.580
     -1898.949       -1479.703          45.850          42.200    94086081.710 7
  23975772.140       -1418.095          45.600


 106740080.292 8  83174223.40448  20311912.680                    20311910.220
      1083.029         843.920          51.950          52.000



 124487057.671 7  97002930.44447  23689092.420                    23689093.180
     -3868.624       -3014.515          46.150          46.450



 127870740.294 7  99639625.00947  24332959.060                    24332959.380
     -2799.721       -2181.600          43.150          42.800



 117160399.876 7  91293875.18047  22294858.840                    22294856.280
     -1371.965       -1069.063          46.800          45.350



 131146515.922 6 102192090.91845  24956359.500                    24956363.300
     -3157.685       -2460.541          38.800          35.050    97934102.601 7
  24956369.360       -2357.976          42.800


 107837328.313 8  84029204.61348  20520715.120                    20520715.780
     -1544.575       -1203.565          51.700          51.650    80528014.290 9
  20520717.280       -1153.383          56.200


 116642187.852 7  90890143.32347  22196242.760                    22196246.180
      3121.415        2432.273          46.200          45.350    87103083.014 8
  22196246.980        2330.973          50.900


 123320623.295 7  96094027.47747  23467129.280                    23467132.860
      2807.335        2187.536          45.000          45.300    92090109.573 8
  23467132.080        2096.434          48.400


 23 10 29 17 29  0.0000000  0 10G06G10G12G15G17G19G23G24G25G32
 131075614.405 6 102136859.76046  24942860.060                    24942863.920
      2611.986        2035.315          39.500          39.950    97881163.872 7
  24942864.060        1950.561          44.900


 126050691.375 7  98221338.06246  23986651.040                    23986654.940
     -1913.029       -1490.674          44.800          41.350    94128782.331 7
  23986653.780       -1428.498          45.950


 106707834.905 8  83149097.16448  20305776.540                    20305774.220
      1066.758         831.241          51.850          51.800



 124603173.846 7  97093410.50947  23711188.700                    23711189.480
     -3872.016       -3017.157          46.250          46.000



 127954890.254 7  99705196.42747  24348972.260                    24348972.620
     -2809.941       -2189.562          42.750          42.550



 117201855.241 7  91326178.05547  22302747.460                    22302745.220
     -1391.445       -1084.244          45.750          45.250



 131241285.192 6 102265936.87046  24974393.400                    24974397.840
     -3160.113       -2462.428          37.400          36.950    98004871.507 6
  24974404.060       -2359.896          41.850


 107883873.728 8  84065473.77048  20529572.420                    20529573.100
     -1558.201       -1214.183          50.800          50.800    80562772.234 9
  20529574.520       -1163.613          56.050


 116548682.073 7  90817281.78247  22178449.220                    22178452.460
      3112.589        2425.398          45.850          45.350    87033257.401 8
  22178453.380        2324.268          50.650


 123236570.321 7  96028531.72147  23451134.660                    23451138.160
      2796.094        2178.775          45.900          45.750    92027342.811 8
  23451137.480        2087.982          48.450


 23 10 29 17 29 30.0000000  0 10G06G10G12G15G17G19G23G24G25G32
 130997376.329 6 102075895.08846  24927971.780                    24927975.600
      2603.530        2028.725          39.450          40.350    97822739.393 7
  24927975.700        1944.327          45.350


 126108292.176 7  98266221.71946  23997612.080                    23997615.920
     -1927.232       -1501.742          44.550          40.750    94171795.828 7
  23997615.220       -1439.175          45.750


 106676078.361 8  83124351.83548  20299733.460                    20299731.360
      1050.328         818.438          51.750          51.700



 124719399.045 7  97183975.51747  23733305.740                    23733306.600
     -3876.057       -3020.307          45.750          45.650



 128039343.580 7  99771004.25047  24365043.160                    24365043.360
     -2820.342       -2197.666          42.050          42.450



 117243890.908 7  91358933.11247  22310746.440                    22310744.320
     -1410.931       -1099.426          45.450          45.100



 131336126.588 6 102339838.94346  24992441.340                    24992446.220
     -3162.679       -2464.434          38.200          36.150    98075694.340 6
  24992452.120       -2361.841          41.900


 107930830.148 8  84102063.19048  20538507.860                    20538508.540
     -1572.242       -1225.123          50.750          50.700    80597837.094 9
  20538510.020       -1174.094          56.000


 116455447.391 7  90744631.49347  22160707.220                    22160710.340
      3103.185        2418.068          46.750          44.650    86963634.230 8
  22160711.280        2317.222          50.600


 123152860.575 7  95963303.41747  23435205.340                    23435208.740
      2784.417        2169.679          46.350          45.200    91964832.363 8
  23435208.140        2079.254          48.650


 23 10 29 17 30  0.0000000  0 10G06G10G12G15G17G19G23G24G25G32
 130919380.588 6 102015119.22746  24913129.380                    24913133.420
      2595.432        2022.417          39.800          39.250    97764495.876 7
  24913133.600        1938.159          44.900


 126166309.867 7  98311430.23646  24008652.240                    24008656.220
     -1941.272       -1512.680          43.850          41.350    94215120.623 7
  24008655.880       -1449.543          46.150


 106644811.473 8  83099988.04948  20293783.480                    20293781.580
      1033.815         805.570          51.550          51.550



 124835731.097 7  97274623.79647  23755443.000                    23755443.920
     -3879.730       -3023.169          45.900          46.000



 128124098.810 7  99837047.28647  24381171.560                    24381171.320
     -2830.312       -2205.438          43.550          43.500



 117286506.066 7  91392139.72547  22318855.820                    22318853.760
     -1430.459       -1114.643          46.050          44.950



 131431037.841 6 102413795.47546  25010502.660                    25010507.380
     -3164.968       -2466.220          38.300          36.300    98146569.293 7
  25010513.640       -2363.602          42.700


 107978197.634 8  84138972.92248  20547521.580                    20547522.160
     -1585.993       -1235.839          51.450          51.450    80633208.923 9
  20547523.700       -1184.382          56.000


 116362485.872 7  90672194.06047  22143017.120                    22143020.200
      3094.031        2410.938          46.750          45.500    86894215.050 8
  22143021.120        2310.389          50.700


 123069497.391 7  95898345.13147  23419342.000                    23419345.140
      2772.812        2160.632          47.150          45.400    91902580.680 8
  23419344.800        2070.525          49.150


 23 10 29 17 30 30.0000000  0 10G06G10G12G15G17G19G23G24G25G32
 130841629.826 6 101954534.23046  24898333.860                    24898337.820
      2587.323        2016.095          40.200          40.700    97706435.271 7
  24898338.000        1932.220          45.100


 126224741.576 7  98356961.34846  24019771.180                    24019775.240
     -1954.729       -1523.171          42.950          39.950    94258754.595 7
  24019775.420       -1459.699          46.400


 106614033.957 8  83076005.59848  20287926.580                    20287924.760
      1017.526         792.879          51.600          51.850



 124952167.023 7  97365353.01547  23777600.000                    23777600.920
     -3883.210       -3025.881          45.700          45.400



 128209152.670 7  99903323.05147  24397356.840                    24397355.900
     -2840.496       -2213.374          43.550          43.600



 117329698.813 7  91425796.41547  22327075.180                    22327073.120
     -1449.647       -1129.596          46.950          44.550



 131526015.261 6 102487803.60646  25028576.580                    25028581.280
     -3167.194       -2467.950          38.850          37.750    98217493.707 6
  25028587.600       -2365.217          40.800


 108025975.082 8  84176202.10448  20556613.380                    20556613.900
     -1599.689       -1246.511          51.900          51.900    80668886.881 9
  20556615.340       -1194.466          56.050


 116269798.274 7  90599970.06247  22125379.120                    22125382.060
      3084.734        2403.691          46.750          44.600    86825000.401 8
  22125382.920        2303.587          50.800


 122986482.784 7  95833658.48347  23403544.960                    23403547.980
      2760.953        2151.394          47.400          44.300    91840589.315 8
  23403547.760        2061.855          49.550


 23 10 29 17 31  0.0000000  0 10G06G10G12G15G17G19G23G24G25G32
 130764127.459 6 101894142.79846  24883585.740                    24883589.380
      2579.312        2009.854          40.900          40.400    97648560.139 7
  24883589.900        1926.197          45.100


 126283584.920 7  98402813.23846  24030968.480                    24030972.740
     -1968.394       -1533.816          42.000          38.850    94302695.945 7
  24030973.140       -1469.671          46.450


 106583746.253 8  83052404.81448  20282162.940                    20282161.080
      1001.579         780.452          51.600          51.400



 125068704.592 7  97456161.44147  23799776.360                    23799777.300
     -3886.307       -3028.294          45.600          45.450



 128294503.548 7  99969830.26947  24413598.560                    24413597.060
     -2849.833       -2220.647          42.500          42.850



 117373467.649 7  91459902.00747  22335404.100                    22335402.020
     -1468.329       -1144.152          46.850          44.350



 131621056.014 6 102561861.08045  25046662.260                    25046666.800
     -3168.688       -2469.120          37.050          31.900    98288465.416 7
  25046673.120       -2366.419          42.500


 108074162.044 8  84213750.38848  20565783.100                    20565783.620
     -1612.873       -1256.784          51.600          51.600    80704870.659 9
  20565784.900       -1204.460          56.050


 116177386.163 7  90527960.70647  22107793.520                    22107796.420
      3075.707        2396.658          46.350          44.550    86755991.446 8
  22107797.280        2296.953          50.700


 122903819.534 7  95769245.59847  23387814.700                    23387817.440
      2749.511        2142.477          47.500          43.800    91778860.316 8
  23387817.520        2053.305          49.800


 23 10 29 17 31 30.0000000  0 10G06G10G12G15G17G19G23G24G25G32
 130686875.022 6 101833946.09646  24868885.180                    24868888.460
      2570.811        2003.229          41.200          41.250    97590871.660 7
  24868889.360        1919.657          45.200


 126342835.681 6  98448982.59146  24042243.360                    24042248.120
     -1981.569       -1544.084          41.300          40.100    94346941.550 7
  24042248.260       -1479.985          46.000


 106553947.855 8  83029185.31048  20276492.480                    20276490.580
       985.054         767.575          51.650          51.800



 125185339.500 7  97547045.69247  23821971.160                    23821972.200
     -3889.466       -3030.755          45.550          45.650



 128380147.118 7 100036565.54547  24429895.860                    24429893.960
     -2859.800       -2228.415          43.050          42.850



 117417809.893 7  91494454.42447  22343842.140                    22343840.020
     -1487.804       -1159.327          47.050          43.650



 131716155.471 6 102635964.29946  25064759.300                    25064763.940
     -3171.287       -2471.142          38.650          38.700    98359480.877 7
  25064770.260       -2367.998          42.400


 108122756.274 8  84251616.03048  20575030.260                    20575030.720
     -1626.748       -1267.596          51.450          51.450    80741158.560 9
  20575032.080       -1214.791          55.800


 116085249.266 7  90456165.78347  22090260.320                    22090263.020
      3066.609        2389.567          46.000          44.550    86687187.995 8
  22090263.960        2289.911          50.400


 122821508.581 7  95705107.24747  23372151.460                    23372153.940
      2737.656        2133.241          47.050          43.650    91717394.409 8
  23372154.300        2044.357          49.650


 23 10 29 17 32  0.0000000  0 10G06G10G12G15G17G19G23G24G25G32
 130609878.655 6 101773948.95446  24854233.260                    24854236.380
      2562.159        1996.487          41.800          41.650    97533374.395 7
  24854237.580        1913.475          45.300


 126402493.968 6  98495469.49046  24053595.940                    24053600.700
     -1995.350       -1554.820          41.650          40.250    94391491.465 7
  24053601.000       -1489.931          46.000


 106524640.467 8  83006348.40748  20270915.420                    20270913.540
       968.737         754.861          51.900          51.850



 125302072.202 7  97638006.15747  23844184.580                    23844185.540
     -3892.552       -3033.160          45.250          45.350



 128466084.274 7 100103529.59747  24446249.100                    24446246.880
     -2869.209       -2235.747          43.800          43.950



 117462726.681 7  91529454.53447  22352389.500                    22352387.380
     -1506.619       -1173.987          47.200          43.700



 131811313.364 6 102710113.02645  25082867.340                    25082872.120
     -3173.277       -2472.692          37.350          35.900    98430540.049 6
  25082878.280       -2369.305          40.100


 108171760.074 8  84289800.81348  20584355.420                    20584355.820
     -1640.216       -1278.090          51.850          51.850    80777752.316 9
  20584357.260       -1224.776          56.100


 115993391.939 7  90384588.74247  22072780.280                    22072782.760
      3057.144        2382.193          46.550          44.150    86618593.337 8
  22072784.120        2283.077          50.800


 122739555.446 7  95641247.69847  23356556.260                    23356558.560
      2725.842        2124.033          46.750          43.550    91656195.701 8
  23356559.160        2035.596          49.800


 23 10 29 17 32 30.0000000  0 10G06G10G12G15G17G19G23G24G25G32
 130533135.583 7 101714149.19446  24839629.600                    24839632.560
      2553.890        1990.046          42.050          41.550    97476066.308 7
  24839634.140        1907.169          44.850


 126462551.511 6  98542267.47346  24065024.620                    24065029.340
     -2008.842       -1565.336          41.550          40.950    94436339.507 7
  24065029.700       -1499.896          45.650


 106495818.416 8  82983889.69448  20265430.740                    20265428.820
       952.718         742.379          51.700          51.700



 125418894.436 7  97729036.40647  23866415.120                    23866415.980
     -3895.582       -3035.521          45.250          45.450



 128552306.284 7 100170715.59847  24462656.720                    24462654.320
     -2878.699       -2243.143          43.300          43.400



 117508210.631 7  91564896.58847  22361044.780                    22361042.420
     -1525.345       -1188.579          46.400          43.200



 131906520.936 6 102784300.47845  25100984.960                    25100989.240
     -3174.404       -2473.564          37.950          32.950    98501636.325 7
  25100995.800       -2370.435          42.650


 108221167.034 8  84328299.73948  20593757.280                    20593757.600
     -1653.500       -1288.441          51.850          51.850    80814647.131 9
  20593759.300       -1234.831          56.000


 115901809.733 7  90313226.08047  22055352.600                    22055354.980
      3048.255        2375.266          46.300          45.000    86550204.148 8
  22055356.600        2276.250          50.850


 122657956.932 7  95577664.49347  23341028.540                    23341030.740
      2713.986        2114.798          46.850          44.300    91595261.814 8
  23341031.440        2026.701          49.650


 23 10 29 17 33  0.0000000  0 10G06G10G12G15G17G19G23G24G25G32
 130456656.472 6 101654555.11046  24825076.060                    24825078.880
      2545.260        1983.321          41.300          41.250    97418955.322 7
  24825080.580        1900.825          44.750


 126523013.206 6  98589380.38446  24076530.360                    24076534.900
     -2021.509       -1575.205          40.500          39.450    94481489.372 7
  24076535.200       -1509.539          45.400


 106467489.655 8  82961815.35948  20260039.920                    20260037.880
       936.530         729.766          51.400          51.500



 125535810.845 7  97820140.02447  23888663.500                    23888664.460
     -3898.327       -3037.660          44.900          44.850



 128638818.651 7 100238127.87746  24479119.500                    24479117.120
     -2888.269       -2250.596          42.750          41.950



 117554267.567 7  91600785.13447  22369809.040                    22369806.340
     -1544.380       -1203.411          45.750          44.000



 132001782.393 6 102858529.95646  25119113.020                    25119116.780
     -3175.667       -2474.550          37.500          36.600    98572772.829 7
  25119124.080       -2371.439          43.250


 108270983.846 8  84367118.03448  20603237.080                    20603237.360
     -1666.853       -1298.846          51.250          51.300    80851847.998 9
  20603239.220       -1244.666          56.100


 115810511.282 7  90242084.53247  22037979.000                    22037981.300
      3039.233        2368.237          46.100          45.400    86482026.859 8
  22037983.220        2269.495          51.100


 122576722.993 7  95514365.35147  23325570.160                    23325572.240
      2702.092        2105.526          46.600          43.950    91534600.156 8
  23325573.000        2017.862          49.600


 23 10 29 17 33 30.0000000  0 10G06G10G12G15G17G19G23G24G25G32
 130380437.004 7 101595163.33147  24810571.980                    24810574.660
      2536.214        1976.271          42.300          42.200    97362038.220 7
  24810576.520        1893.949          44.600


 126583868.953 6  98636800.32346  24088111.000                    24088115.380
     -2034.938       -1585.672          40.650          39.600    94526933.480 7
  24088115.800       -1519.724          45.400


 106439647.124 8  82940119.90348  20254741.680                    20254739.400
       920.043         716.916          51.750          51.900



 125652811.945 7  97911309.63647  23910928.020                    23910928.860
     -3901.479       -3040.117          44.400          45.200



 128725611.576 7 100305758.77647  24495635.620                    24495633.480
     -2897.494       -2257.784          42.400          42.850



 117600888.487 7  91637113.14247  22378680.700                    22378677.720
     -1563.357       -1218.201          46.800          43.500



 132097087.425 6 102932793.29746  25137249.240                    25137253.520
     -3177.417       -2475.925          37.000          36.750    98643941.802 7
  25137261.060       -2372.823          43.250


 108321202.525 8  84406249.47048  20612793.300                    20612793.660
     -1680.499       -1309.480          51.300          51.400    80889348.964 9
  20612795.560       -1255.025          56.200


 115719490.626 7  90171159.44847  22020658.360                    22020660.660
      3029.448        2360.612          46.250          45.650    86414057.010 8
  22020662.700        2262.192          51.450


 122495848.796 7  95451346.53547  23310180.280                    23310182.220
      2689.830        2095.974          46.950          44.100    91474207.141 8
  23310183.040        2008.600          49.550


 23 10 29 17 34  0.0000000  0 10G06G10G12G15G17G19G23G24G25G32
 130304488.543 6 101535982.72746  24796119.380                    24796121.800
      2527.745        1969.674          41.600          41.350    97305323.520 7
  24796124.160        1887.402          43.550


 126645124.055 6  98684531.44346  24099767.660                    24099771.920
     -2048.138       -1595.956          41.600          40.700    94572675.796 7
  24099772.300       -1529.297          45.550


 106412299.228 8  82918809.88348  20249537.600                    20249535.100
       903.972         704.395          51.850          51.850



 125769902.859 7  98002549.24447  23933209.640                    23933210.560
     -3904.076       -3042.140          44.950          44.650



 128812690.149 7 100373612.24147  24512206.140                    24512204.320
     -2907.118       -2265.286          43.150          43.100



 117648080.001 7  91673885.77547  22387660.940                    22387658.020
     -1581.894       -1232.643          46.600          43.550



 132192441.026 6 103007094.48546  25155394.580                    25155399.320
     -3179.021       -2477.170          38.500          36.750    98715147.054 7
  25155407.060       -2373.673          44.250


 108371830.507 8  84445699.84948  20622427.420                    20622427.800
     -1693.834       -1319.871          51.100          51.100    80927155.579 9
  20622429.700       -1264.915          56.050


 115628757.165 7  90100458.15047  22003392.340                    22003394.780
      3020.311        2353.491          46.950          45.000    86346301.616 8
  22003396.660        2255.325          51.100


 122415345.035 7  95388616.36647  23294860.880                    23294862.720
      2677.881        2086.662          47.000          43.850    91414090.747 8
  23294863.440        1999.692          49.200


 23 10 29 17 34 30.0000000  0 10G06G10G12G15G17G19G23G24G25G32
 130228806.232 6 101477009.54446  24781717.500                    24781719.960
      2518.275        1962.293          41.600          41.250    97248807.545 7
  24781722.280        1880.558          44.350


 126706767.915 7  98732565.54046  24111498.380                    24111502.440
     -2061.154       -1606.096          42.650          41.700    94618708.456 7
  24111502.840       -1539.235          45.750


 106385437.554 8  82897878.73048  20244426.040                    20244423.400
       887.271         691.380          52.150          52.100



 125887073.087 7  98093850.64247  23955506.420                    23955507.560
     -3907.076       -3044.479          44.750          44.300



 128900045.352 7 100441681.26146  24528829.240                    24528827.600
     -2916.417       -2272.531          42.900          41.850



 117695832.282 7  91711095.34747  22396748.020                    22396745.120
     -1601.042       -1247.564          46.950          44.650



 132287832.177 6 103081425.01345  25173547.260                    25173552.240
     -3179.837       -2477.803          36.500          35.950    98786380.406 7
  25173560.020       -2374.840          43.500


 108422859.121 8  84485462.40448  20632137.780                    20632138.320
     -1707.643       -1330.630          51.400          51.500    80965261.359 9
  20632139.960       -1275.201          56.150


 115538304.228 7  90029975.43547  21986179.760                    21986182.160
      3010.340        2345.722          47.400          45.250    86278755.698 8
  21986183.940        2247.975          51.300


 122335206.295 7  95326170.63247  23279610.940                    23279612.760
      2665.149        2076.740          47.500          43.250    91354246.934 8
  23279613.360        1990.142          49.400


 23 10 29 17 35  0.0000000  0 10G06G10G12G15G17G19G23G24G25G32
 130153394.542 6 101418247.23746  24767366.980                    24767369.920
      2508.730        1954.858          40.500          40.550    97192493.693 7
  24767371.960        1873.396          43.550


 126768799.316 7  98780901.59446  24123302.800                    24123306.780
     -2074.383       -1616.404          43.100          40.150    94665030.496 7
  24123307.140       -1549.205          46.000


 106359064.189 8  82877328.08648  20239407.440                    20239404.700
       870.509         678.319          52.300          52.600



 126004321.544 7  98185213.00947  23977818.140                    23977819.300
     -3909.891       -3046.671          45.050          45.100



 128987675.481 7 100509964.52347  24545504.520                    24545503.220
     -2926.029       -2280.021          42.300          42.300



 117744145.354 7  91748741.89047  22405941.860                    22405939.100
     -1620.015       -1262.349          47.050          44.650



 132383259.446 6 103155783.60646  25191706.600                    25191712.280
     -3182.066       -2479.537          37.550          37.100    98857640.684 7
  25191719.840       -2376.114          44.600


 108474289.097 8  84525537.70848  20641924.620                    20641925.220
     -1721.468       -1341.403          51.350          51.350    81003666.859 9
  20641926.520       -1285.464          55.650


 115448134.559 7  89959713.45547  21969021.080                    21969023.500
      3000.646        2338.168          47.000          45.800    86211421.304 8
  21969024.880        2240.718          50.550


 122255436.510 7  95264012.40347  23264431.240                    23264433.040
      2652.449        2066.846          47.800          43.750    91294678.633 8
  23264433.440        1980.715          49.000


 23 10 29 17 35 30.0000000  0 10G06G10G12G15G17G19G23G24G25G32
 130078261.723 6 101359702.24146  24753069.620                    24753072.660
      2499.629        1947.764          41.250          41.600    97136388.078 7
  24753074.660        1866.664          43.700


 126831220.697 7  98829541.53746  24135181.440                    24135185.340
     -2087.406       -1626.555          43.700          39.950    94711643.742 7
  24135185.500       -1558.633          46.150


 106333183.818 8  82857161.59348  20234482.620                    20234479.780
       854.315         665.701          52.700          52.650



 126121650.904 7  98276638.43647  24000145.280                    24000146.340
     -3912.357       -3048.592          45.350          45.100



 129075583.039 7 100578463.98247  24562232.480                    24562231.420
     -2934.923       -2286.952          42.450          42.350



 117793022.179 8  91786827.73447  22415243.000                    22415240.500
     -1638.842       -1277.021          48.600          43.500



 132478724.617 6 103230171.74446  25209873.140                    25209879.040
     -3182.742       -2480.069          38.300          36.300    98928929.261 7
  25209886.620       -2376.857          44.550


 108526124.806 8  84565929.16248  20651788.640                    20651789.280
     -1734.766       -1351.767          51.950          51.950    81042375.335 9
  20651790.340       -1295.346          55.850


 115358254.540 7  89889677.16247  21951917.500                    21951919.820
      2991.003        2330.654          47.550          44.850    86144303.208 8
  21951921.020        2233.583          50.600


 122176043.323 8  95202147.61747  23249323.180                    23249325.040
      2640.028        2057.166          48.000          44.250    91235391.576 8
  23249325.340        1971.388          49.250


 23 10 29 17 36  0.0000000  0 10G06G10G12G15G17G19G23G24G25G32
 130003404.962 6 101301372.35946  24738824.920                    24738828.160
      2490.857        1940.928          41.200          41.700    97080488.635 7
  24738829.820        1859.709          43.800


 126894023.127 7  98878478.41646  24147132.440                    24147136.360
     -2099.969       -1636.342          43.850          40.250    94758541.548 7
  24147136.520       -1568.148          45.950


 106307791.013 8  82837375.01748  20229650.520                    20229647.540
       838.185         653.133          52.450          52.600



 126239052.643 7  98368120.24247  24022486.000                    24022487.080
     -3914.845       -3050.530          44.050          44.100



 129163759.859 7 100647173.24047  24579011.700                    24579010.800
     -2943.966       -2293.997          42.250          42.400



 117842455.496 7  91825347.22047  22424650.020                    22424647.580
     -1657.161       -1291.293          47.950          44.400



 132574218.762 6 103304582.46546  25228045.440                    25228051.620
     -3183.760       -2480.863          38.650          36.650    99000239.429 7
  25228058.920       -2377.499          44.000


 108578359.633 8  84606631.60748  20661728.580                    20661729.300
     -1747.907       -1362.006          51.750          51.750    81081381.850 9
  20661730.240       -1305.288          55.550


 115268659.512 7  89819862.94147  21934868.120                    21934870.280
      2981.481        2323.235          47.300          44.550    86077397.928 8
  21934871.260        2226.468          50.350


 122097023.310 7  95140573.62647  23234286.140                    23234288.160
      2627.561        2047.451          47.950          44.300    91176383.170 8
  23234288.220        1962.176          49.050


 23 10 29 17 36 30.0000000  0 10G06G10G12G15G17G19G23G24G25G32
 129928832.714 6 101243264.18146  24724634.300                    24724637.640
      2481.217        1933.418          41.550          41.450    97024801.619 7
  24724639.040        1852.708          43.350


 126957209.324 7  98927714.28446  24159156.520                    24159160.500
     -2112.523       -1646.127          44.200          40.050    94805725.918 7
  24159160.460       -1577.638          45.950


 106282890.811 8  82817972.28348  20224912.120                    20224909.100
       821.845         640.399          52.150          52.250



 126356529.541 7  98459660.59747  24044841.180                    24044842.440
     -3917.110       -3052.296          44.300          44.300



 129252209.027 6 100716094.72746  24595842.880                    24595841.940
     -2952.645       -2300.760          41.750          41.350



 117892448.930 8  91864303.16347  22434163.580                    22434161.120
     -1675.745       -1305.774          48.000          44.100



 132669744.350 6 103379017.67346  25246223.540                    25246229.760
     -3184.599       -2481.517          36.600          36.850    99071573.133 7
  25246236.860       -2378.204          42.900


 108630998.167 8  84647648.64148  20671745.360                    20671746.140
     -1761.244       -1372.398          51.650          51.650    81120689.836 9
  20671747.040       -1315.233          55.700


 115179356.130 7  89750275.98247  21917874.220                    21917876.280
      2972.210        2316.011          47.600          45.200    86010710.448 8
  21917877.220        2219.311          50.650


 122018384.356 8  95079296.57047  23219321.580                    23219323.820
      2614.926        2037.606          48.200          44.300    91117659.330 8
  23219323.680        1952.712          49.350


 23 10 29 17 37  0.0000000  0 10G06G10G12G15G17G19G23G24G25G32
 129854545.504 7 101185378.09347  24710497.940                    24710501.200
      2471.692        1925.995          42.400          42.400    96969327.444 7
  24710502.540        1845.695          43.300


 127020774.196 7  98977245.28046  24171252.620                    24171256.540
     -2124.871       -1655.745          43.500          40.900    94853193.077 7
  24171256.520       -1586.781          45.850


 106258480.477 8  82798951.26248  20220266.880                    20220264.060
       805.659         627.787          52.200          52.250



 126474076.505 7  98551255.57647  24067209.600                    24067210.880
     -3919.143       -3053.880          43.750          43.400



 129340925.229 6 100785224.30746  24612724.760                    24612723.980
     -2961.531       -2307.685          41.900          41.500



 117942997.996 8  91903692.04047  22443782.740                    22443780.220
     -1694.065       -1320.051          48.100          44.650



 132765295.787 6 103453472.91145  25264406.680                    25264412.600
     -3185.496       -2482.224          36.350          34.900    99142926.047 7
  25264419.440       -2378.656          43.100


 108684037.062 8  84688977.64548  20681838.340                    20681839.220
     -1774.407       -1382.655          51.100          51.050    81160296.801 9
  20681840.040       -1325.062          55.600


 115090343.031 7  89680915.20247  21900935.440                    21900937.380
      2962.572        2308.501          47.350          45.000    85944239.725 8
  21900938.440        2212.212          50.950


 121940126.370 7  95018316.37247  23204429.520                    23204431.980
      2602.214        2027.700          47.800          45.100    91059219.974 8
  23204431.660        1943.347          49.550


 23 10 29 17 37 30.0000000  0 10G06G10G12G15G17G19G23G24G25G32
 129780545.038 7 101127715.41247  24696416.220                    24696419.280
      2462.115        1918.534          42.400          42.350    96914067.392 7
  24696420.620        1838.591          42.900


 127084713.519 7  99027067.99646  24183419.960                    24183423.940
     -2137.358       -1665.479          43.800          40.650    94900939.831 7
  24183423.800       -1596.094          45.000


 106234558.831 8  82780311.04248  20215714.640                    20215712.200
       789.433         615.143          51.700          51.800



 126591689.538 7  98642902.01747  24089590.580                    24089591.900
     -3921.064       -3055.377          43.350          43.200



 129429904.885 7 100854559.14247  24629657.080                    24629656.200
     -2970.050       -2314.323          42.550          43.150



 117994099.519 8  91943511.42047  22453507.120                    22453504.240
     -1712.462       -1334.386          48.100          44.500



 132860868.395 6 103527944.84145  25282593.820                    25282599.400
     -3185.770       -2482.420          41.500          34.250    99214294.865 7
  25282606.560       -2379.208          44.600


 108737474.238 8  84730616.99348  20692007.080                    20692008.080
     -1787.739       -1393.043          50.650          50.600    81200201.176 9
  20692008.880       -1334.981          55.350


 115001620.157 7  89611780.60147  21884051.900                    21884053.900
      2952.936        2300.993          47.100          45.250    85877985.763 8
  21884055.060        2205.017          51.150


 121862250.442 7  94957633.88647  23189610.080                    23189612.780
      2589.544        2017.827          47.400          44.800    91001065.933 8
  23189612.320        1933.750          49.600


 23 10 29 17 38  0.0000000  0 10G06G10G12G15G17G19G23G24G25G32
 129706834.652 6 101070278.77946  24682389.580                    24682392.560
      2452.383        1910.950          41.500          40.950    96859023.962 7
  24682394.080        1831.330          42.900


 127149024.551 7  99077180.41046  24195658.040                    24195661.920
     -2149.560       -1674.982          44.300          39.950    94948964.211 7
  24195661.740       -1605.268          44.750


 106211126.055 8  82762051.75148  20211255.400                    20211253.380
       773.228         602.516          51.900          51.900



 126709366.675 7  98734598.41647  24111983.820                    24111985.100
     -3923.428       -3057.220          42.950          43.050



 129519146.231 6 100924097.90946  24646639.100                    24646638.220
     -2979.004       -2321.300          40.950          40.550



 118045752.088 8  91983760.17947  22463336.260                    22463333.080
     -1730.621       -1348.536          48.450          43.500



 132956459.694 6 103602431.31046  25300784.720                    25300789.720
     -3186.383       -2482.908          39.300          37.550    99285677.637 7
  25300797.720       -2379.423          45.800


 108791309.196 8  84772566.31048  20702251.500                    20702252.560
     -1800.852       -1403.261          51.450          51.550    81240402.606 9
  20702253.420       -1344.793          55.450


 114913189.027 7  89542873.30747  21867223.900                    21867225.780
      2943.128        2293.350          47.200          44.400    85811949.639 8
  21867227.240        2197.736          51.750


 121784759.400 7  94897251.33147  23174863.860                    23174866.800
      2576.805        2007.903          47.050          44.550    90943199.320 8
  23174866.260        1924.267          49.800


 23 10 29 17 38 30.0000000  0 10G06G10G12G15G17G19G23G24G25G32
 129633418.882 6 101013071.72746  24668419.080                    24668421.900
      2442.096        1902.933          40.650          40.400    96804200.541 7
  24668423.480        1823.822          42.750


 127213706.081 7  99127581.50146  24207966.600                    24207970.420
     -2162.372       -1684.971          43.900          41.250    94997265.246 7
  24207970.360       -1614.622          44.700


 106188183.676 8  82744174.58548  20206889.540                    20206887.740
       756.491         589.474          51.850          51.900



 126827106.367 7  98826343.56547  24134388.880                    24134390.200
     -3926.022       -3059.240          43.350          43.400



 129608647.767 6 100993839.41346  24663670.680                    24663669.720
     -2987.896       -2328.231          40.050          40.300



 118097955.303 8  92024438.01947  22473270.280                    22473266.840
     -1749.357       -1363.137          48.350          43.900



 133052068.154 5 103676931.00745  25318978.440                    25318983.760
     -3187.104       -2483.480          34.550          34.800    99357073.072 7
  25318991.940       -2380.001          44.750


 108845542.655 8  84814826.13748  20712571.840                    20712572.720
     -1814.590       -1413.967          51.350          51.100    81280901.601 9
  20712573.760       -1354.948          55.550


 114825052.324 7  89474195.44047  21850451.880                    21850453.880
      2932.784        2285.288          47.750          44.550    85746133.368 8
  21850455.520        2190.205          52.000


 121707657.175 7  94837171.73747  23160191.620                    23160194.660
      2563.492        1997.528          46.400          44.800    90885623.060 8
  23160194.140        1914.300          50.000


 23 10 29 17 39  0.0000000  0 10G06G10G12G15G17G19G23G24G25G32
 129560301.556 6 100956097.24446  24654505.320                    24654508.020
      2432.583        1895.522          40.800          41.600    96749600.003 7
  24654509.520        1816.366          42.900


 127278756.126 7  99178269.78046  24220345.360                    24220348.800
     -2174.234       -1694.211          43.850          39.900    95045841.499 7
  24220349.020       -1623.617          44.350


 106165732.488 8  82726680.16748  20202617.180                    20202615.360
       740.461         576.982          51.800          51.850



 126944906.960 7  98918136.14547  24156805.460                    24156806.720
     -3927.270       -3060.212          43.650          43.250



 129698408.066 6 101063782.56846  24680751.460                    24680750.340
     -2996.033       -2334.570          41.100          40.700



 118150707.934 8  92065543.97447  22483308.780                    22483305.360
     -1767.176       -1377.021          48.300          44.200



 133147691.407 6 103751442.25846  25337175.040                    25337180.600
     -3187.659       -2483.899          37.350          37.100    99428479.638 7
  25337188.920       -2380.223          43.850


 108900174.542 8  84857396.42548  20722968.020                    20722968.680
     -1827.400       -1423.948          51.350          51.500    81321698.135 9
  20722969.800       -1364.677          55.450


 114737212.031 7  89405748.55547  21833736.280                    21833738.240
      2923.348        2277.938          47.950          44.300    85680538.473 8
  21833740.200        2182.942          52.250


 121630946.965 7  94777397.61547  23145594.020                    23145597.060
      2550.794        1987.634          46.300          44.350    90828339.558 8
  23145596.680        1904.687          50.050


 23 10 29 17 39 30.0000000  0 10G06G10G12G15G17G19G23G24G25G32
 129487483.134 6 100899355.65346  24640648.500                    24640650.840
      2422.523        1887.683          40.700          40.650    96695222.670 7
  24640652.300        1808.842          43.250


 127344169.176 7  99229240.91246  24232793.180                    24232796.140
     -2186.481       -1703.755          42.400          40.050    95094688.807 7
  24232796.820       -1632.622          44.700


 106143769.869 8  82709566.45848  20198437.860                    20198435.820
       724.008         564.162          51.850          51.950



 127062763.288 7  99009972.19747  24179232.900                    24179233.780
     -3929.099       -3061.636          43.300          42.950



 129788422.199 6 101133923.49646  24697880.580                    24697879.240
     -3004.259       -2340.981          40.500          40.250



 118204005.607 7  92107074.63147  22493451.020                    22493447.580
     -1785.583       -1391.362          47.800          45.400



 133243323.851 6 103825960.73545  25355373.460                    25355379.260
     -3187.587       -2483.841          39.350          35.900    99499893.149 6
  25355387.200       -2380.627          41.800


 108955201.521 8  84900274.58048  20733439.300                    20733439.820
     -1840.651       -1434.274          50.800          50.800    81362789.692 9
  20733441.040       -1374.549          55.600


 114649666.853 7  89337531.61747  21817076.860                    21817078.760
      2913.328        2270.130          47.550          45.100    85615163.919 8
  21817080.940        2175.596          52.100


 121554628.708 7  94717928.91347  23131071.100                    23131073.900
      2537.345        1977.154          46.700          44.000    90771348.718 8
  23131073.720        1894.882          49.900


 23 10 29 17 40  0.0000000  0 10G06G10G12G15G17G19G23G24G25G32
 129414967.150 6 100842849.73246  24626848.860                    24626851.300
      2411.686        1879.237          40.150          40.250    96641071.163 7
  24626852.680        1801.147          43.200


 127409942.992 6  99280493.20146  24245309.620                    24245312.140
     -2198.469       -1713.094          41.950          39.550    95143805.588 7
  24245313.300       -1641.889          44.500


 106122296.094 8  82692833.67348  20194351.660                    20194349.340
       707.385         551.210          52.100          52.100



 127180674.027 7  99101850.65247  24201670.840                    24201671.380
     -3931.573       -3063.563          43.600          43.650



 129878688.233 6 101204260.74946  24715057.520                    24715056.000
     -3013.346       -2348.059          39.350          38.550



 118257846.788 7  92149028.81247  22503696.540                    22503693.120
     -1804.009       -1405.721          47.700          44.500



 133338962.982 5 103900484.45844  25373573.080                    25373578.740
     -3188.200       -2484.324          35.750          29.950    99571311.684 7
  25373586.960       -2380.945          42.900


 109010623.283 8  84943460.35648  20743985.680                    20743986.080
     -1854.179       -1444.814          50.700          50.750    81404176.053 9
  20743987.480       -1384.616          55.400


 114562418.416 7  89269545.90647  21800473.980                    21800475.700
      2903.141        2262.189          47.850          45.200    85550010.970 8
  21800478.200        2167.936          51.750


 121478705.327 7  94658767.89447  23116623.420                    23116625.820
      2523.771        1966.576          47.050          43.650    90714652.773 8
  23116625.920        1884.728          49.350


 23 10 29 17 40 30.0000000  0 10G06G10G12G15G17G19G23G24G25G32
 129342758.435 6 100786583.26546  24613107.860                    24613110.120
      2402.219        1871.858          40.350          40.000    96587149.151 7
  24613111.440        1793.720          43.250


 127476076.531 6  99332025.80046  24257894.280                    24257896.400
     -2210.407       -1722.396          40.650          39.800    95193190.929 7
  24257898.200       -1650.409          44.150


 106101313.087 8  82676483.30048  20190358.800                    20190356.380
       691.500         538.832          52.200          52.250



 127298637.505 7  99193770.15947  24224118.640                    24224119.220
     -3932.488       -3064.279          43.650          43.800



 129969205.209 6 101274793.53246  24732282.200                    24732280.580
     -3021.361       -2354.304          39.600          39.250



 118312231.749 7  92191406.69747  22514045.460                    22514042.180
     -1821.555       -1419.394          46.850          44.100



 133434607.768 6 103975012.54345  25391773.520                    25391779.860
     -3187.694       -2483.932          37.950          33.650    99642734.265 7
  25391787.880       -2380.700          45.100


 109066440.830 8  84986954.52848  20754607.360                    20754607.800
     -1866.831       -1454.674          51.000          51.200    81445857.962 9
  20754609.320       -1394.104          55.600


 114475469.884 8  89201793.90347  21783928.220                    21783929.680
      2893.555        2254.722          48.700          44.200    85485081.981 8
  21783932.360        2160.765          51.650


 121403181.103 7  94599917.90747  23102251.740                    23102253.740
      2511.102        1956.703          47.350          43.550    90658254.890 8
  23102254.000        1875.099          49.200


 23 10 29 17 41  0.0000000  0 10G06G10G12G15G17G19G23G24G25G32
 129270859.928 6 100730558.50346  24599425.660                    24599428.280
      2391.339        1863.382          39.750          38.850    96533458.761 7
  24599429.080        1785.642          43.700


 127542566.645 6  99383836.18046  24270546.620                    24270548.780
     -2222.186       -1731.578          39.800          39.500    95242842.566 7
  24270551.080       -1659.660          44.650


 106080820.303 8  82660514.92248  20186459.180                    20186456.760
       674.887         525.887          52.000          52.100



 127416651.355 7  99285728.92447  24246575.880                    24246576.580
     -3934.667       -3065.978          43.350          43.350



 130059970.844 6 101345520.06046  24749554.200                    24749552.600
     -3029.765       -2360.854          40.700          41.000



 118367158.249 7  92234206.57447  22524497.380                    22524494.200
     -1839.812       -1433.619          46.750          43.400



 133530254.978 6 104049542.43846  25409975.060                    25409981.580
     -3188.034       -2484.198          38.000          36.750    99714158.632 7
  25409989.440       -2380.854          45.000


 109122653.242 8  85030756.40248  20765304.220                    20765304.740
     -1880.237       -1465.120          51.250          51.350    81487834.758 9
  20765306.300       -1404.161          55.900


 114388822.271 8  89134276.37947  21767439.720                    21767441.020
      2883.267        2246.705          48.100          44.600    85420377.707 8
  21767443.820        2153.015          51.700


 121328058.366 8  94541380.77147  23087956.400                    23087958.120
      2497.390        1946.019          48.200          42.650    90602156.817 8
  23087958.420        1864.824          49.050


 23 10 29 17 41 30.0000000  0 10G06G10G12G15G17G19G23G24G25G32
 129199270.399 6 100674774.50846  24585802.520                    24585805.220
      2381.107        1855.409          39.300          39.150    96479999.114 7
  24585806.020        1778.126          44.200


 127609406.242 6  99435918.91246  24283265.520                    24283267.940
     -2233.980       -1740.763          39.500          38.850    95292755.112 7
  24283270.360       -1668.202          44.500


 106060813.335 8  82644925.10648  20182651.880                    20182649.540
       658.602         513.197          51.550          51.300



 127534708.625 7  99377721.55147  24269041.500                    24269041.840
     -3936.143       -3067.125          43.950          43.600



 130150978.481 6 101416435.15146  24766872.400                    24766870.600
     -3037.828       -2367.141          40.500          41.050



 118422619.770 7  92277423.34647  22535051.060                    22535047.940
     -1857.721       -1447.576          45.600          43.800



 133625897.420 6 104124068.66446  25428175.720                    25428182.500
     -3188.263       -2484.368          39.250          37.450    99785579.559 7
  25428190.160       -2380.651          43.750


 109179255.419 8  85074861.98148  20776075.240                    20776075.740
     -1893.455       -1475.421          50.650          50.550    81530102.595 9
  20776077.460       -1413.855          56.050


 114302472.519 8  89066990.93047  21751007.920                    21751008.920
      2873.137        2238.811          48.250          44.100    85355895.820 8
  21751011.860        2145.586          51.650


 121253335.275 8  94483155.05347  23073737.080                    23073738.720
      2483.896        1935.506          48.300          42.900    90546357.171 8
  23073738.860        1854.915          48.800


 23 10 29 17 42  0.0000000  0 10G06G10G12G15G17G19G23G24G25G32
 129127998.210 6 100619237.79146  24572239.780                    24572242.560
      2370.775        1847.358          40.900          41.050    96426776.436 7
  24572243.520        1770.276          44.150


 127676598.019 6  99488276.00146  24296051.540                    24296054.180
     -2245.437       -1749.694          40.400          40.100    95342930.658 7
  24296056.740       -1676.749          43.700


 106041297.768 8  82629718.19748  20178938.060                    20178935.720
       642.488         500.642          51.700          51.600



 127652812.454 7  99469750.46647  24291515.980                    24291516.080
     -3937.418       -3068.117          43.300          43.550



 130242230.969 6 101487541.06546  24784237.300                    24784235.420
     -3045.861       -2373.396          39.550          38.350



 118478620.156 7  92321060.00547  22545707.340                    22545704.480
     -1875.491       -1461.423          46.150          44.400



 133721537.460 6 104198592.92446  25446376.000                    25446382.700
     -3188.096       -2484.246          37.900          36.350    99856998.575 7
  25446390.220       -2380.353          42.650


 109236251.899 8  85119274.81048  20786921.280                    20786921.740
     -1906.308       -1485.435          50.400          50.300    81572664.892 9
  20786923.640       -1423.521          56.000


 114216427.238 8  88999942.75747  21734634.060                    21734634.900
      2863.348        2231.185          48.850          44.250    85291641.329 8
  21734637.860        2138.154          51.400


 121179019.680 8  94425246.85247  23059595.200                    23059596.840
      2470.601        1925.146          48.150          43.350    90490861.820 8
  23059596.760        1844.935          48.400


 23 10 29 17 42 30.0000000  0 10G06G10G12G15G17G19G23G24G25G32
 129057044.409 6 100563949.11646  24558737.780                    24558740.560
      2360.201        1839.118          41.400          41.500    96373791.498 7
  24558741.800        1762.379          44.300


 127744136.962 6  99540903.63046  24308903.700                    24308906.600
     -2256.910       -1758.639          40.550          39.600    95393365.449 7
  24308908.980       -1685.299          43.050


 106022272.006 8  82614892.95548  20175317.480                    20175315.120
       626.311         488.034          51.800          51.800



 127770958.658 7  99561812.35847  24313998.540                    24313998.720
     -3938.902       -3069.275          43.150          43.200



 130333724.000 6 101558834.39046  24801647.820                    24801646.000
     -3053.564       -2379.403          40.150          39.950



 118535155.469 7  92365113.50147  22556465.580                    22556463.040
     -1893.231       -1475.245          46.250          44.050



 133817170.182 6 104273111.56246  25464574.720                    25464581.460
     -3187.488       -2483.771          39.050          38.150    99928412.154 7
  25464589.080       -2380.104          43.300


 109293639.784 8  85163992.61748  20797841.820                    20797842.280
     -1919.307       -1495.564          50.850          50.750    81615519.450 9
  20797844.340       -1433.214          55.900


 114130685.548 8  88933131.12547  21718317.940                    21718318.660
      2853.190        2223.267          49.000          44.350    85227613.534 8
  21718321.580        2130.692          51.350


 121105111.920 8  94367656.44847  23045530.960                    23045532.580
      2456.944        1914.504          48.700          43.050    90435671.021 8
  23045532.260        1834.843          48.250


 23 10 29 17 43  0.0000000  0 10G06G10G12G15G17G19G23G24G25G32
 128986408.946 6 100508908.51346  24545296.380                    24545299.180
      2349.096        1830.466          40.700          41.200    96321044.257 7
  24545300.860        1754.268          43.750


 127812016.928 6  99593796.99946  24321821.020                    24321823.900
     -2268.405       -1767.594          40.000          38.700    95444054.904 7
  24321826.180       -1693.857          42.250


 106003731.511 8  82600445.84448  20171789.280                    20171786.920
       609.868         475.223          52.050          51.950



 127889140.948 7  99653902.38747  24336487.880                    24336488.020
     -3940.068       -3070.184          43.500          43.300



 130425452.132 6 101630310.93846  24819103.080                    24819101.480
     -3061.649       -2385.700          40.600          40.600



 118592220.462 7  92409579.70447  22567324.780                    22567322.460
     -1911.006       -1489.097          47.150          44.050



 133912789.618 6 104347619.80346  25482770.820                    25482777.780
     -3187.171       -2483.528          40.400          38.000    99999815.770 7
  25482785.260       -2379.941          45.300


 109351415.281 8  85209012.45848  20808836.200                    20808836.700
     -1932.319       -1505.704          51.350          51.450    81658663.457 9
  20808838.800       -1442.946          55.850


 114045245.682 8  88866554.69847  21702059.220                    21702060.000
      2842.859        2215.218          48.750          44.300    85163811.138 8
  21702062.740        2122.894          51.400


 121031611.450 8  94310383.41547  23031544.260                    23031545.740
      2443.052        1903.679          48.850          43.450    90380784.365 8
  23031545.240        1824.464          48.300


 23 10 29 17 43 30.0000000  0 10G06G10G12G15G17G19G23G24G25G32
 128916100.400 6 100454122.64746  24531916.880                    24531919.900
      2338.176        1821.957          40.000          39.350    96268541.135 7
  24531922.060        1746.065          43.900


 127880240.891 6  99646958.42946  24334803.860                    24334806.740
     -2279.996       -1776.623          40.100          39.550    95495001.268 7
  24334808.620       -1702.473          42.500


 105985682.279 8  82586381.53748  20168354.620                    20168352.220
       593.416         462.403          51.800          51.800



 128007362.832 7  99746023.24947  24358984.760                    24358984.920
     -3941.159       -3071.036          42.850          42.700



 130517418.108 6 101701972.80146  24836603.600                    24836602.280
     -3069.566       -2391.870          40.400          40.050



 118649818.940 7  92454461.62947  22578285.660                    22578283.220
     -1928.855       -1503.003          47.600          44.400



 134008398.264 6 104422119.64045  25500964.860                    25500971.780
     -3186.751       -2483.201          36.550          34.300   100071211.417 6
  25500979.280       -2379.439          39.800


 109409583.103 8  85254338.00748  20819905.240                    20819905.860
     -1945.439       -1515.928          51.250          51.400    81702100.441 9
  20819907.720       -1452.745          55.650


 113960114.367 8  88800218.68447  21685859.220                    21685860.220
      2832.500        2207.146          48.000          45.050    85100239.141 8
  21685862.600        2115.270          51.600


 120958526.251 8  94253433.97147  23017636.540                    23017637.880
      2429.096        1892.805          48.050          43.650    90326207.818 8
  23017637.380        1813.990          48.400


 23 10 29 17 44  0.0000000  0 10G06G10G12G15G17G19G23G24G25G32
 128846118.699 6 100399591.47846  24518599.580                    24518602.500
      2327.156        1813.368          39.750          40.150    96216282.106 7
  24518605.480        1738.057          44.250


 127948802.640 6  99700383.03146  24347850.800                    24347853.860
     -2290.656       -1784.929          41.250          38.250    95546199.859 6
  24347855.220       -1710.606          41.700


 105968121.015 8  82572697.45548  20165012.920                    20165010.380
       577.474         449.980          52.450          52.350



 128125618.493 7  99838170.44447  24381488.220                    24381488.300
     -3942.281       -3071.912          42.950          43.400



 130609617.193 6 101773816.33846  24854148.620                    24854147.380
     -3076.821       -2397.521          40.650          41.350



 118707945.502 8  92499755.03847  22589347.220                    22589344.460
     -1946.115       -1516.453          48.450          44.650



 134103990.670 6 104496606.88746  25519155.600                    25519162.920
     -3185.479       -2482.204          39.350          38.350   100142594.919 7
  25519170.280       -2379.083          45.050


 109468139.327 8  85299966.21548  20831048.140                    20831048.920
     -1958.207       -1525.876          51.400          51.250    81745827.468 9
  20831050.360       -1462.219          55.600


 113875289.734 7  88734121.64147  21669717.480                    21669718.840
      2822.450        2199.315          47.700          46.150    85036896.149 8
  21669720.880        2107.793          51.950


 120885855.666 7  94196807.58647  23003807.660                    23003808.840
      2415.527        1882.231          47.700          44.350    90271940.876 8
  23003808.480        1803.916          48.900


 23 10 29 17 44 30.0000000  0 10G06G10G12G15G17G19G23G24G25G32
 128776467.973 6 100345318.21546  24505345.320                    24505348.180
      2316.076        1804.734          39.950          40.200    96164270.263 7
  24505351.800        1729.594          43.900


 128017700.806 6  99754069.77246  24360961.780                    24360964.900
     -2302.191       -1793.922          41.850          38.850    95597649.633 6
  24360966.060       -1719.222          41.800


 105951048.629 8  82559394.32848  20161764.280                    20161761.580
       560.860         437.035          52.650          52.550



 128243906.490 7  99930342.83447  24403997.680                    24403997.780
     -3943.391       -3072.773          42.900          43.250



 130702047.655 6 101845840.15846  24871737.440                    24871736.580
     -3084.617       -2403.595          40.850          40.800



 118766599.226 8  92545459.23047  22600509.100                    22600506.000
     -1963.718       -1530.171          49.000          44.850



 134199564.859 5 104571079.85945  25537343.040                    25537350.360
     -3185.641       -2482.326          34.150          31.150   100213964.713 6
  25537358.040       -2378.707          40.300


 109527084.303 8  85345897.34748  20842265.000                    20842265.840
     -1971.469       -1536.210          51.100          51.100    81789844.797 9
  20842266.860       -1472.086          55.150


 113790774.152 7  88668265.41947  21653634.580                    21653636.360
      2811.825        2191.035          47.900          46.000    84973783.953 8
  21653638.120        2099.828          51.950


 120813603.287 7  94140507.09947  22990058.320                    22990059.420
      2401.308        1871.151          47.400          44.250    90217986.256 8
  22990059.300        1793.224          48.750


 23 10 29 17 45  0.0000000  0 11G06G10G11G12G15G17G19G23G24G25G32
 128707150.476 6 100291304.64946  24492154.600                    24492157.160
      2305.522        1796.513          39.900          40.150    96112507.288 7
  24492161.260        1721.495          44.100


 128086931.350 6  99808015.53246  24374136.020                    24374139.320
     -2313.116       -1802.436          41.200          36.750    95649347.596 6
  24374139.880       -1727.009          41.550


 136179814.312 5                  25914156.820
      2994.634                          33.800                   101692747.759 6
  25914164.480        2235.861          39.800


 105934464.399 8  82546471.57448  20158608.560                    20158605.680
       544.988         424.667          52.600          52.600



 128362223.981 7 100022538.20447  24426512.820                    24426513.120
     -3943.992       -3073.242          42.850          43.250



 130794706.287 6 101918041.77646  24889369.640                    24889369.160
     -3091.880       -2409.256          40.050          39.550



 118825777.710 8  92591572.32847  22611770.660                    22611767.220
     -1981.243       -1543.827          48.750          45.700




                                                                 100285318.415 6
  25555541.780       -2377.555          37.100


 109586416.334 8  85392130.09048  20853555.520                    20853556.280
     -1983.834       -1545.846          51.050          50.950    81834151.174 9
  20853557.160       -1481.447          55.450


 113706568.042 7  88602650.34847  21637610.560                    21637612.640
      2801.993        2183.373          47.850          46.000    84910902.864 8
  21637614.300        2092.507          52.400


 120741770.741 7  94084533.74047  22976388.960                    22976389.900
      2387.673        1860.526          46.900          44.100    90164345.136 8
  22976390.100        1783.040          49.150


 23 10 29 17 45 30.0000000  0 11G06G10G11G12G15G17G19G23G24G25G32
 128638163.122 6 100237548.32546  24479026.720                    24479029.200
      2294.122        1787.630          40.800          40.750    96060990.828 7
  24479033.340        1712.921          44.050


 128156485.247 7  99862213.23846  24387371.860                    24387375.080
     -2323.941       -1810.870          42.350          38.900    95701287.081 7
  24387375.580       -1735.448          42.200


                                  25897062.880                    25897063.960
      2995.457        2334.142          35.150          31.950   101625668.698 7
  25897071.080        2235.952          43.850


 105918362.485 8  82533924.65248  20155544.520                    20155541.520
       528.548         411.855          52.600          52.650



 128480562.230 7 100114749.76747  24449031.980                    24449032.200
     -3945.077       -3074.090          43.050          42.800



 130887584.538 6 101990414.53246  24907043.760                    24907043.460
     -3099.783       -2415.416          40.950          41.850



 118885472.729 8  92638087.91947  22623130.400                    22623126.640
     -1998.635       -1557.378          48.100          43.500




                                                                 100356649.097 6
  25573719.400       -2377.283          36.350


 109646128.448 8  85438658.99648  20864918.420                    20864919.000
     -1996.969       -1556.080          51.000          51.050    81878741.365 9
  20864920.080       -1491.142          55.450


 113622666.440 8  88537272.57347  21621644.540                    21621646.820
      2791.416        2175.132          48.450          46.250    84848249.177 8
  21621648.420        2084.509          52.400


 120670354.305 7  94028884.62447  22962798.800                    22962799.660
      2373.468        1849.457          47.050          44.500    90111014.747 8
  22962800.120        1772.376          49.150


 23 10 29 17 46  0.0000000  0 11G06G10G11G12G15G17G19G23G24G25G32
 128569524.140 6 100184063.45746  24465965.200                    24465967.600
      2281.856        1778.070          41.400          41.050    96009734.459 7
  24465971.460        1704.162          44.100


 128226375.221 7  99916672.85346  24400671.800                    24400675.100
     -2334.999       -1819.484          42.750          37.850    95753477.511 7
  24400675.280       -1743.762          42.300


 136000164.466 6 105974160.02045  25879971.000                    25879971.880
      2993.680        2332.737          39.650          34.000   101558595.935 7
  25879979.420        2235.618          44.100


 105902756.908 8  82521764.48948  20152574.860                    20152571.780
       511.912         398.893          52.350          52.350



 128598933.825 7 100206987.30147  24471557.340                    24471557.720
     -3946.403       -3075.122          42.950          42.650



 130980695.556 6 102062968.68246  24924762.060                    24924761.980
     -3107.529       -2421.450          40.400          41.150



 118945697.222 7  92685016.09847  22634590.660                    22634586.860
     -2016.388       -1571.212          47.550          45.300



                                  25591876.560
     -3182.972                          32.200                   100428087.991 5
  25591893.840       -2376.976          33.950


 109706235.073 8  85485495.31948  20876356.440                    20876356.840
     -2010.056       -1566.277          51.700          51.700    81923626.175 9
  20876358.180       -1501.003          55.700


 113539085.800 8  88472144.86947  21605739.700                    21605741.960
      2780.698        2166.780          48.950          46.350    84785835.145 8
  21605743.580        2076.526          52.650


 120599371.637 7  93973573.50347  22949291.280                    22949292.020
      2358.884        1838.092          47.900          43.000    90058008.274 8
  22949292.680        1761.543          49.300


 23 10 29 17 46 30.0000000  0 11G06G10G11G12G15G17G19G23G24G25G32
 128501221.488 6 100130840.67446  24452967.660                    24452970.140
      2271.233        1769.793          41.650          41.850    95958729.298 7
  24452973.500        1696.031          44.150


 128296582.889 7  99971380.04446  24414032.280                    24414035.500
     -2345.492       -1827.660          42.600          39.400    95805905.181 7
  24414035.720       -1751.331          42.400


 135910341.801 6 105904168.41045  25862878.280                    25862879.260
      2994.532        2333.407          39.250          34.950   101491520.628 7
  25862886.800        2236.028          44.250


 105887633.005 8  82509979.65448  20149696.760                    20149693.720
       496.261         386.697          51.900          51.850



 128717321.416 7 100299237.29447  24494085.880                    24494086.180
     -3946.430       -3075.143          42.700          42.700



 131074021.898 6 102135690.60746  24942521.420                    24942521.440
     -3114.234       -2426.677          40.000          40.000



 119006434.276 7  92732343.65647  22646148.240                    22646144.740
     -2032.768       -1583.974          46.850          44.700



 134581694.546 5                  25610046.660
     -3181.768                          31.650                   100499378.805 6
  25610061.060       -2375.745          38.550


 109766720.374 8  85532626.71848  20887866.540                    20887866.800
     -2022.464       -1575.945          51.300          51.100    81968793.756 9
  20887868.340       -1510.227          55.300


 113455812.421 8  88407256.59447  21589893.420                    21589895.460
      2770.849        2159.105          48.750          46.600    84723650.573 8
  21589897.100        2069.098          52.050


 120528810.266 7  93918590.66447  22935863.980                    22935864.520
      2345.166        1827.403          47.650          44.700    90005316.400 8
  22935865.380        1751.217          48.800


 23 10 29 17 47  0.0000000  0 11G06G10G11G12G15G17G19G23G24G25G32
 128433266.987 7 100077889.17747  24440036.240                    24440038.900
      2259.339        1760.526          42.750          42.650    95907984.103 7
  24440041.900        1687.277          44.750


 128367114.515 7 100026339.63246  24427454.260                    24427457.740
     -2356.260       -1836.048          44.050          38.750    95858574.756 7
  24427457.620       -1759.513          42.050


 135820527.264 6 105834183.11445  25845787.440                    25845788.360
      2993.965        2332.961          38.050          32.850   101424451.422 6
  25845795.540        2235.665          41.950


 105872999.203 8  82498576.71448  20146911.960                    20146909.040
       479.916         373.961          52.300          52.150



 128835731.748 7 100391505.03947  24516618.700                    24516618.880
     -3947.205       -3075.744          42.850          42.700



 131167569.993 6 102208585.31946  24960322.980                    24960323.020
     -3121.809       -2432.575          40.050          41.200



 119067690.811 7  92780076.00447  22657804.720                    22657801.540
     -2050.056       -1597.446          46.100          44.250



 134677135.065 6 104943232.59945  25628207.460                    25628215.140
     -3180.237       -2478.097          36.550          33.900   100570646.511 6
  25628222.440       -2375.057          38.500


 109827592.290 8  85580059.36348  20899450.060                    20899450.420
     -2035.372       -1586.005          50.950          50.900    82014250.037 9
  20899452.040       -1519.804          55.300


 113372856.203 8  88342615.45847  21574107.420                    21574109.320
      2760.170        2150.783          48.950          46.150    84661702.834 8
  21574110.860        2061.186          51.900


 120458681.287 8  93863944.74347  22922518.940                    22922519.420
      2330.674        1816.110          48.250          44.350    89952947.408 8
  22922520.260        1740.404          48.600


 23 10 29 17 47 30.0000000  0 11G06G10G11G12G15G17G19G23G24G25G32
 128365654.279 7 100025204.02847  24427170.000                    24427172.640
      2248.117        1751.781          42.750          43.050    95857494.190 7
  24427175.520        1678.764          45.100


 128437957.403 7 100081541.75246  24440935.400                    24440939.220
     -2366.584       -1844.096          42.800          40.000    95911476.760 7
  24440939.000       -1767.161          42.500


 135730714.945 6 105764199.49245  25828696.660                    25828697.620
      2993.470        2332.565          37.500          32.750   101357383.809 6
  25828705.040        2235.583          41.650


 105858846.268 8  82487548.47548  20144218.720                    20144215.980
       463.808         361.410          52.250          52.100



 128954152.661 6 100483780.99747  24539153.560                    24539153.680
     -3947.537       -3076.007          41.950          42.200



 131261328.013 6 102281643.62346  24978164.400                    24978164.520
     -3128.314       -2437.645          40.550          39.800



 119129455.240 7  92828204.12447  22669557.860                    22669554.940
     -2067.079       -1610.712          46.200          44.250



 134772542.404 5 105017566.23345  25646360.460                    25646369.620
     -3179.206       -2477.316          34.100          30.900   100641882.790 6
  25646375.940       -2374.003          37.350


 109888840.611 8  85627785.30148  20911105.180                    20911105.580
     -2047.696       -1595.608          50.600          50.750    82059987.406 9
  20911107.240       -1529.217          55.350


 113290209.036 8  88278215.13147  21558380.200                    21558382.020
      2749.883        2142.767          48.600          46.000    84599985.880 8
  21558383.340        2053.414          51.800


 120388977.821 8  93809630.39747  22909254.820                    22909255.240
      2316.264        1804.882          48.250          44.400    89900896.166 8
  22909256.020        1729.717          48.600


 23 10 29 17 48  0.0000000  0 10G06G10G11G12G15G17G19G24G25G32
 128298391.589 7  99972791.60947  24414370.340                    24414373.020
      2236.031        1742.364          42.700          42.850    95807265.626 7
  24414375.720        1669.896          45.450


 128509114.396 7 100136988.62846  24454476.160                    24454480.660
     -2377.062       -1852.259          43.750          38.700    95964613.340 7
  24454480.260       -1775.190          42.950


 135640912.674 6 105694223.77245  25811607.820                    25811608.820
      2993.550        2332.644          39.700          35.450   101290323.728 7
  25811616.060        2235.086          43.250


 105845179.040 8  82476898.70648  20141617.900                    20141615.340
       447.472         348.680          52.550          52.450



 129072587.046 7 100576067.45347  24561690.840                    24561691.140
     -3948.279       -3076.585          42.350          42.500



 131355298.794 6 102354867.73046  24996046.420                    24996046.480
     -3136.133       -2443.735          40.750          41.200



 119191730.621 7  92876730.39547  22681408.200                    22681405.440
     -2084.314       -1624.140          45.250          44.650



 109950469.715 8  85675807.96548  20922832.740                    20922833.200
     -2060.786       -1605.809          50.700          50.700    82106009.114 9
  20922834.980       -1538.884          55.550


 113207877.352 8  88214060.65747  21542712.940                    21542714.760
      2738.994        2134.283          48.650          46.200    84538504.518 8
  21542715.920        2045.341          51.800


 120319707.460 8  93755653.53547  22896073.220                    22896073.540
      2301.674        1793.513          49.000          44.250    89849168.346 8
  22896074.100        1718.766          48.450


 23 10 29 17 48 30.0000000  0 10G06G10G11G12G15G17G19G24G25G32
 128231485.591 6  99920657.13946  24401638.440                    24401641.280
      2224.164        1733.116          41.350          41.050    95757303.453 7
  24401643.600        1660.969          45.250


 128580586.123 7 100192680.77446  24468076.800                    24468081.460
     -2387.447       -1860.351          43.200          37.900    96017984.949 7
  24468081.200       -1782.901          42.800


 135551127.422 5 105624261.24945  25794521.880                    25794523.280
      2992.571        2331.880          35.150          34.900   101223276.379 6
  25794530.340        2234.703          41.650


 105832001.455 8  82466630.48248  20139110.200                    20139107.820
       431.151         335.963          51.400          51.300



 129191036.239 6 100668365.47246  24584231.180                    24584231.680
     -3948.653       -3076.877          41.500          41.650



 131449483.954 6 102428258.86246  25013969.160                    25013969.160
     -3142.993       -2449.081          40.800          41.050



 119254518.391 7  92925655.91947  22693356.040                    22693353.400
     -2101.375       -1637.436          45.200          44.850



 110012482.486 8  85724129.58148  20934633.340                    20934633.820
     -2073.462       -1615.685          50.550          50.350    82152317.327 9
  20934635.820       -1548.350          55.600


 113125866.049 8  88150155.81947  21527106.580                    21527108.500
      2728.516        2126.119          48.050          46.700    84477262.394 8
  21527109.460        2037.507          51.850


 120250876.409 8  93702018.97847  22882975.180                    22882975.520
      2287.046        1782.115          48.550          45.350    89797768.572 8
  22882975.760        1707.890          48.300


 23 10 29 17 49  0.0000000  0 10G06G10G11G12G15G17G19G24G25G32
 128164935.049 6  99868799.64646  24388974.120                    24388977.280
      2212.435        1723.977          41.550          41.550    95707606.705 7
  24388979.040        1652.279          45.550


 128652365.210 7 100248612.37546  24481735.900                    24481740.900
     -2397.577       -1868.247          42.650          38.700    96071586.056 7
  24481740.540       -1790.416          43.500


 135461357.364 6 105554310.59046  25777439.000                    25777440.700
      2992.398        2331.739          38.600          37.250   101156240.293 7
  25777447.480        2234.385          44.400


 105819308.056 8  82456739.54948  20136694.500                    20136692.320
       414.993         323.372          51.450          51.450



 129309493.512 7 100760669.76747  24606772.900                    24606773.620
     -3948.579       -3076.818          42.900          42.750



 131543876.630 6 102501811.70846  25031931.400                    25031931.260
     -3149.725       -2454.326          41.050          41.550



 119317812.148 7  92974975.74047  22705400.300                    22705397.580
     -2118.197       -1650.544          45.400          44.600



 110074873.778 8  85772746.14748  20946506.020                    20946506.380
     -2085.907       -1625.383          50.900          50.900    82198908.201 9
  20946508.620       -1557.599          55.750


 113044172.103 8  88086498.26247  21511560.620                    21511562.580
      2718.038        2117.954          48.650          47.200    84416257.255 8
  21511563.560        2029.695          52.100


 120182482.755 8  93648725.26147  22869960.340                    22869960.680
      2272.452        1770.743          49.100          44.300    89746695.421 8
  22869960.700        1697.122          48.550


 23 10 29 17 49 30.0000000  0 10G06G10G11G12G15G17G19G24G25G32
 128098747.620 7  99817225.09547  24376379.120                    24376382.240
      2200.188        1714.434          42.300          42.400    95658181.135 7
  24376383.640        1642.893          45.600


 128724453.658 7 100304785.05246  24495453.840                    24495458.780
     -2408.113       -1876.456          43.500          39.200    96125418.152 7
  24495458.620       -1798.233          43.750


 135371609.932 6 105484377.60845  25760360.740                    25760362.240
      2991.568        2331.096          38.500          35.450   101089221.166 7
  25760369.080        2233.641          45.300


 105807103.625 8  82447229.62548  20134371.880                    20134369.800
       398.707         310.681          51.750          51.800



 129427961.279 7 100852982.25747  24629316.580                    24629317.400
     -3949.146       -3077.257          42.900          43.050



 131638479.402 6 102575528.27446  25049933.540                    25049933.240
     -3156.939       -2459.951          40.500          40.100



 119381615.140 7  93024692.35047  22717541.540                    22717538.640
     -2135.257       -1663.836          45.950          44.250



 110137647.499 8  85821660.70848  20958451.440                    20958451.720
     -2098.784       -1635.418          51.400          51.350    82245784.649 9
  20958454.040       -1567.320          55.850


 112962801.413 8  88023092.60147  21496076.180                    21496078.200
      2706.948        2109.313          49.600          46.950    84355493.508 8
  21496079.280        2021.423          52.600


 120114533.628 8  93595777.92047  22857030.040                    22857030.520
      2257.547        1759.128          49.350          44.850    89695954.242 8
  22857030.200        1685.814          48.750


 23 10 29 17 50  0.0000000  0 11G06G10G11G12G15G17G19G24G25G29G32
 128032918.064 7  99765929.38047  24363852.200                    24363855.280
      2187.512        1704.556          42.350          42.300    95609022.763 7
  24363856.640        1633.682          45.750


 128796840.098 7 100361189.96346  24509228.480                    24509233.360
     -2418.383       -1884.460          42.650          37.800    96179472.830 7
  24509233.280       -1806.073          43.750


 135281880.445 6 105414458.54446  25743285.780                    25743287.960
      2990.015        2329.887          38.250          37.350   101022215.434 7
  25743294.000        2232.741          43.950


 105795380.195 8  82438094.49948  20132140.840                    20132138.780
       382.068         297.716          51.600          51.650



 129546429.006 7 100945294.69047  24651860.320                    24651861.380
     -3949.614       -3077.626          42.000          42.400



 131733281.732 6 102649400.34446  25067973.720                    25067973.240
     -3163.903       -2465.375          40.500          40.350



 119445916.889 7  93074797.60947  22729777.820                    22729774.740
     -2152.328       -1677.139          45.900          44.200



 110200794.460 8  85870866.10948  20970467.960                    20970468.140
     -2111.812       -1645.568          51.050          50.900    82292939.812 9
  20970470.340       -1576.981          55.450


 112881746.916 8  87959933.32947  21480651.960                    21480653.960
      2695.938        2100.733          49.350          46.850    84294965.887 8
  21480655.100        2013.167          52.450


                                  26025945.800
      3873.767                          38.000



 120047023.149 8  93543172.38547  22844183.240                    22844183.780
      2242.360        1747.294          49.100          44.950    89645540.602 8
  22844183.300        1674.484          48.850


 23 10 29 17 50 30.0000000  0 11G06G10G11G12G15G17G19G24G25G29G32
 127967454.571 6  99714918.91647  24351395.040                    24351397.780
      2175.872        1695.485          41.900          42.300    95560137.758 7
  24351399.420        1624.847          45.250


 128869527.204 7 100417829.14046  24523060.420                    24523065.060
     -2428.315       -1892.200          42.950          38.300    96233752.010 7
  24523065.120       -1813.095          44.200


 135192176.990 6 105344559.77046  25726215.920                    25726217.520
      2989.521        2329.494          41.150          38.250   100955229.111 7
  25726223.680        2232.454          45.050


 105784142.678 8  82429338.01348  20130002.400                    20130000.300
       366.271         285.406          51.400          51.400



 129664899.367 7 101037609.19346  24674404.480                    24674405.760
     -3949.334       -3077.404          42.400          41.900



 131828286.538 6 102723430.16646  25086052.560                    25086051.800
     -3170.339       -2470.392          40.250          40.300



 119510720.415 7  93125293.83847  22742109.640                    22742106.620
     -2168.655       -1689.861          45.600          44.550



 110264319.147 8  85920365.84548  20982556.340                    20982556.480
     -2123.962       -1655.035          50.950          50.900    82340377.058 9
  20982558.520       -1586.055          55.300


 112801015.128 8  87897025.51747  21465289.240                    21465291.120
      2685.442        2092.554          49.250          46.800    84234679.241 8
  21465292.440        2005.403          52.400


 136650988.213 6 106481328.28446  26003818.600                    26003830.920
      3876.552        3020.760          38.500          37.750



 119979959.048 8  93490914.66947  22831421.340                    22831422.000
      2227.789        1735.940          49.150          44.500    89595460.307 8
  22831421.420        1663.625          48.900


 23 10 29 17 51  0.0000000  0 11G06G10G11G12G15G17G19G24G25G29G32
 127902359.961 6  99664195.90046  24339007.940                    24339010.380
      2163.960        1686.203          40.350          39.650    95511528.221 7
  24339012.500        1615.909          45.200


 128942511.549 7 100474699.97446  24536948.920                    24536953.360
     -2437.374       -1899.257          42.750          39.100    96288253.196 7
  24536953.320       -1820.167          43.800


 135102502.492 6 105274683.61245  25709151.660                    25709153.040
      2988.646        2328.810          38.300          34.650   100888264.459 7
  25709158.980        2231.954          45.600


 105773390.229 8  82420959.50848  20127956.320                    20127954.120
       350.606         273.200          51.900          51.900



 129783370.016 7 101129923.90146  24696948.540                    24696950.060
     -3948.621       -3076.850          42.300          41.850



 131923491.106 6 102797615.66746  25104169.340                    25104168.500
     -3176.040       -2474.833          41.100          41.050



 119576023.337 7  93176179.22747  22754536.580                    22754533.620
     -2184.924       -1702.538          45.750          44.700



 110328220.486 8  85970159.07848  20994716.440                    20994716.540
     -2135.994       -1664.411          50.950          50.850    82388095.565 9
  20994718.500       -1595.071          55.250


 112720607.052 8  87834369.93247  21449988.060                    21449989.880
      2675.247        2084.609          49.200          46.800    84174634.318 8
  21449991.180        1997.700          52.350


 136534641.717 6 106390670.60846  25981677.180                    25981689.200
      3879.028        3022.679          36.500          36.800



 119913343.483 8  93439006.46947  22818744.780                    22818745.680
      2213.307        1724.655          49.000          45.250    89545714.959 8
  22818744.960        1652.764          49.050


 23 10 29 17 51 30.0000000  0 11G06G10G11G12G15G17G19G24G25G29G32
 127837633.066 6  99613759.42246  24326690.640                    24326692.840
      2151.144        1676.219          40.900          40.850    95463193.290 7
  24326695.560        1606.104          44.950


 129015786.476 6 100531797.16746  24550892.820                    24550896.980
     -2447.812       -1907.390          41.950          39.700    96342971.302 7
  24550896.900       -1827.876          44.150


 135012855.867 6 105204829.07046  25692092.560                    25692093.900
      2987.542        2327.952          40.550          36.650   100821320.545 7
  25692099.660        2230.769          43.600


 105763118.498 8  82412955.59048  20126001.780                    20125999.400
       334.030         260.285          51.850          51.850



 129901834.535 6 101222233.81446  24719491.580                    24719493.480
     -3949.089       -3077.218          40.700          40.400



 132018889.449 6 102871952.21846  25122323.000                    25122321.660
     -3183.283       -2480.474          40.400          40.500



 119641819.156 7  93227448.68747  22767057.260                    22767054.260
     -2201.595       -1715.527          45.450          44.200



 110392493.526 8  86020241.95648  21006947.260                    21006947.380
     -2148.976       -1674.527          50.750          50.850    82436091.657 9
  21006949.280       -1604.791          55.200


 112640519.783 8  87771964.33947  21434747.900                    21434749.580
      2663.951        2075.809          48.950          46.600    84114828.973 8
  21434751.020        1989.199          52.200


 136418219.977 5 106299954.19546  25959521.180                    25959533.400
      3881.271        3024.427          35.500          36.350



 119847174.820 8  93387446.50247  22806153.240                    22806154.340
      2197.707        1712.500          48.550          45.350    89496303.336 8
  22806153.620        1641.101          49.250


 23 10 29 17 52  0.0000000  0 11G06G10G11G12G15G17G19G24G25G29G32
 127773282.532 6  99563616.19646  24314445.080                    24314446.940
      2139.104        1666.834          40.500          40.000    95415139.387 7
  24314450.160        1597.295          45.050


 129089354.387 6 100589122.64646  24564892.400                    24564896.540
     -2456.936       -1914.502          41.600          39.850    96397908.186 7
  24564896.320       -1834.609          43.800


 134923245.266 6 105135002.66246  25675040.080                    25675041.800
      2986.520        2327.155          38.500          37.200   100754403.553 7
  25675047.500        2230.297          44.500


 105753332.933 8  82405330.49548  20124139.780                    20124137.200
       318.223         247.966          52.250          52.250



 130020296.044 6 101314541.45846  24742034.160                    24742035.800
     -3948.607       -3076.843          41.050          41.600



 132114484.719 6 102946442.11446  25140514.040                    25140512.780
     -3189.687       -2485.465          41.300          41.100



 119708111.539 7  93279105.07947  22779672.280                    22779669.320
     -2217.999       -1728.311          45.600          43.700



 110457143.033 8  86070618.17748  21019249.740                    21019250.000
     -2161.196       -1684.049          51.150          50.800    82484368.863 9
  21019251.620       -1613.706          54.950


 112560760.158 8  87709814.03947  21419570.040                    21419571.580
      2653.280        2067.493          49.200          46.000    84055268.269 8
  21419573.180        1981.453          52.100


 136301730.770 6 106209185.24646  25937352.420                    25937364.680
      3884.359        3026.832          36.750          36.500



 119781460.959 8  93336240.92747  22793648.160                    22793649.560
      2182.917        1700.975          48.300          45.100    89447231.324 8
  22793648.860        1630.239          49.200


 23 10 29 17 52 30.0000000  0 11G06G10G11G12G15G17G19G24G25G29G32
 127709310.339 6  99513767.81446  24302271.600                    24302273.280
      2126.476        1656.997          40.250          40.100    95367368.034 7
  24302276.600        1588.041          44.800


 129163211.622 6 100646673.60946  24578947.080                    24578951.320
     -2466.496       -1921.949          41.750          38.500    96453061.163 7
  24578950.900       -1841.676          44.550


 134833673.402 6 105065206.40046  25657995.220                    25657996.740
      2985.489        2326.354          39.550          36.100   100687515.490 7
  25658002.620        2229.377          44.300


 105744032.316 8  82398083.28248  20122370.100                    20122367.220
       302.419         235.652          52.750          52.850



 130138751.157 6 101406844.08646  24764575.580                    24764577.060
     -3947.863       -3076.256          41.300          41.550



 132210273.440 6 103021082.83646  25158742.000                    25158740.240
     -3195.634       -2490.101          39.800          39.750



 119774897.412 7  93331145.99747  22792381.300                    22792378.220
     -2233.896       -1740.699          45.850          42.950



 110522167.220 8  86121286.35248  21031623.480                    21031624.020
     -2173.177       -1693.385          50.900          50.900    82532925.880 9
  21031625.460       -1622.893          55.200


 112481328.471 8  87647919.28647  21404454.580                    21404456.140
      2642.837        2059.355          48.800          46.700    83995952.477 8
  21404457.740        1973.457          52.350


 136185175.289 5 106118364.62245  25915171.560                    25915183.600
      3886.643        3028.615          35.600          35.450



 119716203.395 7  93285390.91847  22781229.820                    22781231.480
      2168.169        1689.483          47.900          45.600    89398500.083 8
  22781230.880        1618.979          49.350


 23 10 29 17 53  0.0000000  0 11G06G10G11G12G15G17G19G24G25G29G32
 127645714.938 6  99464213.02546  24290169.700                    24290171.640
      2113.548        1646.922          40.500          40.000    95319878.042 7
  24290174.440        1578.326          44.300


 129237350.855 6 100704444.30746  24593055.520                    24593060.080
     -2475.806       -1929.201          41.550          38.550    96508424.733 7
  24593059.260       -1848.854          44.250


 134744138.796 6 104995439.16146  25640957.440                    25640959.140
      2983.466        2324.775          40.200          37.800   100620655.221 7
  25640964.960        2228.236          44.150


 105735212.126 8  82391210.42848  20120691.780                    20120688.660
       286.054         222.900          52.200          52.250



 130257193.258 6 101499136.51446  24787114.360                    24787116.100
     -3948.239       -3076.555          40.950          41.200



 132306248.945 6 103095869.08346  25177005.640                    25177003.620
     -3202.212       -2495.226          40.350          40.700



 119842170.035 7  93383566.22647  22805182.940                    22805179.640
     -2250.559       -1753.683          45.750          42.850



 110587560.724 8  86172242.30548  21044067.480                    21044068.240
     -2185.998       -1703.376          51.000          51.050    82581758.660 9
  21044069.680       -1632.386          55.400


 112402221.408 8  87586277.48847  21389400.920                    21389402.320
      2631.506        2050.526          48.750          46.950    83936879.097 8
  21389404.280        1965.076          52.700


 136068551.107 6 106027490.34146  25892977.300                    25892988.960
      3888.615        3030.146          38.700          39.250



 119651400.005 7  93234894.81147  22768897.940                    22768899.680
      2152.382        1677.182          47.350          46.300    89350107.981 8
  22768899.300        1607.371          49.350


 23 10 29 17 53 30.0000000  0 11G06G10G11G12G15G17G19G24G25G29G32
 127582502.728 6  99414956.82846  24278140.800                    24278142.900
      2100.796        1636.987          40.650          40.750    95272674.196 7
  24278144.920        1568.850          43.900


 129311772.392 6 100762435.01646  24607217.580                    24607222.120
     -2485.134       -1936.472          40.850          40.400    96563999.133 7
  24607221.280       -1855.793          43.700


 134654647.780 6 104925705.97346  25623927.720                    25623929.640
      2982.145        2323.748          38.600          37.000   100553827.573 7
  25623935.920        2227.079          44.900


 105726875.353 8  82384714.26348  20119105.380                    20119102.120
       269.929         210.335          51.850          51.850



 130375623.617 6 101591419.81946  24809650.860                    24809652.700
     -3947.291       -3075.812          41.700          41.800



 132402412.342 6 103170801.75046  25195304.920                    25195302.460
     -3208.605       -2500.207          40.400          40.100



 119909930.924 7  93436366.90347  22818077.320                    22818073.940
     -2266.709       -1766.267          44.700          43.300



 110653326.093 8  86223488.01648  21056582.220                    21056583.080
     -2198.258       -1712.929          51.000          51.050    82630869.131 9
  21056584.560       -1641.523          55.200


 112323443.642 8  87524892.28847  21374410.000                    21374411.320
      2620.424        2041.891          49.200          47.300    83878051.615 8
  21374413.360        1956.895          52.850


 135951864.348 6 105936567.19846  25870771.300                    25870782.360
      3890.645        3031.726          37.850          37.500



 119587056.634 7  93184757.15047  22756653.740                    22756655.340
      2137.104        1665.275          47.500          46.200    89302059.394 8
  22756655.120        1595.963          49.000


 23 10 29 17 54  0.0000000  0 11G06G10G11G12G15G17G19G24G25G29G32
 127519674.943 6  99366000.16346  24266185.120                    24266187.580
      2088.091        1627.087          40.900          40.650    95225757.393 7
  24266188.540        1559.469          44.050


 129386471.441 6 100820641.93946  24621432.440                    24621437.340
     -2493.843       -1943.257          41.150          39.850    96619780.783 7
  24621436.240       -1862.543          44.350


 134565201.943 6 104856007.94946  25606906.820                    25606908.640
      2980.791        2322.699          39.300          37.550   100487033.637 7
  25606915.460        2226.161          45.850


 105719019.929 8  82378593.16548  20117610.480                    20117607.240
       254.252         198.119          51.950          51.800



 130494038.230 6 101683690.86946  24832184.460                    24832186.220
     -3946.565       -3075.251          40.800          40.850



 132498760.330 6 103245878.24746  25213639.300                    25213636.780
     -3213.987       -2504.395          40.650          40.150



 119978176.327 7  93489545.14047  22831063.780                    22831060.580
     -2282.473       -1778.551          45.200          42.800



 110719460.698 8  86275021.45648  21069167.220                    21069168.100
     -2210.046       -1722.115          50.900          50.800    82680255.341 9
  21069169.580       -1650.404          55.150


 112244994.560 8  87463763.20047  21359481.660                    21359482.860
      2609.838        2033.643          49.750          46.700    83819469.585 8
  21359484.980        1948.982          53.000


 135835115.174 6 105845595.40946  25848553.660                    25848564.320
      3893.126        3033.657          40.500          40.000



 119523173.856 7  93134978.39947  22744497.240                    22744498.700
      2122.181        1653.647          47.900          46.000    89254354.758 8
  22744498.560        1584.765          49.000


 23 10 29 17 54 30.0000000  0 11G06G10G11G12G15G17G19G24G25G29G32
 127457233.159 6  99317344.29546  24254302.800                    24254305.880
      2074.930        1616.830          41.350          41.400    95179128.882 7
  24254305.820        1549.469          44.000


 129461444.360 6 100879062.27246  24635699.460                    24635704.500
     -2503.620       -1950.877          41.750          39.400    96675766.880 7
  24635703.400       -1869.474          44.250


 134475802.935 6 104786346.42746  25589894.740                    25589896.540
      2979.059        2321.350          38.700          37.150   100420274.669 7
  25589903.300        2224.748          45.650


 105711644.508 8  82372846.09448  20116206.920                    20116203.760
       237.831         185.323          52.250          52.300



 130612433.438 6 101775946.81246  24854714.480                    24854716.460
     -3946.343       -3075.075          40.150          40.200



 132595288.994 6 103321095.52546  25232008.020                    25232005.360
     -3220.818       -2509.720          40.350          40.700



 120046902.462 7  93543097.96347  22844141.840                    22844138.800
     -2298.828       -1791.295          45.350          42.650



 110785962.457 8  86326840.98248  21081822.100                    21081822.880
     -2222.732       -1732.000          51.000          51.050    82729915.712 9
  21081824.260       -1659.798          55.050


 112166874.167 8  87402890.22447  21344615.840                    21344616.900
      2598.539        2024.839          49.600          46.750    83761132.996 8
  21344619.100        1940.499          53.050


 135718304.280 6 105754575.43946  25826324.200                    25826334.460
      3894.812        3034.968          39.100          39.050



 119459752.824 8  93085559.45247  22732428.620                    22732430.060
      2106.418        1641.366          48.300          46.150    89206994.934 8
  22732429.920        1572.922          49.200


 23 10 29 17 55  0.0000000  0 11G06G10G11G12G15G17G19G24G25G29G32
 127395183.910 7  99268994.30647  24242495.200                    24242498.740
      2061.755        1606.564          42.100          42.100    95132793.480 7
  24242498.020        1539.720          44.200


 129536691.147 6 100937695.99946  24650018.540                    24650023.880
     -2512.802       -1958.035          39.250          39.000    96731957.512 7
  24650022.580       -1876.389          43.550


 134386457.397 6 104716726.59145  25572892.420                    25572894.100
      2977.082        2319.808          36.850          33.750   100353555.650 7
  25572901.580        2223.276          45.250


 105704752.290 8  82367475.55548  20114895.320                    20114892.240
       221.643         172.709          51.850          51.800



 130730810.306 6 101868188.45846  24877240.880                    24877243.260
     -3945.589       -3074.489          40.150          40.500



 132691999.138 6 103396454.22446  25250411.140                    25250408.520
     -3227.025       -2514.560          39.900          39.600



 120116110.622 7  93597026.39647  22857311.500                    22857308.600
     -2314.909       -1803.826          44.500          43.300



 110852833.948 8  86378948.59648  21094547.340                    21094547.980
     -2235.151       -1741.678          50.900          50.900    82779852.163 9
  21094549.380       -1669.071          55.100


 112089087.169 8  87342277.05147  21329813.380                    21329814.420
      2587.265        2016.053          49.250          47.100    83703045.378 8
  21329816.420        1932.166          53.050


 135601437.633 6 105663511.95646  25804084.000                    25804094.140
      3896.182        3036.030          37.900          38.150



 119396799.331 7  93036504.82147  22720448.960                    22720450.500
      2090.663        1629.089          47.800          46.950    89159984.249 8
  22720450.360        1561.171          49.750


 23 10 29 17 55 30.0000000  0 12G06G10G11G12G15G17G19G24G25G28G29G32
 127333527.782 7  99220950.61847  24230762.620                    24230766.100
      2048.833        1596.495          42.850          42.000    95086751.611 7
  24230765.100        1529.912          44.050


 129612206.524 6 100996539.05246  24664388.680                    24664394.360
     -2521.438       -1964.760          40.850          40.650    96788348.742 7
  24664392.800       -1882.805          43.500


 134297166.344 6 104647149.12146  25555900.680                    25555902.760
      2975.670        2318.703          37.900          37.750   100286877.319 7
  25555910.000        2222.072          45.650


 105698340.143 8  82362479.09348  20113675.080                    20113672.080
       206.031         160.544          52.000          51.900



 130849164.238 6 101960412.16446  24899762.960                    24899765.640
     -3944.202       -3073.406          40.900          40.950



 132788886.795 6 103471951.24546  25268848.200                    25268845.560
     -3232.064       -2518.489          38.750          38.550



 120185796.005 7  93651326.68847  22870572.080                    22870569.060
     -2330.620       -1816.067          44.550          42.350



 110920072.074 8  86431341.90048  21107342.360                    21107342.960
     -2247.114       -1751.000          50.900          50.900    82830062.407 9
  21107344.240       -1678.062          54.900


 112011632.413 8  87281922.75747  21315074.080                    21315075.200
      2576.610        2007.751          48.750          46.900    83645205.870 8
  21315076.960        1924.073          52.850


 135083489.167 6 105259862.81945  25705532.280                    25705533.860
      3456.093        2693.067          38.100          33.650   100874066.548 6
  25705541.120        2580.662          39.950


 135484515.191 6 105572404.85846  25781833.520                    25781842.860
      3898.604        3037.917          39.250          38.950



 119334313.472 8  92987814.58047  22708558.300                    22708559.980
      2075.325        1617.139          48.100          46.100    89113322.771 8
  22708559.920        1549.738          50.200


 23 10 29 17 56  0.0000000  0 12G06G10G11G12G15G17G19G24G25G28G29G32
 127272269.610 6  99173217.03046  24219105.540                    24219109.000
      2035.048        1585.753          41.450          41.900    95041006.926 7
  24219108.080        1519.819          44.150


 129687989.948 6 101055590.93346  24678809.820                    24678815.780
     -2530.590       -1971.895          40.300          40.050    96844940.100 7
  24678813.980       -1889.735          42.950


 134207934.601 6 104577617.91346  25538920.340                    25538922.600
      2973.038        2316.653          37.150          36.150   100220243.176 7
  25538929.340        2220.297          44.300


 105692409.969 8  82357858.19348  20112546.600                    20112543.580
       189.486         147.652          52.550          52.450



 130967495.432 7 102052618.20147  24922280.760                    24922283.660
     -3944.007       -3073.254          42.050          42.700



 132885951.515 6 103547586.26846  25287318.880                    25287316.400
     -3238.878       -2523.794          38.300          37.800



 120255958.703 7  93705998.90447  22883923.640                    22883920.380
     -2346.846       -1828.710          45.200          42.650



 110987677.840 8  86484021.68148  21120207.320                    21120207.960
     -2259.730       -1760.830          50.750          50.750    82880547.193 9
  21120209.120       -1687.471          54.750


 111934513.115 8  87221829.86047  21300398.600                    21300399.940
      2564.896        1998.622          48.450          47.100    83587616.854 8
  21300401.320        1915.345          52.750


 134979806.821 6 105179071.35945  25685802.060                    25685804.840
      3456.418        2693.310          38.100          32.600   100796641.423 6
  25685810.660        2581.110          40.250


 135367541.131 6 105481257.43545  25759573.040                    25759581.360
      3900.237        3039.188          36.600          35.200



 119272299.482 8  92939492.03147  22696757.400                    22696759.260
      2059.116        1604.508          48.250          45.950    89067013.671 8
  22696759.260        1537.668          50.600


 23 10 29 17 56 30.0000000  0 12G06G10G11G12G15G17G19G24G25G28G29G32
 127211407.058 6  99125791.72146  24207523.320                    24207527.100
      2021.940        1575.540          40.150          40.100    94995557.694 7
  24207526.380        1510.024          44.850


 129764033.146 6 101114845.23646  24693280.500                    24693286.400
     -2538.964       -1978.420          41.000          40.500    96901725.468 7
  24693284.460       -1896.129          43.200


 134118760.121 6 104508131.28046  25521951.100                    25521953.260
      2971.765        2315.654          38.650          36.700   100153651.894 7
  25521959.560        2219.081          44.550


 105686956.296 8  82353608.58048  20111508.800                    20111505.660
       173.889         135.498          52.250          52.200



 131085796.265 6 102144800.53846  24944792.720                    24944795.820
     -3942.973       -3072.450          40.900          40.100



 132983185.614 6 103623353.28146  25305821.780                    25305819.280
     -3243.899       -2527.705          38.300          38.300



 120326591.451 7  93761037.41546  22897364.640                    22897360.900
     -2362.308       -1840.759          44.800          41.900



 111055645.163 8  86536983.19848  21133140.940                    21133141.860
     -2271.636       -1770.106          49.800          49.850    82931301.977 9
  21133142.960       -1696.321          55.200


 111857725.189 8  87161995.17047  21285786.220                    21285787.780
      2554.017        1990.145          48.750          47.000    83530275.286 8
  21285788.820        1907.231          53.050


 134876090.994 6 105098253.81246  25666065.440                    25666068.740
      3457.899        2694.463          37.850          37.150   100719191.307 6
  25666074.100        2582.153          40.850


 135250512.755 6 105390067.67446  25737302.340                    25737310.060
      3901.619        3040.259          38.500          39.300



 119210754.501 8  92891534.94047  22685045.780                    22685047.760
      2043.675        1592.476          48.700          46.100    89021054.808 8
  22685047.820        1526.047          51.250


 23 10 29 17 57  0.0000000  0 12G06G10G11G12G15G17G19G24G25G28G29G32
 127150947.660 6  99078680.55446  24196017.920                    24196022.160
      2009.037        1565.485          40.100          39.950    94950409.503 7
  24196021.840        1500.080          45.800


 129840337.591 7 101174303.13246  24707800.840                    24707806.860
     -2547.653       -1985.188          42.550          39.550    96958705.895 7
  24707804.720       -1902.338          42.850


 134029650.965 6 104438695.60746  25504994.340                    25504996.540
      2969.409        2313.829          39.850          37.950   100087109.347 7
  25505001.840        2217.325          42.350


 105681983.506 8  82349733.69948  20110562.460                    20110559.380
       157.986         123.106          52.250          52.450



 131204068.810 6 102236960.95046  24967299.540                    24967302.100
     -3941.776       -3071.519          39.800          39.550



 133080591.938 6 103699254.47246  25324357.400                    25324355.060
     -3249.512       -2532.080          39.300          39.750



 120397696.427 7  93816443.88546  22910895.520                    22910891.420
     -2377.889       -1852.898          45.350          40.250



 111123977.831 8  86590229.40748  21146144.120                    21146145.240
     -2283.664       -1779.480          50.200          50.200    82982329.594 9
  21146146.420       -1705.308          55.300


 111781274.494 8  87102423.25147  21271238.140                    21271239.820
      2542.929        1981.504          49.400          46.550    83473185.546 8
  21271240.640        1899.007          53.200


 134772347.753 6 105017414.97445  25646323.880                    25646326.920
      3458.695        2695.089          40.350          34.700   100641720.714 7
  25646332.340        2582.833          42.550


 135133437.042 6 105298840.85346  25715022.680                    25715029.640
      3903.445        3041.676          36.300          36.400



 119149685.473 8  92843948.72447  22673424.700                    22673426.780
      2027.843        1580.139          48.800          45.400    88975451.364 8
  22673426.900        1514.335          51.550


 23 10 29 17 57 30.0000000  0 12G06G10G11G12G15G17G19G24G25G28G29G32
 127090890.337 6  99031882.67146  24184589.200                    24184593.800
      1995.018        1554.560          40.650          40.750    94905561.539 7
  24184593.860        1489.910          45.750


 129916896.718 7 101233959.46646  24722369.580                    24722375.900
     -2556.344       -1991.959          42.600          38.700    97015876.536 7
  24722373.280       -1908.858          42.050


 133940606.147 6 104369310.06546  25488050.060                    25488051.840
      2966.761        2311.763          40.400          36.650   100020614.834 7
  25488056.280        2215.525          42.250


 105677487.088 8  82346230.01048  20109706.700                    20109703.840
       141.854         110.537          51.400          51.300



 131322306.943 6 102329094.42346  24989799.480                    24989802.280
     -3940.738       -3070.709          40.600          40.950



 133178163.955 6 103775284.75246  25342924.480                    25342922.320
     -3255.610       -2536.832          39.550          40.200



 120469267.395 7  93872213.47646  22924515.100                    22924510.820
     -2393.563       -1865.115          45.300          40.400



 111192670.890 8  86643756.44248  21159216.020                    21159217.100
     -2295.935       -1789.041          50.150          50.250    83033626.327 9
  21159218.560       -1714.432          55.400


 111705158.224 8  87043111.92447  21256753.700                    21256755.600
      2531.376        1972.502          49.200          47.100    83416345.543 8
  21256756.280        1890.448          53.350


 134668574.176 6 104936552.45346  25626576.520                    25626579.460
      3459.391        2695.629          39.800          36.400   100564227.484 7
  25626584.980        2583.391          43.650


 135016311.857 6 105207575.51146  25692733.640                    25692740.780
      3905.116        3042.981          37.650          37.850



 119089090.726 8  92796732.07447  22661893.900                    22661895.940
      2011.742        1567.593          48.600          44.950    88930202.091 8
  22661896.080        1502.319          51.550


 23 10 29 17 58  0.0000000  0 12G06G10G11G12G15G17G19G24G25G28G29G32
 127031238.851 6  98985401.03446  24173237.820                    24173242.660
      1981.435        1543.978          39.450          39.700    94861016.645 7
  24173242.420        1479.834          45.050


 129993708.323 7 101293812.53446  24736986.500                    24736992.760
     -2564.531       -1998.340          42.650          39.250    97073235.713 7
  24736990.200       -1915.042          42.400


 133851629.531 6 104299977.65245  25471118.740                    25471119.720
      2965.081        2310.459          40.150          34.950    99954171.295 7
  25471124.100        2214.058          42.350


 105673467.700 8  82343098.03248  20108941.700                    20108939.040
       126.137          98.289          51.450          51.400



 131440509.270 6 102421200.01847  25012292.780                    25012295.780
     -3939.434       -3069.689          41.950          42.350



 133275900.147 6 103851443.00246  25361522.960                    25361520.560
     -3261.011       -2541.040          38.550          38.200



 120541303.098 7  93928345.18847  22938223.060                    22938218.980
     -2408.835       -1877.015          44.400          42.050



 111261724.392 8  86697564.33948  21172356.580                    21172357.620
     -2307.747       -1798.246          50.700          50.650    83085192.217 9
  21172359.240       -1723.245          55.400


 111629378.453 8  86984062.81347  21242333.340                    21242335.340
      2520.613        1964.116          49.550          46.950    83359756.833 8
  21242336.060        1882.185          53.550


 134564772.157 6 104855667.87546  25606823.620                    25606826.660
      3460.840        2696.763          39.600          36.900   100486713.113 7
  25606832.080        2584.268          43.700


 134899140.794 6 105116274.22146  25670436.100                    25670442.180
      3906.428        3043.997          37.750          38.900



 119028973.467 8  92749887.48647  22650454.060                    22650455.860
      1996.132        1555.428          48.400          45.400    88885309.380 8
  22650456.080        1490.567          51.550


 23 10 29 17 58 30.0000000  0 12G06G10G11G12G15G17G19G24G25G28G29G32
 126971997.722 6  98939239.17546  24161964.380                    24161969.600
      1967.687        1533.267          38.900          37.650    94816778.208 7
  24161969.060        1469.502          45.350


 130070771.322 7 101353861.51746  24751651.300                    24751657.360
     -2573.189       -2005.084          42.950          38.800    97130782.594 7
  24751654.960       -1921.263          42.100


 133762726.241 6 104230702.35146  25454201.460                    25454202.100
      2961.828        2307.916          41.350          36.700    99887782.469 7
  25454206.020        2211.966          42.250


 105669926.810 8  82340338.92048  20108267.780                    20108265.140
       110.003          85.718          51.250          51.200



 131558675.288 6 102513277.32546  25034779.140                    25034781.860
     -3938.168       -3068.707          40.950          41.200



 133373800.501 6 103927729.16246  25380152.720                    25380150.360
     -3265.899       -2544.852          38.050          37.200



 120613802.976 7  93984838.58347  22952019.360                    22952015.680
     -2424.541       -1889.253          44.300          42.150



 111331139.062 8  86751653.66348  21185565.900                    21185566.880
     -2319.982       -1807.780          50.750          50.750    83137027.808 9
  21185568.420       -1732.293          55.200


 111553938.010 8  86925278.10747  21227977.480                    21227979.520
      2508.930        1955.012          49.000          47.400    83303421.500 8
  21227980.460        1873.628          53.700


 134460944.611 6 104774763.41746  25587065.820                    25587068.800
      3461.228        2697.063          41.150          36.700   100409179.705 7
  25587074.340        2584.682          42.050


 134781928.174 6 105024940.54346  25648130.700                    25648136.200
      3907.737        3045.021          39.600          40.100



 118969337.622 8  92703418.03347  22639105.680                    22639107.360
      1979.833        1542.729          48.050          45.400    88840776.168 8
  22639107.580        1478.448          51.300


 23 10 29 17 59  0.0000000  0 12G06G10G11G12G15G17G19G24G25G28G29G32
 126913168.979 6  98893398.66446  24150769.440                    24150774.840
      1954.240        1522.785          38.850          38.700    94772847.736 7
  24150774.240        1459.198          45.300


 130148081.711 7 101414103.25646  24766363.160                    24766369.160
     -2581.126       -2011.270          44.300          38.750    97188514.275 6
  24766367.060       -1927.487          41.650


 133673898.553 6 104161486.00345  25437298.200                    25437298.320
      2959.578        2306.163          41.150          33.300    99821450.169 6
  25437302.260        2210.031          41.950


 105666862.833 8  82337951.42148  20107684.680                    20107682.060
        94.197          73.401          51.550          51.550



 131676802.211 6 102605324.16646  25057258.160                    25057261.040
     -3936.940       -3067.749          40.200          40.300



 133471861.965 6 104004140.83446  25398813.060                    25398810.660
     -3271.445       -2549.174          39.400          38.850



 120686764.028 7  94041691.33646  22965903.380                    22965900.080
     -2439.830       -1901.166          44.500          41.500



 111400913.224 8  86806023.11148  21198843.580                    21198844.580
     -2331.713       -1816.920          50.900          50.850    83189131.862 9
  21198845.940       -1741.246          54.950


 111478837.313 8  86866758.13847  21213686.240                    21213688.180
      2497.639        1946.214          49.300          47.250    83247339.879 8
  21213689.440        1865.161          53.450


 134357091.986 7 104693839.41046  25567303.380                    25567306.320
      3462.325        2697.923          42.000          36.900   100331627.561 7
  25567311.720        2585.387          42.350


 134664675.634 6 104933575.79646  25625817.780                    25625823.440
      3909.122        3046.102          40.950          40.800



 118910184.717 8  92657324.90147  22627849.240                    22627850.800
      1963.664        1530.130          48.250          45.950    88796603.605 8
  22627850.920        1466.385          50.800


 23 10 29 17 59 30.0000000  0 12G06G10G11G12G15G17G19G24G25G28G29G32
 126854754.767 6  98847881.15546  24139653.700                    24139658.880
      1940.397        1511.999          40.950          40.700    94729226.808 7
  24139658.440        1448.863          45.650


 130225636.084 7 101474535.11146  24781121.500                    24781127.500
     -2589.194       -2017.557          43.450          39.200    97246428.102 7
  24781125.660       -1933.367          42.000


 133585149.139 6 104092330.63045  25420409.720                    25420409.640
      2957.176        2304.292          39.350          33.800    99755176.301 6
  25420413.700        2208.327          40.600


 105664274.933 8  82335934.89648  20107192.180                    20107189.600
        78.307          61.020          51.450          51.600



 131794886.943 6 102697338.18046  25079728.920                    25079731.160
     -3935.389       -3066.539          41.550          41.550



 133570081.305 6 104080675.56046  25417503.440                    25417500.780
     -3276.825       -2553.361          38.100          39.450



 120760183.106 7  94098901.00946  22979874.740                    22979871.520
     -2454.994       -1912.981          45.250          41.200



 111471045.285 8  86860671.44248  21212189.280                    21212190.260
     -2343.614       -1826.194          50.700          50.600    83241503.165 9
  21212191.580       -1750.079          55.000


 111404076.774 8  86808503.23347  21199459.740                    21199461.460
      2486.465        1937.507          49.400          46.350    83191512.273 8
  21199463.100        1856.825          53.550


 134253214.528 6 104612896.14946  25547536.140                    25547538.820
      3463.022        2698.463          41.550          38.350   100254056.984 7
  25547544.240        2586.092          43.950


 134547384.582 6 104842181.00946  25603497.400                    25603503.120
      3910.427        3047.113          38.850          38.000



 118851516.240 8  92611609.25447  22616684.920                    22616686.580
      1947.696        1517.688          48.200          46.400    88752792.784 8
  22616686.440        1454.443          50.550


                            4  1
RINEX FILE SPLICE; other post-header comments skipped       COMMENT
 23 10 29 18  0  0.0000000  0 12G06G10G11G12G15G17G19G24G25G28G29G32
 126796759.764 6  98802690.29646  24128618.000                    24128622.680
      1926.167        1500.911          41.750          41.650    94685918.909 7
  24128622.480        1438.313          46.200


 130303433.361 7 101535156.26146  24795926.020                    24795931.840
     -2597.358       -2023.921          43.850          36.600    97304523.353 6
  24795930.240       -1939.558          41.550


 133496482.846 6 104023240.05945  25403536.620                    25403536.600
      2954.306        2302.053          38.400          32.650    99688964.551 6
  25403540.860        2206.049          39.000


 105662164.156 8  82334290.15948  20106790.540                    20106787.940
        62.350          48.585          51.750          51.850



 131912929.218 6 102789319.00546  25102191.600                    25102194.000
     -3933.890       -3065.375          41.250          41.050



 133668457.831 6 104157332.79746  25436223.920                    25436221.060
     -3282.089       -2557.466          38.250          38.800



 120834059.847 7  94156467.28347  22993933.080                    22993930.220
     -2470.324       -1924.928          44.550          42.050



 111541536.121 8  86915599.34748  21225603.240                    21225604.180
     -2355.655       -1835.576          50.850          51.050    83294142.402 9
  21225605.580       -1759.142          54.850


 111329659.426 8  86750515.74047  21185298.480                    21185300.000
      2474.817        1928.432          49.300          46.650    83135940.939 8
  21185301.840        1848.047          53.300


 134149315.338 6 104531935.94645  25527764.640                    25527767.100
      3463.307        2698.687          39.300          33.650   100176470.132 7
  25527772.500        2586.615          42.600


 134430059.278 6 104750759.39646  25581170.640                    25581175.960
      3911.212        3047.723          39.750          39.500



 118793336.347 8  92566274.31347  22605613.660                    22605615.380
      1931.139        1504.785          48.450          46.350    88709346.806 8
  22605614.940        1442.086          50.150


 23 10 29 18  0 30.0000000  0 12G06G10G11G12G15G17G19G24G25G28G29G32
 126739184.949 7  98757826.87347  24117662.200                    24117666.340
      1911.957        1489.839          43.400          43.500    94642924.797 7
  24117666.480        1427.739          46.200


 130381468.415 7 101595962.67346  24810775.840                    24810781.360
     -2605.211       -2030.039          43.600          37.850    97362796.159 6
  24810780.420       -1945.495          41.200


 133407901.294 6 103954215.50445  25386679.620                    25386680.020
      2950.823        2299.350          36.750          34.700    99622815.983 6
  25386685.020        2203.897          41.800


 105660528.676 8  82333015.77248  20106479.340                    20106476.780
        46.390          36.148          52.100          52.150



 132030924.967 6 102881263.69846  25124645.580                    25124647.980
     -3932.618       -3064.381          41.550          41.500



 133766988.837 6 104234110.33346  25454973.680                    25454970.940
     -3287.060       -2561.342          39.600          38.900



 120908390.096 7  94214386.93746  23008077.840                    23008075.020
     -2485.428       -1936.698          44.900          41.650



 111612383.017 8  86970804.69848  21239084.940                    21239085.760
     -2367.586       -1844.873          50.950          51.000    83347047.522 9
  21239087.280       -1768.025          54.500


 111255584.577 8  86692795.13847  21171202.460                    21171203.820
      2463.381        1919.520          49.550          46.800    83080625.374 8
  21171205.700        1839.512          53.000


 134045393.864 6 104450958.37446  25507988.840                    25507991.440
      3464.100        2699.307          41.000          38.100   100098866.638 7
  25507996.760        2586.982          44.950


 134312700.547 6 104659311.73446  25558837.580                    25558842.880
      3912.395        3048.645          39.000          39.250



 118735645.428 8  92521320.39747  22594635.540                    22594637.260
      1914.701        1491.977          49.300          46.650    88666265.967 8
  22594636.480        1429.796          49.800


 23 10 29 18  1  0.0000000  0 12G06G10G11G12G15G17G19G24G25G28G29G32
 126682030.464 7  98713290.97847  24106786.340                    24106789.980
      1898.128        1479.063          42.850          42.900    94600244.584 7
  24106790.540        1417.327          46.750


 130459735.883 7 101656950.19846  24825669.780                    24825675.220
     -2612.741       -2035.908          43.100          37.100    97421242.517 6
  24825674.380       -1951.197          41.250


 133319404.725 6 103885257.17646  25369838.700                    25369839.940
      2947.724        2296.931          37.400          36.750    99556730.868 6
  25369844.880        2201.711          41.300


 105659365.345 8  82332109.28648  20106257.960                    20106255.480
        30.889          24.069          51.650          51.500



 132148869.322 6 102973168.24246  25147089.660                    25147092.220
     -3930.399       -3062.654          40.900          40.950



 133865668.684 6 104311003.96046  25473751.700                    25473748.780
     -3291.963       -2565.161          38.300          39.000



 120983168.862 7  94272656.09946  23022307.860                    23022305.000
     -2500.147       -1948.168          44.550          41.250



 111683582.312 8  87026284.63648  21252633.720                    21252634.360
     -2379.172       -1853.901          50.900          50.950    83400215.804 9
  21252636.100       -1776.801          54.350


 111181850.728 8  86635340.25847  21157171.320                    21157172.660
      2452.081        1910.716          49.700          47.250    83025564.460 8
  21157174.400        1831.030          52.950


 133941448.476 6 104369962.12646  25488208.440                    25488211.040
      3465.226        2700.178          39.950          36.750   100021245.306 7
  25488216.360        2587.674          42.350


 134195308.123 6 104567837.73746  25536498.100                    25536503.080
      3913.160        3049.234          39.550          39.050



 118678443.058 8  92476747.15947  22583750.360                    22583752.060
      1898.493        1479.347          49.300          46.550    88623549.961 8
  22583751.100        1417.671          49.650


 23 10 29 18  1 30.0000000  0 12G06G10G11G12G15G17G19G24G25G28G29G32
 126625304.836 7  98669089.27047  24095991.920                    24095995.340
      1883.833        1467.925          42.200          42.350    94557884.618 7
  24095996.180        1406.828          47.500


 130538238.745 7 101718121.14346  24840608.520                    24840613.660
     -2620.622       -2042.050          42.650          37.900    97479864.657 6
  24840613.360       -1956.864          41.750


 133231002.059 6 103816372.00044  25353015.720                    25353016.120
      2945.692        2295.342          37.400          29.750    99490716.047 7
  25353023.320        2199.493          42.750


 105658679.350 8  82331574.76148  20106127.420                    20106125.000
        15.147          11.804          51.650          51.550



 132266765.715 6 103065035.42046  25169524.680                    25169527.180
     -3928.826       -3061.426          41.600          41.900



 133964500.470 6 104388015.85946  25492558.460                    25492555.940
     -3296.706       -2568.859          37.150          36.750



 121058399.619 7  94331277.46447  23036623.840                    23036621.160
     -2514.937       -1959.692          44.600          42.650



 111755138.806 8  87082042.89648  21266250.520                    21266250.940
     -2390.930       -1863.062          50.750          50.700    83453650.799 9
  21266252.900       -1785.414          54.400


 111108464.738 8  86578156.44647  21143206.400                    21143207.760
      2440.662        1901.817          49.850          47.700    82970763.308 8
  21143209.260        1822.567          53.100


 133837486.465 6 104288952.91246  25468425.040                    25468427.520
      3465.599        2700.470          39.850          36.250    99943611.480 6
  25468432.800        2588.215          41.300


 134077889.881 6 104476343.61946  25514153.680                    25514158.720
      3914.753        3050.477          40.000          39.900



 118621737.137 8  92432560.77047  22572959.640                    22572961.280
      1882.088        1466.563          49.700          46.150    88581204.668 8
  22572960.300        1405.449          49.800


 23 10 29 18  2  0.0000000  0 12G06G10G11G12G15G17G19G24G25G28G29G32
 126569006.296 7  98625220.37647  24085278.660                    24085282.140
      1869.348        1456.638          42.750          43.250    94515843.640 7
  24085283.100        1395.753          47.900


 130616969.206 7 101779469.44546  24855590.420                    24855595.560
     -2628.386       -2048.097          42.500          36.550    97538656.729 6
  24855595.260       -1962.759          41.150


 133142692.250 5 103747559.23545  25336210.480                    25336210.900
      2941.894        2292.382          35.400          31.550    99424770.435 7
  25336219.240        2196.861          43.550


 105658465.964 8  82331408.50748  20106086.880                    20106084.360
        -0.968          -0.753          51.400          51.350



 132384607.547 6 103156860.10146  25191949.220                    25191952.040
     -3927.621       -3060.488          38.200          37.850



 134063478.640 6 104465141.94646  25511393.200                    25511390.880
     -3302.105       -2573.062          38.450          38.500



 121134075.655 7  94390245.78847  23051024.600                    23051022.180
     -2530.417       -1971.756          44.400          43.100



 111827047.145 8  87138075.32948  21279934.200                    21279934.420
     -2403.156       -1872.591          50.250          50.350    83507348.551 9
  21279936.680       -1794.569          54.300


 111035423.295 8  86521241.10947  21129307.100                    21129308.460
      2428.748        1892.533          50.000          47.800    82916219.458 8
  21129309.720        1813.610          53.000


 133733504.553 6 104207928.13145  25448637.820                    25448640.240
      3466.128        2700.879          40.550          33.900    99865962.769 7
  25448645.500        2588.360          42.400


 133960444.229 6 104384828.11646  25491804.260                    25491809.280
      3914.929        3050.616          40.200          40.400



 118565525.439 8  92388759.48447  22562262.920                    22562264.500
      1865.140        1453.356          49.850          46.200    88539228.447 8
  22562263.560        1392.839          49.800


 23 10 29 18  2 30.0000000  0 12G06G10G11G12G15G17G19G24G25G28G29G32
 126513138.193 7  98581686.89147  24074647.360                    24074650.920
      1855.172        1445.592          43.050          42.350    94474124.047 8
  24074651.860        1385.379          48.250


 130695924.737 6 101840993.11346  24870615.140                    24870620.240
     -2635.449       -2053.603          41.850          36.850    97597616.887 7
  24870620.180       -1968.164          42.150


 133054478.941 6 103678821.65745  25319423.740                    25319423.740
      2939.105        2290.222          38.700          32.200    99358896.882 7
  25319433.140        2194.608          42.700


 105658725.032 8  82331610.40748  20106136.180                    20106133.580
       -16.528         -12.878          51.450          51.450



 132502393.139 6 103248640.89046  25214363.200                    25214365.980
     -3925.142       -3058.557          40.850          39.950



 134162600.861 5 104542380.22445  25530255.220                    25530253.060
     -3306.819       -2576.735          35.350          35.250



 121210194.952 7  94449559.52547  23065509.660                    23065507.480
     -2544.394       -1982.643          44.600          43.500



 111899306.857 8  87194381.58248  21293684.720                    21293684.840
     -2414.356       -1881.316          50.100          50.100    83561308.706 9
  21293687.400       -1802.939          54.850


 110962728.022 8  86464595.51147  21115473.740                    21115474.920
      2417.529        1883.791          50.000          47.500    82861934.101 8
  21115476.060        1805.290          53.400


 133629504.516 6 104126889.18546  25428847.200                    25428849.480
      3466.728        2701.342          40.500          36.250    99788300.502 6
  25428854.940        2589.078          41.850


 133842973.825 6 104293293.28846  25469450.040                    25469454.680
      3915.855        3051.333          40.400          40.400



 118509810.657 8  92345345.40547  22551660.700                    22551662.220
      1848.966        1440.754          49.600          46.250    88497623.303 8
  22551661.440        1380.689          50.200


 23 10 29 18  3  0.0000000  0 12G06G10G11G12G15G17G19G24G25G28G29G32
 126457700.118 7  98538488.45047  24064097.880                    24064101.320
      1840.484        1434.146          43.750          43.800    94432725.552 7
  24064102.320        1374.585          47.800


 130775099.479 6 101902687.60546  24885681.560                    24885686.660
     -2642.752       -2059.291          41.900          37.800    97656740.740 6
  24885686.820       -1973.510          41.750


 132966362.278 6 103610159.33444  25302655.720                    25302655.480
      2935.614        2287.496          37.750          27.900    99293095.517 7
  25302665.540        2192.118          42.650


 105659453.175 8  82332177.80348  20106274.780                    20106272.160
       -32.215         -25.102          51.800          51.750



 132620117.185 6 103340373.75946  25236765.420                    25236767.880
     -3923.139       -3056.996          40.900          41.000



 134261861.923 6 104619726.72746  25549143.760                    25549141.840
     -3311.566       -2580.436          38.750          38.100



 121286752.250 7  94509214.53847  23080078.060                    23080076.200
     -2559.314       -1994.271          45.100          43.000



 111971913.851 8  87250958.42948  21307501.340                    21307501.680
     -2426.058       -1890.437          50.150          50.050    83615528.177 9
  21307504.120       -1811.625          54.600


 110890376.896 8  86408218.06447  21101705.800                    21101706.820
      2405.982        1874.792          50.150          46.950    82807905.728 8
  21101707.940        1796.709          53.100


 133525484.533 6 104045834.78046  25409052.720                    25409054.840
      3467.616        2702.048          39.650          36.750    99710623.340 7
  25409060.600        2589.403          42.850


 133725478.153 6 104201738.75546  25447091.000                    25447095.440
      3916.903        3052.147          39.900          39.200



 118454591.790 8  92302317.75547  22541152.780                    22541154.380
      1832.319        1427.782          49.650          45.750    88456388.480 8
  22541153.620        1368.342          49.950


 23 10 29 18  3 30.0000000  0 12G06G10G11G12G15G17G19G24G25G28G29G32
 126402700.654 7  98495631.79947  24053631.740                    24053634.980
      1825.679        1422.609          44.050          44.200    94391654.630 7
  24053636.120        1363.322          47.700


 130854496.460 6 101964555.23645  24900790.180                    24900795.380
     -2650.555       -2065.372          41.650          33.900    97716030.508 7
  24900795.760       -1979.317          42.200


 132878351.367 6 103541579.41645  25285907.840                    25285907.920
      2931.472        2284.264          38.000          30.200    99227373.097 7
  25285917.740        2189.258          43.600


 105660655.635 8  82333114.80548  20106503.620                    20106501.100
       -48.257         -37.602          51.850          51.850



 132737783.643 6 103432061.81646  25259156.780                    25259158.920
     -3921.415       -3055.654          40.750          40.300



 134361265.459 6 104697184.17046  25568059.460                    25568057.780
     -3316.085       -2583.958          37.850          38.250



 121363751.022 7  94569213.57147  23094730.540                    23094728.760
     -2574.218       -2005.883          45.050          43.700



 112044873.082 8  87307809.74748  21321384.920                    21321385.680
     -2438.181       -1899.883          49.650          49.650    83670010.678 9
  21321387.900       -1820.612          54.700


 110818376.964 8  86352114.28447  21088004.660                    21088005.500
      2393.774        1865.281          50.350          46.700    82754139.613 8
  21088006.720        1787.616          53.100


 133421451.915 6 103964770.45145  25389255.820                    25389257.900
      3467.905        2702.268          38.800          35.800    99632936.741 7
  25389263.840        2589.450          43.000


 133607966.007 6 104110171.35046  25424728.960                    25424733.780
      3916.923        3052.164          39.700          39.600



 118399876.952 8  92259682.86147  22530740.720                    22530742.400
      1815.105        1414.369          49.350          46.050    88415530.060 8
  22530741.620        1355.394          49.850


 23 10 29 18  4  0.0000000  0 12G06G10G11G12G15G17G19G24G25G28G29G32
 126348137.239 7  98453114.90647  24043248.480                    24043251.500
      1811.559        1411.607          43.600          43.550    94350909.306 7
  24043252.840        1352.705          47.750


 130934107.320 6 102026589.53646  24915939.740                    24915944.940
     -2657.270       -2070.603          41.150          38.300    97775479.984 7
  24915945.540       -1984.177          42.350


 132790444.017 6 103473080.27645  25269179.640                    25269180.320
      2928.394        2281.876          39.150          34.600    99161728.041 7
  25269189.500        2186.833          44.050


 105662327.007 8  82334417.19148  20106821.700                    20106819.180
       -63.469         -49.456          51.500          51.600



 132855384.815 6 103523698.88046  25281535.660                    25281538.220
     -3919.033       -3053.797          40.650          40.750



 134460803.992 6 104774746.83746  25587000.720                    25586999.280
     -3320.207       -2587.170          39.550          38.950



 121441183.462 7  94629550.52147  23109465.420                    23109463.800
     -2588.322       -2016.876          44.600          44.100



 112118178.252 8  87364930.63048  21335334.340                    21335335.500
     -2449.373       -1908.604          49.450          49.350    83724751.521 9
  21335337.340       -1829.004          54.950


 110746724.003 8  86296280.85847  21074369.480                    21074370.300
      2382.672        1856.630          50.050          46.650    82700632.605 8
  21074371.540        1779.211          53.250


 133317402.523 6 103883693.10346  25369456.020                    25369457.800
      3468.496        2702.725          39.300          36.650    99555237.616 7
  25369463.500        2590.147          43.100


 133490434.135 6 104018588.62246  25402362.860                    25402367.680
      3917.826        3052.867          40.250          40.100



 118345662.950 8  92217438.22547  22520424.100                    22520425.780
      1798.844        1401.697          49.450          46.400    88375045.631 8
  22520424.880        1343.203          49.900


 23 10 29 18  4 30.0000000  0 12G06G10G11G12G15G17G19G24G25G28G29G32
 126294016.932 7  98410943.30047  24032949.420                    24032952.520
      1796.719        1400.042          43.400          43.550    94310494.867 7
  24032953.780        1341.671          47.700


 131013933.463 6 102088791.58046  24931130.040                    24931135.700
     -2664.468       -2076.215          41.200          37.900    97835090.263 7
  24931136.020       -1989.544          42.750


 132702647.811 6 103404667.60545  25252472.920                    25252473.080
      2925.120        2279.312          39.750          34.750    99096165.977 7
  25252482.380        2184.039          44.350


 105664470.546 8  82336087.49848  20107229.600                    20107227.000
       -79.190         -61.706          51.650          51.650



 132972923.085 6 103615286.95646  25303902.580                    25303905.160
     -3916.792       -3052.053          39.750          40.500



 134560479.881 6 104852416.53746  25605968.440                    25605966.820
     -3324.995       -2590.901          38.550          38.650



 121519051.540 7  94690226.94147  23124283.180                    23124281.560
     -2602.622       -2028.017          44.500          44.150



 112191832.726 8  87422323.68648  21349350.280                    21349351.740
     -2460.841       -1917.540          49.700          49.700    83779753.198 9
  21349353.140       -1837.669          54.850


 110675423.493 8  86240722.08047  21060801.360                    21060802.240
      2370.889        1847.447          50.400          46.550    82647388.794 8
  21060803.380        1770.409          53.300


 133213342.208 6 103802607.26045  25349654.060                    25349655.700
      3468.757        2702.929          38.800          34.200    99477530.361 7
  25349661.400        2590.555          43.850


 133372889.228 6 103926995.63946  25379994.620                    25379999.500
      3918.236        3053.188          40.400          40.550



 118291956.293 8  92175588.92947  22510204.020                    22510205.720
      1781.825        1388.437          50.000          46.550    88334940.058 8
  22510204.580        1330.554          49.550


 23 10 29 18  5  0.0000000  0 12G06G10G11G12G15G17G19G24G25G28G29G32
 126240336.661 7  98369114.58647  24022734.080                    24022737.660
      1781.833        1388.443          42.650          42.500    94270409.019 7
  24022738.560        1330.620          47.600


 131093966.182 6 102151154.58445  24946359.720                    24946365.660
     -2671.081       -2081.368          41.050          34.650    97894854.801 7
  24946366.020       -1994.715          42.350


 132614960.513 6 103336339.84945  25235786.740                    25235787.160
      2921.107        2276.187          40.350          31.650    99030685.177 7
  25235795.740        2181.322          42.900


 105667080.265 8  82338121.04848  20107726.240                    20107723.540
       -94.743         -73.826          52.200          52.350



 133090390.789 7 103706820.05247  25326256.220                    25326258.320
     -3914.374       -3050.169          42.050          42.050



 134660284.812 6 104930186.79146  25624960.520                    25624958.840
     -3328.951       -2593.979          39.350          39.850



 121597347.312 7  94751236.61347  23139182.340                    23139180.540
     -2617.024       -2039.239          45.600          42.700



 112265829.843 8  87479983.74648  21363431.560                    21363433.040
     -2472.253       -1926.432          50.250          50.250    83835010.741 9
  21363434.200       -1846.186          54.450


 110604470.869 8  86185434.37447  21047299.460                    21047300.400
      2359.355        1838.460          50.500          47.200    82594404.752 8
  21047301.380        1761.819          53.100


 133109266.470 6 103721509.40345  25329849.200                    25329850.580
      3469.465        2703.482          40.300          33.650    99399811.611 7
  25329856.380        2590.942          42.850


 133255327.874 7 103835389.79847  25357623.060                    25357627.540
      3918.665        3053.518          42.250          42.050



 118238753.394 8  92134132.16247  22500079.920                    22500081.480
      1765.048        1375.363          50.250          45.800    88295210.664 8
  22500080.120        1318.017          48.950


 23 10 29 18  5 30.0000000  0 12G06G10G11G12G15G17G19G24G25G28G29G32
 126187103.606 7  98327634.37447  24012603.760                    24012607.920
      1766.361        1376.389          42.300          42.650    94230657.157 8
  24012608.560        1319.146          48.200


 131174206.995 6 102213679.77246  24961629.020                    24961635.140
     -2678.802       -2087.380          40.000          38.050    97954774.686 7
  24961635.860       -2000.256          42.000


 132527389.540 6 103268102.72946  25219122.940                    25219123.560
      2916.075        2272.265          40.650          37.750    98965291.282 7
  25219131.320        2178.087          43.200


 105670160.249 8  82340521.05048  20108312.420                    20108309.440
      -111.011         -86.501          52.300          52.300



 133207789.979 6 103798299.69047  25348596.800                    25348599.020
     -3912.729       -3048.888          41.950          42.500



 134760222.292 6 105008060.29346  25643977.920                    25643976.060
     -3334.318       -2598.164          36.750          37.350



 121676072.867 7  94812581.19347  23154163.320                    23154161.420
     -2631.869       -2050.808          44.650          44.200



 112340173.108 8  87537913.53048  21377578.780                    21377580.180
     -2484.251       -1935.780          50.000          49.950    83890526.778 9
  21377581.120       -1855.077          54.650


 110533871.627 8  86130422.03747  21033864.800                    21033865.840
      2346.977        1828.814          50.200          47.300    82541684.610 8
  21033866.720        1752.608          53.400


 133005181.212 6 103640404.09746  25310042.400                    25310043.580
      3469.101        2703.197          40.550          36.600    99322085.736 6
  25310049.680        2590.787          41.700


 133137757.259 6 103743776.72546  25335249.840                    25335254.020
      3918.682        3053.533          40.550          40.600



 118186060.817 8  92093073.05447  22490052.920                    22490054.360
      1747.380        1361.596          50.050          45.750    88255862.348 8
  22490052.740        1304.993          48.850


 23 10 29 18  6  0.0000000  0 12G06G10G11G12G15G17G19G24G25G28G29G32
 126134317.855 7  98286502.72047  24002559.000                    24002563.220
      1752.487        1365.577          43.550          43.400    94191239.361 7
  24002563.540        1308.538          47.450


 131254650.292 6 102276362.64646  24976937.020                    24976943.360
     -2684.672       -2091.959          40.750          39.750    98014845.768 7
  24976943.940       -2004.571          42.100


 132439935.716 7 103199956.92745  25202481.480                    25202482.280
      2913.875        2270.551          43.350          35.800    98899984.880 7
  25202488.920        2175.672          43.150


 105673707.267 8  82343284.97648  20108987.480                    20108984.060
      -125.650         -97.908          52.200          52.150



 133325115.633 7 103889722.14447  25370923.440                    25370925.460
     -3909.167       -3046.106          42.900          42.850



 134860287.211 6 105086033.10546  25663019.640                    25663017.720
     -3337.208       -2600.415          40.250          40.000



 121755223.396 7  94874256.92447  23169225.120                    23169223.160
     -2645.079       -2061.101          45.400          43.350



 112414858.886 8  87596110.22248  21391791.240                    21391792.400
     -2494.851       -1944.039          50.300          50.250    83946298.608 9
  21391793.300       -1863.087          54.300


 110463624.346 8  86075683.94147  21020497.120                    21020498.100
      2335.979        1820.246          50.200          47.050    82489227.274 8
  21020499.060        1744.450          53.300


 132901085.236 6 103559290.50245  25290233.440                    25290234.580
      3470.315        2704.143          40.100          35.000    99244351.907 6
  25290240.860        2591.564          41.550


 133020177.286 6 103652156.40946  25312874.680                    25312879.020
      3919.641        3054.279          40.350          40.900



 118133878.105 8  92052411.23547  22480122.940                    22480124.240
      1731.268        1349.041          50.200          46.400    88216894.779 8
  22480122.440        1292.813          48.400


 23 10 29 18  6 30.0000000  0 12G06G10G11G12G15G17G19G24G25G28G29G32
 126081985.550 7  98245724.36847  23992600.620                    23992604.700
      1737.084        1353.574          43.300          43.350    94152160.131 7
  23992604.580        1297.086          47.550


 131335296.726 6 102339203.86946  24992283.520                    24992290.060
     -2691.247       -2097.082          41.600          37.850    98075068.571 7
  24992290.960       -2009.909          42.200


 132352605.794 6 103131907.65446  25185863.380                    25185864.340
      2908.898        2266.678          41.700          38.150    98834770.994 7
  25185870.360        2172.397          44.200


 105677724.573 8  82346415.37548  20109751.960                    20109748.220
      -141.489        -110.251          52.000          51.900



 133442369.292 6 103981088.42846  25393236.180                    25393237.780
     -3906.982       -3044.411          40.650          40.050



 134960480.474 6 105164105.97246  25682085.660                    25682083.560
     -3341.781       -2603.979          36.650          37.350



 121834799.697 7  94936264.41547  23184367.980                    23184365.960
     -2659.344       -2072.217          45.400          44.350



 112489889.723 8  87654575.78948  21406069.320                    21406070.180
     -2506.625       -1953.214          50.300          50.350    84002328.102 9
  21406071.300       -1871.784          54.500


 110393733.520 8  86021223.60247  21007197.200                    21007198.160
      2323.947        1810.869          49.700          47.800    82437036.132 8
  21007199.300        1735.451          53.450


 132796983.375 6 103478172.28345  25270423.480                    25270424.540
      3470.440        2704.241          40.250          32.100    99166613.620 6
  25270430.680        2591.365          40.300


 132902594.241 6 103560533.61346  25290498.880                    25290503.080
      3919.748        3054.362          40.900          41.100



 118082210.751 8  92012150.99447  22470290.940                    22470292.220
      1713.788        1335.421          50.000          46.350    88178312.045 8
  22470290.340        1279.828          48.600


 23 10 29 18  7  0.0000000  0 12G06G10G11G12G15G17G19G24G25G28G29G32
 126030106.395 7  98205299.10847  23982728.440                    23982732.540
      1721.925        1341.762          43.300          42.700    94113419.281 7
  23982732.120        1285.831          47.600


 131416140.370 6 102402198.71446  25007667.740                    25007674.320
     -2697.745       -2102.149          41.400          37.700    98135438.574 6
  25007675.600       -2014.687          41.350


 132265400.012 6 103063955.09946  25169268.720                    25169269.820
      2905.154        2263.756          41.550          37.400    98769649.842 7
  25169275.280        2169.302          43.350


 105682208.369 8  82349909.26748  20110605.160                    20110601.460
      -157.051        -122.377          52.050          52.050



 133559546.183 6 104072394.85446  25415534.480                    25415536.100
     -3904.452       -3042.437          41.200          41.200



 135060797.590 6 105242275.27046  25701175.320                    25701173.100
     -3345.729       -2607.054          39.250          39.300



 121914796.616 7  94998599.67247  23199590.820                    23199588.760
     -2673.515       -2083.258          45.900          43.350



 112565261.669 8  87713307.15348  21420412.200                    21420412.820
     -2517.865       -1961.974          50.400          50.350    84058612.326 9
  21420414.380       -1880.261          54.500


 110324197.414 8  85967039.68147  20993964.800                    20993965.760
      2312.121        1801.655          49.650          47.350    82385109.889 8
  20993967.160        1726.578          53.350


 132692874.070 6 103397048.26045  25250611.960                    25250612.760
      3470.488        2704.284          40.000          35.700    99088869.794 6
  25250619.000        2591.673          39.250


 132785007.522 6 103468907.98246  25268122.620                    25268126.920
      3919.694        3054.320          41.250          41.600



 118031057.944 8  91972291.69547  22460556.800                    22460558.040
      1696.787        1322.173          50.150          46.050    88140113.567 8
  22460556.260        1266.958          48.650


 23 10 29 18  7 30.0000000  0 12G06G10G11G12G15G17G19G24G25G28G29G32
 125978680.778 7  98165227.29547  23972942.320                    23972946.800
      1706.425        1329.686          42.050          42.250    94075017.165 7
  23972946.200        1274.186          47.800


 131497175.839 6 102465343.07545  25023088.720                    25023094.940
     -2704.691       -2107.554          41.150          35.800    98195951.877 7
  25023096.240       -2019.759          42.250


 132178319.490 6 102996100.18745  25152697.760                    25152699.080
      2900.046        2259.777          41.700          35.850    98704622.187 7
  25152703.600        2165.825          42.600


 105687155.791 8  82353764.40648  20111546.580                    20111543.080
      -172.930        -134.750          52.400          52.400



 133676641.847 6 104163637.98346  25437817.060                    25437818.720
     -3902.155       -3040.646          38.100          38.250



 135161234.001 6 105320537.56246  25720287.740                    25720285.300
     -3350.296       -2610.617          40.550          40.850



 121995209.613 7  95061259.12847  23214892.960                    23214890.800
     -2687.784       -2094.378          45.700          43.550



 112640971.512 8  87772301.80748  21434819.280                    21434819.860
     -2529.521       -1971.057          50.650          50.650    84115148.859 9
  21434821.840       -1889.005          54.700


 110255014.833 8  85913131.24447  20980799.600                    20980800.600
      2299.670        1791.953          49.950          47.050    82333447.647 8
  20980802.340        1717.351          53.700


 132588756.355 6 103315917.66244  25230798.760                    25230800.020
      3470.507        2704.291          39.350          29.300    99011119.670 6
  25230806.180        2591.563          39.900


 132667417.549 6 103377279.72346  25245745.660                    25245749.660
      3919.401        3054.090          41.750          41.800



 117980419.529 8  91932833.22347  22450920.440                    22450921.740
      1679.014        1308.322          49.850          45.700    88102299.196 8
  22450920.280        1253.819          49.200


 23 10 29 18  8  0.0000000  0 12G06G10G11G12G15G17G19G24G25G28G29G32
 125927714.908 6  98125513.73547  23963243.560                    23963248.420
      1691.000        1317.666          41.900          42.000    94036958.338 7
  23963247.800        1262.794          47.550


 131578403.976 7 102528637.51245  25038546.200                    25038552.180
     -2710.627       -2112.187          42.050          35.600    98256608.979 7
  25038553.660       -2024.358          42.350


 132091371.165 6 102928348.28746  25136152.020                    25136153.460
      2895.777        2256.452          39.700          38.950    98639693.294 7
  25136157.240        2162.544          43.150


 105692570.408 8  82357983.59548  20112576.900                    20112573.560
      -188.309        -146.733          52.600          52.600



 133793657.740 6 104254818.92646  25460084.460                    25460086.520
     -3899.302       -3038.425          40.800          40.700



 135261791.217 6 105398893.91646  25739422.880                    25739420.500
     -3354.285       -2613.727          39.100          38.850



 122076039.762 7  95124243.65447  23230274.480                    23230272.240
     -2701.466       -2105.039          45.350          42.800



 112717021.912 8  87831561.83448  21449291.100                    21449291.820
     -2540.713       -1979.776          50.200          50.200    84171939.717 9
  21449294.040       -1897.388          54.700


 110186190.490 8  85859501.95347  20967702.700                    20967703.600
      2287.979        1782.844          50.100          47.050    82282052.925 8
  20967705.700        1708.572          53.700


 132484635.373 6 103234784.54346  25210985.000                    25210986.140
      3470.710        2704.452          39.550          36.750    98933367.098 6
  25210992.960        2591.793          41.550


 132549829.934 6 103285653.32046  25223369.400                    25223373.140
      3919.501        3054.170          40.350          40.100



 117930301.194 8  91893780.00147  22441383.040                    22441384.360
      1661.735        1294.859          49.550          45.650    88064873.198 8
  22441383.380        1240.934          49.700


 23 10 29 18  8 30.0000000  0 12G06G10G11G12G15G17G19G24G25G28G29G32
 125877209.882 6  98086159.23846  23953632.640                    23953637.540
      1675.947        1305.933          41.550          41.400    93999243.630 7
  23953637.000        1251.643          47.300


 131659820.427 6 102592078.70245  25054039.640                    25054044.860
     -2716.505       -2116.763          41.850          35.500    98317406.741 6
  25054046.520       -2028.640          41.650


 132004556.671 6 102860700.67646  25119631.560                    25119633.360
      2891.883        2253.413          39.200          37.600    98574864.367 7
  25119636.580        2159.501          43.100


 105698449.960 8  82362565.07048  20113695.720                    20113692.400
      -203.382        -158.479          51.950          52.000



 133910590.459 6 104345935.02346  25482336.200                    25482338.400
     -3896.202       -3036.011          40.650          39.850



 135362465.279 6 105477341.37046  25758580.480                    25758577.780
     -3357.302       -2616.076          37.750          38.700



 122157282.750 7  95187549.87247  23245734.520                    23245732.240
     -2714.695       -2115.348          45.200          43.300



 112793410.274 8  87891085.20148  21463827.200                    21463828.020
     -2551.526       -1988.203          50.100          50.000    84228982.935 9
  21463830.460       -1905.364          54.500


 110117723.910 8  85806151.43347  20954674.000                    20954674.760
      2276.702        1774.056          50.150          47.550    82230925.355 8
  20954677.080        1700.122          53.600


 132380511.055 6 103153648.81046  25191170.520                    25191171.700
      3470.775        2704.505          38.750          36.250    98855612.000 6
  25191178.840        2592.144          41.400


 132432245.807 6 103194029.57646  25200993.580                    25200996.780
      3919.838        3054.430          40.900          41.400



 117880703.405 8  91855132.40047  22431944.720                    22431945.960
      1645.049        1281.856          49.350          45.200    88027835.931 8
  22431945.600        1228.336          49.850


 23 10 29 18  9  0.0000000  0 12G06G10G11G12G15G17G19G24G25G28G29G32
 125827167.351 6  98047165.12446  23944109.580                    23944114.600
      1660.425        1293.840          41.500          41.650    93961874.298 7
  23944114.320        1239.869          47.650


 131741421.225 6 102655663.51846  25069568.160                    25069573.200
     -2723.151       -2121.942          41.700          37.200    98378342.170 7
  25069574.680       -2033.409          42.600


 131917878.387 6 102793159.21746  25103136.920                    25103139.240
      2886.936        2249.562          37.850          36.350    98510137.189 7
  25103141.920        2155.814          42.350


 105704793.009 8  82367507.71848  20114902.680                    20114899.520
      -219.195        -170.801          52.250          52.100



 134027436.898 7 104436983.88747  25504571.660                    25504573.820
     -3893.558       -3033.951          42.400          42.400



 135463254.100 6 105555878.30546  25777759.780                    25777756.920
     -3361.164       -2619.081          40.800          41.050



 122238935.788 7  95251175.60547  23261272.500                    23261270.240
     -2728.475       -2126.083          45.400          43.800



 112870134.698 8  87950870.42648  21478427.300                    21478428.180
     -2562.980       -1997.130          49.850          49.800    84286277.101 9
  21478430.740       -1914.013          54.650


 110049615.300 8  85753079.83647  20941713.440                    20941714.140
      2264.283        1764.378          50.350          47.550    82180065.083 8
  20941716.420        1690.895          53.950


 132276383.854 6 103072510.79145  25171355.580                    25171357.100
      3470.833        2704.550          39.200          34.650    98777854.775 7
  25171364.320        2591.868          42.000


 132314667.252 6 103102410.19446  25178618.980                    25178621.760
      3919.210        3053.938          41.100          41.400



 117831627.294 8  91816891.30747  22422605.700                    22422606.860
      1627.171        1267.926          49.450          45.400    87991188.220 8
  22422607.140        1215.077          50.250


 23 10 29 18  9 30.0000000  0 12G06G10G11G12G15G17G19G24G25G28G29G32
 125777590.390 6  98008533.81546  23934675.160                    23934680.060
      1644.833        1281.691          41.650          41.550    93924852.625 7
  23934680.260        1228.335          47.700


 131823203.825 6 102719389.99545  25085131.140                    25085135.640
     -2728.661       -2126.240          40.800          35.550    98439413.336 7
  25085137.380       -2037.756          42.500


 131831340.037 6 102725726.82946  25086669.080                    25086671.720
      2882.744        2246.301          37.350          37.600    98445514.485 6
  25086673.880        2152.505          41.650


 105711599.007 8  82372811.09748  20116197.840                    20116194.720
      -234.412        -182.658          51.950          51.900



 134144195.530 6 104527964.38646  25526790.400                    25526791.820
     -3890.223       -3031.353          41.200          41.600



 135564155.503 6 105634502.83646  25796960.580                    25796957.520
     -3365.129       -2622.176          37.800          37.250



 122320996.800 7  95315119.24747  23276888.100                    23276885.920
     -2741.898       -2136.544          45.250          42.050



 112947194.644 8  88010917.10348  21493091.260                    21493092.320
     -2574.066       -2005.767          49.650          49.600    84343821.824 9
  21493094.840       -1922.160          54.350


 109981866.151 8  85700288.33847  20928821.260                    20928821.960
      2252.396        1755.114          50.200          47.850    82129473.244 9
  20928824.120        1682.063          54.000


 132172255.720 6 102991372.03145  25151540.520                    25151541.880
      3470.948        2704.640          39.950          32.600    98700096.792 6
  25151549.480        2592.070          41.500


 132197097.058 7 103010797.30346  25156245.940                    25156248.400
      3919.145        3053.886          42.050          41.650



 117783075.272 8  91779058.58747  22413366.480                    22413367.500
      1609.776        1254.372          49.600          45.050    87954931.876 8
  22413368.340        1202.151          50.500


 23 10 29 18 10  0.0000000  0 12G06G10G11G12G15G17G19G24G25G28G29G32
 125728479.387 7  97970265.58247  23925329.720                    23925334.020
      1629.437        1269.693          43.000          43.200    93888178.925 7
  23925334.820        1216.781          47.800


 131905163.243 6 102783254.25546  25100727.720                    25100732.020
     -2734.572       -2130.842          40.500          36.200    98500616.604 7
  25100733.680       -2042.101          42.750


 131744942.897 6 102658404.47246  25070228.120                    25070230.920
      2877.961        2242.572          38.400          37.550    98380997.225 7
  25070233.080        2148.929          42.450


 105718865.618 8  82378473.40248  20117580.700                    20117577.440
      -249.766        -194.622          52.100          52.200



 134260862.013 6 104618873.01846  25548991.580                    25548993.040
     -3887.674       -3029.367          41.650          41.400



 135665165.472 6 105713212.03845  25816181.840                    25816178.880
     -3369.038       -2625.221          36.550          35.150



 122403461.195 7  95379377.21347  23292580.420                    23292578.380
     -2755.049       -2146.792          44.500          42.600



 113024586.988 8  88071222.79048  21507818.520                    21507819.600
     -2585.079       -2014.349          49.600          49.350    84401614.769 9
  21507821.980       -1930.387          54.400


 109914475.434 8  85647776.13247  20915997.240                    20915997.920
      2240.470        1745.822          50.100          47.500    82079149.053 9
  20915999.980        1673.172          54.400


 132068126.036 6 102910232.07745  25131725.340                    25131726.380
      3470.941        2704.635          39.850          35.700    98622337.699 6
  25131734.400        2592.223          41.950


 132079535.714 7 102919191.27247  25133874.840                    25133877.020
      3918.559        3053.427          42.300          42.000



 117735047.262 8  91741634.19447  22404227.040                    22404227.840
      1592.388        1240.822          49.300          44.950    87919066.841 8
  22404229.160        1189.154          50.800


 23 10 29 18 10 30.0000000  0 12G06G10G11G12G15G17G19G24G25G28G29G32
 125679838.871 7  97932363.93047  23916073.920                    23916077.380
      1613.622        1257.368          43.400          43.250    93851856.532 7
  23916078.820        1204.901          47.900


 131987298.283 6 102847255.41345  25116357.540                    25116362.160
     -2740.530       -2135.482          39.550          35.650    98561950.953 7
  25116363.580       -2046.701          42.650


 131658692.074 6 102591196.10246  25053815.280                    25053817.560
      2872.536        2238.342          39.900          39.050    98316589.202 7
  25053820.280        2145.240          42.750


 105726594.149 8  82384495.63748  20119051.500                    20119048.200
      -265.183        -206.636          52.850          52.800



 134377436.241 6 104709709.71446  25571175.100                    25571177.160
     -3884.037       -3026.538          38.900          39.700



 135766284.617 6 105792006.25646  25835423.980                    25835421.220
     -3372.138       -2627.638          40.850          40.600



 122486328.564 7  95443949.17946  23308349.420                    23308347.460
     -2768.928       -2157.606          44.600          41.200



 113102312.631 8  88131788.19748  21522609.240                    21522610.220
     -2596.283       -2023.077          49.950          49.750    84459656.614 9
  21522612.380       -1938.812          54.000


 109847446.080 8  85595545.50947  20903241.920                    20903242.640
      2228.462        1736.466          50.250          47.750    82029094.728 9
  20903244.660        1664.036          54.350


 131963998.152 6 102829093.53746  25111910.660                    25111911.160
      3470.908        2704.604          41.200          36.650    98544579.971 7
  25111919.600        2591.941          42.900


 131961987.426 6 102827595.40446  25111506.080                    25111507.900
      3918.088        3053.062          41.800          41.550



 117687547.119 8  91704621.12347  22395188.120                    22395188.660
      1574.642        1226.994          50.250          44.850    87883596.002 8
  22395190.400        1175.787          50.750


 23 10 29 18 11  0.0000000  0 12G06G10G11G12G15G17G19G24G25G28G29G32
 125631669.823 7  97894829.69347  23906907.840                    23906910.460
      1597.870        1245.097          42.200          42.200    93815886.241 7
  23906912.580        1193.300          47.400


 132069604.585 6 102911389.97545  25132019.820                    25132024.800
     -2746.038       -2139.783          37.750          35.500    98623413.189 7
  25132025.760       -2050.706          42.150


 131572589.326 6 102524103.12846  25037430.720                    25037432.320
      2867.686        2234.561          40.500          39.950    98252291.794 7
  25037435.860        2141.541          43.650


 105734782.705 8  82390876.34548  20120609.820                    20120606.560
      -280.270        -218.392          52.450          52.350



 134493914.882 6 104800471.92046  25593340.420                    25593342.940
     -3880.658       -3023.899          41.400          41.250



 135867509.412 6 105870882.75746  25854686.420                    25854683.480
     -3375.476       -2630.239          37.900          38.000



 122569594.990 7  95508832.10247  23324194.260                    23324192.480
     -2781.738       -2167.589          44.300          42.050



 113180369.010 8  88192611.32048  21537462.900                    21537463.780
     -2607.104       -2031.511          49.300          49.300    84517945.441 8
  21537465.720       -1946.875          53.500


 109780777.717 8  85543596.18348  20890555.300                    20890556.180
      2216.565        1727.196          50.200          48.100    81979309.967 9
  20890558.000        1655.113          54.000


 131859872.063 6 102747956.43546  25092096.160                    25092096.580
      3471.080        2704.741          40.500          36.800    98466823.623 7
  25092105.160        2591.956          42.850


 131844453.534 6 102736010.78046  25089140.000                    25089142.040
      3917.790        3052.831          41.150          41.300



 117640575.363 8  91668019.77547  22386249.860                    22386250.100
      1557.154        1213.367          50.000          45.300    87848519.714 8
  22386252.080        1162.825          50.400


