     2.11           OBSERVATION DATA    G (GPS)             RINEX VERSION / TYPE
teqc  2019Feb25                         20231201 22:32:51UTCPGM / RUN BY / DATE
Linux 2.6.32-573.12.1.x86_64|x86_64|gcc|Linux 64|=+         COMMENT
teqc  2019Feb25                         20231201 22:32:50UTCCOMMENT
     2.11           OBSERVATION DATA    M (MIXED)           COMMENT
teqc  2019Feb25     IGN-RGP             20231201 01:02:19UTCCOMMENT
teqc  2019Feb25     Administrateur RGP  20231201 01:02:19UTCCOMMENT
teqc  2019Feb25     IGN-RGP             20231201 01:02:16UTCCOMMENT
teqc  2019Feb25     IGN-RGP             20231201 01:02:15UTCCOMMENT
BIT 2 OF LLI FLAGS DATA COLLECTED UNDER A/S CONDITION       COMMENT
IGNF                                                        MARKER NAME
10001M009                                                   MARKER NUMBER
Automatic           IGN                                     OBSERVER / AGENCY
1834194             LEICA GR50          4.51                REC # / TYPE / VERS
5000113963          TRM57971.00     NONE                    ANT # / TYPE
  4201694.1440   177888.8370  4779371.7670                  APPROX POSITION XYZ
        0.0000        0.0000        0.0000                  ANTENNA: DELTA H/E/N
     1     1                                                WAVELENGTH FACT L1/2
    21    L1    L2    C1    P1    P2    D1    D2    S1    S2# / TYPES OF OBSERV
          L5    C5    D5    S5    L7    C7    D7    S7    L8# / TYPES OF OBSERV
          C8    D8    S8                                    # / TYPES OF OBSERV
    30.0000                                                 INTERVAL
DefaultJobName                                              COMMENT
DefaultUserDiscription                                      COMMENT
Project creator:                                            COMMENT
 SNR is mapped to RINEX snr flag value [0-9]                COMMENT
  L1 & L2: min(max(int(snr_dBHz/6), 0), 9)                  COMMENT
    18                                                      LEAP SECONDS
Forced Modulo Decimation to 30 seconds                      COMMENT
teqc_2019 edited: all GLONASS satellites excluded           COMMENT
teqc_2019 edited: all SBAS satellites excluded              COMMENT
teqc_2019 edited: all Galileo satellites excluded           COMMENT
  2023    12     1     0     0    0.0000000     GPS         TIME OF FIRST OBS
                                                            END OF HEADER
 23 12  1  0  0  0.0000000  0 13G02G07G08G10G15G16G18G21G23G26G27G30
                                G32
 120494008.376 7  93891424.47647  22929241.040                    22929235.380
      2439.670        1901.043          47.850          44.150



 130587022.835 6 101756088.18146  24849883.000                    24849878.880
     -1520.004       -1184.420          41.350          38.600



 109343790.763 8  85202967.77448  20807425.980                    20807425.640
      1536.379        1197.179          50.650          49.900    81652842.416 9
  20807425.000        1147.263          55.100


 110929218.849 8  86438402.10948  21109103.560                    21109102.860
        22.069          17.197          52.800          52.900    82836793.943 9
  21109102.440          16.459          55.300


 130739585.839 6 101875002.53046  24878912.680                    24878909.540
     -1822.538       -1420.164          38.650          38.350



 122174835.764 7  95201154.34846  23249088.600                    23249084.720
     -3630.464       -2828.932          45.850          40.000



 132614033.020 6 103335699.27446  25235570.940                    25235569.260
     -3339.963       -2602.569          39.650          37.050    99030072.568 7
  25235574.300       -2494.289          44.100


 113767251.444 8  88649809.36347  21649182.220                    21649178.440
      1942.128        1513.347          49.350          44.400



 118014969.543 8  91959733.41847  22457493.240                    22457491.080
     -2363.763       -1841.894          48.550          45.450    88128126.388 8
  22457495.100       -1765.130          49.950


 132900693.116 6 103559017.11846  25290149.660                    25290149.540
     -3729.788       -2906.330          37.750          37.850    99244064.095 7
  25290152.400       -2785.608          43.400


 107114176.019 8  83465606.39248  20383140.640                    20383139.160
     -1231.699        -959.767          52.050          51.900    79987883.978 9
  20383139.740        -919.729          56.300


 132170593.163 7 102990060.61546  25151227.340                    25151226.140
      -415.524        -323.784          42.400          38.850    98698816.552 7
  25151226.740        -310.279          45.000


 133512599.084 6 104035798.72147  25406603.640                    25406603.080
      3003.450        2340.349          41.100          42.300    99700976.137 6
  25406604.900        2242.878          41.100


 23 12  1  0  0 30.0000000  0 13G02G07G08G10G15G16G18G21G23G26G27G30
                                G32
 120420924.311 7  93834475.86547  22915333.340                    22915328.440
      2432.703        1895.612          47.250          45.000



 130632813.456 6 101791769.16046  24858596.840                    24858592.800
     -1532.457       -1194.122          41.650          37.050



 109297890.256 8  85167201.15648  20798691.440                    20798691.020
      1523.729        1187.321          50.700          50.850    81618566.061 9
  20798690.580        1137.883          55.100


 110928844.573 8  86438110.47548  21109032.500                    21109031.660
         2.998           2.337          53.200          53.250    82836514.460 9
  21109030.900           2.322          55.200


 130794522.598 6 101917810.43746  24889366.800                    24889363.640
     -1840.145       -1433.884          36.800          37.250



 122283844.015 7  95286095.85246  23269832.340                    23269828.320
     -3636.709       -2833.798          46.100          40.150



 132714238.677 6 103413781.55545  25254639.360                    25254637.560
     -3340.362       -2602.880          39.100          35.300    99104901.404 7
  25254643.000       -2494.281          44.200


 113709144.073 8  88604530.90847  21638124.640                    21638120.920
      1931.659        1505.189          49.100          45.050



 118086099.399 8  92015159.28047  22471028.860                    22471026.640
     -2378.177       -1853.124          48.450          45.650    88181242.839 8
  22471030.660       -1775.804          49.800


 133012574.006 6 103646196.92046  25311439.900                    25311439.720
     -3728.169       -2905.069          39.300          38.800    99327611.333 7
  25311442.800       -2784.211          42.550


 107151343.558 8  83494568.09648  20390213.420                    20390211.900
     -1246.103        -970.989          51.700          51.700    80015638.943 9
  20390212.520        -930.443          56.400


 132183309.997 6 102999969.85346  25153647.460                    25153646.540
      -432.270        -336.834          41.500          39.950    98708312.879 7
  25153646.760        -322.645          44.500


 133422509.013 6 103965598.72146  25389459.980                    25389459.840
      3002.669        2339.744          40.700          40.150    99633701.105 6
  25389461.080        2242.298          40.600


 23 12  1  0  1  0.0000000  0 13G02G07G08G10G15G16G18G21G23G26G27G30
                                G32
 120348051.245 7  93777691.68647  22901465.680                    22901461.480
      2425.376        1889.904          46.200          45.450



 130678978.937 7 101827742.20746  24867381.980                    24867378.420
     -1545.430       -1204.236          42.100          39.200



 109252368.152 8  85131729.38448  20790029.000                    20790028.380
      1510.788        1177.237          50.550          50.650    81584572.284 9
  20790028.040        1128.205          54.750


 110929041.647 8  86438264.04748  21109070.140                    21109069.220
       -16.326         -12.722          53.200          53.400    82836661.646 9
  21109068.140         -12.223          55.050


 130849982.035 6 101961025.58346  24899920.400                    24899917.440
     -1857.701       -1447.555          37.500          37.200



 122393045.473 7  95371187.86146  23290612.640                    23290608.800
     -3643.491       -2839.086          45.600          40.200



 132814446.299 6 103491865.36345  25273708.200                    25273706.420
     -3340.630       -2603.091          38.500          35.850    99179731.703 7
  25273712.080       -2494.554          44.300


 113651348.665 8  88559495.54047  21627126.500                    21627122.800
      1920.995        1496.881          49.000          45.800



 118157659.156 8  92070920.12547  22484646.260                    22484643.960
     -2392.656       -1864.408          48.650          44.300    88234680.327 8
  22484648.000       -1786.798          49.650


 133124397.656 5 103733332.12145  25332719.440                    25332718.980
     -3726.713       -2903.937          35.100          34.200    99411115.894 6
  25332722.160       -2783.012          41.700


 107188943.797 8  83523866.97748  20397368.520                    20397366.960
     -1260.824        -982.461          51.750          51.800    80043717.037 9
  20397367.580        -941.520          56.300


 132196529.202 6 103010270.52446  25156162.920                    25156162.220
      -449.222        -350.046          41.900          38.500    98718184.359 7
  25156162.520        -335.558          44.300


 133332447.235 6 103895420.68446  25372321.680                    25372321.800
      3001.701        2338.990          39.600          39.650    99566447.188 6
  25372322.700        2241.336          41.050


 23 12  1  0  1 30.0000000  0 13G02G07G08G10G15G16G18G21G23G26G27G30
                                G32
 120275390.203 7  93721072.72947  22887638.260                    22887634.660
      2418.629        1884.646          46.100          44.900



 130725517.484 7 101864005.99246  24876238.100                    24876234.840
     -1557.495       -1213.634          42.000          37.950



 109207225.587 8  85096553.35548  20781438.660                    20781438.020
      1498.411        1167.594          51.050          51.000    81550861.919 9
  20781437.640        1119.066          54.900


 110929810.262 8  86438862.97648  21109216.440                    21109215.580
       -34.987         -27.263          53.250          53.500    82837235.621 9
  21109214.260         -26.071          55.300


 130905963.045 6 102004647.08146  24910573.140                    24910570.460
     -1874.696       -1460.807          37.500          37.250



 122502437.413 7  95456428.33346  23311429.280                    23311425.420
     -3649.408       -2843.695          45.900          40.150



 132914655.543 6 103569950.41246  25292777.300                    25292775.700
     -3340.242       -2602.790          38.650          37.500    99254563.206 7
  25292781.320       -2494.163          43.850


 113593866.092 8  88514703.93647  21616187.920                    21616184.300
      1911.075        1489.149          49.750          44.650



 118229646.991 8  92127014.54647  22498345.120                    22498342.840
     -2406.491       -1875.187          48.150          44.400    88288437.469 8
  22498346.800       -1797.098          49.700


 133236162.707 6 103820421.57846  25353987.380                    25353987.340
     -3724.462       -2902.182          36.850          37.650    99494576.575 7
  25353990.180       -2781.052          43.700


 107226976.906 8  83553503.16048  20404605.940                    20404604.340
     -1274.817        -993.364          52.200          52.050    80072118.375 9
  20404605.080        -951.936          56.600


 132210250.359 6 103020962.33346  25158773.960                    25158773.000
      -465.995        -363.116          41.100          37.000    98728430.649 7
  25158774.000        -347.529          44.250


 133242417.095 6 103825267.35746  25355189.320                    25355189.780
      3000.707        2338.213          40.100          40.500    99499216.887 6
  25355190.480        2240.709          41.750


 23 12  1  0  2  0.0000000  0 13G02G07G08G10G15G16G18G21G23G26G27G30
                                G32
 120202944.812 7  93664621.81447  22873851.920                    22873848.860
      2411.266        1878.909          45.650          45.200



 130772430.095 7 101900561.22446  24885165.360                    24885162.640
     -1570.114       -1223.467          42.300          37.950



 109162467.711 8  85061677.08448  20772921.560                    20772920.900
      1485.472        1157.510          51.350          51.450    81517438.836 9
  20772920.400        1109.316          54.550


 110931153.328 8  86439909.52348  21109472.000                    21109471.240
       -54.341         -42.345          53.300          53.400    82838238.560 9
  21109469.860         -40.555          55.300


 130962466.933 6 102048676.05746  24921325.260                    24921322.580
     -1892.221       -1474.466          38.850          38.650



 122612021.101 7  95541818.18546  23332282.200                    23332278.780
     -3655.885       -2848.741          45.650          39.900



 133014868.712 6 103648038.56545  25311847.240                    25311845.500
     -3340.380       -2602.889          39.750          35.550    99329397.686 7
  25311851.220       -2494.504          43.300


 113536699.788 8  88470158.77647  21605309.600                    21605306.100
      1900.195        1480.672          49.850          45.750



 118302063.723 8  92183443.16747  22512125.480                    22512123.340
     -2421.017       -1886.506          48.000          44.000    88342514.905 8
  22512127.180       -1807.848          49.400


 133347869.871 6 103907466.00146  25375244.820                    25375244.880
     -3722.526       -2900.677          38.100          38.000    99577994.100 6
  25375247.260       -2779.919          41.700


 107265445.778 8  83583478.90448  20411926.320                    20411924.660
     -1289.585       -1004.871          52.050          52.250    80100845.130 9
  20411925.600        -962.932          56.400


 132224475.798 6 103032047.08046  25161480.780                    25161479.520
      -482.687        -376.118          41.650          38.050    98739053.538 7
  25161481.180        -360.452          43.200


 133152424.812 6 103755143.55946  25338064.360                    25338065.120
      2999.385        2337.185          40.850          41.400    99432014.905 6
  25338065.340        2239.512          41.150


 23 12  1  0  2 30.0000000  0 13G02G07G08G10G15G16G18G21G23G26G27G30
                                G32
 120130710.161 7  93608335.12447  22860105.980                    22860103.020
      2404.251        1873.443          46.250          45.400



 130819709.058 6 101937401.93546  24894162.200                    24894159.940
     -1582.388       -1233.028          41.800          39.200



 109118090.148 8  85027097.16148  20764476.880                    20764476.160
      1472.852        1147.677          51.600          51.450    81484299.739 9
  20764475.280        1099.885          54.600


 110933064.765 8  86441398.95748  21109835.700                    21109835.020
       -73.282         -57.104          53.150          53.150    82839665.936 9
  21109833.800         -54.658          55.800


 131019486.115 6 102093106.64146  24932175.780                    24932172.840
     -1909.256       -1487.736          37.250          37.400



 122721787.851 7  95627350.71046  23353170.120                    23353166.680
     -3662.016       -2853.520          45.400          40.050



 133115079.109 6 103726124.57446  25330916.720                    25330914.900
     -3340.294       -2602.826          39.600          37.150    99404230.075 7
  25330920.280       -2494.396          43.300


 113479844.237 8  88425855.77147  21594490.400                    21594487.000
      1889.933        1472.676          49.800          45.600



 118374901.326 7  92240199.74347  22525985.920                    22525984.020
     -2434.885       -1897.312          47.550          43.950    88396906.618 8
  22525987.700       -1818.254          49.700


 133459511.554 6 103994459.32246  25396489.700                    25396489.900
     -3720.194       -2898.858          38.650          38.650    99661362.705 6
  25396492.040       -2778.132          39.600


 107304344.384 8  83613789.50448  20419328.520                    20419326.760
     -1303.818       -1015.963          51.950          51.950    80129892.782 9
  20419327.880        -973.596          56.650


 132239198.873 7 103043519.59246  25164282.460                    25164280.840
      -499.060        -388.881          42.150          37.500    98750048.026 7
  25164282.480        -372.633          43.200


 133062467.533 6 103685046.97646  25320946.140                    25320946.760
      2997.757        2335.916          40.500          40.000    99364839.030 7
  25320947.020        2238.657          42.350


 23 12  1  0  3  0.0000000  0 13G02G07G08G10G15G16G18G21G23G26G27G30
                                G32
 120058689.716 7  93552215.33447  22846401.020                    22846397.900
      2397.419        1868.120          46.850          44.700



 130867355.513 6 101974529.00046  24903229.000                    24903227.000
     -1594.105       -1242.161          40.300          39.200



 109074098.262 8  84992817.76348  20756105.580                    20756104.740
      1460.302        1137.897          51.100          51.100    81451448.645 9
  20756103.520        1090.472          54.250


 110935547.935 8  86443333.89248  21110308.240                    21110307.600
       -92.016         -71.701          53.100          53.250    82841520.253 9
  21110306.600         -68.645          55.750


 131077021.990 6 102137939.77246  24943124.440                    24943121.460
     -1926.290       -1501.002          39.400          39.350



 122831739.465 7  95713027.26746  23374093.160                    23374090.020
     -3667.959       -2858.149          45.050          41.150



 133215289.377 6 103804210.45545  25349986.100                    25349984.280
     -3340.265       -2602.804          40.900          33.400    99479062.353 7
  25349989.500       -2494.059          43.550


 113423303.224 8  88381797.84947  21583730.980                    21583727.740
      1879.806        1464.784          49.550          45.600



 118448160.909 7  92297285.11947  22539926.620                    22539924.880
     -2448.706       -1908.081          46.850          44.500    88451613.445 8
  22539928.560       -1828.533          49.450


 133571089.055 6 104081402.76446  25417722.380                    25417722.420
     -3717.571       -2896.805          40.150          41.050    99744683.527 6
  25417724.640       -2776.332          41.300


 107343675.891 8  83644437.42848  20426813.100                    20426811.300
     -1318.018       -1027.027          52.350          52.150    80159263.711 9
  20426812.460        -984.193          56.250


 132254422.075 7 103055381.78446  25167179.480                    25167177.660
      -515.206        -401.462          42.550          37.800    98761415.992 7
  25167179.020        -384.758          42.950


 132972551.596 6 103614982.64646  25303835.840                    25303836.320
      2996.848        2335.207          41.050          40.900    99297694.075 6
  25303836.220        2237.853          41.200


 23 12  1  0  3 30.0000000  0 13G02G07G08G10G15G16G18G21G23G26G27G30
                                G32
 119986883.314 7  93496262.31847  22832736.940                    22832733.400
      2390.113        1862.427          47.350          44.750



 130915366.250 6 102011939.91146  24912365.040                    24912363.220
     -1606.648       -1251.937          40.350          38.850



 109030491.833 8  84958838.71748  20747807.600                    20747806.520
      1447.317        1127.780          51.300          51.200    81418885.403 9
  20747805.320        1080.657          54.300


 110938601.392 8  86445713.21148  21110889.340                    21110888.700
      -111.231         -86.674          53.050          53.000    82843800.438 9
  21110887.920         -83.138          55.750


 131135071.553 6 102183173.15546  24954171.160                    24954167.920
     -1943.378       -1514.320          38.650          38.850



 122941871.750 7  95798844.60446  23395050.680                    23395047.520
     -3673.751       -2862.663          44.700          40.300



 133315497.588 6 103882294.74845  25369055.280                    25369053.220
     -3340.207       -2602.755          40.550          34.150    99553893.123 7
  25369058.400       -2494.384          43.900


 113367075.919 8  88337984.39347  21573031.160                    21573028.060
      1869.150        1456.481          49.150          45.650



 118521839.107 7  92354696.69847  22553947.060                    22553945.260
     -2462.823       -1919.083          46.200          44.850    88506632.869 8
  22553949.180       -1839.132          49.600


 133682599.250 5 104168293.71446  25438942.120                    25438942.760
     -3715.484       -2895.189          35.700          36.250    99827953.915 6
  25438944.260       -2774.758          41.350


 107383438.921 8  83675421.59548  20434379.760                    20434378.020
     -1332.534       -1038.339          51.900          52.050    80188956.871 9
  20434379.060        -995.162          56.050


 132270143.554 6 103067632.32646  25170171.200                    25170169.820
      -532.299        -414.778          41.500          36.900    98773156.055 7
  25170170.100        -397.532          42.150


 132882679.017 6 103544952.08446  25286733.860                    25286734.100
      2994.959        2333.733          41.400          41.650    99230581.463 6
  25286733.780        2236.518          41.050


 23 12  1  0  4  0.0000000  0 13G02G07G08G10G15G16G18G21G23G26G27G30
                                G32
 119915294.731 7  93440479.03047  22819114.360                    22819110.320
      2382.494        1856.490          47.800          44.100



 130963742.612 6 102049635.70146  24921570.620                    24921568.920
     -1618.902       -1261.485          40.150          38.550



 108987276.206 8  84925164.20948  20739583.880                    20739582.720
      1433.737        1117.198          51.300          51.300    81386613.991 9
  20739581.680        1070.724          54.450


 110942228.115 8  86448539.23448  21111579.560                    21111578.840
      -130.650        -101.806          53.550          53.600    82846508.709 9
  21111578.280         -97.542          55.700


 131193636.651 6 102228808.33746  24965315.760                    24965312.320
     -1960.989       -1528.044          37.900          37.800



 123052185.399 7  95884803.26546  23416042.620                    23416039.340
     -3680.279       -2867.751          44.900          39.300



 133415706.214 6 103960379.35346  25388124.400                    25388122.240
     -3340.738       -2603.173          40.550          36.200    99628724.181 7
  25388127.300       -2494.390          43.800


 113311165.986 8  88294418.22947  21562391.720                    21562388.680
      1858.313        1448.036          49.050          45.800



 118595936.860 7  92412435.19347  22568047.420                    22568045.460
     -2476.962       -1930.102          46.800          44.500    88561965.587 8
  22568049.700       -1849.725          49.650


 133794043.523 6 104255133.18246  25460149.300                    25460150.220
     -3714.045       -2894.069          37.300          36.200    99911175.017 6
  25460150.960       -2773.160          40.600


 107423636.445 8  83706744.32848  20442029.060                    20442027.360
     -1347.264       -1049.816          51.900          51.850    80218974.483 9
  20442028.320       -1006.102          56.000


 132286365.568 6 103080272.82346  25173258.120                    25173257.100
      -549.098        -427.872          41.400          38.900    98785269.900 7
  25173256.980        -410.125          43.500


 132792855.947 7 103474960.10847  25269640.980                    25269641.000
      2993.076        2332.268          42.300          42.600    99163505.826 6
  25269640.700        2235.132          40.750


 23 12  1  0  4 30.0000000  0 13G02G07G08G10G15G16G18G21G23G26G27G30
                                G32
 119843915.121 8  93384858.58047  22805531.460                    22805527.020
      2375.480        1851.024          48.300          43.750



 131012472.824 6 102087607.22346  24930843.660                    24930841.780
     -1630.583       -1270.584          39.600          37.850



 108944443.326 8  84891787.93748  20731432.960                    20731431.880
      1420.945        1107.229          51.050          51.150    81354628.401 9
  20731431.000        1061.118          54.950


 110946418.770 8  86451804.69148  21112377.060                    21112376.280
      -149.466        -116.467          53.600          53.550    82849638.114 9
  21112375.820        -111.629          55.800


 131252705.795 6 102274836.20746  24976556.320                    24976552.780
     -1977.755       -1541.105          39.200          39.350



 123162669.283 7  95970894.58646  23437067.060                    23437063.980
     -3686.082       -2872.271          44.400          41.050



 133515905.208 6 104038456.47046  25407191.600                    25407189.380
     -3340.002       -2602.600          40.200          36.950    99703548.069 7
  25407194.320       -2494.162          43.450


 113255564.741 8  88251092.61147  21551811.060                    21551808.020
      1847.735        1439.794          49.250          45.550



 118670442.645 7  92470491.64047  22582225.480                    22582223.360
     -2490.641       -1940.760          46.950          44.050    88617603.010 8
  22582227.860       -1859.941          49.900


 133905410.313 6 104341912.36246  25481341.960                    25481342.860
     -3711.418       -2892.016          37.250          38.000    99994338.437 6
  25481342.680       -2771.340          38.900


 107464258.841 8  83738398.13548  20449759.240                    20449757.540
     -1361.877       -1061.203          52.000          52.050    80249309.368 9
  20449758.360       -1016.917          56.150


 132303077.970 6 103093295.46646  25176438.280                    25176437.940
      -565.480        -440.635          40.900          38.400    98797749.943 7
  25176437.480        -422.455          43.800


 132703076.285 7 103405001.94847  25252556.440                    25252556.080
      2991.634        2331.144          42.250          42.800    99096462.600 7
  25252556.000        2234.044          42.200


 23 12  1  0  5  0.0000000  0 13G02G07G08G10G15G16G18G21G23G26G27G30
                                G32
 119772755.462 8  93329409.49947  22791990.400                    22791985.500
      2368.273        1845.407          48.350          44.100



 131061565.328 6 102125861.06846  24940185.480                    24940183.240
     -1642.758       -1280.073          40.050          38.150



 108902005.431 8  84858719.44048  20723357.300                    20723356.360
      1407.929        1097.087          51.050          50.950    81322937.767 9
  20723355.720        1051.418          55.250


 110951182.948 8  86455517.04648  21113283.600                    21113282.820
      -168.327        -131.164          53.000          53.000    82853195.787 9
  21113282.400        -125.699          55.650


 131312287.805 6 102321263.70246  24987894.320                    24987890.960
     -1994.740       -1554.346          39.650          38.850



 123273330.697 7  96057124.22946  23458125.280                    23458122.200
     -3691.699       -2876.648          44.450          41.000



 133616104.086 6 104116533.46946  25426258.720                    25426256.680
     -3339.842       -2602.478          39.650          37.550    99778371.863 7
  25426261.200       -2494.122          43.150


 113200282.664 8  88208015.67647  21541291.180                    21541288.060
      1837.482        1431.805          48.900          46.100



 118745364.448 7  92528872.26447  22596482.760                    22596480.500
     -2504.417       -1951.495          47.300          43.950    88673551.099 8
  22596485.140       -1870.079          49.850


 134016708.186 6 104428637.85046  25502521.160                    25502522.540
     -3708.407       -2889.673          36.700          37.450   100077450.300 6
  25502521.800       -2769.537          41.000


 107505316.307 8  83770390.95648  20457572.280                    20457570.520
     -1375.791       -1072.045          52.500          52.400    80279969.164 9
  20457571.380       -1027.389          56.100


 132320290.153 6 103106707.53746  25179713.580                    25179713.740
      -581.985        -453.496          41.250          39.250    98810603.177 7
  25179713.040        -434.606          44.000


 132613353.266 6 103335087.93647  25235482.680                    25235482.220
      2989.672        2329.614          41.800          42.100    99029461.660 7
  25235482.580        2232.667          42.750


 23 12  1  0  5 30.0000000  0 13G02G07G08G10G15G16G18G21G23G26G27G30
                                G32
 119701807.648 8  93274125.50347  22778489.660                    22778484.320
      2361.505        1840.135          48.200          43.950



 131111009.035 6 102164388.58046  24949594.320                    24949591.640
     -1654.032       -1288.858          40.350          37.500



 108859955.580 8  84825953.32948  20715355.460                    20715354.820
      1395.216        1087.182          50.750          50.700    81291536.912 9
  20715354.360        1041.905          55.600


 110956511.838 8  86459669.43448  21114297.460                    21114296.820
      -186.828        -145.581          52.450          52.350    82857175.163 9
  21114296.340        -139.568          55.650


 131372371.611 6 102368082.24346  24999327.960                    24999324.340
     -2010.870       -1566.916          39.650          40.100



 123384158.610 7  96143483.61547  23479215.280                    23479212.140
     -3696.891       -2880.697          44.550          42.200



 133716293.476 6 104194603.07246  25445324.020                    25445322.020
     -3339.512       -2602.220          39.150          37.250    99853188.565 7
  25445326.240       -2493.655          43.200


 113145310.929 8  88165180.57847  21530830.360                    21530827.180
      1827.289        1423.861          49.050          45.900



 118820691.264 7  92587568.48447  22610817.060                    22610814.740
     -2517.478       -1961.672          47.650          43.350    88729801.644 8
  22610819.420       -1879.953          49.850


 134127926.382 6 104515301.17346  25523685.500                    25523687.300
     -3706.180       -2887.941          37.950          37.800   100160502.577 6
  25523686.200       -2767.178          41.700


 107546799.802 8  83802715.75148  20465466.420                    20465464.580
     -1389.808       -1082.968          52.550          52.450    80310947.088 9
  20465465.540       -1037.826          56.150


 132337992.405 6 103120501.49546  25183082.000                    25183082.560
      -597.993        -465.968          40.800          39.300    98823822.379 7
  25183081.880        -446.629          44.550


 132523681.219 7 103265213.67346  25218418.680                    25218417.900
      2988.140        2328.421          42.550          41.700    98962498.844 7
  25218419.000        2231.517          43.850


 23 12  1  0  6  0.0000000  0 13G02G07G08G10G15G16G18G21G23G26G27G30
                                G32
 119631081.731 8  93219014.41547  22765031.020                    22765025.560
      2353.844        1834.165          48.300          43.950



 131160811.802 6 102203195.89045  24959071.440                    24959068.380
     -1665.912       -1298.112          41.300          35.500



 108818304.524 8  84793497.96748  20707429.560                    20707429.000
      1381.681        1076.635          51.600          51.350    81260433.856 9
  20707428.720        1031.868          55.650


 110962414.735 8  86464269.09648  21115420.540                    21115420.040
      -206.253        -160.716          52.250          52.200    82861583.166 9
  21115419.520        -153.972          55.550


 131432965.044 6 102415297.85746  25010858.500                    25010854.720
     -2028.146       -1580.375          39.200          38.950



 123495159.991 7  96229978.17746  23500338.220                    23500335.060
     -3703.035       -2885.483          44.750          39.650



 133816482.283 6 104272672.22146  25464389.100                    25464387.380
     -3339.291       -2602.046          39.450          39.600    99928004.850 7
  25464391.260       -2493.843          43.100


 113090660.215 8  88122595.62947  21520430.720                    21520427.520
      1816.430        1415.401          49.350          46.050



 118896430.595 7  92646586.14747  22625229.820                    22625227.640
     -2531.586       -1972.666          47.100          44.050    88786360.224 8
  22625232.100       -1890.316          49.750


 134239072.565 6 104601908.39046  25544836.260                    25544838.020
     -3703.838       -2886.113          39.050          39.100   100243501.134 6
  25544837.060       -2765.761          40.750


 107588718.755 8  83835379.86848  20473443.420                    20473441.500
     -1404.494       -1094.411          52.400          52.350    80342250.194 9
  20473442.540       -1048.729          55.950


 132356193.591 6 103134684.25346  25186545.560                    25186545.960
      -614.896        -479.135          40.350          36.600    98837414.186 7
  25186546.020        -459.187          44.900


 132434073.009 7 103195389.10647  25201366.820                    25201365.860
      2985.834        2326.625          42.700          42.400    98895583.646 7
  25201367.440        2229.736          43.900


 23 12  1  0  6 30.0000000  0 13G02G07G08G10G15G16G18G21G23G26G27G30
                                G32
 119560566.920 7  93164067.81047  22751612.520                    22751607.080
      2346.632        1828.544          47.900          44.300



 131210959.799 6 102242272.21046  24968614.440                    24968611.080
     -1677.740       -1307.332          40.350          38.400



 108777042.768 8  84761345.95248  20699577.740                    20699577.120
      1368.508        1066.370          51.050          50.850    81229621.520 9
  20699576.900        1021.895          55.450


 110968880.000 8  86469306.96148  21116650.720                    21116650.240
      -225.199        -175.479          52.150          52.250    82866411.130 9
  21116649.700        -168.272          55.450


 131494054.784 6 102462900.26646  25022483.520                    25022479.480
     -2044.994       -1593.500          38.850          38.950



 123606320.933 7  96316597.09546  23521491.500                    23521488.160
     -3708.479       -2889.724          44.400          39.800



 133916658.291 6 104350731.39346  25483451.920                    25483450.220
     -3339.462       -2602.180          38.500          36.750   100002811.558 7
  25483453.960       -2493.670          43.300


 113036319.357 8  88080252.12547  21510090.080                    21510086.860
      1805.824        1407.137          49.600          46.600



 118972568.576 7  92705914.44247  22639718.340                    22639716.360
     -2544.972       -1983.095          47.200          44.800    88843216.518 8
  22639720.620       -1900.462          49.650


 134350133.281 6 104688448.98646  25565970.620                    25565972.500
     -3700.984       -2883.894          37.750          38.200   100326435.865 6
  25565971.840       -2763.497          37.600


 107631061.340 8  83868374.08348  20481500.940                    20481499.100
     -1418.808       -1105.565          51.800          51.850    80373869.659 9
  20481499.980       -1059.575          55.700


 132374881.141 6 103149245.96646  25190101.540                    25190101.660
      -631.296        -491.919          40.550          36.600    98851369.172 7
  25190102.420        -471.543          44.550


 132344520.142 6 103125607.67447  25184325.520                    25184324.440
      2983.591        2324.877          41.650          42.150    98828709.777 7
  25184326.300        2228.095          43.350


 23 12  1  0  7  0.0000000  0 13G02G07G08G10G15G16G18G21G23G26G27G30
                                G32
 119490272.630 8  93109293.07447  22738235.840                    22738230.660
      2339.826        1823.243          48.300          44.500



 131261459.686 6 102281622.74546  24978224.360                    24978220.800
     -1688.706       -1315.873          41.800          38.150



 108736179.728 8  84729504.62848  20691801.660                    20691801.160
      1355.688        1056.381          51.050          50.900    81199106.918 9
  20691800.680        1012.376          55.150


 110975915.796 8  86474789.40348  21117989.620                    21117988.980
      -243.685        -189.885          53.150          52.950    82871665.135 9
  21117988.460        -182.015          55.250


 131555647.893 6 102510894.87646  25034204.260                    25034200.240
     -2061.072       -1606.033          39.600          39.300



 123717648.918 7  96403346.13146  23542676.620                    23542673.280
     -3713.195       -2893.400          44.800          39.950



 134016829.672 6 104428786.94546  25502513.980                    25502512.080
     -3338.373       -2601.332          37.950          38.250   100077614.798 7
  25502516.080       -2493.218          43.150


 112982297.096 8  88038156.88547  21499810.140                    21499806.780
      1795.822        1399.343          50.650          46.000



 119049111.812 7  92765558.51547  22654283.940                    22654282.180
     -2557.840       -1993.124          46.900          44.350    88900375.422 8
  22654286.140       -1910.125          49.400


 134461115.555 6 104774928.50046  25587089.900                    25587092.320
     -3697.774       -2881.388          37.550          37.700   100409312.016 6
  25587091.500       -2761.279          37.950


 107673836.167 8  83901705.09748  20489640.640                    20489638.960
     -1432.732       -1116.416          51.750          51.550    80405811.879 9
  20489639.560       -1069.887          55.400


 132394062.953 6 103164192.83946  25193751.760                    25193751.700
      -647.005        -504.158          40.850          39.000    98865693.245 7
  25193752.640        -483.299          44.800


 132255034.528 6 103055878.66146  25167296.780                    25167295.840
      2982.245        2323.829          40.800          40.750    98761886.146 7
  25167297.920        2226.771          43.200


 23 12  1  0  7 30.0000000  0 13G02G07G08G10G15G16G18G21G23G26G27G30
                                G32
 119420195.466 7  93054687.52947  22724900.440                    22724895.700
      2332.471        1817.512          47.800          45.250



 131312305.262 6 102321242.63846  24987900.120                    24987896.500
     -1700.487       -1325.055          41.650          37.250



 108695714.557 8  84697973.33048  20684101.380                    20684100.840
      1342.516        1046.117          51.150          51.000    81168889.422 9
  20684100.100        1002.471          55.150


 110983517.904 8  86480713.13848  21119436.380                    21119435.460
      -262.577        -204.604          53.400          53.500    82877342.044 9
  21119435.020        -196.085          55.350


 131617738.555 6 102559277.22246  25046019.780                    25046015.720
     -2077.856       -1619.108          39.850          40.700



 123829136.479 7  96490219.55346  23563892.100                    23563888.560
     -3718.773       -2897.745          44.950          39.600



 134116991.725 6 104506835.20446  25521574.040                    25521572.040
     -3338.201       -2601.201          38.600          37.600   100152411.034 7
  25521576.480       -2492.865          43.800


 112928589.769 8  87996307.03547  21489590.160                    21489586.560
      1785.271        1391.119          50.750          45.750



 119126053.999 7  92825513.46747  22668925.540                    22668923.840
     -2571.019       -2003.392          47.300          43.950    88957832.256 8
  22668927.580       -1920.002          49.600


 134572013.299 6 104861342.12646  25608193.420                    25608196.020
     -3694.776       -2879.052          39.500          38.950   100492125.064 6
  25608194.480       -2759.234          39.250


 107717038.938 8  83935369.58048  20497861.700                    20497860.160
     -1447.035       -1127.560          51.850          51.850    80438073.677 9
  20497860.580       -1080.584          55.450


 132413734.106 6 103179521.00446  25197495.180                    25197494.700
      -663.672        -517.148          41.350          36.050    98880382.678 7
  25197495.960        -495.550          44.000


 132165615.318 6 102986201.41246  25150280.660                    25150280.100
      2979.831        2321.948          40.700          40.700    98695112.117 7
  25150282.060        2225.042          44.200


 23 12  1  0  8  0.0000000  0 13G02G07G08G10G15G16G18G21G23G26G27G30
                                G32
 119350337.589 7  93000252.84447  22711606.900                    22711602.380
      2324.699        1811.454          47.950          44.950



 131363496.139 7 102361131.58846  24997641.600                    24997637.880
     -1712.120       -1334.121          42.000          36.900



 108655649.110 8  84666753.50348  20676477.160                    20676476.460
      1328.621        1035.289          51.100          51.150    81138970.420 9
  20676475.760         992.164          55.350


 110991687.590 8  86487079.13748  21120991.180                    21120989.940
      -281.959        -219.708          53.200          53.250    82883442.791 9
  21120989.600        -210.525          55.450


 131680326.327 6 102608046.91645  25057929.800                    25057926.000
     -2094.767       -1632.287          36.600          35.800



 123940783.115 7  96577216.92046  23585137.820                    23585134.020
     -3724.304       -2902.055          44.700          40.900



 134217145.415 6 104584876.98946  25540632.600                    25540630.460
     -3338.511       -2601.438          39.200          37.550   100227201.049 7
  25540635.180       -2493.012          43.250


 112875199.725 8  87954704.41547  21479430.440                    21479426.600
      1774.278        1382.555          50.750          45.300



 119203394.482 7  92885778.77447  22683642.860                    22683641.200
     -2584.730       -2014.075          46.650          43.400    89015586.501 8
  22683644.780       -1930.148          49.600


 134682826.363 6 104947689.75146  25629280.520                    25629283.040
     -3692.450       -2877.245          37.050          37.500   100574874.791 6
  25629281.460       -2757.263          40.000


 107760670.909 8  83969368.50248  20506164.540                    20506163.020
     -1461.652       -1138.950          51.800          51.850    80470655.977 9
  20506163.400       -1091.507          55.550


 132433895.044 6 103195230.83046  25201331.920                    25201330.480
      -680.501        -530.263          41.800          37.750    98895437.938 7
  25201332.060        -508.016          43.500


 132076267.150 6 102916579.47546  25133278.160                    25133278.100
      2977.014        2319.749          40.100          40.200    98628391.095 7
  25133279.460        2222.970          43.900


 23 12  1  0  8 30.0000000  0 14G02G07G08G10G14G15G16G18G21G23G26G27
                                G30G32
 119280691.692 8  92945983.33647  22698353.760                    22698349.340
      2317.893        1806.151          48.600          45.600



 131415022.190 7 102401281.71546  25007446.860                    25007443.140
     -1723.259       -1342.802          42.850          37.650



 108615978.243 8  84635841.13948  20668928.100                    20668927.180
      1315.745        1025.256          51.100          51.250    81109346.071 9
  20668926.680         982.497          55.400


 111000416.684 8  86493881.03548  21122652.380                    21122650.900
      -300.410        -234.085          53.050          53.200    82889961.275 9
  21122650.660        -224.291          55.350


 134768670.718 6 105014523.79646  25645623.380                    25645619.520
      3427.176        2670.523          38.750          37.650   100638945.635 6
  25645625.900        2559.241          41.850


 131743401.640 6 102657196.46646  25069932.660                    25069929.020
     -2110.555       -1644.588          39.300          39.600



 124052578.183 7  96664329.94946  23606411.740                    23606408.040
     -3729.061       -2905.763          43.800          40.950



 134317282.223 6 104662905.61346  25559688.020                    25559685.940
     -3337.701       -2600.808          39.150          38.750   100301978.484 7
  25559690.760       -2492.314          44.100


 112822119.534 8  87913343.23847  21469329.660                    21469325.600
      1764.060        1374.592          49.950          46.300



 119281123.175 7  92946346.58947  22698434.120                    22698432.440
     -2597.532       -2024.052          46.750          43.800    89073630.657 8
  22698435.720       -1939.694          49.600


 134793544.989 6 105033963.72945  25650349.780                    25650352.180
     -3689.124       -2874.653          36.650          35.900   100657553.997 6
  25650350.900       -2754.996          37.550


 107804724.024 8  84003695.60248  20514547.580                    20514546.000
     -1475.527       -1149.763          51.900          51.850    80503552.777 9
  20514546.420       -1101.885          55.350


 132454537.087 6 103211315.56345  25205260.100                    25205258.340
      -696.305        -542.573          41.100          34.500    98910852.444 7
  25205259.420        -519.919          43.650


 131986985.380 6 102847009.30146  25116288.140                    25116288.560
      2974.493        2317.791          40.000          39.000    98561719.643 7
  25116289.400        2221.506          43.950


 23 12  1  0  9  0.0000000  0 14G02G07G08G10G14G15G16G18G21G23G26G27
                                G30G32
 119211270.853 8  92891889.19647  22685143.460                    22685138.900
      2310.146        1800.114          48.550          45.950



 131466893.411 7 102441700.83145  25017317.680                    25017313.920
     -1734.935       -1351.898          43.000          35.250



 108576715.009 8  84605246.41448  20661456.660                    20661455.660
      1301.966        1014.519          51.250          51.250    81080026.122 9
  20661455.300         972.245          55.400


 111009716.765 8  86501127.85948  21124422.140                    21124420.540
      -319.460        -248.931          53.050          53.150    82896906.150 9
  21124420.420        -238.596          55.150


 134665953.230 6 104934484.22446  25626076.560                    25626073.880
      3421.025        2665.735          40.900          39.800   100562241.053 7
  25626079.480        2554.472          44.600


 131806974.389 6 102706733.64946  25082030.060                    25082026.640
     -2127.237       -1657.591          37.050          37.550



 124164532.496 7  96751567.04046  23627715.860                    23627712.140
     -3734.358       -2909.892          44.900          39.850



 134417413.639 6 104740930.06545  25578742.560                    25578740.040
     -3337.554       -2600.692          39.700          35.550   100376751.899 7
  25578745.420       -2492.227          43.750


 112769361.526 8  87872233.11547  21459290.060                    21459286.060
      1753.133        1366.078          49.550          46.900



 119359250.021 7  93007224.64947  22713301.080                    22713299.320
     -2610.878       -2034.450          46.900          43.400    89131972.125 8
  22713302.540       -1949.662          49.400


 134904179.440 6 105120172.12846  25671402.960                    25671405.700
     -3686.338       -2872.479          38.100          37.300   100740170.326 6
  25671404.360       -2752.798          37.350


 107849210.198 8  84038360.14148  20523013.120                    20523011.440
     -1490.116       -1161.130          52.050          51.950    80536772.959 9
  20523011.780       -1112.769          54.950


 132475671.339 6 103227783.75646  25209281.660                    25209280.060
      -712.709        -555.359          39.850          38.150    98926634.488 7
  25209280.680        -532.192          42.600


 131897785.283 6 102777502.74746  25099313.780                    25099314.500
      2971.519        2315.475          38.800          38.550    98495109.220 7
  25099314.820        2219.255          43.500


 23 12  1  0  9 30.0000000  0 14G02G07G08G10G14G15G16G18G21G23G26G27
                                G30G32
 119142066.644 8  92837963.85747  22671974.340                    22671969.660
      2303.154        1794.666          48.350          45.600



 131519098.922 7 102482380.40945  25027252.000                    25027248.500
     -1745.402       -1360.056          42.950          32.900



 108537852.456 8  84574963.90048  20654061.460                    20654060.480
      1288.746        1004.218          51.400          51.300    81051005.394 9
  20654060.260         962.323          55.950


 111019578.869 8  86508812.62048  21126298.780                    21126297.200
      -338.164        -263.504          52.950          53.050    82904270.708 9
  21126297.160        -252.511          55.550


 134563413.554 6 104854583.22945  25606564.180                    25606561.060
      3415.033        2661.064          38.400          35.650   100485669.254 6
  25606566.260        2550.128          40.950


 131871034.162 6 102756650.33046  25094220.320                    25094217.040
     -2143.138       -1669.980          37.250          37.200



 124276634.374 7  96838919.14646  23649048.180                    23649044.360
     -3739.460       -2913.864          44.750          39.400



 134517530.605 6 104818943.22546  25597794.400                    25597791.420
     -3337.052       -2600.303          41.050          38.150   100451514.470 7
  25597797.200       -2492.005          44.100


 112716917.140 8  87831367.36747  21449310.120                    21449306.200
      1742.952        1358.145          49.600          46.300



 119437764.053 7  93068404.42247  22728241.700                    22728239.940
     -2623.572       -2044.342          46.250          43.650    89190602.737 8
  22728242.880       -1959.176          49.650


 135014719.479 6 105206307.07546  25692438.320                    25692441.100
     -3683.084       -2869.938          39.150          39.400   100822716.241 6
  25692439.740       -2750.407          39.600


 107894120.433 8  84073355.12148  20531559.320                    20531557.640
     -1504.100       -1172.026          52.200          52.100    80570309.814 9
  20531557.760       -1123.234          55.250


 132497288.143 6 103244627.99545  25213394.960                    25213393.820
      -728.519        -567.681          40.200          34.350    98942776.908 7
  25213394.180        -544.279          42.600


 131808661.308 6 102708055.49146  25082353.780                    25082354.880
      2969.366        2313.793          38.150          37.700    98428555.608 7
  25082354.800        2217.448          43.350


 23 12  1  0 10  0.0000000  0 14G02G07G08G10G14G15G16G18G21G23G26G27
                                G30G32
 119073084.111 8  92784211.26147  22658847.360                    22658842.460
      2295.795        1788.933          48.350          45.350



 131571640.842 7 102523322.16545  25037250.440                    25037247.200
     -1756.860       -1368.984          43.250          35.250



 108499396.832 8  84544998.47948  20646743.620                    20646742.740
      1275.237         993.691          51.450          51.650    81022288.531 9
  20646742.600         952.286          56.000


 111030006.672 8  86516938.18348  21128282.980                    21128281.560
      -356.767        -278.000          52.950          52.950    82912057.706 9
  21128281.520        -266.484          55.450


 134461058.924 6 104774826.31746  25587086.840                    25587084.060
      3408.805        2656.207          39.000          37.000   100409235.567 7
  25587088.560        2545.646          43.750


 131935583.011 6 102806948.10646  25106503.680                    25106500.080
     -2159.751       -1682.919          38.700          38.150



 124388885.683 7  96926387.67346  23670408.720                    23670405.140
     -3743.885       -2917.312          44.700          39.100



 134617636.608 6 104896947.91746  25616844.080                    25616840.940
     -3336.422       -2599.809          40.700          36.650   100526268.963 7
  25616846.900       -2491.460          44.550


 112664791.394 8  87790749.91547  21439390.840                    21439386.980
      1732.412        1349.932          50.150          46.300



 119516667.186 7  93129887.37747  22743256.340                    22743254.700
     -2636.263       -2054.230          46.500          43.300    89249523.908 8
  22743257.460       -1968.728          49.900


 135125167.213 6 105292369.99746  25713456.000                    25713458.360
     -3680.238       -2867.729          38.800          39.000   100905193.135 6
  25713457.620       -2748.102          39.600


 107939458.614 8  84108683.55648  20540186.880                    20540185.320
     -1518.190       -1183.007          51.850          51.900    80604166.233 9
  20540185.320       -1133.723          55.350


 132519390.620 6 103261850.69046  25217600.780                    25217599.800
      -744.531        -580.156          40.050          36.350    98959281.999 7
  25217600.280        -556.126          42.400


 131719620.862 6 102638673.34846  25065409.760                    25065411.080
      2966.502        2311.559          38.500          38.750    98362064.376 7
  25065410.800        2215.413          43.050


 23 12  1  0 10 30.0000000  0 14G02G07G08G10G14G15G16G18G21G23G26G27
                                G30G32
 119004318.049 8  92730627.34947  22645761.660                    22645756.480
      2288.329        1783.114          48.850          45.300



 131624511.368 7 102564519.98645  25047311.300                    25047308.440
     -1768.166       -1377.791          42.900          31.850



 108461343.509 8  84515346.54148  20639502.260                    20639501.580
      1261.483         982.974          51.200          51.150    80993872.099 9
  20639501.360         941.941          55.700


 111040994.084 8  86525499.80948  21130373.740                    21130372.480
      -375.792        -292.825          52.850          52.800    82920262.596 9
  21130372.360        -280.745          55.300


 134358886.336 6 104695211.45946  25567644.020                    25567641.060
      3402.518        2651.318          38.150          37.200   100332937.988 7
  25567645.900        2540.718          43.900


 132000613.502 6 102857621.22846  25118878.720                    25118875.100
     -2176.134       -1695.689          39.950          39.800



 124501278.188 7  97013966.23946  23691796.300                    23691792.620
     -3749.092       -2921.370          44.500          39.600



 134717725.519 6 104974939.24646  25635890.480                    25635887.240
     -3336.211       -2599.649          41.150          38.550   100601010.611 7
  25635893.280       -2491.487          45.450


 112612978.954 8  87750376.59447  21429531.200                    21429527.380
      1721.611        1341.516          50.100          46.600



 119595951.620 7  93191667.46347  22758343.580                    22758341.940
     -2649.591       -2064.615          46.150          44.100    89308729.814 8
  22758344.640       -1978.535          49.650


 135235515.372 6 105378355.32246  25734454.760                    25734456.780
     -3677.330       -2865.459          36.900          37.300   100987595.648 6
  25734456.480       -2745.764          40.400


 107985218.890 8  84144340.90848  20548894.700                    20548893.260
     -1532.681       -1194.297          51.150          51.100    80638337.864 9
  20548893.420       -1144.557          55.300


 132541972.132 6 103279446.63545  25221898.020                    25221897.500
      -761.049        -593.029          41.300          35.050    98976144.801 7
  25221897.780        -568.316          42.600


 131630661.473 6 102569354.37046  25048481.360                    25048482.900
      2963.592        2309.292          40.700          40.950    98295633.706 7
  25048481.920        2213.007          42.850


 23 12  1  0 11  0.0000000  0 14G02G07G08G10G14G15G16G18G21G23G26G27
                                G30G32
 118935774.031 8  92677216.46147  22632718.140                    22632712.880
      2280.971        1777.381          49.200          44.900



 131677713.231 7 102605975.96145  25057435.140                    25057432.720
     -1778.629       -1385.943          42.800          33.600



 108423699.367 8  84486013.44048  20632338.760                    20632338.260
      1248.025         972.487          51.600          51.800    80965761.210 9
  20632337.840         931.961          55.350


 111052545.850 8  86534501.18748  21132571.940                    21132570.840
      -394.416        -307.337          52.850          52.800    82928888.911 9
  21132570.580        -294.486          55.200


 134256903.586 6 104615744.40045  25548237.340                    25548234.620
      3395.968        2646.210          39.050          35.750   100256782.066 7
  25548239.240        2536.149          43.250


 132066128.513 6 102908671.87446  25131345.720                    25131342.420
     -2191.895       -1707.971          39.950          39.850



 124613815.222 7  97101657.40246  23713211.200                    23713207.880
     -3753.557       -2924.850          44.300          40.800



 134817801.447 6 105052920.43645  25654934.380                    25654931.300
     -3335.562       -2599.143          39.900          35.400   100675742.593 7
  25654937.040       -2490.731          43.000


 112561485.027 8  87710251.47047  21419732.120                    21419728.360
      1711.202        1333.404          50.200          45.800



 119675619.928 7  93253746.65247  22773503.920                    22773502.320
     -2662.119       -2074.379          46.900          43.250    89368222.366 8
  22773504.940       -1987.773          49.800


 135345767.060 6 105464265.32246  25755435.060                    25755437.260
     -3673.437       -2862.431          36.900          37.100   101069926.031 6
  25755437.120       -2743.036          39.850


 108031405.822 8  84180330.71948  20557683.680                    20557682.260
     -1546.610       -1205.150          51.300          51.300    80672828.097 9
  20557682.760       -1154.921          55.250


 132565036.457 6 103297418.82746  25226287.260                    25226286.880
      -777.073        -605.515          40.850          37.200    98993368.148 7
  25226287.240        -580.162          43.100


 131541791.198 6 102500104.81746  25031569.920                    25031571.640
      2960.970        2307.250          38.850          39.500    98229269.548 7
  25031570.060        2211.118          42.950


 23 12  1  0 11 30.0000000  0 14G02G07G08G10G14G15G16G18G21G23G26G27
                                G30G32
 118867449.095 8  92623976.28047  22619716.400                    22619711.040
      2273.663        1771.686          49.100          44.850



 131731240.460 7 102647685.48645  25067621.080                    25067618.920
     -1789.950       -1394.763          42.450          32.950



 108386462.380 8  84456997.61648  20625252.720                    20625252.340
      1234.254         961.757          51.250          51.450    80937954.379 9
  20625251.700         921.641          55.150


 111064657.449 8  86543938.80048  21134876.680                    21134875.740
      -413.203        -321.977          52.700          52.700    82937933.294 9
  21134875.320        -308.639          55.200


 134155109.474 6 104536424.27445  25528866.360                    25528863.700
      3389.424        2641.109          38.650          35.900   100180766.971 7
  25528868.620        2531.303          43.100


 132132122.281 6 102960095.60146  25143903.820                    25143900.600
     -2207.759       -1720.332          38.950          39.550



 124726490.153 7  97189456.04346  23734652.580                    23734649.060
     -3758.290       -2928.538          44.000          38.950



 134917860.200 6 105130888.21746  25673974.880                    25673972.000
     -3334.728       -2598.493          38.600          37.000   100750461.742 7
  25673977.540       -2490.641          42.000


 112510305.956 8  87670371.68847  21409993.000                    21409989.240
      1700.604        1325.146          49.850          46.200



 119755666.021 7  93316120.23147  22788736.140                    22788734.460
     -2674.540       -2084.058          45.800          44.200    89427997.054 8
  22788737.360       -1997.364          49.950


 135455916.655 6 105550095.87946  25776396.280                    25776398.180
     -3670.448       -2860.105          37.850          36.750   101152180.218 6
  25776398.340       -2740.695          39.050


 108078015.288 8  84216649.77548  20566553.120                    20566551.660
     -1560.785       -1216.196          51.600          51.400    80707633.858 9
  20566552.400       -1165.631          55.300


 132588578.656 6 103315763.40846  25230767.240                    25230766.840
      -792.682        -617.675          40.500          38.350    99010948.382 7
  25230767.360        -592.095          43.250


 131453009.378 6 102430924.19146  25014675.400                    25014677.120
      2957.699        2304.703          40.550          40.550    98162971.432 7
  25014675.220        2208.781          43.100


 23 12  1  0 12  0.0000000  0 14G02G07G08G10G14G15G16G18G21G23G26G27
                                G30G32
 118799345.404 8  92570908.50147  22606756.740                    22606751.320
      2266.761        1766.309          49.500          44.500



 131785092.519 7 102689648.10645  25077868.840                    25077867.000
     -1800.021       -1402.611          42.700          32.650



 108349635.399 8  84428301.26148  20618244.740                    20618244.300
      1221.027         951.449          51.350          51.300    80910453.703 9
  20618243.540         911.783          55.050


 111077329.956 8  86553813.49048  21137288.140                    21137287.380
      -431.414        -336.167          52.950          53.000    82947396.536 9
  21137286.820        -322.220          55.350


 134053508.540 6 104457254.79246  25509532.220                    25509529.840
      3383.616        2636.588          40.100          39.650   100104896.164 7
  25509534.620        2526.848          45.100


 132198594.933 6 103011892.53046  25156553.140                    25156550.020
     -2223.403       -1732.518          39.600          40.350



 124839302.012 7  97277361.35346  23756119.860                    23756116.240
     -3762.368       -2931.717          44.200          38.250



 135017903.255 6 105208843.79846  25693012.400                    25693009.840
     -3334.280       -2598.147          38.200          36.900   100825169.142 6
  25693014.940       -2489.780          41.000


 112459444.154 8  87630739.13647  21400314.380                    21400310.620
      1690.436        1317.223          50.200          46.650



 119836089.604 7  93378787.96047  22804040.160                    22804038.380
     -2686.713       -2093.541          46.550          43.750    89488053.624 8
  22804041.520       -2006.394          50.000


 135565964.116 6 105635846.79546  25797337.800                    25797339.720
     -3666.382       -2856.934          37.500          38.000   101234358.146 6
  25797340.000       -2737.763          36.200


 108125048.881 8  84253299.32548  20575503.440                    20575501.980
     -1574.477       -1226.864          52.100          52.150    80742756.342 9
  20575502.720       -1175.822          55.350


 132612599.565 6 103334480.97146  25235338.240                    25235337.580
      -808.527        -630.024          38.950          36.850    99028886.054 7
  25235338.560        -603.560          43.250


 131364321.085 6 102361816.43046  24997798.900                    24997800.260
      2954.957        2302.564          41.800          41.750    98096743.173 7
  24997798.300        2206.667          43.450


 23 12  1  0 12 30.0000000  0 14G02G07G08G10G14G15G16G18G21G23G26G27
                                G30G32
 118731462.803 8  92518012.98847  22593839.080                    22593833.660
      2259.327        1760.516          49.150          44.350



 131839266.309 6 102731861.41046  25088177.720                    25088176.220
     -1811.184       -1411.316          41.500          36.500



 108313220.048 8  84399925.65848  20611315.140                    20611314.560
      1207.265         940.726          50.900          51.050    80883260.413 9
  20611313.720         901.470          55.100


 111090562.225 8  86564124.35248  21139806.100                    21139805.480
      -450.186        -350.793          52.250          52.400    82957277.775 9
  21139804.820        -336.167          55.450


 133952102.546 6 104378237.17146  25490235.300                    25490232.960
      3377.450        2631.780          36.650          36.050   100029171.035 7
  25490237.840        2521.855          44.050


 132265543.273 6 103064059.98446  25169292.920                    25169289.860
     -2238.915       -1744.611          36.600          36.350



 124952248.421 7  97365371.53646  23777612.920                    23777609.300
     -3767.240       -2935.516          43.750          38.700



 135117929.061 6 105286786.04445  25712046.700                    25712044.320
     -3333.697       -2597.677          38.950          33.650   100899863.738 7
  25712049.460       -2489.471          42.100


 112408898.943 8  87591353.26547  21390695.980                    21390692.280
      1679.831        1308.960          50.050          47.200



 119916887.374 7  93441747.25947  22819415.500                    22819413.420
     -2699.316       -2103.363          46.000          43.250    89548389.609 8
  22819417.040       -2015.658          50.450


 135675906.949 6 105721516.20345  25818259.460                    25818261.400
     -3662.979       -2854.278          36.550          35.100   101316457.947 6
  25818261.480       -2734.990          36.350


 108172505.282 8  84290278.33048  20584534.200                    20584532.900
     -1588.752       -1237.988          52.150          52.100    80778194.546 9
  20584533.360       -1186.372          55.400


 132637097.037 6 103353569.95346  25239999.760                    25239999.080
      -824.267        -642.286          37.950          37.250    99047179.629 7
  25240000.200        -615.559          44.300


 131275728.481 7 102292783.24347  24980940.640                    24980941.680
      2951.753        2300.068          42.350          43.050    98030586.364 7
  24980939.820        2204.302          43.400


 23 12  1  0 13  0.0000000  0 14G02G07G08G10G14G15G16G18G21G23G26G27
                                G30G32
 118663800.984 8  92465289.51447  22580963.340                    22580958.080
      2251.418        1754.353          49.100          44.500



 131893758.704 6 102774322.99445  25098547.340                    25098546.240
     -1822.069       -1419.794          41.300          33.900



 108277215.979 8  84371870.54248  20604463.800                    20604463.180
      1193.120         929.704          51.400          51.450    80856374.262 9
  20604462.340         890.917          55.200


 111104352.626 8  86574870.11948  21142430.280                    21142429.720
      -469.135        -365.560          52.650          52.750    82967575.802 9
  21142429.060        -350.404          55.550


 133850893.684 6 104299373.11945  25470975.800                    25470973.640
      3369.872        2625.873          40.200          35.200    99953592.922 7
  25470978.300        2516.783          43.100


 132332964.038 6 103116595.53246  25182122.680                    25182119.580
     -2255.190       -1757.294          37.550          38.700



 125065325.223 7  97453483.30846  23799130.800                    23799127.240
     -3771.479       -2938.817          44.050          38.300



 135217935.944 6 105364713.38645  25731077.500                    25731075.240
     -3332.540       -2596.785          36.700          34.250   100974544.182 6
  25731080.160       -2489.355          40.350


 112358669.939 8  87552213.79647  21381137.720                    21381134.060
      1668.859        1300.410          49.950          47.050



 119998056.024 7  93504995.55647  22834861.360                    22834859.040
     -2711.801       -2113.092          45.950          44.150    89609002.560 8
  22834863.080       -2025.183          50.200


 135785742.710 6 105807102.15046  25839160.840                    25839162.680
     -3659.108       -2851.261          36.250          36.200   101398477.823 5
  25839162.460       -2732.935          34.300


 108220383.117 8  84327585.71948  20593645.080                    20593643.980
     -1603.000       -1249.092          52.300          52.250    80813947.467 9
  20593644.120       -1197.186          55.350


 132662068.955 6 103373028.59345  25244751.540                    25244750.900
      -840.277        -654.759          40.000          35.200    99065827.456 7
  25244752.100        -627.595          43.700


 131187233.776 7 102223826.34847  24964101.020                    24964101.660
      2948.101        2297.219          43.800          43.950    97964502.685 7
  24964100.020        2201.318          43.800


 23 12  1  0 13 30.0000000  0 14G02G07G08G10G14G15G16G18G21G23G26G27
                                G30G32
 118596363.506 8  92412740.83147  22568130.280                    22568125.220
      2244.238        1748.758          48.850          45.200



 131948570.771 6 102817033.64745  25108977.760                    25108976.740
     -1832.619       -1428.016          40.800          33.500



 108241628.395 8  84344139.95748  20597691.740                    20597690.940
      1179.398         919.012          51.600          51.750    80829799.118 9
  20597690.380         880.724          55.400


 111118703.820 8  86586052.87048  21145161.200                    21145160.640
      -487.602        -379.949          52.550          52.550    82978292.603 9
  21145160.080        -364.078          55.800


 133749887.614 6 104220667.11946  25451754.920                    25451752.900
      3363.269        2620.729          38.100          37.750    99878166.369 7
  25451757.420        2511.808          44.050


 132400858.681 6 103169500.47746  25195042.600                    25195039.540
     -2270.522       -1769.237          40.400          40.150



 125178533.793 7  97541697.76746  23820673.740                    23820670.240
     -3775.816       -2942.196          44.300          38.900



 135317926.899 6 105442628.41845  25750105.140                    25750103.220
     -3332.954       -2597.105          36.650          34.500   101049212.684 6
  25750108.040       -2488.734          40.300


 112308760.164 8  87513323.07447  21371640.200                    21371636.520
      1658.476        1292.318          50.000          47.100



 120079596.560 7  93568533.64247  22850378.020                    22850375.520
     -2723.971       -2122.574          45.300          44.200    89669893.224 8
  22850379.760       -2034.237          50.350


 135895472.756 5 105892605.72245  25860042.300                    25860043.260
     -3656.235       -2849.030          35.550          34.900   101480418.530 6
  25860043.580       -2729.988          37.150


 108268685.333 8  84365223.78648  20602836.660                    20602835.820
     -1617.117       -1260.092          51.850          51.950    80850017.273 9
  20602835.640       -1207.514          55.450


 132687517.405 6 103392858.52946  25249594.100                    25249593.680
      -856.085        -667.077          39.450          37.200    99084831.157 7
  25249594.600        -639.223          44.700


 131098843.386 7 102154950.73147  24947281.140                    24947281.320
      2944.737        2294.603          42.400          42.450    97898496.886 7
  24947280.160        2199.019          44.600


 23 12  1  0 14  0.0000000  0 14G02G07G08G10G14G15G16G18G21G23G26G27
                                G30G32
 118529147.863 8  92360365.02447  22555339.420                    22555334.660
      2236.994        1743.113          48.900          45.350



 132003696.816 6 102859988.88545  25119468.040                    25119466.860
     -1842.594       -1435.797          39.750          32.800



 108206455.831 8  84316732.75448  20590998.660                    20590997.700
      1165.691         908.330          51.200          51.200    80803533.890 9
  20590997.360         870.457          55.150


 111133612.001 8  86597669.63948  21147998.200                    21147997.540
      -506.057        -394.329          52.700          52.800    82989425.339 9
  21147997.160        -377.915          55.700


 133649084.286 6 104142119.10546  25432572.660                    25432570.580
      3356.616        2615.542          38.700          36.600    99802891.182 7
  25432574.980        2506.869          43.800


 132469222.118 6 103222770.70246  25208051.820                    25208048.600
     -2286.468       -1781.660          40.750          40.350



 125291868.822 7  97630010.76746  23842240.720                    23842237.300
     -3779.871       -2945.355          44.050          39.150



 135417898.071 6 105520266.98146  25769129.100                    25769127.100
     -3331.675       -2596.107          38.250          36.750   101123866.395 6
  25769131.920       -2488.124          39.200


 112259166.952 8  87474679.02747  21362202.920                    21362199.120
      1648.029        1284.180          49.950          46.200



 120161503.560 7  93632357.28347  22865964.400                    22865961.860
     -2736.084       -2132.013          45.200          43.900    89731057.537 8
  22865966.280       -2043.226          50.000


 136005092.082 5 105978022.94845  25880902.600                    25880902.580
     -3651.655       -2845.464          35.900          35.600   101562276.680 6
  25880904.020       -2727.178          36.800


 108317408.432 8  84403189.82148  20612108.320                    20612107.480
     -1630.962       -1270.881          51.600          51.450    80886401.390 9
  20612107.240       -1217.955          55.200


 132713438.086 6 103413056.46246  25254526.420                    25254526.040
      -871.748        -679.284          38.850          38.000    99104187.460 7
  25254527.220        -651.013          44.150


 131010557.382 7 102086156.45747  24930480.940                    24930480.800
      2941.261        2291.893          42.750          42.450    97832569.065 7
  24930480.220        2196.481          44.200


 23 12  1  0 14 30.0000000  0 14G02G07G08G10G14G15G16G18G21G23G26G27
                                G30G32
 118462152.927 8  92308161.20247  22542590.540                    22542586.100
      2229.574        1737.332          48.600          45.550



 132059132.999 6 102903185.90146  25130017.240                    25130015.860
     -1852.326       -1443.375          38.500          36.600



 108171697.310 8  84289648.19648  20584384.280                    20584383.400
      1151.788         897.497          51.150          51.100    80777577.852 9
  20584383.160         860.102          55.100


 111149074.756 8  86609718.54548  21150940.760                    21150940.040
      -524.610        -408.787          53.200          53.150    83000972.202 9
  21150939.800        -391.715          55.700


 133548484.520 6 104063729.68746  25413429.260                    25413426.760
      3350.187        2610.529          38.150          37.500    99727768.035 7
  25413431.300        2501.610          43.200


 132538050.373 6 103276403.06646  25221149.480                    25221146.300
     -2302.027       -1793.786          39.750          38.950



 125405325.354 7  97718418.43546  23863830.820                    23863827.460
     -3783.709       -2948.345          44.350          39.000



 135517847.287 5 105598149.41645  25788148.760                    25788146.880
     -3331.117       -2595.678          35.850          32.900   101198503.741 6
  25788151.520       -2487.594          39.350


 112209889.320 8  87436280.88547  21352825.800                    21352821.700
      1637.477        1275.956          50.400          46.100



 120243772.846 7  93696463.21847  22881619.720                    22881617.320
     -2748.097       -2141.374          45.350          43.850    89792492.401 8
  22881621.520       -2052.261          49.650


 136114597.764 6 106063351.64046  25901741.080                    25901741.200
     -3647.985       -2842.603          37.700          37.150   101644049.885 6
  25901742.820       -2724.394          37.550


 108366550.110 8  84441482.02848  20621459.660                    20621458.620
     -1644.872       -1281.719          51.700          51.750    80923098.087 9
  20621458.660       -1228.364          55.200


 132739827.786 6 103433619.82645  25259548.320                    25259548.100
      -887.527        -691.588          39.100          34.700    99123894.068 7
  25259549.240        -662.577          43.800


 130922376.983 7 102017444.48247  24913700.600                    24913700.320
      2937.657        2289.084          43.000          42.650    97766720.126 7
  24913700.200        2193.567          43.650


 23 12  1  0 15  0.0000000  0 14G02G07G08G10G14G15G16G18G21G23G26G27
                                G30G32
 118395385.029 8  92256134.29947  22529884.940                    22529880.800
      2222.331        1731.689          48.050          46.800



 132114882.861 6 102946627.28044  25140626.040                    25140624.740
     -1863.242       -1451.878          38.600          27.600



 108137360.756 8  84262892.44048  20577850.180                    20577849.440
      1137.922         886.692          50.650          50.750    80751936.926 9
  20577849.260         849.735          55.100


 111165097.659 8  86622203.93248  21153989.960                    21153989.160
      -542.880        -423.023          53.100          53.200    83012937.363 9
  21153988.980        -405.445          55.800


 133448097.049 6 103985505.72246  25394326.160                    25394323.740
      3343.375        2605.229          37.950          36.600    99652803.396 7
  25394328.100        2496.491          44.700


 132607347.094 6 103330400.56446  25234336.220                    25234332.860
     -2317.360       -1805.735          38.750          38.900



 125518907.488 7  97806923.98046  23885444.780                    23885441.680
     -3787.474       -2951.279          43.650          38.850



 135617780.266 5                  25807165.440
     -3329.207                          31.100                   101273129.035 5
  25807168.040       -2486.937          34.650


 112160933.031 8  87398133.14047  21343509.780                    21343505.500
      1626.926        1267.734          50.600          46.050



 120326407.977 7  93760854.21847  22897344.720                    22897342.480
     -2760.173       -2150.785          45.600          43.850    89854200.443 8
  22897346.520       -2061.168          49.850


 136223993.579 6 106148594.64146  25922558.800                    25922559.000
     -3643.868       -2839.398          36.750          36.350   101725741.020 6
  25922560.840       -2721.356          39.550


 108416115.870 8  84480104.68248  20630891.720                    20630890.440
     -1658.790       -1292.563          51.800          51.900    80960111.461 9
  20630890.840       -1238.681          55.400


 132766691.236 6 103454552.39946  25264660.360                    25264660.100
      -902.865        -703.530          39.400          36.750    99143954.448 7
  25264661.500        -674.278          44.000


 130834311.290 7 101948821.85347  24896942.240                    24896941.780
      2934.225        2286.407          42.300          42.250    97700956.781 7
  24896941.720        2191.111          43.300


 23 12  1  0 15 30.0000000  0 14G02G07G08G10G14G15G16G18G21G23G26G27
                                G30G32
 118328834.408 8  92204276.69247  22517220.740                    22517216.680
      2215.313        1726.217          48.800          46.500



 132170933.661 6 102990303.20245  25151291.900                    25151290.820
     -1872.416       -1459.020          37.950          32.600



 108103437.264 8  84236458.55448  20571394.700                    20571394.060
      1124.499         876.233          51.350          51.400    80726604.448 9
  20571393.700         839.761          54.800


 111181669.303 8  86635116.90748  21157143.520                    21157142.760
      -560.904        -437.068          53.450          53.250    83025312.293 9
  21157142.500        -418.823          55.750


 133347914.431 6 103907441.34246  25375261.980                    25375259.420
      3336.662        2599.994          38.850          38.250    99577991.694 7
  25375263.740        2491.557          42.850


 132677100.038 6 103384753.37146  25247609.920                    25247606.680
     -2331.691       -1816.904          37.200          37.300



 125632601.715 7  97895516.86946  23907079.900                    23907077.020
     -3791.080       -2954.088          42.750          39.400




                                                                 101347734.192 5
  25826179.700       -2486.288          33.350


 112112287.969 8  87360227.90747  21334253.060                    21334248.500
      1616.879        1259.906          51.200          46.000



 120409396.382 7  93825520.50847  22913136.920                    22913134.900
     -2771.466       -2159.584          45.700          44.050    89916172.300 8
  22913138.740       -2069.640          49.350


 136333268.032 6 106233743.06246  25943353.140                    25943353.760
     -3639.824       -2836.244          37.800          38.550   101807341.425 6
  25943355.580       -2717.892          39.600


 108466095.044 8  84519049.49248  20640402.500                    20640401.100
     -1672.379       -1303.152          52.000          52.100    80997433.569 9
  20640401.780       -1248.744          55.450


 132794016.879 6 103475845.10546  25269860.580                    25269859.880
      -917.720        -715.105          39.900          38.000    99164359.961 7
  25269861.760        -685.399          43.600


 130746353.190 6 101880283.11046  24880204.160                    24880203.660
      2930.795        2283.737          41.750          41.350    97635273.831 7
  24880203.660        2188.557          42.950


 23 12  1  0 16  0.0000000  0 13G02G07G08G10G14G15G16G21G23G26G27G30
                                G32
 118262502.807 8  92152589.76047  22504598.340                    22504594.260
      2207.082        1719.806          48.650          46.950



 132227284.239 6 103034212.69845  25162014.960                    25162013.260
     -1883.383       -1467.567          38.000          31.950



 108069929.760 8  84210348.81048  20565018.420                    20565017.700
      1109.637         864.652          51.150          50.950    80701582.603 9
  20565017.120         828.644          54.950


 111198790.017 8  86648457.72948  21160401.500                    21160400.900
      -580.133        -452.052          53.200          53.200    83038097.250 9
  21160400.360        -433.223          55.800


 133247940.418 6 103829539.57845  25356237.540                    25356235.280
      3328.422        2593.569          37.000          35.150    99503335.802 7
  25356239.220        2485.682          43.950


 132747307.848 6 103439460.70246  25260969.960                    25260966.560
     -2348.002       -1829.613          38.850          39.750



 125746408.186 7  97984197.19846  23928736.520                    23928733.920
     -3795.792       -2957.762          42.900          39.600



 112063955.466 8  87322566.22947  21325055.780                    21325050.880
      1605.595        1251.112          51.150          45.950



 120492736.715 7  93890461.02947  22928996.100                    22928994.280
     -2784.069       -2169.405          44.600          44.500    89978406.980 8
  22928997.800       -2079.073          49.400


 136442419.920 5 106318795.99745  25964124.340                    25964125.280
     -3636.224       -2833.430          34.250          34.150   101888850.386 5
  25964127.100       -2715.562          34.250


 108516488.178 8  84558316.86748  20649992.020                    20649990.620
     -1686.977       -1314.527          51.150          51.250    81035064.800 9
  20649991.520       -1259.759          55.850


 132821804.450 6 103497497.80646  25275148.640                    25275147.640
      -934.460        -728.149          41.000          38.200    99185110.408 7
  25275149.740        -697.620          43.150


 130658506.788 7 101811831.40747  24863487.240                    24863486.780
      2925.986        2279.991          42.750          42.850    97569674.268 7
  24863486.860        2185.067          43.200


 23 12  1  0 16 30.0000000  0 12G02G07G08G10G14G15G16G21G23G27G30G32
 118196405.420 8  92101085.33247  22492020.480                    22492016.300
      2200.062        1714.334          49.050          46.650



 132283947.011 6 103078365.44446  25172797.520                    25172796.100
     -1893.417       -1475.392          37.550          36.900



 108036854.319 8  84184575.73848  20558724.380                    20558723.420
      1095.900         853.948          51.250          51.300    80676883.410 9
  20558722.860         818.353          55.000


 111216473.878 8  86662237.36048  21163766.620                    21163766.180
      -598.287        -466.198          53.550          53.400    83051302.729 9
  21163765.240        -446.737          55.400


 133148192.401 6 103751813.88746  25337256.040                    25337253.740
      3321.933        2588.520          38.700          38.300    99428848.658 7
  25337257.400        2480.661          43.700


 132817983.280 7 103494532.47147  25274418.920                    25274415.800
     -2362.997       -1841.296          43.650          43.900



 125860338.483 7  98072974.01846  23950416.560                    23950414.320
     -3799.432       -2960.598          43.150          37.850



 112015950.717 8  87285159.94947  21315920.860                    21315915.780
      1595.266        1243.064          51.550          45.950



 120576441.300 7  93955685.37147  22944924.520                    22944922.840
     -2795.730       -2178.493          45.450          44.100    90040913.643 8
  22944926.340       -2087.666          49.050


 108567309.471 8  84597917.86548  20659662.980                    20659661.480
     -1700.510       -1325.073          51.650          51.600    81073015.755 9
  20659662.720       -1269.878          55.850


 132850067.224 6 103519520.72446  25280527.040                    25280525.820
      -949.562        -739.917          40.050          37.100    99206215.713 7
  25280527.820        -708.898          42.300


 130570789.962 7 101743480.62747  24846795.140                    24846794.720
      2922.314        2277.128          42.800          42.600    97504171.460 7
  24846794.920        2182.184          42.650


 23 12  1  0 17  0.0000000  0 12G02G07G08G10G14G15G16G21G23G27G30G32
 118130530.831 8  92049754.50447  22479484.900                    22479480.720
      2192.151        1708.171          48.450          46.500



 132340907.833 6 103122750.48645  25183636.740                    25183635.180
     -1904.388       -1483.939          36.950          33.400



 108004200.533 8  84159131.23948  20552510.560                    20552509.400
      1081.361         842.619          51.150          51.150    80652499.099 9
  20552509.080         807.526          55.200


 111234708.352 8  86676446.03748  21167236.500                    21167236.180
      -617.037        -480.808          53.350          53.300    83064919.384 9
  21167234.760        -460.794          55.200


 133048661.530 6 103674257.33545  25318315.840                    25318313.220
      3313.771        2582.161          37.950          35.050    99354523.722 7
  25318317.560        2474.717          43.600


 132889112.006 6 103549957.45446  25287954.280                    25287951.080
     -2378.512       -1853.388          38.350          38.300



 125974378.084 7  98161836.04246  23972117.540                    23972115.440
     -3803.251       -2963.573          42.550          39.900



 111968262.237 8  87248000.10347  21306846.100                    21306840.920
      1584.300        1234.520          51.250          46.350



 120660496.058 7  94021182.57747  22960919.600                    22960917.880
     -2807.724       -2187.838          44.150          44.100    90103681.802 8
  22960921.380       -2096.618          48.600


 108618546.755 8  84637843.00748  20669413.120                    20669411.460
     -1714.944       -1336.320          51.300          51.300    81111277.338 9
  20669412.920       -1280.597          55.850


 132878792.128 6 103541903.74945  25285993.240                    25285992.100
      -965.103        -752.025          39.350          35.950    99227666.138 7
  25285993.480        -720.865          42.300


 130483194.086 6 101675224.13146  24830126.100                    24830125.800
      2917.585        2273.443          41.350          41.100    97438758.980 7
  24830126.040        2178.730          42.450


 23 12  1  0 17 30.0000000  0 12G02G07G08G10G14G15G16G21G23G27G30G32
 118064878.838 8  91998597.13047  22466991.580                    22466987.420
      2184.374        1702.110          48.650          45.900



 132398160.359 6 103167390.10345  25194532.420                    25194530.160
     -1913.754       -1491.243          37.700          35.200



 107971968.733 8  84134015.54348  20546377.160                    20546375.820
      1066.905         831.354          51.750          51.800    80628429.900 9
  20546375.580         796.711          55.300


 111253491.736 8  86691082.43948  21170810.840                    21170810.520
      -635.582        -495.259          53.700          53.750    83078945.942 9
  21170808.700        -474.662          55.000


 132949349.736 6 103596871.59246  25299417.280                    25299414.800
      3306.172        2576.238          39.150          37.400    99280362.323 7
  25299419.220        2469.041          44.050


 132960691.128 6 103605733.34446  25301575.380                    25301572.160
     -2394.062       -1865.507          38.700          38.550



 126088524.309 7  98250781.14146  23993838.740                    23993836.960
     -3807.043       -2966.527          42.400          40.750



 111920889.257 8  87211086.09247  21297831.360                    21297826.260
      1573.488        1226.095          51.600          46.150



 120744897.789 7  94086950.15047  22976980.500                    22976978.880
     -2819.607       -2197.098          44.250          43.250    90166709.067 8
  22976982.520       -2105.567          48.650


 108670198.682 8  84678091.24448  20679242.140                    20679240.400
     -1729.102       -1347.352          51.750          51.700    81149848.565 9
  20679241.880       -1291.164          55.750


 132907976.966 6 103564645.14545  25291546.860                    25291545.780
      -980.502        -764.028          40.150          33.700    99249459.971 7
  25291546.700        -732.378          42.300


 130395721.358 7 101607063.61847  24813480.220                    24813480.400
      2913.402        2270.186          42.200          42.050    97373438.492 7
  24813480.660        2175.511          43.050


 23 12  1  0 18  0.0000000  0 12G02G07G08G10G14G15G16G21G23G27G30G32
 117999454.826 8  91947617.41047  22454541.680                    22454537.560
      2177.344        1696.632          48.700          45.400



 132455713.200 6 103212236.44646  25205484.400                    25205481.700
     -1923.093       -1498.512          37.200          37.050



 107940165.660 8  84109233.92648  20540325.300                    20540323.920
      1053.300         820.753          51.400          51.400    80604680.846 9
  20540323.620         786.494          55.400


 111272828.285 8  86706149.87648  21174490.480                    21174490.040
      -653.435        -509.170          53.600          53.700    83093385.579 9
  21174487.920        -488.046          54.800


 132850264.813 6 103519662.52146  25280561.880                    25280558.980
      3299.150        2570.763          37.600          37.900    99206370.350 7
  25280563.860        2463.849          42.600


 133032723.843 5 103661862.72545  25315282.780                    25315279.400
     -2408.371       -1876.659          33.250          31.850



 126202779.406 7  98339811.03746  24015580.760                    24015579.040
     -3810.045       -2968.869          42.000          39.550



 111873836.817 8  87174421.86447  21288877.520                    21288872.700
      1563.468        1218.287          51.300          46.650



 120829649.015 7  94152990.07647  22993107.960                    22993106.380
     -2830.147       -2205.308          43.500          43.250    90229997.344 8
  22993110.240       -2113.753          48.200


 108722269.725 8  84718666.07248  20689151.000                    20689149.180
     -1742.349       -1357.675          51.850          51.800    81188732.779 9
  20689150.520       -1301.155          55.800


 132937625.258 6 103587747.67346  25297188.820                    25297187.620
      -995.900        -776.027          40.000          38.650    99271599.906 7
  25297188.200        -743.445          43.000


 130308380.049 7 101539005.44247  24796859.760                    24796859.880
      2909.649        2267.259          42.450          42.500    97308216.084 7
  24796860.560        2172.533          43.150


 23 12  1  0 18 30.0000000  0 12G02G07G08G10G14G15G16G21G23G27G30G32
 117934252.779 8  91896810.63647  22442134.100                    22442129.960
      2169.585        1690.587          49.000          45.200



 132513554.183 6 103257307.32745  25216491.320                    25216488.380
     -1932.976       -1506.212          38.000          33.600



 107908785.873 8  84084782.14148  20534353.920                    20534352.640
      1038.849         809.492          51.350          51.200    80581247.888 9
  20534352.260         775.749          55.350


 111292710.444 8  86721642.47248  21178273.940                    21178273.300
      -671.814        -523.491          53.700          53.650    83108232.651 9
  21178271.080        -501.752          54.600


 132751402.651 6 103442627.15846  25261748.940                    25261746.120
      3291.567        2564.862          37.900          38.350    99132544.751 7
  25261751.160        2457.977          44.800


 133105185.738 5 103718310.20645  25329074.840                    25329070.880
     -2423.892       -1888.748          32.250          31.900



 126317133.429 7  98428918.04946  24037341.680                    24037339.780
     -3813.457       -2971.526          42.400          39.150



 111827098.471 8  87138002.39447  21279983.420                    21279978.860
      1552.675        1209.877          51.650          46.350



 120914740.683 7  94219295.25147  23009300.280                    23009298.460
     -2842.117       -2214.638          44.200          42.850    90293539.799 7
  23009302.580       -2122.312          47.750


 108774752.516 8  84759561.73948  20699138.180                    20699136.400
     -1756.367       -1368.599          51.800          51.800    81227924.462 9
  20699137.600       -1311.606          55.700


 132967728.826 6 103611204.96246  25302917.480                    25302916.580
     -1011.346        -788.063          40.400          36.550    99294079.812 7
  25302916.780        -754.962          43.750


 130221166.288 6 101471046.70246  24780263.180                    24780263.860
      2904.855        2263.526          40.950          40.500    97243088.952 7
  24780264.480        2169.170          42.900


 23 12  1  0 19  0.0000000  0 11G02G07G08G10G14G16G21G23G27G30G32
 117869275.545 8  91846179.04247  22429769.460                    22429764.980
      2162.266        1684.884          49.400          44.750



 132571683.577 6 103302602.89046  25227553.060                    25227549.540
     -1942.408       -1513.567          37.250          37.150



 107877833.373 8  84060663.31048  20528463.800                    20528462.820
      1024.709         798.475          51.000          50.900    80558134.014 9
  20528462.240         765.230          55.350


 111313140.111 8  86737561.70548  21182161.640                    21182160.720
      -690.054        -537.704          53.550          53.700    83123488.578 9
  21182158.580        -515.244          54.700


 132652768.701 6 103365769.56645  25242979.400                    25242976.300
      3283.957        2558.937          36.300          34.500    99058889.590 7
  25242981.940        2452.396          44.000


 126431587.691 7  98518103.19746  24059121.640                    24059119.620
     -3816.582       -2973.959          42.400          38.800



 111780676.912 8  87101829.76547  21271149.680                    21271145.320
      1542.108        1201.643          51.650          46.400



 121000172.914 7  94285865.81747  23025557.480                    23025555.440
     -2853.452       -2223.470          43.800          43.400    90357336.581 8
  23025559.880       -2130.670          48.000


 108827649.183 8  84800779.90848  20709204.080                    20709202.400
     -1770.114       -1379.311          51.950          51.900    81267425.198 9
  20709203.520       -1321.772          55.850


 132998288.744 6 103635017.84245  25308732.800                    25308732.280
     -1026.009        -799.488          39.550          35.750    99316900.512 7
  25308732.340        -766.216          43.550


 130134085.931 6 101403191.88846  24763692.220                    24763693.180
      2900.552        2260.171          41.000          41.000    97178061.428 7
  24763693.880        2165.951          43.350


 23 12  1  0 19 30.0000000  0 11G02G07G08G10G14G16G21G23G27G30G32
 117804523.255 8  91795722.70647  22417447.680                    22417442.780
      2154.559        1678.877          49.550          44.950



 132630098.549 6 103348120.97845  25238669.160                    25238665.620
     -1951.756       -1520.857          36.550          34.800



 107847309.171 8  84036878.22148  20522655.120                    20522654.560
      1010.274         787.227          51.100          51.050    80535339.967 9
  20522653.560         754.300          54.950


 111334115.651 8  86753906.28848  21186153.220                    21186152.100
      -708.361        -551.970          53.400          53.400    83139152.144 9
  21186150.120        -529.036          54.500


 132554365.322 6 103289091.60446  25224253.760                    25224250.740
      3276.057        2552.773          37.350          37.550    98985406.582 7
  25224256.420        2446.327          42.250


 126546139.406 7  98607364.23146  24080920.100                    24080918.420
     -3820.264       -2976.828          42.550          40.150



 111734571.832 8  87065903.73247  21262376.160                    21262371.900
      1531.439        1193.330          51.300          46.550



 121085942.857 7  94352699.53447  23041878.900                    23041876.640
     -2864.548       -2232.117          43.400          42.650    90421385.587 7
  23041881.420       -2139.229          47.350


 108880958.711 8  84842319.78248  20719348.600                    20719347.060
     -1783.979       -1390.114          52.100          52.100    81307234.258 9
  20719348.020       -1332.214          55.700


 133029303.233 6 103659184.97845  25314634.600                    25314634.200
     -1041.416        -811.496          39.250          35.100    99340060.686 7
  25314634.480        -777.793          43.200


 130047141.584 6 101335443.02746  24747147.520                    24747148.440
      2895.830        2256.490          41.250          41.050    97113135.453 7
  24747149.260        2162.317          43.600


 23 12  1  0 20  0.0000000  0 11G02G07G08G10G14G16G21G23G27G30G32
 117739999.725 8  91745444.63147  22405169.380                    22405164.160
      2146.676        1672.735          49.700          44.400



 132688799.920 6 103393862.20845  25249839.960                    25249835.860
     -1961.712       -1528.606          38.150          35.250



 107817218.102 8  84013430.63148  20516929.000                    20516928.500
       995.659         775.839          51.350          51.550    80512869.360 9
  20516927.160         743.515          55.050


 111355639.299 8  86770677.96648  21190249.040                    21190247.860
      -726.685        -566.248          53.200          53.200    83155225.000 9
  21190246.080        -542.671          54.550


 132456198.419 6 103212597.94645  25205573.080                    25205570.200
      3268.250        2546.688          36.350          34.450    98912100.140 7
  25205575.920        2440.499          43.900


 126660788.793 7  98696701.38346  24102737.220                    24102735.300
     -3823.265       -2979.168          42.750          39.900



 111688786.810 8  87030227.09047  21253663.480                    21253659.380
      1520.758        1185.006          50.650          47.200



 121172051.390 7  94419797.10347  23058264.860                    23058262.440
     -2875.945       -2240.996          43.650          42.750    90485687.427 7
  23058267.460       -2147.730          47.650


 108934683.743 8  84884183.43748  20729572.160                    20729570.680
     -1797.979       -1401.022          51.750          51.600    81347353.582 9
  20729571.600       -1342.603          55.600


 133060773.885 6 103683707.55646  25320623.100                    25320622.700
     -1056.637        -823.354          39.400          36.350    99363561.477 7
  25320623.560        -789.054          43.800


 129960339.510 6 101267805.07946  24730629.500                    24730630.540
      2890.611        2252.427          40.000          39.950    97048315.732 7
  24730631.560        2158.767          43.600


 23 12  1  0 20 30.0000000  0 11G02G07G08G10G14G16G21G23G27G30G32
 117675699.505 8  91695340.56947  22392933.500                    22392928.220
      2139.355        1667.031          49.450          45.100



 132747779.558 6 103439820.34545  25261063.560                    25261059.400
     -1971.108       -1535.931          39.500          34.750



 107787555.939 8  83990317.25548  20511284.560                    20511283.900
       981.354         764.692          51.750          51.650    80490719.047 9
  20511282.540         732.830          55.100


 111377704.491 8  86787871.62448  21194447.880                    21194446.740
      -744.786        -580.353          53.200          53.300    83171702.250 9
  21194445.160        -556.111          54.650


 132358265.186 6 103136286.34746  25186937.080                    25186934.540
      3259.373        2539.774          36.350          36.250    98838968.204 7
  25186940.100        2434.743          44.650


 126775527.671 7  98786108.31546  24124571.540                    24124569.020
     -3826.569       -2981.742          42.750          39.700



 111643316.370 8  86994795.59147  21245010.540                    21245006.740
      1510.246        1176.815          50.550          47.250



 121258490.457 7  94487152.21447  23074713.580                    23074711.160
     -2887.229       -2249.788          43.900          42.550    90550236.057 7
  23074716.560       -2155.864          47.700


 108988818.073 8  84926366.01548  20739873.500                    20739872.100
     -1811.640       -1411.668          51.400          51.400    81387778.551 9
  20739872.920       -1352.797          55.500


 133092693.662 6 103708580.15945  25326697.240                    25326696.280
     -1072.035        -835.347          38.650          34.900    99387397.607 7
  25326698.120        -800.178          44.800


 129873677.335 7 101200276.11447  24714138.600                    24714139.420
      2885.915        2248.765          42.650          42.650    96983600.458 7
  24714140.340        2155.209          43.650


 23 12  1  0 21  0.0000000  0 11G02G07G08G10G14G16G21G23G27G30G32
 117611630.428 8  91645416.63047  22380741.560                    22380736.520
      2131.376        1660.813          49.100          45.050



 132807042.004 6 103485998.82745  25272340.880                    25272336.900
     -1980.555       -1543.293          40.050          33.250



 107758330.721 8  83967544.35448  20505723.280                    20505722.460
       966.720         753.288          51.900          51.850    80468895.029 9
  20505721.200         721.774          55.250


 111400317.731 8  86805492.33348  21198750.980                    21198749.900
      -763.166        -594.675          53.250          53.150    83188588.768 9
  21198748.540        -569.918          54.600


 132260575.385 6 103060164.48746  25168347.320                    25168344.840
      3252.153        2534.150          37.800          37.550    98766018.109 7
  25168350.440        2428.451          43.650


 126890361.368 7  98875589.08746  24146423.700                    24146421.220
     -3829.804       -2984.263          42.400          39.750



 111598167.741 8  86959614.85347  21236418.880                    21236415.440
      1499.233        1168.234          50.350          47.700



 121345264.732 7  94554768.52246  23091226.200                    23091223.660
     -2898.152       -2258.301          44.300          41.600    90615035.043 7
  23091229.360       -2164.395          47.650


 109043368.231 8  84968872.63248  20750253.940                    20750252.640
     -1825.435       -1422.416          51.350          51.400    81428514.068 9
  20750253.320       -1363.242          55.450


 133125068.007 6 103733806.89445  25332857.900                    25332856.740
     -1086.994        -847.008          39.650          35.800    99411573.258 7
  25332858.920        -811.803          44.600


 129787165.142 6 101132864.02046  24697675.980                    24697676.740
      2880.973        2244.914          41.150          41.200    96918997.217 7
  24697677.620        2151.278          43.850


 23 12  1  0 21 30.0000000  0 11G02G07G08G10G14G16G21G23G27G30G32
 117547784.653 8  91595666.70047  22368592.040                    22368587.260
      2124.354        1655.342          49.100          45.800



 132866576.540 6 103532389.36246  25283669.960                    25283666.240
     -1989.348       -1550.141          39.500          36.300



 107729535.998 8  83945106.89848  20500243.960                    20500243.020
       952.465         742.181          51.900          51.850    80447392.455 9
  20500241.960         711.229          55.650


 111423469.886 8  86823532.97348  21203156.640                    21203155.640
      -780.840        -608.446          53.300          53.400    83205877.715 9
  21203154.340        -583.164          54.700


 132163123.824 6 102984228.22246  25149803.100                    25149800.620
      3244.056        2527.837          38.300          37.550    98693245.819 7
  25149806.060        2422.510          43.350


 127005278.568 7  98965134.90246  24168291.720                    24168289.300
     -3832.322       -2986.225          43.250          38.000



 111553332.827 8  86924678.56647  21227886.960                    21227883.840
      1489.045        1160.295          50.500          47.700



 121432363.589 7  94622637.75546  23107800.620                    23107797.920
     -2908.983       -2266.741          44.750          40.950    90680076.385 8
  23107803.880       -2172.214          48.300


 109098325.426 8  85011696.40848  20760711.860                    20760710.600
     -1838.869       -1432.885          51.300          51.400    81469553.511 9
  20760711.260       -1373.235          55.750


 133157887.243 6 103759380.28246  25339103.200                    25339102.240
     -1101.639        -858.420          39.300          37.050    99436081.090 7
  25339103.980        -822.683          43.050


 129700797.843 7 101065564.86147  24681240.900                    24681241.540
      2876.154        2241.161          42.200          42.050    96854502.185 7
  24681242.420        2147.849          43.950


 23 12  1  0 22  0.0000000  0 11G02G07G08G10G14G16G21G23G27G30G32
 117484171.716 8  91546098.19847  22356486.880                    22356482.300
      2117.203        1649.770          49.000          46.750



 132926390.203 6 103578997.34546  25295052.100                    25295048.760
     -1997.461       -1556.470          40.150          37.600



 107701182.649 8  83923013.37548  20494848.540                    20494847.580
       938.402         731.223          51.450          51.400    80426219.499 9
  20494846.880         700.750          55.850


 111447169.058 8  86841999.86248  21207666.400                    21207665.500
      -798.391        -622.122          53.350          53.450    83223575.152 9
  21207664.120        -596.233          54.500


 132065922.353 6 102908486.82645  25131306.440                    25131303.920
      3236.858        2522.224          38.500          34.650    98620660.346 7
  25131309.260        2416.906          43.550


 127120286.554 7  99054751.51846  24190177.140                    24190174.260
     -3834.337       -2987.794          42.850          37.800



 111508821.213 8  86889994.19847  21219416.680                    21219413.640
      1478.939        1152.421          50.650          47.650



 121519793.950 7  94690765.31746  23124438.200                    23124435.300
     -2919.033       -2274.571          44.800          41.900    90745365.299 8
  23124441.560       -2179.926          48.250


 109153698.352 8  85054844.13348  20771248.960                    20771247.640
     -1851.971       -1443.095          51.200          51.350    81510903.415 9
  20771248.340       -1382.997          55.600


 133191159.185 6 103785306.43446  25345434.760                    25345433.760
     -1115.922        -869.550          40.150          37.000    99460927.010 7
  25345434.920        -833.317          43.050


 129614587.941 7 100998388.32847  24664835.920                    24664836.200
      2871.413        2237.466          42.850          42.400    96790124.661 7
  24664837.080        2144.498          43.150


 23 12  1  0 22 30.0000000  0 11G02G07G08G10G14G16G21G23G27G30G32
 117420782.265 8  91496703.84247  22344424.320                    22344419.680
      2109.313        1643.623          49.750          46.350



 132986470.414 6 103625813.02446  25306485.160                    25306481.860
     -2007.178       -1564.039          40.800          38.600



 107673261.605 8  83901256.72348  20489535.380                    20489534.500
       923.504         719.613          52.000          51.950    80405369.374 9
  20489534.020         689.632          56.150


 111471404.181 8  86860884.38348  21212278.160                    21212277.320
      -816.766        -636.440          53.650          53.650    83241672.813 9
  21212275.720        -609.899          54.400


 131968963.953 6 102832934.87546  25112855.940                    25112853.540
      3227.835        2515.197          39.700          37.800    98548256.380 7
  25112858.780        2410.362          43.700


 127235373.150 6  99144429.36146  24212077.320                    24212074.440
     -3837.763       -2990.466          41.250          38.800



 111464622.978 8  86855554.02747  21211006.080                    21211003.040
      1468.053        1143.938          51.050          47.500



 121607543.444 7  94759141.54246  23141136.500                    23141133.160
     -2930.219       -2283.287          45.400          40.100    90810892.519 8
  23141139.760       -2188.171          48.450


 109209476.400 8  85098307.54248  20781863.180                    20781861.800
     -1865.953       -1453.989          51.750          51.750    81552555.847 9
  20781862.500       -1393.445          55.750


 133224872.221 6 103811576.32046  25351850.480                    25351849.240
     -1131.298        -881.533          40.650          37.750    99486102.308 7
  25351850.060        -844.582          43.700


 129528528.456 7 100931328.99547  24648459.300                    24648459.460
      2866.062        2233.294          43.000          42.350    96725859.465 7
  24648460.140        2140.369          44.150


 23 12  1  0 23  0.0000000  0 11G02G07G08G10G14G16G21G23G27G30G32
 117357622.009 8  91447488.08547  22332405.380                    22332400.640
      2101.422        1637.474          49.750          46.150



 133046819.851 6 103672838.49046  25317969.380                    25317966.260
     -2016.601       -1571.377          40.600          38.600



 107645778.839 8  83879841.57748  20484305.600                    20484304.860
       908.664         708.050          51.900          51.800    80384846.530 9
  20484304.420         678.480          56.100


 111496179.182 8  86880189.58348  21216992.640                    21216991.800
      -835.074        -650.707          53.200          53.150    83260173.622 9
  21216990.000        -623.524          54.100


 131872256.316 6 102757578.26346  25094453.060                    25094450.920
      3219.202        2508.469          39.200          37.900    98476039.671 7
  25094455.860        2404.006          43.700


 127350540.775 7  99234170.32746  24233993.080                    24233990.100
     -3840.537       -2992.625          42.700          38.550



 111420743.321 8  86821362.09147  21202656.060                    21202652.880
      1457.169        1135.457          50.850          47.400



 121695614.596 7  94827768.42646  23157896.140                    23157892.220
     -2941.156       -2291.810          45.150          39.800    90876659.941 8
  23157899.120       -2196.349          48.800


 109265663.935 8  85142090.03648  20792555.340                    20792553.920
     -1879.790       -1464.771          51.500          51.350    81594514.062 9
  20792554.620       -1403.793          55.700


 133259029.652 6 103838192.49446  25358350.580                    25358349.460
     -1146.182        -893.127          39.900          37.000    99511609.518 7
  25358349.760        -855.966          42.850


 129442627.541 7 100864393.24847  24632112.960                    24632112.800
      2860.503        2228.964          43.200          42.900    96661712.733 7
  24632113.740        2136.050          44.050


 23 12  1  0 23 30.0000000  0 11G02G07G08G10G14G16G21G23G27G30G32
 117294689.988 8  91398450.17347  22320429.820                    22320424.940
      2093.823        1631.552          49.650          46.300



 133107434.472 6 103720070.58746  25329504.040                    25329501.060
     -2025.338       -1578.187          40.550          38.650



 107618735.486 8  83858768.83248  20479159.460                    20479158.760
       893.957         696.589          51.850          51.900    80364651.822 9
  20479158.280         667.527          56.000


 111521491.836 8  86899913.73848  21221809.440                    21221808.560
      -852.896        -664.594          52.800          52.950    83279075.940 8
  21221806.560        -636.937          53.950


 131775800.959 6 102682418.27346  25076098.340                    25076096.160
      3210.438        2501.644          40.000          37.150    98404011.313 7
  25076100.960        2397.657          43.400


 127465785.960 6  99323971.75746  24255923.600                    24255920.280
     -3843.229       -2994.726          41.400          38.550



 111377181.124 8  86787417.52247  21194366.460                    21194363.060
      1446.634        1127.246          50.650          47.700



 121784003.762 7  94896643.11346  23174716.180                    23174711.960
     -2951.929       -2300.204          45.250          40.000    90942664.830 8
  23174718.920       -2204.233          48.650


 109322259.093 8  85186190.14948  20803325.060                    20803323.560
     -1893.464       -1475.427          51.250          51.400    81636776.665 9
  20803324.280       -1413.981          55.600


 133293628.624 6 103865152.70946  25364934.600                    25364933.740
     -1160.691        -904.434          38.300          36.600    99537446.372 7
  25364933.820        -866.873          43.500


 129356887.060 7 100797582.50247  24615797.160                    24615796.780
      2854.981        2224.662          42.750          42.850    96597685.747 7
  24615797.460        2131.987          43.100


 23 12  1  0 24  0.0000000  0 11G02G07G08G10G14G16G21G23G27G30G32
 117231988.166 8  91349591.62947  22308497.960                    22308493.060
      2086.106        1625.538          49.600          46.100



 133168313.859 6 103767509.03946  25341089.080                    25341085.920
     -2033.512       -1584.557          41.100          36.550



 107592133.485 8  83838040.00248  20474097.340                    20474096.520
       879.352         685.209          52.350          52.400    80344786.699 9
  20474095.920         656.581          55.750


 111547343.261 8  86920057.70948  21226728.740                    21226727.900
      -870.672        -678.445          52.450          52.450    83298380.579 8
  21226725.720        -650.252          53.750


 131679602.351 6 102607458.35846  25057792.500                    25057790.320
      3202.110        2495.149          40.600          36.250    98332174.729 7
  25057794.900        2391.280          43.400


 127581107.033 6  99413832.32346  24277868.280                    24277864.580
     -3845.297       -2996.332          41.850          39.500



 111333938.220 8  86753721.76347  21186137.660                    21186133.880
      1436.035        1118.988          50.700          47.300



 121872710.080 7  94965764.92846  23191596.460                    23191592.020
     -2962.087       -2308.120          45.250          39.900    91008906.588 8
  23191598.920       -2212.027          48.550


 109379262.799 8  85230608.61248  20814172.540                    20814171.020
     -1907.051       -1486.014          51.850          51.800    81679344.359 9
  20814171.660       -1424.109          55.600


 133328669.169 6 103892456.98546  25371602.480                    25371601.680
     -1175.575        -916.035          38.600          36.150    99563612.957 7
  25371601.920        -877.806          44.600


 129271311.661 7 100730900.42047  24599512.600                    24599512.140
      2849.475        2220.373          42.450          42.750    96533782.075 7
  24599512.900        2128.021          43.950


 23 12  1  0 24 30.0000000  0 11G02G07G08G10G14G16G21G23G27G30G32
 117169515.017 8  91300911.28647  22296609.580                    22296604.740
      2078.229        1619.400          49.350          46.250



 133229452.988 6 103815149.83545  25352723.400                    25352720.800
     -2042.464       -1591.534          41.600          35.800



 107565973.117 8  83817655.29448  20469119.260                    20469118.220
       864.239         673.433          52.250          52.250    80325251.357 9
  20469117.580         645.397          55.750


 111573729.598 8  86940618.49148  21231749.860                    21231749.060
      -888.877        -692.632          52.650          52.600    83318084.658 8
  21231746.800        -663.728          53.850


 131583661.179 6 102532699.01546  25039535.640                    25039532.940
      3193.622        2488.534          40.600          37.400    98260530.380 7
  25039537.680        2384.702          43.050


 127696500.355 7  99503749.17946  24299827.080                    24299823.160
     -3848.100       -2998.520          42.600          38.150



 111291012.641 8  86720273.26447  21177969.180                    21177965.160
      1425.204        1110.550          50.800          47.100



 121961729.206 7  95035130.50546  23208536.120                    23208531.920
     -2972.747       -2316.426          44.300          39.200    91075381.906 8
  23208538.440       -2219.973          48.900


 109436672.406 8  85275343.35948  20825097.320                    20825095.720
     -1920.724       -1496.668          52.000          51.800    81722215.158 9
  20825096.360       -1434.306          55.800


 133364147.585 6 103920102.48546  25378353.500                    25378353.040
     -1190.708        -927.825          37.750          37.800    99590106.558 7
  25378353.360        -888.774          43.600


 129185902.482 6 100664347.78646  24583259.760                    24583258.840
      2843.720        2215.884          40.750          40.900    96470002.524 7
  24583259.900        2123.637          43.700


 23 12  1  0 25  0.0000000  0 11G02G07G08G10G14G16G21G23G27G30G32
 117107270.480 8  91252409.07247  22284764.720                    22284760.000
      2070.808        1613.617          49.150          46.200



 133290849.246 6 103862991.03346  25364406.640                    25364404.140
     -2051.061       -1598.226          40.500          37.500



 107540254.794 8  83797615.04348  20464225.220                    20464224.160
       849.670         662.081          52.200          52.250    80306046.122 9
  20464223.440         634.496          55.800


 111600649.644 8  86961595.14948  21236872.620                    21236871.840
      -906.380        -706.271          52.800          52.750    83338187.294 8
  21236869.480        -676.877          53.950


 131487979.692 6 102458142.00946  25021328.020                    25021325.420
      3184.755        2481.623          41.050          38.550    98189079.945 7
  25021330.060        2378.243          44.200


 127811963.295 6  99593720.28145  24321799.020                    24321795.100
     -3850.443       -3000.345          41.750          35.250



 111248404.060 8  86687071.79047  21169861.040                    21169857.020
      1414.882        1102.506          50.600          47.500



 122051058.172 7  95104737.49046  23225534.720                    23225530.720
     -2983.056       -2324.461          44.300          39.700    91142088.597 8
  23225536.940       -2227.531          49.150


 109494486.748 8  85320393.47948  20836099.140                    20836097.380
     -1934.139       -1507.121          52.150          52.400    81765388.182 9
  20836098.200       -1444.326          56.050


 133400061.700 6 103948087.51246  25385187.740                    25385187.080
     -1204.228        -938.360          39.000          38.650    99616925.542 7
  25385187.300        -899.450          43.600


 129100662.059 6 100597926.73946  24567038.880                    24567038.200
      2838.512        2211.829          41.100          41.250    96406349.013 7
  24567038.640        2119.521          43.000


 23 12  1  0 25 30.0000000  0 11G02G07G08G10G14G16G21G23G27G30G32
 117045255.714 8  91204085.89547  22272963.660                    22272959.020
      2063.320        1607.783          49.250          46.100



 133352500.447 6 103911030.84646  25376138.340                    25376136.160
     -2059.070       -1604.470          40.350          36.500



 107514979.621 8  83777920.10948  20459415.400                    20459414.560
       835.146         650.764          51.600          51.450    80287171.811 9
  20459413.660         623.541          55.550


 111628102.462 8  86982986.96148  21242096.800                    21242095.960
      -923.950        -719.961          53.000          53.000    83358687.783 8
  21242093.720        -690.040          53.750


 131392561.184 6 102383789.96746  25003170.680                    25003167.860
      3176.398        2475.121          40.200          38.600    98117825.895 7
  25003172.340        2371.828          43.400


 127927493.061 7  99683743.46146  24343783.540                    24343779.680
     -3852.165       -3001.687          42.800          36.800



 111206112.735 8  86654117.51747  21161813.280                    21161809.320
      1404.403        1094.341          50.700          47.500



 122140695.099 7  95174584.44746  23242591.900                    23242588.360
     -2993.083       -2332.273          44.250          39.700    91209025.254 8
  23242593.980       -2235.108          48.850


 109552705.639 8  85365758.83848  20847177.940                    20847176.080
     -1947.323       -1517.395          52.250          52.300    81808863.312 9
  20847177.140       -1454.256          55.700


 133436410.342 6 103976411.11745  25392104.540                    25392104.200
     -1218.796        -949.714          39.650          34.650    99644068.989 7
  25392104.140        -910.228          44.000


 129015594.134 6 100531640.05246  24550850.980                    24550850.160
      2832.902        2207.455          41.050          41.250    96342824.285 7
  24550850.500        2115.119          43.000


 23 12  1  0 26  0.0000000  0 11G02G07G08G10G14G16G21G23G27G30G32
 116983472.278 8  91155942.96747  22261206.680                    22261202.020
      2055.685        1601.833          49.150          46.700



 133414405.388 6 103959268.37646  25387918.280                    25387916.360
     -2067.622       -1611.139          41.600          39.000



 107490151.731 8  83758573.70048  20454690.640                    20454690.140
       820.272         639.174          51.250          51.350    80268631.495 9
  20454689.080         612.586          55.450


 111656088.618 8  87004794.36048  21247422.480                    21247421.520
      -941.574        -733.694          53.000          52.950    83379586.542 8
  21247419.520        -703.172          53.750


 131297409.864 6 102309646.08646  24985064.020                    24985061.260
      3167.215        2467.957          40.650          38.200    98046771.335 7
  24985065.520        2365.121          43.200


 128043089.190 6  99773818.37546  24365780.860                    24365777.140
     -3854.129       -3003.217          41.950          38.800



 111164140.672 8  86621412.02248  21153826.280                    21153822.420
      1393.876        1086.138          50.500          48.000



 122230638.867 7  95244670.49646  23259707.540                    23259704.300
     -3003.044       -2340.034          43.600          40.650    91276191.051 8
  23259709.600       -2242.574          49.100


 109611329.769 8  85411439.96848  20858333.760                    20858331.860
     -1960.704       -1527.821          51.800          51.750    81852641.055 9
  20858333.020       -1464.210          55.550


 133473193.210 6 104005073.09646  25399104.080                    25399103.740
     -1233.067        -960.834          38.450          36.850    99671536.717 7
  25399103.660        -920.935          43.100


 128930703.053 7 100465491.17047  24534696.720                    24534695.960
      2826.794        2202.696          42.600          43.300    96279431.611 7
  24534696.020        2110.975          43.050


 23 12  1  0 26 30.0000000  0 11G02G07G08G10G14G16G21G23G27G30G32
 116921914.942 8  91107976.24347  22249492.680                    22249488.100
      2047.914        1595.777          49.100          46.200



 133476555.886 6 104007697.28446  25399745.140                    25399743.300
     -2076.025       -1617.685          40.850          37.800



 107465765.400 8  83739571.36748  20450049.960                    20450049.680
       805.286         627.496          51.650          51.450    80250420.921 9
  20450048.480         601.391          55.550


 111684601.277 8  87027012.02448  21252848.240                    21252847.240
      -959.354        -747.548          52.600          52.400    83400878.464 8
  21252845.560        -716.378          53.800


 131202522.700 6 102235708.03846  24967007.660                    24967004.880
      3158.265        2460.988          40.500          37.900    97975914.068 7
  24967008.840        2358.499          42.600


 128158743.588 6  99863938.65446  24387789.080                    24387785.600
     -3856.121       -3004.770          41.600          39.000



 111122482.072 8  86588950.78347  21145898.860                    21145895.120
      1383.234        1077.845          50.650          47.550



 122320881.366 7  95314989.31646  23276880.180                    23276877.020
     -3013.371       -2348.082          43.500          41.250    91343579.900 8
  23276882.080       -2250.087          49.150


 109670352.674 8  85457431.83948  20869565.400                    20869563.560
     -1974.228       -1538.359          51.350          51.100    81896716.588 9
  20869564.660       -1474.243          55.350


 133510402.702 6 104034067.53046  25406185.000                    25406184.520
     -1248.022        -972.482          38.250          36.650    99699323.008 6
  25406184.320        -931.556          41.600


 128845986.196 7 100399478.05547  24518575.780                    24518575.160
      2820.876        2198.087          43.150          43.100    96216169.036 7
  24518574.580        2106.393          42.200


 23 12  1  0 27  0.0000000  0 11G02G07G08G10G14G16G21G23G27G30G32
 116860592.170 8  91060192.27747  22237823.260                    22237818.720
      2040.348        1589.882          49.000          46.700



 133538957.637 6 104056321.98046  25411619.820                    25411617.960
     -2084.349       -1624.170          41.850          37.100



 107441830.135 8  83720920.51148  20445495.240                    20445494.880
       790.502         615.976          51.950          51.850    80232547.186 9
  20445493.700         590.363          55.450


 111713647.371 8  87049645.34048  21258375.480                    21258374.460
      -976.957        -761.265          52.700          52.450    83422568.718 8
  21258373.040        -729.442          53.650


 131107910.718 6 102161984.43246  24949003.580                    24949000.840
      3149.340        2454.031          41.600          38.200    97905262.271 7
  24949004.480        2351.822          43.850


 128274461.878 6  99954108.72546  24409809.540                    24409806.020
     -3858.244       -3006.424          41.600          38.050



 111081144.933 8  86556740.04647  21138032.620                    21138028.900
      1372.710        1069.646          51.350          47.200



 122411428.336 7  95385545.41146  23294110.760                    23294107.660
     -3023.237       -2355.769          43.150          40.950    91411196.146 8
  23294112.500       -2257.442          49.000


 109729781.894 8  85503740.31548  20880874.340                    20880872.640
     -1987.676       -1548.839          51.400          51.250    81941095.545 9
  20880873.600       -1484.187          55.150


 133548045.375 6 104063399.46146  25413348.120                    25413347.600
     -1261.692        -983.140          38.500          36.600    99727432.832 7
  25413347.620        -942.196          42.900


 128761454.883 7 100333609.51847  24502490.020                    24502489.420
      2814.853        2193.392          44.750          44.350    96153044.994 7
  24502488.360        2102.031          43.150


 23 12  1  0 27 30.0000000  0 11G02G07G08G10G14G16G21G23G27G30G32
 116799494.367 8  91012583.61347  22226196.660                    22226192.120
      2032.730        1583.946          49.150          46.050



 133601598.081 6 104105132.64445  25423540.080                    25423538.120
     -2092.007       -1630.136          41.550          34.550



 107418337.861 8  83702614.83548  20441024.840                    20441024.260
       775.583         604.351          51.650          51.650    80215004.253 9
  20441023.260         579.203          55.600


 111743215.443 8  87072685.39248  21264002.040                    21264001.100
      -994.306        -774.784          52.650          52.600    83444648.777 8
  21263999.740        -742.547          53.650


 131013566.425 6 102088469.41946  24931050.460                    24931047.820
      3140.233        2446.935          40.750          38.250    97834810.400 7
  24931051.260        2344.939          43.150


 128390231.234 6 100044318.60946  24431839.840                    24431836.280
     -3859.754       -3007.600          41.550          36.000



 111040119.599 8  86524772.26847  21130225.760                    21130222.000
      1362.253        1061.496          51.550          46.750



 122502267.142 7  95456328.89246  23311396.900                    23311393.680
     -3032.889       -2363.289          44.350          40.300    91479030.315 8
  23311398.580       -2264.797          49.250


 109789606.442 8  85550356.83048  20892258.500                    20892256.880
     -2000.819       -1559.081          51.300          51.250    81985769.709 9
  20892257.880       -1494.120          55.100


 133586109.218 6 104093059.62746  25420591.360                    25420590.680
     -1275.909        -994.214          38.900          36.300    99755857.160 7
  25420591.140        -952.716          42.500


 128677101.913 7 100267879.93347  24486438.340                    24486437.700
      2808.963        2188.804          44.950          44.700    96090054.184 7
  24486436.560        2097.428          43.700


 23 12  1  0 28  0.0000000  0 11G02G07G08G10G14G16G21G23G27G30G32
 116738634.190 8  90965160.12047  22214615.300                    22214610.640
      2024.855        1577.810          49.750          45.800



 133664486.385 6 104154136.46446  25435507.420                    25435505.240
     -2100.161       -1636.490          41.000          37.600



 107395301.068 8  83684664.08948  20436641.100                    20436640.440
       760.495         592.593          51.850          51.900    80197801.451 9
  20436639.600         567.915          55.700


 111773316.160 8  87096140.49448  21269729.980                    21269729.180
     -1011.934        -788.520          52.850          52.950    83467126.584 8
  21269727.680        -755.714          53.600


 130919504.669 6 102015174.54646  24913150.940                    24913148.580
      3130.939        2439.693          40.800          36.350    97764569.478 7
  24913151.760        2337.959          43.050


 128506061.517 6 100134575.93246  24453881.560                    24453878.340
     -3861.885       -3009.264          41.750          37.150



 110999417.965 8  86493056.72347  21122480.560                    21122476.660
      1351.456        1053.083          51.050          47.200



 122593407.408 7  95527347.27546  23328740.480                    23328737.140
     -3042.899       -2371.090          44.200          40.700    91547089.607 8
  23328742.100       -2272.176          49.150


 109849837.672 8  85597290.24248  20903720.080                    20903718.520
     -2014.270       -1569.561          51.800          51.650    82030747.560 9
  20903719.640       -1504.111          55.050


 133624604.552 6 104123055.96046  25427916.780                    25427915.820
     -1290.180       -1005.338          38.800          38.200    99784603.642 7
  25427916.720        -963.272          43.400


 128592942.514 7 100202301.19947  24470423.320                    24470422.920
      2802.133        2183.479          44.850          45.100    96027207.878 7
  24470421.620        2092.547          43.350


 23 12  1  0 28 30.0000000  0 11G02G07G08G10G14G16G21G23G27G30G32
 116678004.058 8  90917915.87147  22203077.800                    22203072.940
      2017.205        1571.848          49.750          46.250



 133727612.263 6 104203325.36946  25447519.920                    25447518.060
     -2107.922       -1642.535          40.250          36.900



 107372713.572 8  83667063.44548  20432342.840                    20432342.200
       745.419         580.846          52.150          52.200    80180934.169 9
  20432341.540         556.649          55.900


 111803940.773 8  87120003.83148  21275557.680                    21275556.920
     -1029.344        -802.086          53.150          53.200    83489995.616 8
  21275555.240        -768.812          53.650


 130825720.422 6 101942095.94846  24895304.320                    24895301.960
      3121.394        2432.253          41.250          37.950    97694535.814 7
  24895305.220        2330.995          44.150


 128621942.790 6 100224873.00546  24475932.940                    24475929.900
     -3863.450       -3010.481          41.400          39.650



 110959031.927 8  86461587.08947  21114795.380                    21114791.380
      1340.963        1044.906          50.850          47.300



 122684838.871 7  95598592.58046  23346139.500                    23346135.920
     -3052.514       -2378.580          44.400          41.750    91615366.345 8
  23346141.000       -2279.489          49.200


 109910467.000 8  85644533.86048  20915257.460                    20915255.940
     -2027.661       -1579.996          51.700          51.600    82076022.695 9
  20915257.080       -1514.086          55.200


 133663521.695 6 104153380.99046  25435322.280                    25435321.420
     -1304.133       -1016.210          38.750          36.600    99813665.157 7
  25435322.660        -973.962          44.250


 128508971.824 7 100136869.50947  24454444.260                    24454443.840
      2795.871        2178.601          45.300          45.200    95964502.515 7
  24454442.500        2087.737          44.300


 23 12  1  0 29  0.0000000  0 11G02G07G08G10G14G16G21G23G27G30G32
 116617604.641 8  90870851.41047  22191584.160                    22191579.300
      2010.219        1566.404          49.150          46.600



 133790973.405 6 104252697.62146  25459577.320                    25459575.420
     -2115.260       -1648.256          41.600          38.350



 107350576.848 8  83649814.05448  20428130.360                    20428129.700
       731.080         569.674          51.750          51.700    80164403.502 9
  20428129.160         545.890          56.000


 111835088.088 8  87144274.46048  21281484.940                    21281484.140
     -1046.296        -815.296          52.900          52.900    83513254.975 8
  21281482.240        -781.311          53.700


 130732216.774 6 101869235.95146  24877510.960                    24877508.740
      3112.877        2425.617          41.250          38.450    97624711.681 7
  24877512.020        2324.452          43.650


 128737872.916 6 100315208.13846  24497993.780                    24497990.820
     -3864.352       -3011.185          41.850          38.350



 110918962.431 8  86430364.11147  21107170.300                    21107166.380
      1331.051        1037.183          50.000          47.750



 122776559.404 7  95670063.11847  23363593.460                    23363589.800
     -3061.561       -2385.631          44.100          42.650    91683858.953 8
  23363594.960       -2286.201          49.250


 109971493.995 8  85692087.34848  20926870.540                    20926869.040
     -2039.952       -1589.573          50.950          50.950    82121594.790 9
  20926870.060       -1523.519          55.250


 133702859.217 6 104184033.57846  25442807.820                    25442807.080
     -1317.545       -1026.662          38.600          38.500    99843040.532 7
  25442808.320        -983.889          44.750


 128425193.374 7 100071587.62047  24438501.680                    24438501.420
      2790.067        2174.079          43.650          43.400    95901940.728 7
  24438500.300        2083.467          44.850


 23 12  1  0 29 30.0000000  0 11G02G07G08G10G14G16G21G23G27G30G32
 116557439.666 8  90823969.63447  22180135.120                    22180130.440
      2000.980        1559.207          49.450          46.750



 133854570.806 6 104302253.95546  25471679.460                    25471677.480
     -2124.534       -1655.486          39.000          37.100



 107328895.463 8  83632919.46848  20424004.560                    20424003.860
       714.629         556.854          51.950          52.100    80148212.857 9
  20424003.340         533.644          56.000


 111866760.347 8  87168954.14848  21287512.100                    21287511.220
     -1065.043        -829.904          53.400          53.200    83536906.334 8
  21287509.160        -795.225          53.550


 130638999.707 6 101796599.29046  24859772.220                    24859769.880
      3102.043        2417.174          41.200          36.850    97555101.534 7
  24859773.260        2316.480          43.600


 128853852.458 6 100405581.82346  24520063.940                    24520060.940
     -3867.247       -3013.439          41.550          38.000



 110879212.234 8  86399389.94247  21099606.000                    21099602.240
      1319.195        1027.945          50.700          47.550



 122868569.899 7  95741759.60046  23381102.540                    23381098.800
     -3072.304       -2394.003          45.000          41.350    91752568.079 8
  23381104.200       -2294.207          49.050


 110032921.164 8  85739952.66448  20938559.720                    20938558.420
     -2054.602       -1600.988          51.200          50.850    82167465.708 9
  20938559.180       -1534.354          55.100


 133742618.550 6 104215014.87046  25450373.720                    25450372.960
     -1332.829       -1038.568          38.050          36.800    99872730.915 7
  25450373.960        -995.323          44.050


 128341613.433 7 100006460.43047  24422596.800                    24422596.900
      2782.118        2167.885          44.500          44.300    95839527.161 7
  24422595.520        2077.584          44.000


 23 12  1  0 30  0.0000000  0 11G02G07G08G10G14G16G21G23G27G30G32
 116497505.232 8  90777267.48747  22168729.980                    22168725.480
      1994.120        1553.860          49.200          46.600



 133918397.500 6 104351988.92646  25483825.540                    25483823.240
     -2131.032       -1660.550          40.500          36.950



 107307666.431 8  83616377.36148  20419964.820                    20419964.120
       700.278         545.672          52.000          52.150    80132360.003 9
  20419963.520         522.926          55.850


 111898952.253 8  87194038.75448  21293638.100                    21293637.140
     -1081.554        -842.769          53.150          53.050    83560945.754 8
  21293634.980        -807.601          53.550


 130546067.703 6 101724184.77846  24842087.640                    24842085.340
      3092.956        2410.096          40.950          37.550    97485704.277 7
  24842088.860        2309.849          43.700


 128969875.018 6 100495988.97346  24542142.300                    24542139.360
     -3867.788       -3013.860          41.150          37.300



 110839778.025 8  86368661.99747  21092101.980                    21092098.240
      1309.355        1020.277          50.950          47.500



 122960863.593 7  95813676.77047  23398665.500                    23398661.860
     -3081.237       -2400.964          45.200          42.150    91821488.675 8
  23398667.280       -2300.714          48.850


 110094743.432 8  85788125.84148  20950324.100                    20950322.960
     -2067.173       -1610.784          51.700          51.850    82213631.656 9
  20950323.560       -1543.608          55.100


 133782793.506 6 104246319.99645  25458018.580                    25458018.160
     -1345.933       -1048.779          38.150          35.100    99902731.667 7
  25458018.620       -1004.946          43.750


 128258230.808 7  99941486.97447  24406729.440                    24406729.840
      2776.293        2163.346          45.100          45.350    95777260.939 7
  24406728.120        2073.216          44.150


 23 12  1  0 30 30.0000000  0 11G02G07G08G10G14G16G21G23G27G30G32
 116437801.403 8  90730745.03047  22157368.740                    22157364.460
      1985.915        1547.467          49.200          47.350



 133982450.302 6 104401900.14645  25496014.480                    25496012.240
     -2139.155       -1666.878          41.350          35.000



 107286890.643 8  83600188.42948  20416011.320                    20416010.600
       684.657         533.499          51.700          51.600    80116845.608 9
  20416009.760         511.333          55.550


 111931661.598 8  87219526.55648  21299862.440                    21299861.460
     -1099.258        -856.564          52.950          52.800    83585371.564 8
  21299859.280        -820.851          53.350


 130453423.056 6 101651994.15746  24824457.720                    24824455.640
      3082.986        2402.327          40.550          39.600    97416521.624 7
  24824458.960        2302.240          42.950


 129085937.198 6 100586427.04646  24564228.260                    24564225.120
     -3869.935       -3015.530          41.750          36.500



 110800659.068 8  86338179.70347  21084657.940                    21084654.180
      1298.380        1011.726          51.050          47.650



 123053437.595 7  95885812.33447  23416281.820                    23416278.320
     -3090.970       -2408.548          45.750          42.850    91890618.623 8
  23416283.700       -2308.083          48.650


 110156959.586 8  85836605.93948  20962163.460                    20962162.320
     -2080.772       -1621.382          51.550          51.600    82260091.748 9
  20962162.840       -1553.774          54.750


 133823381.847 6 104277947.29546  25465742.220                    25465742.300
     -1360.226       -1059.912          39.650          37.550    99933041.109 7
  25465742.080       -1015.628          43.700


 128175048.160 7  99876669.33747  24390900.420                    24390900.860
      2769.145        2157.775          44.950          45.050    95715144.046 7
  24390898.880        2067.782          44.000


 23 12  1  0 31  0.0000000  0 11G02G07G08G10G14G16G21G23G27G30G32
 116378334.565 8  90684407.24747  22146052.620                    22146048.380
      1978.052        1541.341          48.950          47.250



 134046732.836 6 104451990.34646  25508246.960                    25508244.880
     -2146.279       -1672.427          38.900          36.500



 107266574.972 8  83584358.03448  20412145.300                    20412144.620
       669.259         521.500          51.800          51.950    80101674.821 9
  20412143.600         499.800          55.700


 111964893.492 8  87245421.52948  21306186.140                    21306185.180
     -1116.698        -870.155          52.650          52.600    83610187.578 8
  21306183.020        -833.850          53.400


 130361074.707 6 101580034.41246  24806884.440                    24806881.920
      3073.106        2394.631          39.200          38.800    97347560.191 7
  24806885.500        2294.865          43.900


 129202043.378 6 100676899.36446  24586322.580                    24586319.460
     -3871.104       -3016.443          41.250          37.150



 110761861.372 8  86307947.74347  21077274.920                    21077271.160
      1287.632        1003.351          50.950          47.700



 123146295.593 7  95958169.21847  23433952.220                    23433948.740
     -3099.855       -2415.472          45.600          43.700    91959960.651 8
  23433954.220       -2315.100          48.750


 110219574.955 8  85885397.11348  20974078.780                    20974077.540
     -2094.046       -1631.725          51.750          51.800    82306849.956 9
  20974078.180       -1563.711          54.850


 133864387.711 6 104309899.89446  25473545.400                    25473545.740
     -1374.051       -1070.683          39.150          38.150    99963662.344 7
  25473545.080       -1025.985          42.900


 128092074.639 7  99812014.67247  24375111.120                    24375111.600
      2761.953        2152.172          45.900          45.900    95653183.306 7
  24375109.200        2062.609          43.250


 23 12  1  0 31 30.0000000  0 11G02G07G08G10G14G16G21G23G27G30G32
 116319098.118 8  90638248.98947  22134780.220                    22134775.900
      1970.771        1535.666          48.700          46.900



 134111235.619 5 104502252.20645  25520521.420                    25520519.580
     -2153.186       -1677.804          35.550          34.300



 107246713.487 8  83568881.54648  20408365.680                    20408365.120
       654.438         509.952          51.800          51.750    80086843.190 9
  20408363.960         488.714          55.550


 111998639.477 8  87271717.09448  21312607.640                    21312606.740
     -1133.483        -883.234          52.150          51.950    83635387.492 8
  21312604.680        -846.386          53.400


 130269018.283 6 101508302.14446  24789366.740                    24789363.720
      3063.468        2387.118          39.800          38.250    97278816.777 7
  24789367.840        2287.805          43.550


 129318184.176 6 100767398.66446  24608423.480                    24608420.520
     -3872.342       -3017.407          40.900          39.400



 110723377.823 8  86277960.56547  21069951.720                    21069947.840
      1277.494         995.450          51.000          47.400



 123239428.175 7  96030740.06347  23451674.780                    23451671.460
     -3109.071       -2422.654          44.800          42.750    92029507.691 8
  23451676.940       -2321.685          48.350


 110282581.659 8  85934493.22548  20986068.540                    20986067.260
     -2106.827       -1641.685          51.100          51.050    82353900.397 9
  20986068.040       -1573.236          54.800


 133905802.249 6 104342170.93846  25481426.480                    25481426.600
     -1387.026       -1080.796          39.650          36.750    99994588.776 6
  25481426.000       -1035.933          41.350


 128009306.317 7  99747519.87447  24359361.000                    24359361.360
      2755.364        2147.036          45.450          45.450    95591375.789 7
  24359358.660        2057.771          43.700


 23 12  1  0 32  0.0000000  0 11G02G07G08G10G14G16G21G23G27G30G32
 116260096.608 8  90592273.80147  22123552.520                    22123548.060
      1963.197        1529.765          48.700          46.850



 134175969.760 6 104552696.24044  25532838.120                    25532836.700
     -2160.882       -1683.817          38.000          29.350



 107227311.801 8  83553763.35648  20404673.620                    20404673.100
       639.469         498.287          51.800          51.700    80072354.923 9
  20404671.900         477.546          55.800


 112032902.024 8  87298415.17348  21319127.480                    21319126.640
     -1150.245        -896.295          52.200          52.150    83660973.155 8
  21319124.700        -859.006          53.750


 130177260.637 6 101436802.69446  24771905.920                    24771902.600
      3054.024        2379.759          38.500          36.250    97210296.465 7
  24771906.820        2280.632          44.050


 129434360.924 6 100857925.97546  24630531.240                    24630528.060
     -3872.734       -3017.716          40.800          39.250



 110685212.058 8  86248221.01347  21062688.960                    21062685.040
      1267.345         987.541          50.800          47.300



 123332836.906 7  96103526.09347  23469449.840                    23469446.740
     -3117.940       -2429.563          44.900          42.650    92099260.964 8
  23469452.180       -2328.207          48.700


 110345982.957 8  85983896.82448  20998133.460                    20998131.960
     -2119.448       -1651.518          50.900          50.750    82401245.519 9
  20998133.060       -1582.752          55.050


 133947627.602 6 104374762.11445  25489385.760                    25489385.860
     -1400.613       -1091.391          39.350          35.000   100025821.992 7
  25489385.020       -1045.949          42.700


 127926750.265 7  99683190.49047  24343651.220                    24343651.580
      2748.794        2141.918          44.700          45.000    95529726.804 7
  24343648.880        2052.602          44.050


 23 12  1  0 32 30.0000000  0 11G02G07G08G10G14G16G21G23G27G30G32
 116201329.118 8  90546480.96847  22112369.440                    22112364.760
      1955.470        1523.743          49.500          46.600



 134240912.600 6 104603300.96945  25545196.540                    25545194.840
     -2167.982       -1689.336          36.550          34.950



 107208369.490 8  83539003.11348  20401069.000                    20401068.520
       624.126         486.332          51.350          51.200    80058209.692 9
  20401067.380         466.122          55.850


 112067678.533 8  87325513.75348  21325745.240                    21325744.380
     -1167.282        -909.571          52.600          52.600    83686942.625 8
  21325742.520        -871.692          53.600


 130085803.161 6 101365537.13646  24754502.080                    24754498.780
      3044.302        2372.182          39.050          37.750    97142000.337 7
  24754503.140        2273.172          44.700


 129550569.693 6 100948478.25546  24652645.100                    24652642.220
     -3873.381       -3018.216          41.150          39.200



 110647363.884 8  86218728.94447  21055486.700                    21055482.620
      1256.721         979.264          50.750          47.900



 123426518.037 7  96176524.36047  23487276.640                    23487273.780
     -3126.840       -2436.499          44.600          43.000    92169217.662 8
  23487279.260       -2334.989          48.400


 110409776.705 8  86033606.22548  21010273.000                    21010271.380
     -2132.549       -1661.728          51.000          51.050    82448883.693 9
  21010272.740       -1592.479          54.850


 133989860.580 6 104407670.93046  25497422.440                    25497422.420
     -1413.873       -1101.720          40.500          36.800   100057359.586 7
  25497421.920       -1055.937          43.000


 127844408.239 7  99619027.88547  24327982.120                    24327982.320
      2741.417        2136.170          44.650          44.950    95468237.621 7
  24327979.740        2047.224          44.050


 23 12  1  0 33  0.0000000  0 11G02G07G08G10G14G16G21G23G27G30G32
 116142792.532 8  90500868.05447  22101230.380                    22101225.500
      1947.343        1517.411          49.750          46.500



 134306066.800 6 104654070.36746  25557594.980                    25557593.080
     -2175.524       -1695.217          39.350          36.100



 107189884.251 8  83524599.02948  20397551.360                    20397551.000
       608.467         474.130          51.450          51.300    80044405.770 9
  20397549.840         454.404          55.950


 112102964.614 8  87353009.40548  21332459.940                    21332459.160
     -1184.713        -923.152          52.350          52.350    83713292.627 8
  21332457.260        -884.724          53.650


 129994645.165 6 101294504.96046  24737155.400                    24737151.980
      3033.583        2363.834          38.150          37.650    97073927.799 7
  24737156.300        2265.279          44.650


 129666805.413 6 101039051.50246  24674764.100                    24674761.320
     -3875.080       -3019.540          41.800          37.600



 110609829.455 8  86189481.33848  21048344.160                    21048340.120
      1245.835         970.780          50.600          48.350



 123520465.677 7  96249730.31047  23505154.060                    23505151.520
     -3135.934       -2443.584          44.000          43.650    92239373.354 7
  23505157.020       -2341.850          47.900


 110473958.597 8  86083618.08148  21022486.460                    21022484.620
     -2145.990       -1672.200          50.850          50.800    82496811.716 9
  21022485.960       -1602.507          54.700


 134032495.623 6 104440893.01145  25505535.660                    25505535.420
     -1427.572       -1112.397          40.150          35.850   100089197.467 7
  25505535.260       -1066.350          42.700


 127762279.751 7  99555031.68047  24312353.460                    24312353.620
      2734.060        2130.438          42.850          43.250    95406907.924 7
  24312351.600        2041.555          44.950


 23 12  1  0 33 30.0000000  0 11G02G07G08G10G14G16G21G23G27G30G32
 116084492.993 8  90455439.86647  22090136.380                    22090131.440
      1939.346        1511.181          49.200          46.600



 134371436.178 6 104705007.49346  25570034.420                    25570032.220
     -2182.699       -1700.800          37.250          37.100



 107171863.529 8  83510556.90548  20394122.100                    20394121.880
       593.011         462.086          50.900          51.050    80030948.745 9
  20394120.680         442.835          56.000


 112138764.191 8  87380905.17748  21339272.360                    21339271.660
     -1201.838        -936.497          52.000          51.950    83740026.073 8
  21339269.740        -897.432          53.450


 129903795.060 6 101223712.71046  24719867.160                    24719863.720
      3023.325        2355.842          39.300          38.600    97006085.224 7
  24719868.220        2257.646          44.850


 129783070.637 6 101129647.76846  24696888.720                    24696885.920
     -3876.259       -3020.459          41.850          36.950



 110572614.384 8  86160482.60248  21041262.380                    21041258.480
      1235.313         962.582          50.700          48.650



 123614683.098 7  96323146.46547  23523082.800                    23523080.600
     -3144.760       -2450.465          43.300          42.850    92309730.527 7
  23523085.920       -2348.583          47.500


 110538533.487 8  86133936.16548  21034774.620                    21034772.720
     -2158.971       -1682.315          50.950          50.950    82545033.205 9
  21034773.800       -1612.182          54.250


 134075536.668 6 104474431.49045  25513726.020                    25513725.440
     -1441.428       -1123.189          40.000          34.900   100121338.452 7
  25513726.020       -1076.305          42.950


 127680373.670 6  99491208.76847  24296767.120                    24296767.140
      2726.457        2124.513          41.750          42.550    95345744.308 7
  24296765.960        2035.978          45.650


 23 12  1  0 34  0.0000000  0 11G02G07G08G10G14G16G21G23G27G30G32
 116026427.846 8  90410194.32847  22079086.840                    22079081.920
      1931.378        1504.971          49.000          46.300



 134437014.769 5                  25582514.060
     -2188.966                          35.300



 107154305.070 8  83496874.97948  20390780.860                    20390780.560
       577.343         449.877          51.250          51.100    80017836.899 9
  20390779.640         431.047          56.050


 112175072.739 8  87409197.55448  21346181.620                    21346181.040
     -1219.051        -949.910          52.000          52.050    83767139.606 8
  21346179.120        -910.361          53.500


 129813252.604 6 101153160.15746  24702637.300                    24702633.980
      3012.386        2347.315          40.150          39.450    96938472.363 7
  24702638.600        2249.658          45.100


 129899359.779 6 101220262.66246  24719017.880                    24719015.180
     -3877.271       -3021.250          41.200          37.750



 110535715.593 8  86131730.30148  21034240.780                    21034237.000
      1224.310         954.008          50.400          48.600



 123709164.889 7  96396768.64247  23541061.920                    23541059.880
     -3154.095       -2457.734          42.750          42.550    92380285.097 7
  23541065.140       -2355.373          47.250


 110603497.544 8  86184557.49048  21047136.860                    21047135.000
     -2172.254       -1692.665          51.300          51.450    82593545.298 9
  21047135.640       -1622.142          54.000


 134118978.578 6 104508282.30246  25521992.940                    25521992.020
     -1455.003       -1133.770          39.800          37.050   100153778.827 7
  25521993.060       -1086.648          43.600


 127598689.993 6  99427559.18246  24281222.960                    24281222.940
      2718.573        2118.370          41.700          41.650    95284746.782 7
  24281222.520        2030.139          45.700


 23 12  1  0 34 30.0000000  0 11G02G07G08G10G14G16G21G23G27G30G32
 115968597.408 8  90365131.67547  22068081.980                    22068076.900
      1923.772        1499.045          48.950          46.300



 134502805.612 5                  25595032.900
     -2196.426                          33.750



 107137209.531 8  83483553.77248  20387527.740                    20387527.240
       562.092         437.994          51.900          52.000    80005070.757 9
  20387526.760         419.647          56.200


 112211889.029 8  87437885.56848  21353187.440                    21353187.040
     -1235.682        -962.869          52.150          52.200    83794632.295 8
  21353185.140        -922.855          53.700


 129723020.432 6 101082849.37546  24685466.760                    24685463.260
      3002.511        2339.617          40.300          38.550    96871091.205 7
  24685468.120        2241.941          45.550


 130015671.836 6 101310895.41946  24741151.300                    24741148.340
     -3877.581       -3021.491          41.700          36.350



 110499133.341 8  86103224.65548  21027279.380                    21027275.660
      1214.028         945.997          50.550          48.200



 123803908.567 7  96470594.86846  23559090.980                    23559088.960
     -3162.559       -2464.332          43.650          41.800    92451035.242 7
  23559094.220       -2361.738          46.750


 110668849.806 8  86235481.31048  21059572.940                    21059571.160
     -2184.990       -1702.591          51.100          51.000    82642347.298 9
  21059571.500       -1631.707          54.050


 134162819.352 6 104542443.91145  25530335.520                    25530334.760
     -1468.323       -1144.147          39.400          33.500   100186517.021 7
  25530336.040       -1096.312          43.150


 127517231.730 7  99364085.22547  24265721.880                    24265721.460
      2711.406        2112.785          43.150          43.200    95223917.585 7
  24265721.840        2024.747          46.600


 23 12  1  0 35  0.0000000  0 10G02G08G10G14G16G21G23G27G30G32
 115910998.685 8  90320249.57847  22057121.280                    22057116.020
      1915.961        1492.957          49.200          45.850



 107120575.176 8  83470591.93248  20384362.300                    20384361.740
       546.586         425.910          51.050          51.200    79992648.993 9
  20384361.460         408.170          56.100


 112249208.129 8  87466965.38248  21360288.940                    21360288.660
     -1252.477        -975.956          52.000          52.050    83822500.450 8
  21360286.920        -935.282          53.850


 129633097.889 6 101012779.87346  24668355.100                    24668351.540
      2992.195        2331.582          40.400          36.800    96803941.264 7
  24668356.700        2234.248          45.100


 130131999.952 6 101401540.67045  24763288.020                    24763285.060
     -3877.985       -3021.808          41.750          35.400



 110462864.234 8  86074963.01547  21020377.540                    21020373.880
      1203.591         937.863          50.250          47.850



 123898908.200 7  96544620.54846  23577168.740                    23577166.820
     -3170.960       -2470.880          43.900          41.900    92521976.522 7
  23577171.800       -2368.021          46.250


 110734585.941 8  86286704.26048  21072082.140                    21072080.380
     -2197.848       -1712.609          50.800          50.700    82691435.953 9
  21072080.760       -1641.212          54.150


 134207053.461 6 104576912.05246  25538752.940                    25538752.080
     -1481.090       -1154.090          39.000          36.650   100219549.016 7
  25538753.740       -1106.064          43.050


 127435998.485 7  99300786.60547  24250263.800                    24250263.020
      2703.603        2106.703          43.350          43.450    95163256.416 7
  24250263.920        2019.136          46.200


 23 12  1  0 35 30.0000000  0 10G02G08G10G14G16G21G23G27G30G32
 115853637.169 8  90275552.30947  22046205.840                    22046200.320
      1908.021        1486.770          50.100          45.500



 107104407.938 8  83457994.08748  20381285.700                    20381285.180
       531.089         413.835          51.350          51.500    79980576.062 9
  20381284.860         396.602          55.700


 112287033.779 8  87496439.90748  21367486.880                    21367486.640
     -1269.282        -989.051          51.950          51.950    83850746.870 8
  21367485.160        -947.835          53.800


 129543492.871 6 100942957.80446  24651303.900                    24651300.360
      2981.352        2323.130          41.150          39.250    96737028.424 7
  24651305.800        2226.511          46.000


 130248347.031 7 101492200.72145  24785428.140                    24785425.080
     -3878.702       -3022.365          42.100          35.650



 110426912.884 8  86046948.98447  21013536.180                    21013532.520
      1193.118         929.703          51.000          47.250



 123994166.601 7  96618847.86546  23595295.820                    23595293.980
     -3179.565       -2477.583          44.000          39.000    92593111.033 7
  23595298.580       -2374.400          45.700


 110800710.270 8  86338229.69548  21084665.200                    21084663.540
     -2210.644       -1722.580          51.050          51.000    82740814.491 9
  21084664.160       -1650.757          54.250


 134251684.325 6 104611689.34245  25547245.740                    25547245.500
     -1494.028       -1164.180          38.000          35.650   100252877.261 7
  25547246.740       -1115.882          42.400


 127354998.441 7  99237669.67347  24234850.000                    24234848.860
      2696.098        2100.854          44.300          44.200    95102769.397 7
  24234850.040        2013.361          46.000


 23 12  1  0 36  0.0000000  0 10G02G08G10G14G16G21G23G27G30G32
 115796512.120 8  90231039.28847  22035335.340                    22035329.800
      1900.220        1480.690          50.100          46.000



 107088707.677 8  83445760.11948  20378298.060                    20378297.500
       515.563         401.738          51.300          51.150    79968851.832 9
  20378297.040         385.034          55.950


 112325363.574 8  87526307.27548  21374780.820                    21374780.520
     -1286.063       -1002.128          52.250          52.300    83879369.761 9
  21374779.320        -960.344          54.250


 129454206.860 6 100873384.28146  24634313.340                    24634309.940
      2970.883        2314.972          40.100          38.950    96670353.815 7
  24634315.580        2218.493          46.200


 130364709.715 7 101582872.91646  24807571.380                    24807568.200
     -3879.053       -3022.637          43.000          36.050



 110391278.609 8  86019182.02747  21006755.180                    21006751.400
      1182.450         921.389          50.500          47.350



 124089680.170 7  96693274.02146  23613471.600                    23613469.620
     -3188.037       -2484.184          43.350          40.800    92664436.091 7
  23613473.840       -2380.613          45.300


 110867220.766 8  86390056.03348  21097321.780                    21097320.100
     -2223.514       -1732.608          51.200          51.050    82790481.384 9
  21097321.120       -1660.361          54.750


 134296708.586 6 104646773.21146  25555813.520                    25555813.440
     -1506.950       -1174.246          38.850          36.950   100286499.278 7
  25555814.660       -1125.492          44.000


 127274233.556 7  99174736.00947  24219480.960                    24219479.940
      2688.055        2094.589          43.700          43.700    95042457.967 7
  24219480.980        2007.474          46.050


 23 12  1  0 36 30.0000000  0 10G02G08G10G14G16G21G23G27G30G32
 115739621.694 8  90186709.09647  22024509.520                    22024504.080
      1891.919        1474.223          49.850          46.800



 107073473.358 8  83433889.22548  20375399.120                    20375398.440
       499.494         389.217          51.450          51.600    79957475.553 9
  20375397.920         373.003          55.700


 112364193.489 8  87556564.34948  21382169.960                    21382169.520
     -1303.274       -1015.538          52.050          52.150    83908366.122 9
  21382168.560        -973.215          54.000


 129365240.467 6 100804059.81746  24617383.700                    24617380.440
      2959.735        2306.286          40.750          39.900    96603917.876 7
  24617386.260        2210.132          46.150


 130481082.938 7 101673553.34946  24829716.580                    24829713.260
     -3879.654       -3023.106          43.200          36.650



 110355959.311 8  85991660.51547  21000034.120                    21000030.200
      1171.587         912.925          50.100          47.950



 124185444.245 7  96767895.37046  23631695.000                    23631693.080
     -3196.760       -2490.983          43.950          40.300    92735948.235 7
  23631696.500       -2387.239          44.800


 110934114.267 8  86442180.82248  21110051.320                    21110049.560
     -2236.680       -1742.868          51.350          51.350    82840434.313 9
  21110050.900       -1670.288          54.700


 134342121.995 6 104682160.22845  25564455.360                    25564455.820
     -1520.608       -1184.891          39.600          34.900   100320411.887 7
  25564456.500       -1135.669          43.800


 127193704.528 7  99111986.11547  24204156.580                    24204155.720
      2679.813        2088.165          43.400          43.200    94982322.685 7
  24204156.460        2001.073          45.050


 23 12  1  0 37  0.0000000  0 10G02G08G10G14G16G21G23G27G30G32
 115682969.501 8  90142564.53447  22013729.040                    22013723.680
      1884.616        1468.533          50.250          46.000



 107058709.170 8  83422384.65548  20372589.740                    20372588.860
       484.366         377.428          51.700          51.750    79946450.338 9
  20372588.340         361.791          55.650


 112403525.298 8  87587212.51748  21389654.620                    21389654.020
     -1319.241       -1027.980          52.250          52.300    83937737.276 8
  21389653.180        -985.126          53.850


 129276599.551 6 100734988.96746  24600515.900                    24600512.800
      2949.434        2298.259          40.950          38.800    96537724.977 7
  24600518.840        2202.557          46.300


 130597467.533 7 101764242.61545  24851863.800                    24851860.460
     -3879.643       -3023.096          42.350          35.150



 110320957.977 8  85964386.75847  20993373.540                    20993369.520
      1161.505         905.070          50.150          47.700



 124281459.602 7  96842712.53046  23649966.340                    23649964.360
     -3204.541       -2497.044          43.350          40.150    92807648.009 7
  23649967.120       -2393.020          44.700


 111001393.023 8  86494605.81448  21122854.140                    21122852.380
     -2248.894       -1752.386          51.400          51.600    82890674.923 9
  21122853.820       -1679.309          54.650


 134387925.754 6 104717851.46946  25573171.480                    25573171.900
     -1533.560       -1194.981          37.800          37.200   100354615.934 7
  25573172.460       -1144.782          43.600


 127113417.587 7  99049424.90247  24188878.280                    24188877.900
      2672.608        2082.554          42.900          43.150    94922368.190 7
  24188878.100        1995.568          45.100


 23 12  1  0 37 30.0000000  0 10G02G08G10G14G16G21G23G27G30G32
 115626551.837 8  90098602.73047  22002993.140                    22002987.860
      1876.577        1462.269          50.300          46.650



 107044411.874 8  83411243.89748  20369869.180                    20369868.080
       468.748         365.258          51.950          51.950    79935773.774 9
  20369867.600         350.065          55.550


 112443353.630 8  87618247.58548  21397233.760                    21397232.880
     -1335.860       -1040.930          52.150          52.300    83967479.218 8
  21397232.180        -997.599          53.600


 129188282.792 6 100666170.73646  24583709.800                    24583707.160
      2938.553        2289.782          41.050          39.200    96471774.183 7
  24583712.940        2194.308          46.250


 130713858.108 7 101854936.56845  24874012.180                    24874008.980
     -3879.937       -3023.325          42.200          34.350



 110286270.439 8  85937357.51847  20986772.800                    20986768.660
      1150.989         896.875          50.550          47.400



 124377719.816 7  96917720.48846  23668284.160                    23668282.160
     -3212.700       -2503.402          43.750          38.750    92879530.651 7
  23668284.300       -2399.139          44.300


 111069052.195 8  86547327.22548  21135729.340                    21135727.840
     -2261.685       -1762.353          51.850          51.800    82941199.608 9
  21135729.000       -1688.874          54.500


 134434113.824 6 104753842.18145  25581960.920                    25581961.300
     -1546.532       -1205.085          38.600          35.700   100389106.999 7
  25581961.600       -1154.450          43.600


 127033371.822 6  98987051.60446  24173645.720                    24173645.720
      2664.323        2076.099          41.850          41.150    94862593.785 7
  24173645.780        1989.469          44.100


 23 12  1  0 38  0.0000000  0 10G02G08G10G14G16G21G23G27G30G32
 115570373.390 8  90054827.32747  21992302.720                    21992297.480
      1868.809        1456.214          49.550          46.950



 107030587.696 8  83400471.80648  20367238.580                    20367237.220
       453.129         353.087          51.350          51.350    79925450.523 9
  20367236.980         338.388          55.750


 112483681.305 8  87649671.74748  21404907.920                    21404906.840
     -1352.401       -1053.819          52.200          52.150    83997594.037 8
  21404906.160       -1009.889          53.600


 129100297.352 6 100597610.65946  24566966.780                    24566964.200
      2927.520        2281.186          41.350          40.600    96406070.761 7
  24566969.900        2186.135          46.400


 130830256.508 7 101945636.58945  24896162.120                    24896158.800
     -3879.816       -3023.231          43.000          35.700



 110251901.335 8  85910576.40047  20980232.660                    20980228.460
      1140.459         888.670          50.550          47.350



 124474226.884 7  96992920.79946  23686648.920                    23686647.100
     -3220.866       -2509.767          43.850          40.550    92951597.612 7
  23686648.480       -2405.127          44.350


 111137095.165 8  86600347.69648  21148677.560                    21148676.280
     -2274.340       -1772.213          51.600          51.600    82992010.893 9
  21148677.200       -1698.334          54.450


 134480688.347 6 104790134.01546  25590823.740                    25590824.020
     -1558.963       -1214.773          39.350          36.800   100423886.709 7
  25590824.280       -1163.977          43.700


 126953574.616 7  98924872.00647  24158460.680                    24158460.880
      2655.972        2069.591          42.600          42.450    94803004.964 7
  24158460.500        1983.388          44.650


 23 12  1  0 38 30.0000000  0 10G02G08G10G14G16G21G23G27G30G32
 115514429.005 8  90011234.31447  21981656.800                    21981651.520
      1860.831        1449.998          49.550          46.700



 107017231.475 8  83390064.35248  20364696.840                    20364695.500
       437.254         340.718          51.350          51.450    79915476.717 9
  20364695.460         326.501          56.000


 112524500.976 8  87681479.28548  21412675.700                    21412674.520
     -1369.006       -1066.759          51.900          51.950    84028076.258 8
  21412673.740       -1022.309          53.800


 129012640.349 7 100529306.50546  24550286.240                    24550283.920
      2916.302        2272.444          42.000          40.050    96340612.617 7
  24550289.240        2177.695          46.250


 130946654.127 7 102036336.00845  24918311.840                    24918308.860
     -3880.092       -3023.448          42.600          34.600



 110217845.011 8  85884039.00447  20973751.980                    20973747.820
      1129.915         880.454          50.600          47.500



 124570972.841 7  97068307.25946  23705059.060                    23705057.480
     -3228.870       -2516.004          43.150          39.400    93023842.980 7
  23705058.420       -2411.250          44.800


 111205515.508 8  86653662.22948  21161697.520                    21161696.360
     -2287.110       -1782.164          51.450          51.450    83043103.987 9
  21161697.180       -1707.916          54.550


 134527641.771 6 104826721.04146  25599758.740                    25599758.700
     -1571.419       -1224.485          39.700          36.950   100458949.291 7
  25599759.040       -1173.494          44.050


 126874023.471 7  98862884.13647  24143322.720                    24143322.760
      2647.428        2062.933          43.200          43.000    94743599.928 7
  24143322.540        1976.932          44.900


 23 12  1  0 39  0.0000000  0 10G02G08G10G14G16G21G23G27G30G32
 115458720.946 8  89967825.45247  21971055.880                    21971050.640
      1853.002        1443.897          49.950          46.700



 107004346.495 8  83380024.11548  20362244.780                    20362243.720
       421.804         328.678          51.100          51.300    79905854.831 9
  20362243.520         314.817          55.750


 112565813.324 8  87713670.72348  21420537.200                    21420536.060
     -1385.304       -1079.458          51.850          51.850    84058926.396 8
  21420535.100       -1034.536          53.550


 128925316.350 7 100461261.83446  24533669.180                    24533666.820
      2905.073        2263.692          42.350          40.700    96275403.141 7
  24533671.940        2169.449          46.250


 131063050.885 7 102127034.74345  24940461.420                    24940458.280
     -3879.941       -3023.332          42.550          32.350



 110184103.547 8  85857746.96147  20967331.220                    20967326.940
      1119.411         872.269          50.500          47.400



 124667957.156 7  97143879.45546  23723514.500                    23723512.940
     -3236.730       -2522.128          43.200          39.600    93096266.328 7
  23723513.920       -2417.055          44.800


 111274314.115 8  86707271.51248  21174789.520                    21174788.360
     -2299.559       -1791.864          51.950          51.800    83094479.554 9
  21174789.080       -1717.317          54.150


 134574973.860 6 104863603.19646  25608765.920                    25608765.800
     -1583.967       -1234.260          40.900          36.900   100494294.674 7
  25608766.060       -1182.844          44.650


 126794723.246 7  98801091.76147  24128232.720                    24128232.300
      2639.158        2056.487          44.300          43.750    94684382.229 7
  24128232.000        1970.694          44.750


 23 12  1  0 39 30.0000000  0 10G02G08G10G14G16G21G23G27G30G32
 115403254.023 8  89924604.48947  21960500.880                    21960495.840
      1845.016        1437.676          50.800          46.250



 106991937.475 8  83370354.74348  20359883.340                    20359882.560
       405.807         316.213          51.700          51.750    79896588.341 9
  20359882.160         303.066          55.700


 112607620.936 8  87746248.07948  21428492.920                    21428491.840
     -1401.571       -1092.134          51.450          51.300    84090146.366 8
  21428490.780       -1046.621          53.500


 128838332.242 7 100393482.01446  24517116.780                    24517114.320
      2893.964        2255.035          42.800          38.000    96210447.483 7
  24517119.060        2161.137          45.200


 131179448.832 7 102217734.43645  24962611.240                    24962607.840
     -3879.748       -3023.179          42.500          33.850



 110150680.618 8  85831703.12047  20960971.040                    20960966.600
      1108.886         864.067          49.900          47.800



 124765181.566 7  97219638.73746  23742015.660                    23742014.120
     -3244.532       -2528.208          43.400          39.550    93168868.977 7
  23742015.260       -2422.910          45.000


 111343494.179 8  86761178.04848  21187954.140                    21187952.860
     -2312.284       -1801.780          51.850          51.800    83146139.966 9
  21187953.640       -1726.574          54.000


 134622686.602 6 104900781.91146  25617845.460                    25617844.940
     -1596.636       -1244.133          39.950          39.100   100529924.269 7
  25617845.340       -1192.170          43.850


 126715681.131 7  98739500.51247  24113191.920                    24113190.940
      2630.589        2049.810          44.800          44.650    94625357.289 7
  24113191.080        1964.384          45.700


 23 12  1  0 40  0.0000000  0 10G02G08G10G14G16G21G23G27G30G32
 115348020.561 8  89881565.44647  21949990.380                    21949985.420
      1837.031        1431.453          50.700          46.800



 106979997.793 8  83361051.09048  20357611.320                    20357610.660
       389.891         303.811          51.450          51.550    79887672.343 9
  20357610.220         291.169          55.900


 112649914.229 8  87779203.88748  21436540.980                    21436540.080
     -1417.996       -1104.933          51.250          51.600    84121729.018 8
  21436538.900       -1058.948          53.700


 128751682.882 7 100325963.03646  24500627.920                    24500625.380
      2882.574        2246.161          42.200          39.950    96145741.804 7
  24500629.820        2152.520          45.700


 131295836.911 7 102308426.40946  24984759.240                    24984755.960
     -3879.533       -3023.015          42.400          38.050



 110117568.421 8  85805901.41247  20954669.940                    20954665.260
      1098.347         855.854          50.600          47.200



 124862635.873 7  97295577.15446  23760560.580                    23760558.940
     -3252.653       -2534.534          42.800          40.750    93241643.289 7
  23760560.500       -2428.803          45.700


 111413046.917 8  86815374.96448  21201189.620                    21201188.240
     -2324.934       -1811.638          51.600          51.700    83198078.685 9
  21201189.140       -1736.118          54.250


 134670770.072 6 104938249.59346  25626995.520                    25626995.020
     -1609.019       -1253.781          37.900          37.800   100565830.803 7
  25626995.440       -1201.620          45.000


 126636892.271 7  98678106.58347  24098199.160                    24098197.660
      2621.491        2042.720          44.800          44.200    94566521.436 7
  24098198.120        1957.791          45.700


 23 12  1  0 40 30.0000000  0 10G02G08G10G14G16G21G23G27G30G32
 115293028.856 8  89838714.77947  21939525.880                    21939520.860
      1829.081        1425.259          50.650          46.650



 106968536.508 8  83352120.20648  20355430.340                    20355429.640
       374.117         291.519          51.400          51.400    79879113.579 9
  20355429.380         279.472          56.050


 112692699.248 8  87812542.86148  21444682.580                    21444681.920
     -1434.164       -1117.530          51.300          51.400    84153678.864 8
  21444680.580       -1070.939          53.850


 128665378.756 7 100258713.06246  24484204.760                    24484201.900
      2871.078        2237.202          42.900          37.750    96081293.903 7
  24484206.100        2144.195          44.800


 131412221.756 6 102399115.88046  25006906.580                    25006903.100
     -3879.146       -3022.717          41.000          37.200



 110084775.431 8  85780348.45047  20948429.560                    20948424.720
      1087.827         847.658          50.600          46.900



 124960325.413 7  97371698.86646  23779150.100                    23779148.540
     -3260.038       -2540.292          43.200          39.300    93314593.253 7
  23779150.660       -2434.274          46.200


 111482979.148 8  86869867.60348  21214497.320                    21214495.880
     -2337.367       -1821.325          51.450          51.400    83250300.786 9
  21214496.820       -1745.315          54.250


 134719230.046 6 104976010.58746  25636217.140                    25636216.560
     -1621.487       -1263.497          38.400          36.400   100602018.399 7
  25636217.240       -1210.747          44.100


 126558367.450 7  98616918.41147  24083256.620                    24083254.760
      2613.130        2036.205          44.350          44.250    94507882.791 7
  24083255.580        1951.464          46.700


 23 12  1  0 41  0.0000000  0 10G02G08G10G14G16G21G23G27G30G32
 115238275.716 8  89796049.99547  21929106.760                    21929101.700
      1820.980        1418.946          50.150          47.200



 106957550.423 8  83343559.61248  20353339.780                    20353339.060
       358.104         279.042          51.400          51.550    79870909.684 9
  20353338.940         267.468          56.000


 112735971.318 8  87846261.35348  21452916.960                    21452916.360
     -1450.621       -1130.354          51.650          51.600    84185992.420 8
  21452915.000       -1083.254          53.800


 128579419.004 7 100191731.43546  24467847.220                    24467844.280
      2859.347        2228.063          42.950          38.550    96017103.196 7
  24467847.900        2135.341          44.300


 131528597.230 6 102489798.06445  25029052.020                    25029048.360
     -3879.047       -3022.630          40.300          33.400



 110052297.071 8  85755040.63847  20942249.100                    20942244.200
      1077.334         839.482          50.200          47.900



 125058244.373 7  97447999.35446  23797783.520                    23797781.760
     -3267.965       -2546.467          43.300          39.750    93387714.551 7
  23797784.480       -2440.298          46.450


 111553286.414 8  86924652.46648  21227876.360                    21227874.840
     -2349.974       -1831.149          51.800          51.700    83302802.946 9
  21227875.940       -1754.800          54.250


 134768060.800 6 105014060.48746  25645509.280                    25645508.560
     -1634.144       -1273.354          38.750          37.850   100638482.876 7
  25645509.620       -1220.121          44.750


 126480106.230 7  98555935.62647  24068363.840                    24068362.060
      2604.258        2029.291          44.900          44.850    94449440.987 7
  24068363.060        1944.677          46.200


 23 12  1  0 41 30.0000000  0 10G02G08G10G14G16G21G23G27G30G32
 115183760.769 8  89753570.81847  21918732.920                    21918727.860
      1813.461        1413.086          50.250          47.750



 106947040.552 8  83335370.08448  20351339.820                    20351339.160
       342.647         266.998          51.350          51.400    79863061.392 9
  20351339.020         255.954          56.100


 112779728.009 8  87880357.47848  21461243.660                    21461243.040
     -1466.368       -1142.625          51.900          52.050    84218667.862 8
  21461241.660       -1094.880          53.950


 128493805.721 7 100125019.79846  24451555.560                    24451552.580
      2848.280        2219.441          43.750          37.800    95953171.199 7
  24451555.380        2126.909          44.200


 131644960.040 7 102580470.34945  25051194.960                    25051191.380
     -3878.327       -3022.070          42.000          32.000



 110020133.534 8  85729978.13248  20936128.640                    20936123.900
      1067.201         831.585          50.550          48.000



 125156389.686 7  97524476.20446  23816459.900                    23816458.000
     -3275.007       -2551.955          43.150          39.850    93461004.862 7
  23816461.260       -2445.521          46.900


 111623967.091 8  86979728.29748  21241326.460                    21241324.900
     -2362.000       -1840.521          51.800          51.700    83355583.945 9
  21241326.040       -1763.745          54.400


 134817259.535 6 105052397.13946  25654871.440                    25654870.780
     -1645.791       -1282.441          38.850          37.450   100675222.211 7
  25654871.980       -1228.998          44.850


 126402110.949 7  98495160.07647  24053521.500                    24053520.200
      2595.640        2022.576          43.350          43.250    94391197.759 7
  24053521.040        1938.437          46.800


 23 12  1  0 42  0.0000000  0 10G02G08G10G14G16G21G23G27G30G32
 115129481.413 8  89711275.22447  21908403.920                    21908398.840
      1805.354        1406.770          50.400          47.400



 106937004.656 8  83327549.89748  20349430.020                    20349429.440
       326.593         254.488          51.150          51.300    79855567.042 9
  20349429.160         243.917          56.200


 112823964.587 8  87914827.54348  21469661.700                    21469660.940
     -1482.578       -1155.255          52.050          52.100    84251701.678 9
  21469659.620       -1107.054          54.050


 128408538.530 7 100058577.81646  24435329.840                    24435326.680
      2836.334        2210.133          42.900          39.800    95889497.655 7
  24435329.220        2118.158          44.150


 131761305.046 6 102671128.75846  25073334.720                    25073331.100
     -3877.688       -3021.580          40.600          39.000



 109988281.495 8  85705158.37448  20930067.420                    20930063.020
      1056.475         823.228          49.950          49.000



 125254755.868 7  97601125.18346  23835178.500                    23835176.560
     -3282.605       -2557.872          43.400          39.800    93534460.120 7
  23835180.080       -2451.231          47.650


 111695017.109 8  87035091.92148  21254846.920                    21254845.280
     -2374.529       -1850.283          51.750          51.750    83408640.750 9
  21254846.340       -1773.086          54.400


 134866820.988 6 105091016.38846  25664302.580                    25664302.180
     -1657.879       -1291.855          38.500          37.300   100712232.285 7
  25664303.280       -1238.063          44.350


 126324381.513 7  98434591.67247  24038729.880                    24038729.100
      2586.731        2015.635          43.600          43.650    94333153.060 7
  24038729.520        1931.569          46.500


 23 12  1  0 42 30.0000000  0 10G02G08G10G14G16G21G23G27G30G32
 115075444.152 8  89669168.27947  21898120.960                    21898115.880
      1797.736        1400.834          50.750          47.100



 106927450.095 8  83320104.78748  20347611.760                    20347611.220
       310.883         242.247          51.200          51.200    79848432.145 9
  20347610.780         232.219          55.850


 112868685.822 8  87949675.26148  21478172.020                    21478171.060
     -1498.254       -1167.471          52.750          52.800    84285097.407 8
  21478169.780       -1118.834          53.650


 128323626.369 7  99992412.48046  24419171.620                    24419168.520
      2825.017        2201.313          43.050          38.150    95826089.233 7
  24419170.620        2109.479          43.700


 131877636.274 6 102761776.50846  25095471.800                    25095468.020
     -3877.043       -3021.070          40.200          37.000



 109956746.881 8  85680585.95148  20924066.520                    20924062.480
      1046.244         815.254          49.350          49.150



 125353346.839 7  97677949.30246  23853939.980                    23853937.880
     -3289.690       -2563.395          44.500          41.250    93608083.240 7
  23853941.680       -2456.511          47.600


 111766441.752 8  87090747.46048  21268438.600                    21268436.900
     -2386.390       -1859.524          52.250          52.000    83461977.317 8
  21268437.860       -1782.152          53.900


 134916749.340 6 105129921.54646  25673803.800                    25673803.180
     -1669.813       -1301.155          39.100          37.250   100749516.377 7
  25673804.320       -1246.959          43.600


 126246927.237 7  98374237.70747  24023990.600                    24023990.360
      2577.374        2008.345          44.850          45.100    94275313.834 7
  24023990.260        1924.880          45.900


 23 12  1  0 43  0.0000000  0 10G02G08G10G14G16G21G23G27G30G32
 115021645.001 8  89627246.87547  21887883.260                    21887878.140
      1789.289        1394.252          50.100          47.200



 106918372.901 8  83313031.64948  20345884.340                    20345883.900
       294.593         229.554          50.750          50.700    79841653.717 9
  20345883.380         220.025          55.850


 112913885.840 8  87984896.06248  21486773.460                    21486772.200
     -1514.581       -1180.191          52.750          52.750    84318850.676 8
  21486771.020       -1130.999          53.600


 128239067.590 6  99926522.53546  24403080.600                    24403077.620
      2812.741        2191.743          41.750          38.350    95762944.699 7
  24403079.560        2100.447          43.650


 131993946.202 6 102852407.50546  25117604.560                    25117601.200
     -3876.419       -3020.591          39.700          38.050



 109925525.998 8  85656257.97648  20918125.340                    20918121.400
      1035.549         806.921          49.950          48.550



 125452155.881 7  97754943.34346  23872742.840                    23872740.680
     -3297.123       -2569.186          44.250          40.950    93681869.193 7
  23872744.600       -2462.159          47.600


 111838235.655 8  87146690.74548  21282100.520                    21282098.840
     -2399.173       -1869.485          51.650          51.700    83515589.624 8
  21282099.560       -1791.567          53.650


 134967038.049 6 105169107.54446  25683373.540                    25683373.060
     -1682.061       -1310.695          39.900          37.450   100787069.657 7
  25683373.940       -1256.177          43.100


 126169746.705 7  98314097.03547  24009303.440                    24009303.580
      2568.391        2001.344          44.100          43.700    94217679.042 7
  24009303.120        1917.829          45.700


 23 12  1  0 43 30.0000000  0 10G02G08G10G14G16G21G23G27G30G32
 114968083.845 8  89585510.93247  21877690.720                    21877685.820
      1780.689        1387.552          50.100          46.850



 106909773.496 8  83306330.81348  20344247.820                    20344247.500
       278.004         216.627          51.000          51.300    79835232.081 9
  20344247.040         207.525          56.050


 112959562.091 8  88020487.95648  21495465.480                    21495463.920
     -1531.189       -1193.134          53.100          53.150    84352959.568 8
  21495462.900       -1143.434          53.650


 128154864.213 7  99860909.52646  24387057.180                    24387054.120
      2799.958        2181.785          42.250          38.800    95700065.537 7
  24387056.260        2091.004          44.100


 132110232.320 6 102943020.03045  25139733.160                    25139729.780
     -3876.534       -3020.681          40.400          35.100



 109894617.535 8  85632173.47247  20912243.660                    20912239.600
      1024.441         798.267          50.850          47.900



 125551180.056 7  97832105.03646  23891586.700                    23891584.460
     -3305.271       -2575.535          45.050          39.850    93755815.796 7
  23891588.540       -2468.126          47.950


 111910397.224 8  87202920.51648  21295832.380                    21295830.700
     -2412.193       -1879.632          51.800          51.850    83569476.484 8
  21295831.220       -1801.356          53.750


 135017684.194 6 105208572.03246  25693011.120                    25693010.680
     -1694.805       -1320.630          40.900          37.700   100824889.791 7
  25693011.320       -1265.656          42.800


 126092842.385 7  98254171.59147  23994669.040                    23994669.480
      2558.185        1993.390          45.000          45.050    94160250.494 7
  23994668.500        1910.224          45.300


 23 12  1  0 44  0.0000000  0 10G02G08G10G14G16G21G23G27G30G32
 114914765.362 8  89543964.08547  21867544.340                    21867539.700
      1773.133        1381.663          49.800          47.100



 106901657.143 8  83300006.38748  20342703.380                    20342702.940
       262.335         204.417          51.450          51.600    79829171.163 9
  20342702.640         195.962          56.350


 113005717.070 8  88056452.88148  21504248.520                    21504246.740
     -1546.561       -1205.111          52.850          52.950    84387425.947 9
  21504245.960       -1154.801          54.000


 128071023.020 7  99795578.74446  24371102.680                    24371099.740
      2788.524        2172.876          42.250          38.450    95637456.880 7
  24371102.320        2082.463          44.600


 132226497.552 6 103033616.33345  25161857.680                    25161854.000
     -3875.090       -3019.545          40.300          33.150



 109864025.906 8  85608335.85348  20906422.260                    20906418.220
      1014.289         790.355          50.250          48.650



 125650421.049 7  97909435.68346  23910471.860                    23910469.540
     -3311.526       -2580.410          44.700          41.350    93829924.341 8
  23910473.680       -2472.951          48.200


 111982929.548 8  87259439.19048  21309634.700                    21309633.140
     -2424.022       -1888.850          51.700          51.700    83623640.202 8
  21309633.480       -1810.084          53.850


 135068689.721 6 105248316.59645  25702717.120                    25702716.940
     -1706.327       -1329.606          39.900          34.100   100862978.289 7
  25702717.240       -1274.171          42.600


 126016221.314 7  98194466.86047  23980088.560                    23980088.980
      2549.128        1986.333          44.950          44.550    94103033.452 7
  23980088.020        1903.615          45.800


 23 12  1  0 44 30.0000000  0 10G02G08G10G14G16G21G23G27G30G32
 114861684.693 8  89502602.53247  21857443.300                    21857438.960
      1764.972        1375.303          49.550          47.650



 106894019.837 8  83294055.23348  20341250.200                    20341249.440
       246.162         191.813          51.400          51.400    79823467.978 9
  20341249.320         183.858          56.150


 113052343.994 8  88092785.55348  21513121.220                    21513119.380
     -1562.518       -1217.547          52.400          52.600    84422244.755 8
  21513118.840       -1166.806          53.750


 127987541.660 7  99730528.34146  24355216.800                    24355213.820
      2776.407        2163.432          42.250          38.650    95575116.929 7
  24355216.860        2073.186          44.400


 132342734.194 6 103124190.30746  25183976.740                    25183972.960
     -3874.602       -3019.170          38.950          37.500



 109833745.711 8  85584740.88948  20900660.060                    20900656.240
      1003.746         782.140          49.950          48.800



 125749871.533 7  97986929.54146  23929396.600                    23929394.520
     -3318.890       -2586.147          45.050          40.750    93904189.282 7
  23929398.600       -2478.300          47.800


 112055826.444 8  87316241.94648  21323506.460                    21323505.020
     -2436.327       -1898.437          51.400          51.350    83678076.172 8
  21323505.140       -1819.347          53.750


 135120047.477 6 105288335.54346  25712490.240                    25712489.940
     -1718.148       -1338.818          38.700          37.850   100901329.795 7
  25712490.320       -1283.069          42.650


 125939881.401 7  98134981.22347  23965561.580                    23965562.240
      2539.605        1978.915          43.850          43.950    94046026.390 7
  23965561.000        1896.384          44.800


 23 12  1  0 45  0.0000000  0 11G02G03G08G10G14G16G21G23G27G30G32
 114808846.551 8  89461429.97548  21847388.580                    21847384.420
      1757.690        1369.630          49.650          48.250



                                  25759693.920
      3987.464                          37.250                   101086586.678 7
  25759697.720        2977.411          43.400


 106886866.284 8  83288481.01748  20339889.100                    20339887.980
       230.767         179.817          51.300          51.250    79818126.027 9
  20339888.060         172.340          56.150


 113099445.730 8  88129488.21148  21522084.220                    21522082.340
     -1577.468       -1229.195          52.300          52.350    84457418.128 8
  21522082.000       -1177.984          53.650


 127904427.068 7  99665763.73646  24339400.660                    24339397.780
      2764.469        2154.132          42.700          39.200    95513050.826 7
  24339401.180        2064.625          44.750


 132458942.843 6 103214742.40645  25206090.540                    25206086.500
     -3872.905       -3017.854          39.200          32.300



 109803781.564 8  85561392.20448  20894958.100                    20894954.220
       994.093         774.617          50.100          48.600



 125849533.373 7  98064588.13046  23948361.740                    23948359.660
     -3325.058       -2590.953          45.050          41.800    93978612.098 8
  23948363.760       -2483.027          48.000


 112129091.297 8  87373331.42348  21337448.320                    21337447.040
     -2447.854       -1907.419          51.300          51.350    83732786.916 8
  21337447.040       -1827.904          53.750


 135171759.461 6 105328630.60046  25722330.800                    25722330.520
     -1729.300       -1347.504          38.600          36.250   100939945.868 7
  25722330.840       -1291.276          42.000


 125863829.889 7  98075720.31747  23951089.540                    23951090.000
      2530.570        1971.873          45.100          45.200    93989234.673 7
  23951089.180        1889.829          45.350


 23 12  1  0 45 30.0000000  0 11G02G03G08G10G14G16G21G23G27G30G32
 114756250.165 8  89420445.79047  21837379.940                    21837375.780
      1748.700        1362.623          49.800          47.850



 135248499.659 5 105388455.02245  25736934.460                    25736935.940
      3985.755        3105.796          33.300          33.150   100997269.069 7
  25736936.760        2977.078          42.600


 106880196.614 8  83283283.85948  20338620.000                    20338618.720
       213.749         166.558          51.050          51.100    79813145.427 9
  20338618.920         159.547          56.250


 113147019.367 8  88166558.57348  21531137.100                    21531135.140
     -1594.216       -1242.246          51.950          51.950    84492943.886 8
  21531134.860       -1190.509          53.600


 127821680.620 7  99601285.99446  24323654.680                    24323651.540
      2751.361        2143.919          42.400          37.750    95451259.653 7
  24323655.520        2054.806          44.700


 132575121.800 6 103305271.46846  25228198.480                    25228194.540
     -3872.476       -3017.521          38.700          37.050



 109774131.947 8  85538288.62148  20889315.880                    20889311.980
       982.521         765.601          49.650          48.850



 125949403.012 7  98142408.64047  23967366.300                    23967364.400
     -3332.998       -2597.142          44.000          42.050    94053190.081 8
  23967368.440       -2488.956          48.000


 112202721.767 8  87430705.80748  21351459.720                    21351458.620
     -2461.054       -1917.704          50.800          50.650    83787770.690 8
  21351458.680       -1837.765          53.850


 135223822.272 6 105369199.01446  25732238.020                    25732237.520
     -1741.949       -1357.362          39.950          37.500   100978823.927 7
  25732238.220       -1300.774          43.100


 125788068.518 7  98016685.52647  23936672.760                    23936673.240
      2519.925        1963.580          45.100          45.350    93932659.655 7
  23936672.420        1881.741          44.400


 23 12  1  0 46  0.0000000  0 11G02G03G08G10G14G16G21G23G27G30G32
 114703889.239 8  89379645.06948  21827416.160                    21827411.700
      1741.334        1356.884          50.000          48.000



 135128876.580 6 105295242.43645  25714170.140                    25714172.240
      3987.576        3107.209          36.950          34.350   100907940.456 6
  25714173.000        2977.831          40.950


 106874005.139 8  83278459.32348  20337441.820                    20337440.640
       198.360         154.566          51.300          51.000    79808521.911 9
  20337440.720         148.131          56.350


 113195056.387 8  88203990.02948  21540278.240                    21540276.240
     -1609.076       -1253.825          52.600          52.700    84528815.687 8
  21540275.860       -1201.521          53.450


 127739298.575 6  99537092.18646  24307978.000                    24307974.340
      2739.988        2135.060          41.950          40.900    95389740.601 7
  24307979.140        2046.028          44.950


 132691261.715 6 103395770.07246  25250299.320                    25250295.100
     -3870.988       -3016.359          39.400          36.450



 109744789.915 8  85515424.71248  20883732.260                    20883728.360
       972.970         758.158          49.850          49.050



 126049471.650 7  98220384.21046  23986408.640                    23986406.980
     -3338.913       -2601.749          44.600          41.900    94127916.663 8
  23986410.940       -2493.367          48.000


 112276710.386 8  87488359.26648  21365539.260                    21365538.160
     -2472.308       -1926.475          50.800          50.650    83843021.910 8
  21365538.420       -1846.147          53.900


 135276227.110 6 105410033.93845  25742210.260                    25742209.760
     -1752.655       -1365.707          37.550          35.250   101017957.417 6
  25742210.660       -1308.666          41.750


 125712593.859 7  97957874.09847  23922310.660                    23922310.640
      2510.971        1956.602          45.250          44.850    93876298.724 7
  23922310.340        1875.022          45.450


 23 12  1  0 46 30.0000000  0 11G02G03G08G10G14G16G21G23G27G30G32
 114651772.664 8  89339034.74647  21817498.840                    21817493.960
      1732.934        1350.338          50.600          47.650



 135009249.597 6 105202026.80245  25691405.600                    25691408.200
      3987.790        3107.380          36.800          35.150   100818608.852 6
  25691408.720        2977.642          39.950


 106868301.031 8  83274014.56648  20336356.380                    20336355.460
       181.925         141.760          51.400          51.450    79804262.353 9
  20336355.160         135.885          55.950


 113243563.935 8  88241788.11748  21549508.940                    21549507.020
     -1624.788       -1266.068          52.450          52.400    84565038.854 8
  21549506.360       -1213.359          53.050


 127657292.036 7  99473190.98546  24292372.780                    24292368.740
      2727.213        2125.102          42.200          40.750    95328501.954 7
  24292374.040        2036.588          44.950


 132807367.951 6 103486242.40445  25272393.840                    25272389.360
     -3869.829       -3015.456          39.100          35.600



 109715764.999 8  85492807.90448  20878209.040                    20878205.100
       962.266         749.818          49.950          48.750



 126149745.480 7  98298519.66447  24005490.180                    24005488.420
     -3346.095       -2607.346          43.850          42.300    94202796.460 7
  24005492.480       -2498.580          47.700


 112351064.595 8  87546297.59648  21379688.380                    21379687.220
     -2484.561       -1936.021          50.950          50.900    83898546.143 8
  21379687.720       -1855.384          53.650


 135328980.374 6 105451140.37046  25752248.960                    25752248.360
     -1764.180       -1374.690          38.850          37.350   101057351.077 6
  25752249.380       -1317.516          41.550


 125637417.366 7  97899295.03947  23908005.300                    23908004.960
      2500.668        1948.572          45.800          45.750    93820160.449 7
  23908004.740        1867.372          44.300


 23 12  1  0 47  0.0000000  0 11G02G03G08G10G14G16G21G23G27G30G32
 114599893.929 8  89298609.75847  21807626.720                    21807621.460
      1725.266        1344.363          51.000          47.150



 134889613.386 6 105108803.93445  25668639.300                    25668641.480
      3988.150        3107.654          36.550          35.200   100729270.317 6
  25668642.340        2978.044          41.300


 106863078.561 8  83269945.09948  20335362.480                    20335361.880
       165.893         129.267          50.700          50.700    79800362.446 9
  20335361.180         123.950          55.850


 113292533.141 8  88279945.94248  21558827.480                    21558825.740
     -1640.066       -1277.974          52.250          52.150    84601606.769 8
  21558824.780       -1224.753          53.000


 127575656.631 7  99409578.97946  24276838.080                    24276833.800
      2714.759        2115.396          42.300          39.450    95267540.444 7
  24276839.400        2027.337          45.350


 132923432.819 6 103576682.56946  25294480.280                    25294475.820
     -3867.821       -3013.887          38.150          36.250



 109687049.388 8  85470432.10848  20872744.620                    20872740.680
       952.047         741.855          49.650          49.150



 126250215.095 7  98376807.64546  24024608.840                    24024607.140
     -3352.311       -2612.192          43.300          40.750    94277822.455 7
  24024611.260       -2503.412          47.550


 112425776.309 8  87604514.50848  21393905.560                    21393904.280
     -2496.377       -1945.229          50.900          50.750    83954337.339 8
  21393904.900       -1864.217          53.650


 135382072.733 6 105492511.02745  25762352.220                    25762351.520
     -1775.353       -1383.391          37.900          32.950   101096997.965 6
  25762352.620       -1325.796          40.900


 125562534.924 7  97840945.09847  23893755.920                    23893755.080
      2491.029        1941.063          46.500          46.350    93764241.766 7
  23893755.220        1860.182          44.800


 23 12  1  0 47 30.0000000  0 11G02G03G08G10G14G16G21G23G27G30G32
 114548262.706 8  89258377.64947  21797801.580                    21797796.240
      1717.008        1337.930          51.050          46.750



 134769978.906 5 105015582.43845  25645873.340                    25645874.900
      3987.770        3107.347          34.350          33.350   100639933.048 6
  25645876.280        2978.037          39.400


 106858347.361 8  83266258.43948  20334462.040                    20334461.720
       149.531         116.518          51.000          51.100    79796829.395 9
  20334460.800         111.705          55.850


 113341971.800 8  88318469.57248  21568235.360                    21568233.800
     -1655.586       -1290.066          52.300          52.400    84638525.250 8
  21568232.580       -1236.334          52.950


 127494404.242 6  99346265.44646  24261376.220                    24261371.900
      2702.096        2105.531          41.750          40.200    95206864.973 7
  24261377.420        2017.824          45.450


 133039462.396 6 103667095.12546  25316559.860                    25316555.800
     -3866.869       -3013.146          39.000          36.650



 109658652.748 8  85448304.85548  20867340.960                    20867336.960
       941.342         733.513          49.800          49.000



 126350887.483 7  98455253.67646  24043766.020                    24043764.460
     -3359.011       -2617.412          43.100          41.950    94352999.870 7
  24043768.540       -2508.325          47.300


 112500853.737 8  87663016.38248  21408192.380                    21408191.020
     -2508.530       -1954.699          51.300          51.300    84010401.626 8
  21408191.600       -1873.245          53.650


 135435511.116 5 105534151.30645  25772521.280                    25772520.620
     -1786.738       -1392.260          35.600          35.150   101136903.229 6
  25772521.620       -1334.279          39.750


 125487958.800 7  97782833.85947  23879564.720                    23879563.660
      2480.791        1933.085          47.150          47.300    93708551.827 7
  23879563.560        1852.564          44.150


 23 12  1  0 48  0.0000000  0 11G02G03G08G10G14G16G21G23G27G30G32
 114496866.554 8  89218328.70747  21788021.200                    21788015.820
      1708.919        1331.626          50.850          47.850



 134650328.853 5 104922342.28145  25623105.700                    25623107.700
      3987.753        3107.342          35.300          34.650   100550589.431 6
  25623108.720        2977.869          41.850


 106854095.743 8  83262945.49248  20333652.900                    20333652.760
       133.247         103.829          51.450          51.550    79793654.484 9
  20333651.740          99.578          55.850


 113391865.337 8  88357347.64948  21577729.700                    21577728.360
     -1671.127       -1302.177          52.050          52.100    84675783.405 8
  21577726.980       -1247.906          52.850


 127413525.124 6  99283242.75246  24245985.200                    24245981.120
      2689.380        2095.619          41.600          40.700    95146468.232 7
  24245986.540        2008.213          45.550


 133155441.796 6 103757468.67146  25338630.180                    25338626.440
     -3865.319       -3011.939          40.500          36.100



 109630562.418 8  85426416.28548  20861995.620                    20861991.560
       930.836         725.326          50.250          48.900



 126451747.907 7  98533846.19046  24062958.920                    24062957.580
     -3365.617       -2622.559          42.750          41.650    94428317.709 7
  24062961.540       -2513.282          46.700


 112576283.354 8  87721792.69548  21422546.260                    21422544.960
     -2520.672       -1964.161          51.250          50.900    84066728.916 8
  21422545.380       -1882.235          53.600


 135489280.933 6 105576049.82646  25782753.300                    25782752.920
     -1798.608       -1401.517          36.600          36.100   101177055.932 6
  25782753.620       -1342.819          38.500


 125413679.467 7  97724953.87647  23865429.840                    23865428.620
      2470.714        1925.232          47.150          47.350    93653083.531 7
  23865428.480        1844.854          44.100


 23 12  1  0 48 30.0000000  0 12G02G03G08G10G14G16G21G22G23G27G30G32
 114445715.332 8  89178470.61647  21778287.420                    21778282.160
      1700.935        1325.404          50.350          47.750



 134530687.245 6 104829115.98645  25600338.640                    25600340.920
      3987.994        3107.532          36.900          35.800   100461247.612 7
  25600341.840        2977.860          42.050


 106850333.889 8  83260014.17148  20332937.040                    20332936.820
       117.067          91.221          51.000          51.050    79790845.307 9
  20332935.880          87.422          55.900


 113442221.318 8  88396586.07148  21587312.000                    21587310.820
     -1686.272       -1313.979          51.650          51.650    84713386.895 8
  21587309.420       -1259.296          52.900


 127333030.895 6  99220519.98046  24230667.340                    24230663.740
      2676.378        2085.489          41.600          40.850    95086358.892 7
  24230668.820        1998.738          45.850


 133271377.900 6 103847808.45345  25360692.220                    25360688.500
     -3864.003       -3010.912          40.400          32.900



 109602787.138 8  85404773.21248  20856710.260                    20856706.120
       920.491         717.266          50.500          48.550



 136270588.437 5 106184881.33255  25931432.200                    25931432.640
      3017.616        2351.390          35.650          30.650



 126552803.054 6  98612590.45846  24082188.840                    24082187.700
     -3372.016       -2627.544          41.800          41.050    94503780.962 7
  24082191.580       -2517.973          46.400


 112652073.105 8  87780849.62348  21436968.680                    21436967.460
     -2532.417       -1973.313          50.850          50.900    84123325.141 8
  21436967.600       -1891.081          53.600


 135543388.893 5 105618223.96145  25793049.740                    25793049.060
     -1810.019       -1410.379          33.800          32.950   101217461.186 5
  25793049.900       -1350.970          35.500


 125339708.881 7  97667314.49147  23851353.560                    23851352.520
      2460.521        1917.290          46.400          46.550    93597845.777 7
  23851351.840        1837.438          43.500


 23 12  1  0 49  0.0000000  0 12G02G03G08G10G14G16G21G22G23G27G30G32
 114394806.077 8  89138801.07747  21768599.660                    21768594.580
      1692.819        1319.080          50.750          47.500



 134411047.821 5 104735890.60145  25577572.120                    25577573.960
      3987.927        3107.479          34.150          32.700   100371906.591 6
  25577574.940        2977.779          41.350


 106847059.253 8  83257462.50348  20332314.020                    20332313.520
       100.881          78.608          51.600          51.650    79788399.958 9
  20332312.700          75.206          56.050


 113493034.610 8  88436180.83648  21596981.380                    21596980.260
     -1701.668       -1325.976          51.850          51.700    84751331.882 8
  21596978.920       -1270.782          53.150


 127252921.024 6  99158096.71546  24215422.820                    24215419.800
      2663.541        2075.490          41.050          39.850    95026536.596 7
  24215424.420        1989.108          46.000


 133387266.183 6 103938110.97445  25382745.120                    25382741.480
     -3862.348       -3009.620          40.850          34.750



 109575324.102 8  85383373.45648  20851484.300                    20851480.080
       910.136         709.197          50.550          48.600



 136180158.638 6 106114397.53346  25914224.400                    25914220.000
      3010.879        2346.138          38.750          36.200



 126654047.494 6  98691482.22246  24101454.820                    24101453.920
     -3378.037       -2632.239          40.000          39.450    94579385.571 7
  24101457.580       -2522.751          46.100


 112728218.777 8  87840183.89448  21451458.700                    21451457.720
     -2544.299       -1982.571          50.800          50.750    84180187.151 8
  21451457.720       -1900.048          53.700


 135597829.510 5                  25803409.140
     -1819.835                          30.700                   101258114.936 6
  25803409.560       -1359.521          36.000


 125266046.905 7  97609915.56947  23837336.060                    23837335.160
      2449.802        1908.938          46.200          45.850    93542838.460 7
  23837334.020        1829.554          43.750


 23 12  1  0 49 30.0000000  0 12G02G03G08G10G14G16G21G22G23G27G30G32
 114344145.016 8  89099324.92547  21758959.180                    21758954.180
      1684.446        1312.556          50.650          47.600



 134291417.262 6 104642672.11545  25554807.160                    25554809.100
      3987.186        3106.896          36.250          34.300   100282572.253 7
  25554810.120        2977.443          42.150


 106844278.598 8  83255295.76148  20331785.040                    20331784.300
        84.471          65.821          51.950          51.950    79786323.491 9
  20331783.460          63.016          56.050


 113544309.174 8  88476135.04248  21606738.640                    21606737.400
     -1716.930       -1337.868          51.950          52.050    84789621.327 8
  21606736.200       -1282.133          53.150


 127173203.810 6  99095979.41146  24200252.920                    24200250.480
      2650.607        2065.410          41.750          40.250    94967007.521 7
  24200254.820        1979.200          46.250


 133503109.436 6 104028378.40145  25404789.280                    25404785.760
     -3860.910       -3008.500          39.900          35.600



 109548178.562 8  85362221.09348  20846318.760                    20846314.380
       899.535         700.937          50.450          48.800



 136089935.654 6 106044093.94446  25897055.060                    25897052.020
      3003.878        2340.686          38.750          37.250



 126755484.582 6  98770524.08846  24120757.300                    24120756.760
     -3384.404       -2637.200          40.850          39.700    94655134.032 7
  24120760.260       -2527.423          45.400


 112804724.933 8  87899799.05448  21466017.340                    21466016.620
     -2556.084       -1991.755          50.550          50.350    84237318.354 8
  21466016.440       -1908.951          53.500



                                                                 101299019.700 5
  25813833.220       -1367.289          34.250


 125192702.052 7  97552763.75247  23823378.880                    23823378.260
      2439.426        1900.852          46.650          46.600    93488067.968 7
  23823376.700        1821.619          43.550


 23 12  1  0 50  0.0000000  0 12G02G03G08G10G14G16G21G22G23G27G30G32
 114293721.211 8  89060033.66347  21749363.880                    21749358.760
      1676.678        1306.502          50.550          47.700



 134171786.403 6 104549453.33846  25532042.240                    25532044.360
      3987.385        3107.059          37.650          36.900   100193237.603 7
  25532044.820        2977.726          42.400


 106841981.047 8  83253505.44748  20331348.060                    20331347.020
        68.246          53.179          51.800          51.900    79784607.766 9
  20331346.200          51.043          56.000


 113596032.207 8  88516438.70648  21616581.280                    21616579.880
     -1731.719       -1349.392          51.900          51.850    84828245.668 8
  21616578.820       -1293.120          53.100


 127093870.697 7  99034161.38646  24185156.260                    24185154.240
      2638.053        2055.627          42.400          41.550    94907765.251 7
  24185158.260        1969.900          46.600


 133618893.858 6 104118599.89645  25426822.320                    25426819.180
     -3858.825       -3006.883          39.100          34.900



 109521339.202 8  85341307.29548  20841211.500                    20841206.960
       889.374         693.018          50.800          48.900



 135999910.832 6 105973944.76345  25879923.680                    25879920.220
      2997.537        2335.741          37.850          35.600



 126857100.901 6  98849705.62446  24140094.060                    24140093.800
     -3390.218       -2641.730          39.700          39.200    94731016.321 7
  24140096.980       -2531.754          44.200


 112881579.306 8  87959685.56348  21480642.240                    21480641.620
     -2567.656       -2000.771          50.750          50.700    84294709.585 8
  21480641.380       -1917.450          53.300


                                  25824318.760
     -1843.437                          29.050                   101340172.314 5
  25824318.360       -1375.823          31.950


 125119666.161 7  97495852.69447  23809480.560                    23809480.100
      2429.101        1892.806          47.000          46.950    93433528.179 7
  23809478.500        1814.032          44.150


 23 12  1  0 50 30.0000000  0 12G02G03G08G10G14G16G21G22G23G27G30G32
 114243539.156 8  89020930.76647  21739814.600                    21739809.260
      1668.741        1300.318          50.700          47.400



 134052161.695 5 104456239.41745  25509278.400                    25509280.380
      3987.236        3106.939          35.600          31.600   100103907.645 7
  25509281.100        2977.517          42.550


 106840172.109 8  83252095.86848  20331003.980                    20331002.680
        52.160          40.645          51.800          51.850    79783256.931 9
  20331002.080          38.881          56.350


 113648206.015 8  88557093.62348  21626509.660                    21626508.180
     -1746.654       -1361.028          51.750          51.600    84867206.629 8
  21626507.200       -1304.350          53.300


 127014928.561 7  98972648.04246  24170134.080                    24170132.280
      2624.871        2045.357          43.050          41.500    94848814.947 7
  24170136.140        1960.140          46.800


 133734622.157 6 104208777.84445  25448844.880                    25448841.360
     -3856.811       -3005.305          39.250          33.550



 109494810.924 8  85320635.91648  20836163.400                    20836158.820
       879.136         685.041          51.050          48.400



 135910091.301 6 105903955.54845  25862831.360                    25862827.740
      2990.180        2330.011          37.350          33.750



 126958898.350 6  98929028.29846  24159465.300                    24159465.260
     -3396.360       -2646.517          39.550          39.050    94807033.904 7
  24159467.880       -2536.269          43.800


 112958785.050 8  88019845.86648  21495334.000                    21495333.420
     -2579.311       -2009.853          50.600          50.400    84352363.211 8
  21495333.340       -1926.156          53.400



                                                                 101381559.328 5
  25834864.980       -1383.629          31.900


 125046946.370 7  97439187.93947  23795642.440                    23795642.020
      2418.823        1884.798          47.500          47.550    93379224.453 7
  23795640.720        1806.157          45.200


 23 12  1  0 51  0.0000000  0 12G02G03G08G10G14G16G21G22G23G27G30G32
 114193605.202 8  88982021.19747  21730312.460                    21730306.980
      1660.346        1293.776          50.550          47.800



 133932550.642 5 104363036.04645  25486517.140                    25486518.900
      3987.070        3106.812          35.200          33.950   100014587.795 7
  25486519.820        2977.046          43.650


 106838857.898 8  83251071.80248  20330753.920                    20330752.520
        35.521          27.678          51.550          51.450    79782275.530 9
  20330752.240          26.570          56.700


 113700834.717 8  88598103.00648  21636524.580                    21636523.160
     -1761.814       -1372.842          51.400          51.350    84906507.279 8
  21636522.120       -1315.639          53.550


 126936385.558 7  98911445.67946  24155187.900                    24155186.160
      2611.354        2034.820          43.250          41.600    94790162.689 7
  24155189.960        1950.126          46.950


 133850297.535 6 104298914.46145  25470857.140                    25470853.620
     -3854.889       -3003.810          40.150          35.050



 109468598.920 8  85300210.97848  20831175.420                    20831170.780
       868.503         676.756          50.550          49.000



 135820484.543 6 105834132.07645  25845779.680                    25845776.380
      2983.241        2324.601          36.750          34.750



 127060880.293 6  99008494.74146  24178871.880                    24178871.740
     -3402.466       -2651.271          41.000          40.150    94883189.240 7
  24178874.000       -2540.851          43.900


 113036346.641 8  88080283.45548  21510093.420                    21510092.900
     -2591.374       -2019.253          50.450          50.250    84410282.561 8
  21510093.100       -1935.088          53.800



                                                                 101423192.29015
  25845474.220       -1391.609          31.750


 124974551.168 7  97382776.10547  23781866.100                    23781865.700
      2407.773        1876.188          47.550          47.550    93325163.108 7
  23781865.000        1798.060          46.550


 23 12  1  0 51 30.0000000  0 11G02G03G08G10G14G16G21G22G23G27G32
 114143907.525 8  88943295.74347  21720855.220                    21720849.700
      1652.341        1287.539          50.400          47.400



 133812943.063 6 104269835.40745  25463756.680                    25463758.300
      3986.722        3106.540          36.950          33.950    99925270.463 6
  25463758.920        2977.155          40.950


 106838026.675 8  83250424.09548  20330595.600                    20330594.340
        19.303          15.041          51.250          51.350    79781654.818 9
  20330594.260          14.472          56.700


 113753904.209 8  88639455.85448  21646623.280                    21646622.080
     -1776.529       -1384.309          51.300          51.350    84946137.086 8
  21646620.900       -1326.598          53.400


 126858232.066 7  98850546.84847  24140315.920                    24140314.120
      2598.261        2024.618          43.500          42.250    94731801.307 7
  24140317.920        1940.310          46.950


 133965905.480 6 104388998.52346  25492856.520                    25492853.380
     -3852.729       -3002.129          38.200          36.000



 109442690.827 8  85280022.84248  20826245.280                    20826240.580
       858.273         668.784          50.650          48.800



 135731080.811 6 105764466.89645  25828766.740                    25828763.440
      2976.192        2319.112          37.400          35.900



 127163032.218 6  99088093.63346  24198311.020                    24198310.780
     -3408.027       -2655.608          40.950          40.300    94959471.533 7
  24198312.500       -2544.995          43.000


 113114250.737 8  88140987.92748  21524918.000                    21524917.460
     -2602.654       -2028.043          50.550          50.800    84468457.688 8
  21524918.000       -1943.594          53.750


 124902471.309 7  97326609.99247  23768149.700                    23768149.220
      2397.073        1867.851          47.600          47.400    93271337.256 7
  23768149.300        1790.067          47.100


 23 12  1  0 52  0.0000000  0 11G02G03G08G10G14G16G21G22G23G27G32
 114094457.720 8  88904763.43147  21711445.200                    21711439.720
      1644.527        1281.450          50.000          47.950



 133693352.668 5 104176648.11145  25440999.260                    25441000.580
      3986.861        3106.654          35.800          33.700    99835966.091 6
  25441001.740        2976.740          39.750


 106837691.020 8  83250162.54048  20330531.580                    20330530.440
         3.206           2.498          51.500          51.450    79781404.166 9
  20330530.540           2.448          56.650


 113807423.928 8  88681159.53048  21656807.620                    21656806.720
     -1791.031       -1395.608          50.800          50.750    84986103.113 8
  21656805.400       -1337.502          53.250


 126780482.113 7  98789962.45846  24125520.700                    24125518.820
      2585.231        2014.465          43.300          41.500    94673741.268 7
  24125522.600        1930.575          46.950


 134081455.853 6 104479037.74345  25514844.660                    25514841.660
     -3850.180       -3000.137          37.600          31.550



 109417097.614 8  85260080.07848  20821374.980                    20821370.380
       848.155         660.899          50.350          49.000



 135641894.176 6 105694970.75745  25811795.240                    25811791.520
      2969.505        2313.896          36.550          33.900



 127265363.314 7  99167832.16146  24217784.220                    24217783.940
     -3413.526       -2659.891          42.750          38.750    95035887.633 7
  24217785.140       -2549.101          42.700


 113192507.687 8  88201967.35048  21539809.680                    21539809.180
     -2614.020       -2036.899          50.150          50.200    84526896.296 8
  21539809.800       -1952.007          53.500


 124830721.070 7  97270700.72547  23754496.020                    23754495.520
      2386.552        1859.650          47.050          46.700    93217757.565 7
  23754496.400        1782.119          47.800


 23 12  1  0 52 30.0000000  0 11G02G03G08G10G14G16G21G22G23G27G32
 114045252.416 8  88866421.62648  21702081.760                    21702076.360
      1636.132        1274.908          50.100          48.000



 133573777.939 6 104083473.14045  25418244.860                    25418246.280
      3985.454        3105.556          36.700          34.000    99746673.336 7
  25418247.520        2976.245          43.150


 106837847.857 8  83250284.74648  20330561.320                    20330560.300
       -13.257         -10.330          51.900          51.900    79781521.288 9
  20330560.480          -9.986          56.750


 113861388.549 8  88723209.88448  21667076.660                    21667076.020
     -1806.127       -1407.371          50.600          50.500    85026401.361 8
  21667074.560       -1348.795          53.200


 126703134.547 7  98729691.62346  24110802.040                    24110800.020
      2571.394        2003.686          43.750          41.950    94615981.717 7
  24110803.800        1920.290          46.750


 134196942.084 6 104569026.91346  25536821.000                    25536817.980
     -3848.067       -2998.500          37.650          37.250



 109391816.164 8  85240380.25748  20816563.960                    20816559.540
       837.529         652.621          50.150          49.050



 135552923.177 6 105625642.79146  25794864.840                    25794861.340
      2962.554        2308.483          37.800          36.350



 127367867.623 7  99247705.65146  24237290.500                    24237289.840
     -3419.639       -2664.654          42.550          39.750    95112433.070 7
  24237290.820       -2553.677          42.450


 113271112.649 8  88263217.94848  21554767.640                    21554767.180
     -2625.973       -2046.213          50.300          50.200    84585594.787 8
  21554767.680       -1960.918          53.400


 124759299.683 7  97215047.71347  23740904.900                    23740904.320
      2375.199        1850.805          46.950          47.000    93164423.440 8
  23740905.800        1773.675          48.300


 23 12  1  0 53  0.0000000  0 11G02G03G08G10G14G16G21G22G23G27G32
 113996292.562 8  88828271.09647  21692765.020                    21692759.780
      1627.768        1268.391          50.300          47.700



 133454221.362 6 103990312.15545  25395494.100                    25395495.040
      3985.041        3105.236          36.350          32.900    99657394.168 6
  25395496.720        2975.655          40.750


 106838498.417 8  83250791.67648  20330685.160                    20330684.160
       -30.157         -23.499          51.600          51.600    79782007.083 9
  20330684.340         -22.411          56.550


 113915796.583 8  88765605.74048  21677430.140                    21677429.640
     -1821.186       -1419.106          51.100          51.000    85067030.719 8
  21677428.080       -1359.907          52.800


 126626192.443 7  98669736.73046  24096160.480                    24096158.440
      2557.747        1993.049          43.850          41.700    94558524.948 7
  24096162.260        1910.077          46.700


 134312362.953 6 104658965.17045  25558784.700                    25558782.180
     -3846.870       -2997.566          39.400          32.300



 109366846.593 8  85220923.46248  20811812.300                    20811807.880
       826.997         644.414          49.600          48.600



 135464170.337 6 105556484.68645  25777975.720                    25777972.040
      2954.332        2302.068          37.600          31.100



 127470543.310 7  99327712.68846  24256829.300                    24256828.540
     -3425.504       -2669.225          43.400          39.300    95189106.488 7
  24256829.580       -2558.067          43.250


 113350064.899 8  88324739.16648  21569791.760                    21569791.200
     -2637.778       -2055.412          50.550          50.500    84644552.624 8
  21569791.480       -1969.689          53.050


 124688210.504 7  97159653.56847  23727377.040                    23727376.540
      2363.733        1841.870          47.800          47.700    93111337.377 8
  23727378.300        1765.237          48.300


 23 12  1  0 53 30.0000000  0 11G02G03G08G10G14G16G21G22G23G27G32
 113947572.314 8  88790307.27847  21683493.840                    21683488.760
      1619.373        1261.850          50.650          47.650



 133334678.875 6 103897162.21646  25372745.720                    25372747.160
      3984.003        3104.418          36.950          36.250    99568125.487 6
  25372748.320        2975.129          40.800


 106839637.054 8  83251678.92048  20330901.820                    20330900.900
       -46.602         -36.312          51.600          51.450    79782857.356 9
  20330901.040         -34.795          56.400


 113970640.209 8  88808341.02548  21687866.500                    21687866.140
     -1835.872       -1430.550          50.700          50.700    85107985.371 8
  21687864.420       -1370.896          52.700


 126549652.208 7  98610094.98746  24081595.380                    24081593.340
      2543.813        1982.192          43.750          41.750    94501368.269 7
  24081597.140        1899.853          46.300


 134427709.276 6 104748845.42646  25580734.640                    25580731.700
     -3843.644       -2995.048          38.000          37.250



 109342182.932 8  85201705.01648  20807118.900                    20807114.400
       816.383         636.143          49.950          48.600



 135375632.288 6 105487494.02945  25761127.540                    25761123.780
      2947.023        2296.377          37.150          35.650



 127573382.057 7  99407846.79146  24276398.980                    24276398.140
     -3431.369       -2673.792          43.700          38.700    95265901.645 7
  24276399.540       -2562.041          43.300


 113429357.170 8  88386525.34648  21584880.600                    21584879.880
     -2649.179       -2064.295          50.300          50.200    84703764.383 8
  21584880.100       -1978.302          53.050


 124617450.235 7  97104515.71447  23713911.820                    23713911.180
      2352.684        1833.261          47.500          47.650    93058496.941 8
  23713913.120        1756.825          48.100


 23 12  1  0 54  0.0000000  0 11G02G03G08G10G14G16G21G22G23G27G32
 113899100.684 8  88752537.18747  21674269.960                    21674264.940
      1611.395        1255.632          50.600          47.350



 133215160.965 6 103804031.45946  25350002.180                    25350003.560
      3984.041        3104.443          37.600          38.300    99478875.164 7
  25350004.880        2974.639          43.350


 106841272.910 8  83252953.61348  20331213.120                    20331212.100
       -62.978         -49.073          51.400          51.400    79784078.935 9
  20331212.300         -46.996          56.400


 114025925.707 8  88851420.63848  21698387.080                    21698386.720
     -1850.350       -1441.831          51.350          51.400    85149270.004 8
  21698384.880       -1381.756          52.600


 126473524.737 7  98550774.88046  24067108.800                    24067106.780
      2530.438        1971.771          43.500          41.800    94444519.837 7
  24067110.500        1889.721          46.500


 134542987.912 6 104838672.82845  25602671.640                    25602668.700
     -3841.304       -2993.227          38.900          33.200



 109317833.245 8  85182731.22748  20802485.300                    20802480.740
       806.250         628.246          50.000          48.200



 135287320.040 6 105418679.29145  25744322.300                    25744319.040
      2940.181        2291.042          38.050          34.050



 127676389.904 7  99488112.65846  24296000.860                    24295999.800
     -3436.484       -2677.780          44.500          40.300    95342823.140 7
  24296001.620       -2566.263          43.850


 113508996.699 8  88448582.11148  21600035.480                    21600034.760
     -2660.623       -2073.213          50.100          50.050    84763235.444 8
  21600034.800       -1986.767          53.300


 124547030.140 7  97049642.92347  23700511.360                    23700510.680
      2341.637        1824.651          47.200          47.300    93005910.538 8
  23700512.480        1748.507          48.250


 23 12  1  0 54 30.0000000  0 11G02G03G08G10G14G16G21G22G23G27G32
 113850873.407 8  88714957.49247  21665092.580                    21665087.560
      1603.649        1249.597          50.350          47.900



 133095665.613 6 103710918.26546  25327262.820                    25327264.340
      3982.992        3103.630          38.500          37.150    99389641.698 7
  25327265.620        2974.229          42.750


 106843402.156 8  83254612.75348  20331618.280                    20331617.160
       -79.083         -61.624          51.050          51.000    79785668.942 9
  20331617.340         -59.099          56.250


 114081646.829 8  88894839.68848  21708990.520                    21708990.120
     -1864.493       -1452.853          51.300          51.350    85190879.933 8
  21708988.280       -1392.373          52.550


 126397808.210 7  98491774.98246  24052700.440                    24052698.340
      2517.199        1961.454          44.150          40.750    94387978.276 7
  24052702.060        1879.601          46.250


 134658192.814 6 104928442.88845  25624594.520                    25624591.560
     -3839.095       -2991.504          37.250          35.350



 109293793.355 8  85163998.85748  20797910.620                    20797906.120
       796.229         620.438          49.950          48.800



 135199231.586 5 105350038.99245  25727559.480                    25727556.520
      2932.710        2285.229          35.650          33.250



 127779560.308 7  99568505.18946  24315633.620                    24315632.440
     -3441.659       -2681.814          43.600          39.800    95419865.966 7
  24315634.640       -2569.969          44.000


 113588977.929 8  88510905.13348  21615255.360                    21615254.540
     -2671.727       -2081.866          49.850          49.800    84822961.662 8
  21615254.760       -1995.073          53.300


 124476948.709 7  96995034.03447  23687175.420                    23687174.580
      2330.554        1816.017          47.400          47.650    92953577.000 7
  23687175.960        1740.283          47.800


 23 12  1  0 55  0.0000000  0 11G02G03G08G10G14G16G21G22G23G27G32
 113802890.730 8  88677568.38847  21655961.820                    21655956.640
      1594.925        1242.798          50.550          47.900



 132976194.518 6 103617823.99346  25304528.220                    25304529.740
      3981.415        3102.405          37.950          37.750    99300426.337 7
  25304531.080        2973.307          43.650


 106846025.688 8  83256657.05948  20332117.500                    20332116.420
       -95.963         -74.776          51.300          51.300    79787628.065 9
  20332116.440         -71.702          56.400


 114137801.605 8  88938596.64848  21719676.500                    21719675.980
     -1879.385       -1464.456          51.000          50.900    85232813.690 8
  21719674.220       -1403.450          52.650


 126322504.929 7  98433097.08646  24038370.640                    24038368.280
      2502.911        1950.320          43.400          40.850    94331745.287 7
  24038372.240        1869.030          46.450


 134773320.849 6 105018152.96546  25646502.740                    25646499.600
     -3836.806       -2989.718          38.200          36.300



 109270062.550 8  85145507.31748  20793394.780                    20793390.180
       785.468         612.054          49.250          49.150



 135111369.072 6 105281574.63845  25710839.860                    25710836.720
      2924.500        2278.829          38.350          34.350



 127882890.735 7  99649022.43546  24335296.720                    24335295.320
     -3447.424       -2686.303          43.500          40.000    95497028.327 7
  24335298.060       -2574.342          44.500


 113669299.422 8  88573493.29848  21630540.020                    21630539.100
     -2683.475       -2091.020          49.550          49.450    84882941.975 8
  21630539.600       -2003.837          53.550


 124407208.518 7  96940691.04447  23673904.380                    23673903.360
      2318.623        1806.720          47.600          47.700    92901498.302 7
  23673904.280        1731.487          47.800


 23 12  1  0 55 30.0000000  0 11G02G03G08G10G14G16G21G22G23G27G32
 113755154.642 8  88640371.45147  21646877.940                    21646872.640
      1587.461        1236.983          50.650          47.950



 132856751.350 5 103524751.49445  25281798.800                    25281800.500
      3981.091        3102.158          35.650          35.800    99211231.866 7
  25281801.920        2973.072          43.850


 106849144.982 8  83259087.67048  20332711.120                    20332710.080
      -111.933         -87.221          51.450          51.300    79789957.403 9
  20332710.020         -83.596          56.600


 114194389.874 8  88982691.40548  21730444.920                    21730444.200
     -1893.001       -1475.066          51.100          51.100    85275071.169 8
  21730442.680       -1413.666          52.700


 126247618.973 7  98374744.36346  24024120.300                    24024117.460
      2489.633        1939.973          43.350          40.650    94275823.937 7
  24024121.840        1859.061          46.400


 134888370.985 6 105107802.32845  25668396.000                    25668393.680
     -3833.558       -2987.195          38.350          34.500



 109246642.712 8  85127258.10148  20788938.100                    20788933.560
       775.801         604.521          49.900          49.150



 135023736.531 6 105213289.58645  25694163.760                    25694160.520
      2917.702        2273.538          37.050          33.350



 127986380.587 7  99729663.87046  24354990.080                    24354988.700
     -3451.966       -2689.847          43.650          38.600    95574309.702 7
  24354991.700       -2577.713          44.900


 113749961.647 8  88636346.97148  21645889.540                    21645888.560
     -2693.995       -2099.217          50.000          49.950    84943176.743 8
  21645889.160       -2011.797          53.300


 124337814.009 7  96886617.43047  23660699.080                    23660697.960
      2307.595        1798.128          47.650          47.600    92849677.762 7
  23660698.200        1723.243          47.400


 23 12  1  0 56  0.0000000  0 11G02G03G08G10G14G16G21G22G23G27G32
 113707664.361 8  88603366.04948  21637840.840                    21637835.420
      1578.792        1230.229          50.800          48.000



 132737337.380 6 103431701.69646  25259075.060                    25259076.500
      3979.592        3100.982          37.700          36.400    99122059.182 7
  25259078.240        2971.993          43.000


 106852760.688 8  83261905.10248  20333399.220                    20333398.260
      -128.834        -100.390          51.900          51.900    79792657.437 9
  20333398.200         -96.167          56.400


 114251408.556 8  89027121.54348  21741295.200                    21741294.260
     -1907.962       -1486.724          51.350          51.250    85317650.051 8
  21741293.060       -1424.653          52.450


 126173151.915 7  98316718.09246  24009949.540                    24009946.520
      2475.171        1928.704          43.150          39.250    94220215.414 7
  24009951.280        1848.396          46.300


 135003340.940 6 105197389.22445  25690274.060                    25690272.420
     -3831.046       -2985.233          39.600          32.900



 109223532.845 8  85109250.41848  20784540.500                    20784536.200
       765.082         596.168          49.950          49.000



 134936335.667 6 105145184.97645  25677531.920                    25677528.600
      2909.568        2267.190          37.700          34.800



 128090026.650 7  99810427.05746  24374713.140                    24374711.720
     -3457.724       -2694.331          43.850          38.600    95651707.748 7
  24374714.900       -2581.844          44.400


 113830962.409 8  88699464.43448  21661303.500                    21661302.300
     -2705.681       -2108.323          49.900          49.900    85003664.297 8
  21661303.180       -2020.413          52.650


 124268767.081 8  96832814.64348  23647560.000                    23647558.480
      2295.692        1788.853          48.200          48.450    92798116.780 7
  23647558.380        1714.340          46.800


 23 12  1  0 56 30.0000000  0 11G02G03G08G10G14G16G21G22G23G27G32
 113660418.250 8  88566550.90848  21628850.180                    21628844.660
      1571.095        1224.229          50.250          48.100



 132617952.701 6 103338674.75346  25236356.880                    25236358.620
      3979.294        3100.752          38.250          37.000    99032908.370 7
  25236360.160        2971.503          44.100


 106856870.541 8  83265107.58048  20334181.320                    20334180.520
      -144.913        -112.920          51.950          51.800    79795726.481 9
  20334180.440        -108.203          56.800


 114308854.063 8  89071884.27948  21752226.620                    21752225.440
     -1921.597       -1497.348          50.550          50.600    85360547.670 8
  21752224.640       -1434.906          52.800


 126099104.138 6  98259018.54046  23995858.540                    23995855.380
      2461.594        1918.126          41.950          39.350    94164919.994 7
  23995860.580        1838.263          46.900


 135118227.035 6 105286910.82145  25712136.360                    25712134.320
     -3828.214       -2983.025          37.650          33.700



 109200730.626 8  85091482.47048  20780201.320                    20780197.300
       755.082         588.377          49.300          49.350



 134849166.179 6 105077260.77345  25660944.100                    25660940.960
      2901.962        2261.271          37.500          35.300



 128193824.657 7  99891308.61946  24394464.980                    24394463.720
     -3462.109       -2697.747          42.550          40.600    95729219.249 7
  24394467.000       -2585.328          45.250


 113912298.450 8  88762843.15548  21676781.260                    21676780.020
     -2716.412       -2116.686          49.700          49.600    85064402.240 8
  21676780.780       -2028.548          52.600


 124200068.468 8  96779283.27847  23634487.120                    23634485.420
      2284.365        1780.025          48.150          47.850    92746815.891 7
  23634484.660        1705.842          47.000


 23 12  1  0 57  0.0000000  0 11G02G03G08G10G14G16G21G22G23G27G32
 113613420.021 8  88529928.92047  21619906.700                    21619901.100
      1562.384        1217.442          50.600          47.100



 132498602.805 6 103245674.88246  25213645.320                    25213647.060
      3977.636        3099.460          38.350          37.300    98943783.528 7
  25213648.600        2970.274          43.700


 106861478.190 8  83268697.94648  20335058.160                    20335057.480
      -162.041        -126.266          51.900          51.800    79799167.248 9
  20335057.320        -120.966          56.750


 114366727.285 8  89116980.29748  21763239.400                    21763238.060
     -1936.480       -1508.946          50.650          50.800    85403764.675 8
  21763237.620       -1445.941          52.650


 126025481.441 6  98201650.18446  23981848.480                    23981845.300
      2446.781        1906.584          40.900          40.800    94109941.984 7
  23981850.660        1827.185          47.100


 135233029.297 6 105376367.07645  25733982.560                    25733980.080
     -3825.444       -2980.861          40.000          30.550



 109178239.132 8  85073956.63648  20775921.360                    20775917.460
       744.315         579.986          49.650          49.550



 134762234.392 6 105009521.68445  25644401.640                    25644398.300
      2893.602        2254.752          36.300          30.850



 128297775.622 7  99972309.37946  24414246.080                    24414245.000
     -3467.822       -2702.200          43.000          38.750    95806844.964 7
  24414248.240       -2589.524          45.050


 113993971.823 8  88826484.72748  21692323.180                    21692321.960
     -2728.240       -2125.902          49.950          49.950    85125392.079 8
  21692322.460       -2037.272          52.350


 124131724.238 8  96726028.05348  23621481.740                    23621479.760
      2272.026        1770.411          48.300          48.350    92695779.647 7
  23621478.760        1696.685          46.150


 23 12  1  0 57 30.0000000  0 11G02G03G08G10G14G16G21G22G23G27G32
 113566667.032 8  88493498.02147  21611009.880                    21611004.200
      1554.317        1211.156          50.500          47.600



 132379286.581 6 103152701.28046  25190940.180                    25190941.840
      3976.853        3098.850          37.700          37.200    98854683.835 7
  25190943.140        2969.559          44.000


 106866581.920 8  83272674.87248  20336029.400                    20336028.800
      -178.314        -138.946          52.100          52.250    79802978.477 9
  20336028.560        -133.195          56.750


 114425023.653 8  89162406.03048  21774332.700                    21774331.360
     -1950.203       -1519.639          50.550          50.650    85447297.671 8
  21774331.100       -1456.333          52.650


 125952283.129 6  98144612.52446  23967919.180                    23967915.780
      2432.945        1895.800          41.150          40.900    94055280.913 7
  23967921.560        1816.703          47.050


 135347742.564 6 105465753.94545  25755811.940                    25755809.400
     -3822.403       -2978.496          38.400          31.600



 109156054.960 8  85056670.27148  20771699.880                    20771696.100
       734.328         572.204          49.750          49.650



 134675539.221 5 104941967.05045  25627904.120                    25627900.700
      2885.896        2248.751          35.950          34.300



 128401874.183 7 100053425.13746  24434055.360                    24434054.260
     -3472.401       -2705.769          42.600          39.250    95884580.928 7
  24434057.500       -2593.041          44.950


 114075978.149 8  88890385.74848  21707928.440                    21707927.180
     -2739.017       -2134.298          49.950          50.100    85186630.559 8
  21707927.540       -2045.435          52.250


 124063734.040 7  96673048.70247  23608543.660                    23608541.480
      2260.499        1761.429          47.600          47.450    92645007.777 7
  23608540.180        1688.014          46.050


 23 12  1  0 58  0.0000000  0 11G02G03G08G10G14G16G21G22G23G27G32
 113520161.043 8  88457259.58847  21602160.140                    21602154.480
      1546.403        1204.990          50.800          47.650



 132260007.750 6 103059756.82046  25168242.160                    25168243.800
      3976.111        3098.275          38.250          37.500    98765612.111 7
  25168245.160        2968.937          44.500


 106872183.318 8  83277039.59448  20337095.300                    20337094.680
      -194.678        -151.697          51.750          51.750    79807161.331 9
  20337094.440        -145.233          56.850


 114483742.487 8  89208160.96548  21785506.480                    21785505.160
     -1963.937       -1530.340          50.300          50.200    85491146.147 8
  21785504.920       -1466.498          52.600


 125879513.237 6  98087908.72346  23954071.380                    23954068.140
      2419.067        1884.987          41.000          39.550    94000939.738 7
  23954073.700        1806.423          47.100


 135462366.832 6 105555071.46745  25777624.020                    25777622.140
     -3818.952       -2975.808          36.350          35.900



 109134179.876 8  85039624.74148  20767537.220                    20767533.460
       724.356         564.434          49.850          49.650



 134589084.715 6 104874599.93345  25611452.300                    25611449.080
      2878.178        2242.741          37.500          35.250



 128506119.727 7 100134655.42346  24453892.480                    24453891.540
     -3476.619       -2709.055          42.100          39.850    95962426.613 7
  24453894.620       -2596.237          44.950


 114158317.768 8  88954546.47648  21723597.200                    21723596.000
     -2749.802       -2142.703          49.700          49.600    85248117.923 8
  21723596.200       -2053.310          52.600


 123996102.240 7  96620348.61147  23595673.700                    23595671.460
      2248.642        1752.190          46.750          46.900    92594503.535 7
  23595670.140        1679.337          45.950


 23 12  1  0 58 30.0000000  0 11G02G03G08G10G14G16G21G22G23G27G32
 113473901.055 8  88421212.84947  21593357.280                    21593351.640
      1537.479        1198.036          50.750          47.950



 132140766.933 6 102966841.94546  25145551.300                    25145552.660
      3973.208        3096.006          38.600          38.450    98676568.650 7
  25145554.100        2967.334          43.900


 106878281.198 8  83281791.18448  20338255.620                    20338254.920
      -211.910        -165.125          51.400          51.300    79811714.953 9
  20338254.760        -158.316          56.250


 114542880.514 8  89254242.54148  21796760.160                    21796758.800
     -1978.639       -1541.797          51.450          51.700    85535307.659 8
  21796758.420       -1477.593          52.000


 125807172.608 6  98031539.37546  23940305.320                    23940302.320
      2403.657        1872.979          41.200          40.250    93946919.107 7
  23940307.380        1795.002          46.350


 135576897.719 6 105644316.18445  25799418.520                    25799416.620
     -3816.602       -2973.980          38.200          35.050



 109112611.989 8  85022818.59748  20763433.080                    20763429.220
       713.408         555.902          50.100          49.950



 134502871.707 6 104807420.98445  25595046.680                    25595043.480
      2869.737        2236.157          37.750          35.250



 128610508.414 7 100215997.25846  24473756.980                    24473756.200
     -3482.315       -2713.494          42.450          37.850    96040379.205 7
  24473759.180       -2600.481          45.000


 114240987.823 8  89018964.68548  21739328.840                    21739327.740
     -2761.643       -2151.930          49.450          49.100    85309852.040 8
  21739327.880       -2062.242          52.650


 123928829.980 7  96567928.67647  23582872.100                    23582869.960
      2235.904        1742.263          47.100          47.150    92544267.783 7
  23582868.680        1669.685          45.550


 23 12  1  0 59  0.0000000  0 11G02G03G08G10G14G16G21G22G23G27G32
 113427888.056 8  88385358.57447  21584601.360                    21584595.580
      1529.514        1191.829          51.050          47.650



 132021566.847 6 102873958.85046  25122868.340                    25122869.380
      3972.591        3095.526          40.100          37.700    98587555.743 7
  25122871.100        2966.353          43.500


 106884877.318 8  83286931.00248  20339510.800                    20339510.020
      -228.368        -177.950          51.300          51.050    79816640.601 9
  20339509.720        -170.477          55.850


 114602436.302 8  89300649.65648  21808093.460                    21808091.960
     -1992.395       -1552.515          51.600          51.500    85579781.143 8
  21808091.360       -1487.736          51.800


 125735264.374 6  97975506.96246  23926621.620                    23926618.760
      2389.444        1861.905          40.750          39.750    93893221.378 7
  23926623.300        1784.474          46.200


 135691334.041 6 105733487.32044  25821195.360                    25821192.900
     -3813.173       -2971.307          38.900          28.750



 109091352.286 8  85006252.59848  20759387.640                    20759383.600
       703.303         548.028          50.450          49.900



 134416903.394 6 104740432.68045  25578687.400                    25578684.540
      2861.191        2229.497          36.250          34.750



 128715038.762 6 100297449.48046  24493648.380                    24493647.700
     -3486.927       -2717.088          41.350          40.300    96118437.581 7
  24493650.680       -2603.747          45.200


 114323987.821 8  89083640.00048  21755123.220                    21755122.280
     -2772.421       -2160.328          49.400          49.300    85371832.537 8
  21755122.360       -2070.218          52.650


 123861920.759 7  96515791.65147  23570139.480                    23570137.600
      2223.989        1732.979          46.800          46.800    92494303.134 7
  23570136.380        1660.819          45.000


 23 12  1  0 59 30.0000000  0 11G02G03G08G10G14G16G21G22G23G27G32
 113382123.587 8  88349697.96147  21575892.720                    21575886.620
      1521.046        1185.230          51.450          47.400



 131902411.157 6 102781110.25546  25100193.860                    25100194.560
      3970.874        3094.185          40.050          36.550    98498575.850 7
  25100196.400        2965.226          42.950


 106891972.848 8  83292459.98148  20340861.000                    20340860.240
      -245.065        -190.960          51.700          51.700    79821939.210 9
  20340859.600        -183.060          55.850


 114662409.250 8  89347381.82948  21819506.160                    21819504.540
     -2006.216       -1563.285          52.650          52.600    85624566.150 8
  21819503.620       -1498.199          51.900


 125663792.255 6  97919814.37746  23913020.940                    23913018.200
      2374.778        1850.477          41.050          40.650    93839849.314 7
  23913022.360        1773.347          46.550


 135805675.735 6 105822584.65645  25842953.980                    25842951.320
     -3809.725       -2968.622          39.400          30.650



 109070401.752 8  84989927.51648  20755400.960                    20755396.960
       692.940         539.954          50.650          50.150



 134331183.980 6 104673638.40445  25562375.440                    25562372.480
      2853.211        2223.285          36.900          35.450



 128819709.823 6 100379011.34546  24513566.620                    24513566.060
     -3491.408       -2720.577          41.500          38.750    96196601.047 7
  24513568.920       -2607.453          45.550


 114407317.728 8  89148572.38948  21770980.360                    21770979.580
     -2783.432       -2168.907          49.700          49.750    85434059.407 8
  21770979.780       -2078.512          53.000


 123795378.630 7  96463940.65047  23557476.680                    23557475.140
      2211.859        1723.528          46.200          46.200    92444612.604 7
  23557474.120        1651.666          45.250


                            4  1
RINEX FILE SPLICE; other post-header comments skipped       COMMENT
 23 12  1  1  0  0.0000000  0 11G02G03G08G10G14G16G21G22G23G27G32
 113336606.955 8  88314230.47047  21567231.260                    21567224.860
      1513.151        1179.080          51.200          47.250



 131783300.604 6 102688296.87745  25077527.880                    25077528.400
      3969.180        3092.866          39.250          35.750    98409629.686 7
  25077530.320        2964.293          42.650


 106899567.907 8  83298378.20148  20342306.280                    20342305.580
      -261.443        -203.722          51.350          51.300    79827610.832 9
  20342304.520        -195.231          55.700


 114722796.357 8  89394436.71648  21830997.640                    21830995.860
     -2019.763       -1573.841          52.100          51.750    85669660.420 8
  21830994.640       -1508.238          51.900


 125592757.458 6  97864462.57246  23899503.420                    23899500.780
      2360.358        1839.236          40.650          40.050    93786803.825 7
  23899504.580        1762.775          46.450


 135919918.740 6 105911605.06546  25864693.620                    25864690.980
     -3806.115       -2965.802          40.400          37.250



 109049758.909 8  84973842.18548  20751472.800                    20751468.900
       682.993         532.202          49.850          49.800



 134245714.281 6 104607038.65845  25546111.160                    25546108.020
      2845.113        2216.974          37.100          35.600



 128924518.234 6 100460680.23746  24533511.060                    24533510.360
     -3495.725       -2723.941          41.050          39.500    96274867.078 7
  24533513.080       -2610.472          44.750


 114490975.163 8  89213759.97948  21786899.840                    21786899.220
     -2794.078       -2177.203          49.300          49.500    85496530.846 8
  21786899.440       -2086.448          53.100


 123729205.140 7  96412376.90847  23544884.020                    23544882.800
      2199.487        1713.888          45.800          45.850    92395197.353 7
  23544882.060        1642.444          45.100


 23 12  1  1  0 30.0000000  0 11G02G03G08G10G14G16G21G22G23G27G32
 113291338.803 8  88278956.59548  21558617.000                    21558610.680
      1504.938        1172.680          50.750          48.050



 131664237.991 6 102595520.87045  25054871.020                    25054871.220
      3968.161        3092.076          38.600          35.150    98320719.347 7
  25054873.620        2963.197          43.500


 106907662.690 8  83304685.82148  20343846.680                    20343846.040
      -278.031        -216.648          50.950          50.950    79833655.628 9
  20343844.640        -207.634          55.750


 114783596.363 8  89441813.35548  21842567.620                    21842565.740
     -2033.314       -1584.399          51.900          51.900    85715063.034 8
  21842564.220       -1518.434          52.000


 125522163.001 6  97809453.92146  23886069.720                    23886067.300
      2345.774        1827.877          40.800          40.800    93734087.195 7
  23886070.740        1751.794          46.350


 136034061.214 6 106000547.19545  25886414.340                    25886411.880
     -3802.498       -2962.983          39.400          32.300



 109029424.509 8  84957997.20548  20747603.240                    20747599.440
       672.890         524.331          49.750          49.750



 134160497.107 6 104540635.66445  25529894.860                    25529891.620
      2836.354        2210.146          37.750          34.900



 129029462.469 6 100542454.95646  24553481.260                    24553480.540
     -3500.064       -2727.329          40.950          40.500    96353234.518 7
  24553483.240       -2613.826          44.550


 114574959.429 8  89279202.25148  21802881.560                    21802880.980
     -2804.699       -2185.480          49.600          49.400    85559246.358 8
  21802881.300       -2094.469          52.950


 123663403.630 7  96361103.02747  23532362.200                    23532361.400
      2187.188        1704.302          45.700          45.650    92346059.867 7
  23532360.660        1633.323          45.050


 23 12  1  1  1  0.0000000  0 11G02G03G08G10G14G16G21G22G23G27G32
 113246318.943 8  88243876.18948  21550049.960                    21550043.920
      1496.426        1166.046          50.600          48.650



 131545224.996 6 102502783.51046  25032223.680                    25032223.780
      3966.073        3090.451          36.700          36.150    98231846.058 7
  25032226.440        2961.661          43.400


 106916257.248 8  83311382.87348  20345482.220                    20345481.580
      -294.834        -229.741          51.250          51.400    79840073.636 9
  20345480.200        -220.234          55.900


 114844806.349 8  89489509.44448  21854215.540                    21854213.620
     -2047.136       -1595.170          52.050          52.000    85760771.792 8
  21854211.920       -1528.800          52.100


 125452010.695 6  97754789.77446  23872720.120                    23872717.520
      2331.178        1816.499          41.250          40.400    93681700.742 7
  23872721.160        1740.571          46.550


 136148101.067 6 106089409.33645  25908115.400                    25908113.180
     -3799.627       -2960.751          37.500          35.550



 109009397.735 8  84942391.92848  20743792.220                    20743788.380
       662.459         516.202          49.850          49.700



 134075534.508 6 104474431.09745  25513726.980                    25513723.920
      2827.693        2203.399          37.650          35.550



 129134539.726 6 100624333.34146  24573476.720                    24573475.800
     -3504.892       -2731.088          39.900          38.100    96431701.304 7
  24573478.760       -2617.312          45.050


 114659268.693 8  89344897.76948  21818925.100                    21818924.420
     -2815.845       -2194.166          49.200          49.300    85622204.551 8
  21818924.900       -2102.747          52.900


 123597976.181 7  96310120.63247  23519911.620                    23519911.020
      2174.470        1694.393          45.200          44.900    92297201.723 7
  23519910.660        1623.879          45.050


 23 12  1  1  1 30.0000000  0 11G02G03G08G10G14G16G21G22G23G27G32
 113201547.039 8  88208988.99547  21541530.120                    21541524.320
      1488.451        1159.832          51.050          47.700



 131426262.706 6 102410085.68346  25009585.640                    25009585.960
      3964.530        3089.246          37.200          36.650    98143010.660 7
  25009588.820        2960.715          45.250


 106925351.804 8  83318469.53648  20347212.940                    20347212.180
      -311.283        -242.559          51.950          52.100    79846865.022 9
  20347211.040        -232.437          55.950


 114906423.668 8  89537522.93948  21865940.920                    21865938.960
     -2060.439       -1605.536          52.300          52.150    85806784.717 8
  21865937.240       -1538.647          52.200


 125382302.034 6  97700471.33146  23859455.040                    23859452.420
      2316.331        1804.933          41.800          40.250    93629645.562 7
  23859456.160        1729.845          46.750


 136262035.701 6 106178189.40945  25929796.400                    25929794.160
     -3795.953       -2957.888          39.600          30.950



 108989677.565 8  84927025.56648  20740039.540                    20740035.660
       652.380         508.348          50.100          49.500



 133990828.000 6 104408426.00145  25497607.820                    25497604.600
      2819.417        2196.943          37.300          32.900



 129239746.889 6 100706312.93346  24593497.000                    24593495.780
     -3508.808       -2734.138          40.550          38.800    96510265.089 7
  24593499.040       -2620.200          45.050


 114743900.735 8  89410844.79448  21835030.160                    21835029.240
     -2826.223       -2202.252          50.250          50.250    85685403.780 8
  21835030.000       -2110.475          52.700


 123532924.644 7  96259431.15147  23507532.700                    23507532.280
      2162.388        1684.978          46.000          46.050    92248624.290 7
  23507532.260        1614.696          45.900


 23 12  1  1  2  0.0000000  0 11G02G03G08G10G14G16G21G22G23G27G32
 113157022.345 8  88174294.42947  21533057.320                    21533051.680
      1479.968        1153.222          50.950          47.900



 131307352.389 6 102317428.33846  24986957.680                    24986958.360
      3962.819        3087.910          38.300          38.300    98054214.111 7
  24986961.280        2959.110          44.600


 106934945.399 8  83325945.05048  20349038.660                    20349037.720
      -328.178        -255.724          52.550          52.550    79854029.060 9
  20349036.780        -245.059          56.050


 114968445.082 8  89585851.32148  21877743.200                    21877741.160
     -2074.147       -1616.219          52.550          52.350    85853099.411 8
  21877739.580       -1548.885          52.300


 125313038.394 7  97646499.65346  23846274.740                    23846271.940
      2301.241        1793.175          43.100          41.200    93577922.704 7
  23846275.920        1718.496          46.750


 136375861.687 6 106266884.85345  25951456.900                    25951454.880
     -3792.250       -2955.008          38.500          35.200



 108970262.739 8  84911897.13248  20736344.940                    20736341.020
       641.979         500.243          50.100          49.800



 133906378.992 6 104342621.59145  25481537.540                    25481534.380
      2810.436        2189.945          37.950          31.750



 129345080.830 6 100788391.35346  24613541.360                    24613539.940
     -3513.352       -2737.674          39.950          38.400    96588923.542 7
  24613543.460       -2623.559          44.750


 114828853.241 8  89477041.55248  21851196.240                    21851194.900
     -2837.113       -2210.737          50.550          50.700    85748842.334 8
  21851196.020       -2118.638          52.850


 123468250.752 7  96209035.92947  23495225.720                    23495225.380
      2149.320        1674.796          46.200          46.200    92200328.863 7
  23495225.580        1605.042          46.350


 23 12  1  1  2 30.0000000  0 11G02G03G08G10G14G16G21G22G23G27G32
 113112748.393 8  88139795.24948  21524632.220                    21524626.600
      1471.379        1146.529          50.950          48.000



 131188499.267 6 102224815.59646  24964340.620                    24964341.400
      3959.940        3085.669          39.600          36.550    97965460.174 7
  24964344.180        2957.529          45.000


 106945041.392 8  83333812.04548  20350959.920                    20350958.840
      -345.028        -268.854          51.900          51.850    79861568.268 9
  20350958.080        -257.640          55.700


 115030871.789 8  89634495.51348  21889622.600                    21889620.500
     -2087.747       -1626.815          52.200          52.150    85899716.754 8
  21889619.040       -1559.027          51.950


 125244225.066 7  97592878.88046  23833180.100                    23833177.340
      2286.145        1781.413          42.850          40.950    93526536.121 7
  23833181.420        1707.187          46.600


 136489579.556 5 106355496.04544  25973096.700                    25973094.700
     -3789.091       -2952.533          34.600          28.950



 108951156.313 8  84897009.00848  20732709.080                    20732705.020
       631.661         492.204          49.700          49.750



 133822193.100 6 104277022.21945  25465517.520                    25465514.260
      2801.230        2182.782          37.650          34.100



 129450542.324 6 100870569.11046  24633610.180                    24633608.300
     -3517.606       -2740.992          41.250          38.650    96667677.267 7
  24633612.140       -2626.841          44.000


 114914127.955 8  89543489.36748  21867423.640                    21867422.140
     -2847.941       -2219.176          50.400          50.500    85812521.493 8
  21867423.180       -2126.713          52.150


 123403960.133 7  96158939.35947  23482991.660                    23482991.360
      2136.432        1664.752          46.100          46.200    92152319.652 7
  23482992.020        1595.431          46.900


 23 12  1  1  3  0.0000000  0 11G02G03G08G10G14G16G21G22G23G27G32
 113068723.088 8  88105489.81548  21516254.360                    21516248.840
      1463.084        1140.065          50.700          48.000



 131069702.751 6 102132246.92146  24941734.320                    24941734.840
      3958.496        3084.547          39.850          38.250    97876748.585 7
  24941737.580        2956.177          44.800


 106955637.080 8  83342068.42648  20352976.140                    20352975.100
      -361.814        -281.934          51.750          51.800    79869480.627 9
  20352974.460        -270.206          56.000


 115093698.994 8  89683451.78948  21901578.220                    21901576.140
     -2101.240       -1637.330          52.300          52.450    85946633.178 8
  21901574.680       -1569.068          52.100


 125175861.831 7  97539608.81546  23820171.280                    23820168.460
      2270.889        1769.522          43.150          40.950    93475485.650 7
  23820172.680        1695.799          47.300


 136603184.944 6 106444019.68745  25994715.320                    25994713.000
     -3785.220       -2949.519          38.650          30.350



 108932355.452 8  84882358.98248  20729131.360                    20729127.280
       621.181         484.037          49.850          49.650



 133738269.827 6 104211627.48145  25449547.520                    25449544.440
      2792.990        2176.357          37.250          35.550



 129556126.657 6 100952842.60345  24653702.300                    24653700.140
     -3522.021       -2744.433          41.750          35.550    96746522.685 7
  24653704.280       -2629.867          44.150


 114999720.896 8  89610185.16648  21883711.540                    21883709.840
     -2858.708       -2227.565          50.250          50.250    85876438.290 8
  21883710.980       -2134.737          52.300


 123340052.824 7  96109141.47047  23470830.560                    23470830.260
      2123.415        1654.610          46.700          46.700    92104596.678 8
  23470831.260        1585.713          48.350


 23 12  1  1  3 30.0000000  0 11G02G03G08G10G14G16G21G22G23G27G32
 113024944.381 8  88071376.53848  21507923.360                    21507918.180
      1454.764        1133.583          50.300          48.700



 130950963.172 6 102039722.62946  24919139.020                    24919139.800
      3956.590        3083.059          40.100          39.200    97788079.471 7
  24919141.780        2954.453          44.350


 106966731.451 8  83350713.38248  20355087.180                    20355086.220
      -378.618        -295.027          51.350          51.550    79877765.378 9
  20355085.740        -282.802          55.950


 115156923.072 8  89732717.30848  21913609.340                    21913607.400
     -2114.599       -1647.739          51.900          51.900    85993845.964 8
  21913605.840       -1579.074          51.950


 125107949.137 7  97486689.83046  23807248.100                    23807245.320
      2255.644        1757.645          43.500          41.600    93424771.639 7
  23807249.780        1684.334          47.550


 136716673.873 6 106532452.51446  26016311.760                    26016309.360
     -3781.797       -2946.853          39.550          36.400



 108913858.400 8  84867945.70548  20725611.440                    20725607.440
       610.954         476.068          49.700          49.500



 133654609.885 6 104146437.92146  25433627.360                    25433624.600
      2783.486        2168.949          36.850          36.050



 129661829.806 6 101035208.71246  24673816.940                    24673814.520
     -3526.092       -2747.606          41.100          37.750    96825456.862 7
  24673819.080       -2633.048          44.250


 115085628.933 8  89677126.47848  21900059.360                    21900057.600
     -2869.455       -2235.939          49.650          49.700    85940590.380 8
  21900058.500       -2142.785          52.350


 123276529.669 7  96059642.93047  23458742.500                    23458742.100
      2110.603        1644.626          47.300          47.400    92057160.596 8
  23458743.520        1575.991          48.650


 23 12  1  1  4  0.0000000  0 11G02G03G08G10G14G16G21G22G23G27G32
 112981417.713 8  88037459.66048  21499640.380                    21499635.740
      1446.672        1127.277          50.150          49.500



 130832287.458 6 101947248.09846  24896555.660                    24896556.980
      3954.622        3081.523          39.950          39.350    97699458.070 7
  24896558.440        2953.075          44.750


 106978329.737 8  83359750.99948  20357294.160                    20357293.240
      -395.129        -307.893          51.100          51.100    79886426.426 9
  20357293.000        -295.078          56.050


 115220546.879 8  89782294.31348  21925716.480                    21925714.780
     -2127.595       -1657.866          51.050          51.150    86041357.257 8
  21925713.100       -1588.757          52.100


 125040494.069 7  97434127.42646  23794411.980                    23794409.220
      2240.686        1745.988          43.550          41.700    93374399.335 7
  23794413.840        1673.301          47.850


 136830049.547 6 106620797.08945  26037886.460                    26037884.280
     -3777.125       -2943.217          36.300          33.550



 108895669.518 8  84853772.55748  20722150.160                    20722146.200
       601.184         468.455          49.400          49.150



 133571220.405 6 104081459.05845  25417758.640                    25417755.840
      2775.131        2162.434          37.300          34.200



 129767654.310 6 101117669.38945  24693954.580                    24693951.720
     -3529.831       -2750.515          41.150          33.650    96904481.664 7
  24693956.840       -2635.731          43.800


 115171855.460 8  89744315.95948  21916467.700                    21916466.220
     -2879.596       -2243.842          49.250          49.400    86004980.309 8
  21916466.660       -2150.392          52.150


 123213398.053 7  96010449.49447  23446729.000                    23446728.520
      2097.770        1634.627          47.850          47.750    92010016.893 8
  23446730.240        1566.447          49.100


 23 12  1  1  4 30.0000000  0 11G02G03G08G10G14G16G21G22G23G27G32
 112938138.891 8  88003735.90748  21491404.680                    21491400.420
      1438.248        1120.713          50.100          49.900



 130713673.354 6 101854821.57446  24873984.200                    24873985.580
      3952.525        3079.888          39.300          37.100    97610882.646 7
  24873986.520        2951.546          44.550


 106990427.895 8  83369178.13148  20359596.280                    20359595.500
      -411.919        -320.976          51.250          51.550    79895460.755 9
  20359595.300        -307.516          56.000


 115284563.732 8  89832177.56148  21937898.280                    21937896.940
     -2140.590       -1667.993          50.850          50.900    86089162.045 8
  21937895.200       -1598.581          52.150


 124973494.464 7  97381919.93946  23781662.520                    23781659.640
      2225.522        1734.173          43.850          41.450    93324367.162 7
  23781664.640        1661.926          47.900


 136943305.197 6 106709048.06245  26059438.360                    26059436.340
     -3773.483       -2940.383          36.500          34.900



 108877784.215 8  84839835.96748  20718746.640                    20718742.620
       590.969         460.496          49.400          49.300



 133488099.186 6 104016689.32645  25401941.120                    25401938.860
      2766.043        2155.359          37.850          35.150



 129873593.683 6 101200219.54646  24714114.240                    24714110.860
     -3533.756       -2753.582          41.950          38.250    96983592.243 7
  24714116.640       -2638.618          43.900


 115258394.759 8  89811749.16948  21932935.480                    21932934.140
     -2890.116       -2252.039          49.300          49.600    86069603.786 8
  21932934.440       -2158.124          52.250


 123150656.232 8  95961559.78048  23434789.740                    23434788.960
      2084.604        1624.368          48.100          48.300    91963164.258 8
  23434790.820        1556.665          49.000


 23 12  1  1  5  0.0000000  0 11G02G03G08G10G14G16G21G22G23G27G32
 112895110.947 8  87970207.64748  21483216.720                    21483212.440
      1430.000        1114.287          50.350          49.550



 130595125.566 6 101762446.73846  24851425.360                    24851426.480
      3950.111        3078.007          38.750          38.100    97522356.775 7
  24851427.280        2949.917          44.900


 107003028.674 8  83378996.90848  20361994.100                    20361993.460
      -428.512        -333.906          50.900          50.750    79904870.422 9
  20361993.200        -319.994          56.100


 115348974.371 8  89882367.66548  21950155.060                    21950153.980
     -2153.721       -1678.225          50.000          49.950    86137260.887 8
  21950152.320       -1608.264          52.550


 124906955.278 7  97330071.21947  23769000.600                    23768997.740
      2210.219        1722.249          43.000          42.200    93274678.815 8
  23769002.940        1650.446          48.250


 137056440.984 6 106797205.69344  26080967.400                    26080965.260
     -3769.096       -2936.960          37.950          26.200



 108860205.126 8  84826137.98048  20715401.440                    20715397.320
       580.755         452.536          49.650          49.400



 133405251.437 6 103952132.63445  25386175.640                    25386173.580
      2756.503        2147.924          36.300          35.600



 129979648.381 6 101282859.61245  24734295.740                    24734292.180
     -3536.924       -2756.042          41.100          33.350    97062788.964 7
  24734298.320       -2641.406          43.950


 115345248.093 8  89879427.07148  21949463.000                    21949461.900
     -2900.549       -2260.168          48.750          48.850    86134461.784 8
  21949461.960       -2165.957          52.400


 123088309.427 8  95912977.87148  23422925.760                    23422924.500
      2071.363        1614.050          48.450          48.450    91916606.603 8
  23422926.600        1546.864          49.100


 23 12  1  1  5 30.0000000  0 11G02G03G08G10G14G16G21G22G23G27G32
 112852334.826 8  87936875.62448  21475076.700                    21475072.140
      1421.689        1107.811          50.750          48.850



 130476646.800 6 101670125.71646  24828879.620                    24828880.340
      3948.184        3076.508          39.400          38.300    97433882.478 7
  24828881.140        2948.346          45.350


 107016132.823 8  83389207.92848  20364487.680                    20364487.180
      -445.114        -346.843          50.600          50.550    79914655.983 9
  20364486.800        -332.369          55.950


 115413777.332 8  89932863.47748  21962486.520                    21962485.620
     -2166.560       -1688.228          49.850          50.000    86185652.707 8
  21962484.100       -1617.830          52.550


 124840879.401 7  97278583.52646  23756426.780                    23756424.020
      2194.938        1710.341          42.700          41.950    93225336.452 8
  23756429.360        1639.039          48.150


 137169456.258 6 106885269.53945  26102473.680                    26102471.360
     -3764.677       -2933.506          37.300          34.150



 108842932.857 8  84812679.06348  20712114.740                    20712110.420
       570.594         444.618          49.550          49.350



 133322680.412 6 103887791.62346  25370462.840                    25370460.480
      2747.831        2141.168          37.750          37.650



 130085816.935 6 101365588.36546  24754498.740                    24754495.180
     -3540.495       -2758.829          40.000          36.050    97142070.686 7
  24754501.600       -2644.019          43.800


 115432414.775 8  89947349.12848  21966050.120                    21966049.340
     -2910.488       -2267.913          48.800          48.600    86199553.767 8
  21966049.220       -2173.533          52.300


 123026360.889 8  95864706.30248  23411137.440                    23411135.980
      2058.353        1603.911          48.250          48.250    91870346.355 8
  23411137.960        1537.113          48.850


 23 12  1  1  6  0.0000000  0 11G02G03G08G10G14G16G21G22G23G27G32
 112809807.496 8  87903737.45648  21466984.080                    21466979.260
      1413.535        1101.456          50.200          48.900



 130358236.050 6 101577857.63646  24806346.820                    24806347.460
      3945.879        3074.714          39.100          38.150    97345458.919 7
  24806348.020        2946.625          44.150


 107029737.684 8  83399809.11948  20367076.560                    20367076.120
      -461.742        -359.799          50.750          50.450    79924815.454 9
  20367075.640        -344.768          55.600


 115478967.321 8  89983660.86948  21974891.780                    21974890.920
     -2179.418       -1698.247          50.050          49.950    86234333.539 8
  21974889.520       -1627.397          52.150


 124775265.724 7  97227455.98846  23743940.840                    23743938.280
      2179.444        1698.268          42.600          41.550    93176339.236 8
  23743943.720        1627.578          48.150


 137282345.565 5 106973235.05945  26123955.700                    26123953.140
     -3760.604       -2930.344          34.250          34.000



 108825963.515 8  84799456.20948  20708885.700                    20708881.120
       560.555         436.796          49.650          49.450



 133240384.870 6 103823665.22245  25354802.620                    25354800.280
      2738.582        2133.962          38.050          35.950



 130192093.850 6 101448401.56046  24774722.260                    24774718.740
     -3544.359       -2761.837          40.050          37.400    97221433.316 7
  24774725.500       -2646.646          43.050


 115519890.048 8  90015511.66048  21982695.960                    21982695.360
     -2920.871       -2276.005          48.550          48.550    86264876.185 8
  21982695.160       -2181.194          51.800


 122964809.817 8  95816744.45547  23399424.680                    23399423.080
      2045.244        1593.698          48.200          47.850    91824382.928 8
  23399424.920        1527.218          48.050


