     2.11           OBSERVATION DATA    G (GPS)             RINEX VERSION / TYPE
teqc  2019Feb25                         20231129 19:44:48UTCPGM / RUN BY / DATE
VITY                                                        MARKER NAME
18328M001                                                   MARKER NUMBER
Automatic           TERIA                                   OBSERVER / AGENCY
3611625             SEPT POLARX5        4.14.0              REC # / TYPE / VERS
762-12035           TPSCR.G5        TPSH                    ANT # / TYPE
  4207852.8050   174564.2590  4774137.6750                  APPROX POSITION XYZ
        0.0000        0.0000        0.0000                  ANTENNA: DELTA H/E/N
     1     1                                                WAVELENGTH FACT L1/2
     9    C1    L1    D1    P2    L2    D2    P1    S1    S2# / TYPES OF OBSERV
    30.0000                                                 INTERVAL
    18                                                      LEAP SECONDS
Linux 2.6.32-573.12.1.x86_64|x86_64|gcc|Linux 64|=+         COMMENT
teqc  2019Feb25                         20231129 19:44:48UTCCOMMENT
     2.11           OBSERVATION DATA    M (MIXED)           COMMENT
teqc  2019Feb25     IGN-RGP             20231129 11:08:39UTCCOMMENT
teqc  2019Feb25     Administrateur RGP  20231129 11:08:39UTCCOMMENT
teqc  2019Feb25     IGN-RGP             20231129 11:08:38UTCCOMMENT
teqc_2019 edited: GLONASS # 25 - 30 excluded                COMMENT
GN-RINEX 1.3        IGN-RGP             29-NOV-23 09:59     COMMENT
Forced Modulo Decimation to 30 seconds                      COMMENT
teqc_2019 edited: GLONASS # 25 - 30 excluded                COMMENT
teqc_2019 edited: all GLONASS satellites excluded           COMMENT
teqc_2019 edited: all SBAS satellites excluded              COMMENT
teqc_2019 edited: all Galileo satellites excluded           COMMENT
  2023    11    29    10     0    0.0000000     GPS         TIME OF FIRST OBS
                                                            END OF HEADER
 23 11 29 10  0  0.0000000  0 11G20G30G05G07G13G14G11G09G22G15G18
  20460096.571   107518497.517 8     -1174.550    20460097.304    83780634.986 8
      -915.230                          49.000          46.000
  20655910.096   108547579.240 9      -144.572    20655913.169    84582561.308 9
      -112.658                          51.000          59.000
  21117018.893   110970649.158 8      1414.297    21117020.483    86470623.499 8
      1102.049                          49.000          45.000
  21701443.873   114041838.661 8     -2017.939    21701445.588    88863769.393 9
     -1572.419                          49.000          54.000
  21755729.464   114327166.910 8      2260.927    21755730.965    89086121.548 6
      1761.761                          47.000          36.000
  23553325.496   123773572.916 7      2929.897    23553331.750    96446982.077 5
      2283.014                          42.000          29.000
  23877460.262   125476796.053 7     -3651.354    23877465.695    97774099.621 5
     -2845.206                          43.000          31.000
  24185308.809   127094531.712 7     -3468.557    24185317.975    99034700.738 7
     -2702.770                          40.000          39.000
  24556625.605   129045938.571 6      3176.292    24556633.932   100555314.439 3
      2474.991                          37.000          16.000
  25137663.547   132099315.876 6      3314.030    25137668.157   102934544.080 4
      2582.376                          37.000          22.000
  25486551.664   133932717.519 6      2335.420    25486556.310   104363157.423 3
      1819.811                          38.000          18.000
 23 11 29 10  0 30.0000000  0 11G20G30G05G07G13G14G11G09G22G15G18
  20466862.802   107554054.070 8     -1195.162    20466863.624    83808341.334 8
      -931.292                          49.000          46.000
  20656788.322   108552195.694 9      -162.452    20656792.039    84586158.517 9
      -126.579                          51.000          60.000
  21108999.419   110928504.117 8      1396.101    21109000.098    86437783.219 8
      1087.872                          49.000          45.000
  21713002.361   114102579.519 8     -2030.766    21713004.094    88911099.907 9
     -1582.410                          49.000          54.000
  21742851.295   114259492.253 8      2251.393    21742852.761    89033388.102 6
      1754.332                          47.000          37.000
  23536622.748   123685800.410 7      2922.246    23536628.091    96378588.478 5
      2277.058                          42.000          29.000
  23898327.868   125586453.970 7     -3658.404    23898333.158    97859547.133 5
     -2850.690                          43.000          31.000
  24205124.483   127198663.819 6     -3472.983    24205133.507    99115842.518 6
     -2706.214                          38.000          37.000
  24538502.288   128950699.193 6      3173.872    24538509.918   100481102.138 3
      2473.155                          37.000          17.000
  25118752.117   131999936.514 6      3312.121    25118756.977   102857105.527 3
      2580.867                          35.000          20.000
  25473262.346   133862881.332 6      2320.936    25473266.849   104308739.446 3
      1808.555                          37.000          16.000
 23 11 29 10  1  0.0000000  0 11G20G30G05G07G13G14G11G09G22G15G18
  20473735.138   107590168.794 8     -1215.812    20473735.943    83836482.622 8
      -947.387                          49.000          46.000
  20657757.610   108557289.218 9      -180.371    20657761.612    84590127.473 9
      -140.561                          51.000          60.000
  21101071.701   110886845.152 8      1377.817    21101072.827    86405321.706 8
      1073.623                          50.000          46.000
  21724622.837   114163645.233 8     -2043.604    21724624.463    88958683.559 9
     -1592.426                          49.000          54.000
  21730016.530   114192044.496 8      2241.791    21730017.960    88980831.461 6
      1746.846                          48.000          37.000
  23519952.433   123598199.668 7      2914.464    23519958.097    96310328.736 5
      2270.973                          42.000          30.000
  23919223.850   125696264.337 7     -3665.481    23919229.336    97945113.445 5
     -2856.214                          43.000          30.000
  24224953.845   127302868.092 7     -3477.308    24224963.155    99197040.525 7
     -2709.593                          41.000          39.000
  24520381.669   128855475.905 6      3171.036    24520389.013   100406902.356 3
      2470.903                          37.000          18.000
  25099840.222   131900554.980 5      3309.904    25099845.029   102779665.322 3
      2579.115                          32.000          17.000
  25460044.148   133793418.492 6      2306.389    25460049.080   104254612.434 3
      1797.186                          37.000          17.000
 23 11 29 10  1 30.0000000  0 11G20G30G05G13G07G14G11G09G22G15G18
  20480723.374   107626891.755 8     -1233.775    20480723.999    83865097.864 8
      -961.379                          49.000          46.000
  20658827.607   108562910.134 9      -195.723    20658830.966    84594507.384 9
      -152.509                          51.000          59.000
  21093246.767   110845724.941 8      1362.082    21093248.232    86373280.008 8
      1061.363                          49.000          45.000
  21717234.246   114124875.969 8      2234.789    21717236.408    88928492.406 6
      1741.393                          48.000          37.000
  21736314.574   114225085.017 8     -2053.724    21736316.111    89006558.695 9
     -1600.300                          49.000          54.000
  23503324.753   123510824.418 7      2909.218    23503330.757    96242244.674 5
      2266.911                          43.000          30.000
  23940158.501   125806274.898 7     -3669.908    23940163.843    98030835.757 5
     -2859.660                          43.000          30.000
  24244806.705   127407194.571 7     -3479.033    24244815.782    99278333.775 7
     -2710.934                          41.000          39.000
  24502274.220   128760322.459 6      3171.172    24502281.689   100332757.022 3
      2471.010                          37.000          18.000
  25080938.852   131801223.575 6      3310.621    25080943.355   102702264.150 3
      2579.755                          33.000          15.000
  25446907.146   133724382.166 6      2294.507    25446912.238   104200817.752 3
      1787.951                          37.000          18.000
 23 11 29 10  2  0.0000000  0 11G20G30G05G13G07G14G11G09G22G15G18
  20487820.646   107664189.005 8     -1251.549    20487821.700    83894160.597 8
      -975.227                          49.000          46.000
  20659990.970   108569024.256 9      -210.702    20659994.222    84599271.612 9
      -164.177                          51.000          59.000
  21085518.325   110805111.356 8      1346.584    21085519.433    86341633.075 8
      1049.288                          49.000          45.000
  21704499.458   114057953.625 8      2227.903    21704501.459    88876345.180 6
      1736.029                          47.000          37.000
  21748070.587   114286863.197 8     -2063.614    21748072.106    89054697.516 9
     -1608.007                          49.000          54.000
  23486734.401   123423643.901 7      2904.068    23486740.298    96174312.323 5
      2262.895                          42.000          30.000
  23961124.243   125916448.846 7     -3673.906    23961129.765    98116685.374 5
     -2862.771                          42.000          30.000
  24264676.326   127511608.828 7     -3480.609    24264684.385    99359695.412 6
     -2712.157                          40.000          38.000
  24484173.918   128665207.962 6      3171.075    24484181.173   100258642.044 3
      2470.963                          38.000          19.000
  25062040.555   131701909.316 5      3311.545    25062044.540   102624876.269 3
      2580.432                          32.000          15.000
  25433845.480   133655741.282 6      2282.728    25433850.501   104147331.219 3
      1778.760                          38.000          19.000
 23 11 29 10  2 30.0000000  0 11G20G30G05G13G07G14G11G09G22G15G18
  20495024.400   107702044.343 8     -1271.976    20495025.418    83923658.215 8
      -991.151                          49.000          46.000
  20661245.143   108575615.474 9      -228.471    20661248.573    84604407.612 9
      -178.031                          51.000          59.000
  21077883.553   110764991.363 8      1328.262    21077884.393    86310370.750 8
      1035.008                          50.000          45.000
  21691808.806   113991262.674 8      2218.317    21691810.325    88824378.260 6
      1728.554                          47.000          37.000
  21759887.836   114348962.725 8     -2076.123    21759889.284    89103086.736 9
     -1617.759                          49.000          54.000
  23470179.306   123336645.402 7      2896.031    23470184.398    96106521.767 5
      2256.625                          42.000          30.000
  23982117.700   126026767.486 7     -3680.490    23982123.168    98202647.735 5
     -2867.906                          42.000          29.000
  24284559.366   127616094.497 7     -3484.958    24284567.497    99441112.701 6
     -2715.554                          40.000          38.000
  24466079.156   128570119.779 7      3168.400    24466086.500   100184547.621 3
      2468.864                          39.000          20.000
  25043141.348   131602597.381 6      3309.646    25043146.226   102547490.195 3
      2578.949                          33.000          15.000
  25420856.022   133587482.679 6      2267.997    25420860.686   104094142.573 3
      1767.280                          38.000          18.000
 23 11 29 10  3  0.0000000  0 11G20G30G05G13G07G14G11G09G22G15G18
  20502337.816   107740477.070 8     -1290.747    20502338.816    83953605.743 8
     -1005.777                          49.000          46.000
  20662593.825   108582702.971 9      -244.597    20662597.470    84609930.314 9
      -190.598                          51.000          59.000
  21070346.953   110725386.489 8      1311.462    21070348.222    86279509.813 8
      1021.917                          49.000          45.000
  21679165.865   113924823.727 8      2210.323    21679167.134    88772607.696 6
      1722.326                          47.000          37.000
  21771769.646   114411401.863 8     -2087.022    21771771.058    89151740.582 9
     -1626.253                          49.000          54.000
  23453662.735   123249851.525 7      2889.541    23453667.596    96038890.616 5
      2251.573                          42.000          30.000
  24003141.142   126137247.394 7     -3685.471    24003146.914    98288735.768 5
     -2871.796                          42.000          29.000
  24304459.061   127720670.460 7     -3487.499    24304467.781    99522600.367 6
     -2717.534                          40.000          37.000
  24447993.757   128475080.548 7      3167.038    24448000.690   100110491.340 4
      2467.816                          39.000          21.000
  25024248.251   131503308.347 6      3309.215    25024252.343   102470121.954 3
      2578.618                          35.000          17.000
  25407944.349   133519628.477 6      2254.978    25407949.066   104041269.069 3
      1757.117                          38.000          18.000
 23 11 29 10  3 30.0000000  0 11G20G30G05G13G07G14G11G09G22G15G18
  20509759.929   107779479.889 8     -1310.045    20509760.786    83983997.498 8
     -1020.814                          50.000          46.000
  20664035.694   108590279.499 9      -261.125    20664039.340    84615834.087 9
      -203.476                          51.000          59.000
  21062908.025   110686292.255 8      1294.214    21062909.008    86249046.795 8
      1008.476                          49.000          45.000
  21666569.794   113858631.113 8      2201.836    21666571.027    88721029.076 6
      1715.714                          48.000          37.000
  21783714.248   114474172.147 8     -2098.312    21783715.803    89200652.462 9
     -1635.050                          49.000          54.000
  23437184.441   123163258.519 7      2882.671    23437189.230    95971415.945 5
      2246.219                          41.000          30.000
  24024193.853   126247878.808 7     -3690.607    24024199.410    98374941.863 5
     -2875.792                          42.000          28.000
  24324375.123   127825329.341 7     -3490.501    24324384.236    99604152.626 6
     -2719.869                          39.000          36.000
  24429916.685   128380086.384 7      3165.236    24429923.904   100036470.198 4
      2466.416                          39.000          21.000
  25005358.156   131404037.301 6      3308.138    25005361.444   102392767.712 3
      2577.753                          36.000          17.000
  25395108.297   133452174.405 7      2241.295    25395113.050   103988707.335 3
      1746.455                          39.000          18.000
 23 11 29 10  4  0.0000000  0 11G20G30G05G13G07G14G11G09G22G15G18
  20517293.384   107819067.444 8     -1329.087    20517294.366    84014844.891 8
     -1035.649                          49.000          46.000
  20665573.306   108598359.882 9      -277.524    20665576.951    84622130.468 9
      -216.245                          51.000          60.000
  21055568.628   110647725.495 8      1276.923    21055569.646    86218994.772 8
       995.006                          50.000          45.000
  21654023.649   113792701.074 8      2193.503    21654025.043    88669655.054 6
      1709.223                          49.000          38.000
  21795724.912   114537287.452 8     -2109.310    21795726.449    89249833.183 9
     -1643.614                          49.000          54.000
  23420747.316   123076884.667 7      2875.698    23420752.516    95904111.994 5
      2240.805                          43.000          31.000
  24045277.603   126358673.965 7     -3695.651    24045283.106    98461275.552 5
     -2879.714                          42.000          28.000
  24344310.252   127930085.716 7     -3493.317    24344318.954    99685780.819 6
     -2722.059                          39.000          37.000
  24411851.764   128285155.290 7      3163.599    24411859.215    99962498.225 4
      2465.142                          39.000          22.000
  24986473.458   131304800.051 6      3307.586    24986477.246   102315439.877 3
      2577.336                          35.000          16.000
  25382351.619   133385138.404 7      2227.769    25382356.926   103936471.360 3
      1735.946                          39.000          20.000
 23 11 29 10  4 30.0000000  0 11G20G30G05G13G07G14G11G09G22G15G18
  20524931.783   107859207.963 8     -1347.945    20524932.998    84046123.163 8
     -1050.345                          49.000          47.000
  20667200.656   108606912.182 9      -293.618    20667204.355    84628794.580 9
      -228.791                          51.000          60.000
  21048324.365   110609656.999 8      1259.921    21048325.562    86189331.002 8
       981.753                          49.000          45.000
  21641521.516   113727002.987 8      2185.386    21641523.357    88618461.774 6
      1702.897                          49.000          38.000
  21807794.472   114600714.519 8     -2120.089    21807796.420    89299256.830 9
     -1652.019                          49.000          54.000
  23404347.145   122990701.566 7      2868.899    23404352.041    95836956.633 5
      2235.493                          42.000          31.000
  24066385.493   126469598.404 7     -3700.260    24066391.658    98547709.963 5
     -2883.316                          41.000          28.000
  24364257.621   128034907.436 7     -3495.808    24364265.698    99767459.940 6
     -2723.997                          39.000          37.000
  24393793.204   128190259.160 7      3161.900    24393800.637    99888553.482 4
      2463.814                          40.000          23.000
  24967589.885   131205566.451 6      3306.883    24967594.406   102238114.900 3
      2576.814                          34.000          16.000
  25369668.634   133318491.423 6      2214.302    25369674.620   103884538.535 3
      1725.443                          38.000          20.000
 23 11 29 10  5  0.0000000  0 11G20G30G05G13G07G14G11G22G09G15G18
  20532681.221   107899931.123 8     -1367.423    20532682.133    84077855.443 8
     -1065.519                          50.000          46.000
  20668923.837   108615965.903 9      -310.362    20668927.286    84635849.409 9
      -241.833                          51.000          60.000
  21041181.259   110572118.965 8      1242.153    21041182.795    86160080.590 8
       967.916                          49.000          46.000
  21629069.541   113661567.742 8      2176.516    21629071.453    88567473.306 6
      1695.990                          48.000          38.000
  21819929.326   114664481.926 8     -2131.478    21819930.988    89348945.666 9
     -1660.885                          49.000          54.000
  23387989.091   122904742.112 7      2861.337    23387993.826    95769975.496 5
      2229.616                          42.000          31.000
  24087523.493   126580679.120 7     -3705.542    24087529.461    98634266.161 5
     -2887.417                          42.000          28.000
  24375747.689   128095430.963 7      3159.484    24375755.283    99814661.682 4
      2461.927                          40.000          23.000
  24384222.448   128139823.880 7     -3498.971    24384230.203    99849212.875 6
     -2726.463                          39.000          37.000
  24948712.496   131106366.921 6      3305.721    24948717.928   102160816.492 3
      2575.923                          35.000          17.000
  25357067.166   133252266.004 6      2200.271    25357072.205   103832934.210 3
      1714.488                          38.000          20.000
 23 11 29 10  5 30.0000000  0 11G20G30G05G13G07G14G11G22G09G15G18
  20540538.106   107941219.320 8     -1385.577    20540539.106    84110028.018 8
     -1079.669                          49.000          46.000
  20670738.669   108625503.491 9      -325.820    20670742.225    84643281.278 9
      -253.884                          51.000          60.000
  21034136.039   110535096.080 8      1225.650    21034137.504    86131231.584 8
       955.055                          49.000          46.000
  21616664.562   113596379.514 8      2168.919    21616666.295    88516677.322 6
      1690.065                          48.000          38.000
  21832125.148   114728570.961 8     -2141.474    21832126.614    89398885.114 9
     -1668.680                          49.000          54.000
  23371671.367   122818992.338 7      2854.882    23371676.084    95703157.701 5
      2224.576                          43.000          31.000
  24108687.314   126691896.039 7     -3709.319    24108694.122    98720928.476 5
     -2890.373                          41.000          28.000
  24357712.698   128000656.328 6      3158.427    24357719.899    99740811.601 4
      2461.105                          38.000          23.000
  24404201.856   128244817.282 7     -3500.892    24404209.915    99931025.800 6
     -2727.965                          39.000          37.000
  24929839.162   131007186.132 6      3305.918    24929844.433   102083532.619 3
      2576.052                          36.000          18.000
  25344542.321   133186447.650 7      2187.261    25344547.432   103781647.080 3
      1704.374                          39.000          20.000
 23 11 29 10  6  0.0000000  0 11G20G30G05G13G07G14G11G22G09G15G18
  20548501.882   107983069.065 8     -1404.597    20548503.026    84142638.154 8
     -1094.489                          49.000          46.000
  20672645.007   108635521.733 9      -342.213    20672648.581    84651087.684 9
      -266.656                          51.000          59.000
  21027188.759   110498587.545 8      1208.099    21027189.635    86102783.355 8
       941.380                          49.000          45.000
  21604306.363   113531436.458 8      2160.380    21604307.811    88466072.376 6
      1683.412                          48.000          38.000
  21844381.297   114792977.432 8     -2152.420    21844382.762    89449071.908 9
     -1677.201                          49.000          54.000
  23355394.188   122733452.547 7      2847.496    23355398.512    95636503.485 5
      2218.828                          43.000          31.000
  24129876.062   126803243.423 7     -3713.932    24129883.370    98807692.459 5
     -2893.972                          40.000          28.000
  24339687.714   127905935.708 7      3156.141    24339695.291    99667003.574 4
      2459.305                          39.000          22.000
  24424195.810   128349884.313 6     -3503.656    24424204.101   100012896.074 6
     -2730.111                          38.000          36.000
  24910968.902   130908022.854 6      3305.020    24910974.441   102006262.330 3
      2575.405                          35.000          16.000
  25332095.260   133121036.100 6      2173.331    25332100.156   103730676.928 3
      1693.511                          38.000          19.000
 23 11 29 10  6 30.0000000  0 11G20G30G05G13G07G14G11G22G09G15G18
  20556575.572   108025495.646 8     -1424.217    20556576.340    84175697.775 8
     -1109.778                          49.000          46.000
  20674646.052   108646036.015 9      -359.097    20674649.215    84659280.615 9
      -279.813                          51.000          59.000
  21020342.976   110462611.961 8      1189.889    21020343.887    86074750.414 8
       927.185                          49.000          45.000
  21591998.019   113466755.683 8      2151.230    21591999.592    88415671.802 7
      1676.283                          49.000          39.000
  21856700.577   114857715.771 8     -2163.819    21856702.381    89499517.285 9
     -1686.092                          49.000          54.000
  23339159.823   122648141.676 7      2839.480    23339164.290    95570027.612 5
      2212.577                          43.000          32.000
  24151092.828   126914734.307 7     -3719.132    24151099.475    98894568.246 5
     -2898.011                          41.000          28.000
  24321676.508   127811287.709 7      3153.219    24321684.173    99593252.127 4
      2457.054                          39.000          23.000
  24444206.149   128455040.234 7     -3507.189    24444214.851   100094835.599 6
     -2732.866                          39.000          36.000
  24892105.468   130808893.753 6      3303.331    24892110.775   101929018.724 3
      2574.013                          34.000          16.000
  25319728.449   133056049.817 7      2158.812    25319733.649   103680038.124 3
      1682.186                          39.000          19.000
 23 11 29 10  7  0.0000000  0 11G20G30G05G13G07G14G11G22G09G15G18
  20564754.992   108068479.520 8     -1441.405    20564755.992    84209191.652 8
     -1123.170                          49.000          46.000
  20676737.192   108657026.595 9      -373.677    20676740.677    84667844.690 9
      -291.173                          51.000          60.000
  21013594.721   110427151.107 8      1174.043    21013596.490    86047118.563 8
       914.836                          50.000          46.000
  21579736.046   113402318.594 8      2144.412    21579737.761    88365461.108 7
      1670.974                          48.000          39.000
  21869078.967   114922764.805 8     -2172.863    21869080.772    89550204.766 9
     -1693.141                          49.000          54.000
  23322965.950   122563043.540 7      2833.659    23322970.649    95503717.454 5
      2208.050                          43.000          32.000
  24172331.877   127026346.367 7     -3721.715    24172338.400    98981538.458 5
     -2900.029                          41.000          28.000
  24303676.558   127716696.237 7      3152.736    24303683.652    99519544.685 4
      2456.662                          39.000          23.000
  24464229.622   128560265.144 7     -3507.984    24464238.646   100176828.891 6
     -2733.484                          39.000          38.000
  24873245.733   130709781.029 6      3303.825    24873250.146   101851787.937 3
      2574.414                          35.000          18.000
  25307440.208   132991472.074 7      2146.233    25307444.800   103629717.685 3
      1672.396                          39.000          20.000
 23 11 29 10  7 30.0000000  0 11G20G30G05G13G07G14G11G22G09G15G18
  20573037.016   108112001.677 8     -1459.698    20573038.142    84243104.973 8
     -1137.422                          49.000          46.000
  20678915.784   108668474.586 8      -389.183    20678919.483    84676765.183 9
      -303.257                          50.000          59.000
  21006941.584   110392189.343 8      1157.049    21006943.138    86019875.608 8
       901.599                          49.000          45.000
  21567517.029   113338108.082 8      2136.557    21567518.977    88315426.969 6
      1664.850                          48.000          38.000
  21881512.841   114988104.897 8     -2182.828    21881514.449    89601119.041 9
     -1700.903                          49.000          53.000
  23306809.798   122478142.802 7      2826.678    23306814.604    95437561.092 5
      2202.607                          42.000          32.000
  24193590.726   127138058.330 7     -3725.251    24193596.444    99068586.503 5
     -2902.781                          41.000          28.000
  24285684.078   127622146.316 7      3150.857    24285691.762    99445869.603 4
      2455.208                          39.000          23.000
  24484263.174   128665540.098 7     -3510.051    24484271.679   100258861.186 6
     -2735.099                          39.000          37.000
  24854384.229   130610667.269 6      3303.852    24854389.768   101774556.356 3
      2574.429                          36.000          18.000
  25295225.891   132927287.019 7      2132.906    25295231.251   103579703.235 3
      1662.010                          39.000          20.000
 23 11 29 10  8  0.0000000  0 11G20G30G05G13G07G14G11G22G09G15G18
  20581427.880   108156094.799 8     -1480.256    20581428.649    84277463.193 8
     -1153.448                          49.000          46.000
  20681187.705   108680412.743 9      -407.015    20681191.225    84686067.626 9
      -317.154                          51.000          59.000
  21000390.300   110357762.007 8      1137.689    21000391.622    85993049.075 8
       886.513                          49.000          46.000
  21555347.938   113274158.135 8      2126.336    21555349.779    88265595.864 6
      1656.880                          48.000          38.000
  21894008.184   115053767.911 8     -2195.062    21894009.703    89652284.937 9
     -1710.432                          49.000          54.000
  23290698.068   122393475.792 7      2817.350    23290702.714    95371586.812 5
      2195.341                          43.000          31.000
  24214873.786   127249900.533 7     -3731.243    24214879.343    99155736.050 5
     -2907.464                          41.000          28.000
  24267705.733   127527673.959 7      3146.753    24267713.934    99372254.896 4
      2452.010                          39.000          22.000
  24504312.289   128770897.747 6     -3514.278    24504320.830   100340957.896 6
     -2738.397                          38.000          36.000
  24835530.140   130511587.053 6      3301.165    24835535.483   101697350.947 3
      2572.325                          37.000          17.000
  25283093.628   132863530.417 7      2117.053    25283098.596   103530022.649 3
      1649.647                          39.000          20.000
 23 11 29 10  8 30.0000000  0 11G20G30G05G13G07G14G11G22G09G15G18
  20589926.245   108200755.258 8     -1497.232    20589927.495    84312263.500 8
     -1166.671                          49.000          46.000
  20683552.080   108692837.621 9      -421.300    20683555.440    84695749.328 9
      -328.283                          51.000          59.000
  20993940.798   110323867.804 8      1121.812    20993942.227    85966637.978 8
       874.142                          49.000          46.000
  21543228.274   113210467.358 8      2119.605    21543229.489    88215966.698 6
      1651.641                          48.000          38.000
  21906564.282   115119749.289 8     -2203.748    21906565.961    89703698.908 9
     -1717.203                          49.000          54.000
  23274630.850   122309042.688 7      2811.467    23274635.246    95305794.760 5
      2190.758                          43.000          32.000
  24236180.094   127361867.132 7     -3733.374    24236186.670    99242982.518 5
     -2909.117                          42.000          29.000
  24249743.576   127433279.417 6      3146.093    24249750.777    99298700.810 4
      2451.515                          38.000          22.000
  24524376.521   128876334.568 7     -3514.973    24524385.259   100423116.307 6
     -2738.930                          39.000          36.000
  24816681.787   130412538.870 6      3302.038    24816687.041   101620170.523 3
      2573.000                          37.000          16.000
  25271042.545   132800202.003 7      2104.757    25271047.905   103480675.763 3
      1640.076                          39.000          19.000
 23 11 29 10  9  0.0000000  0 11G20G30G05G13G07G14G22G11G09G15G18
  20598531.573   108245975.818 8     -1516.962    20598532.859    84347500.248 8
     -1182.046                          49.000          46.000
  20686007.624   108705741.808 8      -438.405    20686011.126    84705804.520 9
      -341.615                          50.000          59.000
  20987591.433   110290501.655 8      1103.104    20987593.042    85940638.361 8
       859.559                          49.000          46.000
  21531156.426   113147029.707 8      2110.069    21531157.355    88166534.774 7
      1644.208                          48.000          39.000
  21919179.061   115186040.662 8     -2215.156    21919180.973    89755354.430 9
     -1726.095                          49.000          54.000
  23258607.840   122224839.671 7      2802.619    23258611.950    95240181.976 6
      2183.851                          44.000          33.000
  24231795.108   127338958.677 6      3142.456    24231801.916    99225204.208 4
      2448.681                          37.000          21.000
  24257508.381   127473948.319 7     -3738.250    24257515.583    99330318.274 5
     -2912.911                          42.000          30.000
  24544454.352   128981843.081 6     -3518.321    24544463.108   100505330.563 6
     -2741.545                          38.000          36.000
  24797839.296   130313516.779 6      3300.082    24797843.763   101543010.501 3
      2571.471                          37.000          18.000
  25259072.533   132737297.294 7      2089.456    25259077.786   103431659.068 3
      1628.136                          39.000          20.000
 23 11 29 10  9 30.0000000  0 11G20G30G05G13G07G14G22G11G09G15G18
  20607246.760   108291773.590 8     -1536.066    20607247.671    84383186.776 8
     -1196.934                          49.000          46.000
  20688557.855   108719142.506 8      -454.894    20688561.375    84716246.607 9
      -354.466                          50.000          60.000
  20981346.281   110257683.594 8      1084.858    20981347.586    85915065.810 8
       845.349                          49.000          46.000
  21519136.274   113083863.926 8      2101.097    21519137.346    88117314.692 7
      1637.219                          48.000          39.000
  21931855.847   115252658.187 8     -2225.898    21931857.794    89807264.087 9
     -1734.463                          49.000          54.000
  23242632.129   122140887.584 7      2794.317    23242636.311    95174764.683 6
      2177.386                          44.000          33.000
  24213864.579   127244732.758 6      3139.400    24213871.888    99151781.452 4
      2446.281                          38.000          21.000
  24278861.882   127586158.918 7     -3742.289    24278868.529    99417754.851 5
     -2916.065                          42.000          30.000
  24564548.462   129087440.519 7     -3521.252    24564557.611   100587614.093 6
     -2743.831                          39.000          37.000
  24779003.934   130214539.853 6      3298.587    24779009.098   101465885.744 4
      2570.339                          38.000          21.000
  25247186.684   132674836.503 7      2074.727    25247191.652   103382988.303 4
      1616.678                          40.000          22.000
 23 11 29 10 10  0.0000000  0 11G20G30G05G13G07G14G22G11G09G15G18
  20616067.821   108338129.084 8     -1553.600    20616068.840    84419307.887 8
     -1210.593                          49.000          46.000
  20691198.432   108733020.572 9      -469.667    20691202.095    84727060.670 9
      -365.969                          51.000          60.000
  20975202.304   110225396.832 8      1068.202    20975203.626    85889907.262 8
       832.364                          49.000          46.000
  21507164.243   113020952.407 8      2093.700    21507166.012    88068292.738 7
      1631.458                          49.000          40.000
  21944591.064   115319581.992 8     -2234.994    21944592.761    89859412.408 9
     -1741.553                          49.000          54.000
  23226701.127   122057170.857 7      2787.447    23226705.773    95109530.786 6
      2172.049                          44.000          33.000
  24195948.936   127150586.250 7      3137.662    24195956.405    99078420.528 4
      2444.922                          39.000          22.000
  24300235.967   127698477.426 7     -3744.908    24300241.918    99505275.528 5
     -2918.095                          42.000          30.000
  24584657.081   129193107.642 7     -3522.474    24584665.247   100669951.919 6
     -2744.774                          39.000          37.000
  24760174.362   130115590.640 7      3298.682    24760179.311   101388782.585 4
      2570.424                          40.000          21.000
  25235381.514   132612803.537 7      2061.438    25235387.429   103334650.902 4
      1606.306                          41.000          23.000
 23 11 29 10 10 30.0000000  0 11G20G30G05G13G07G14G22G11G09G15G18
  20624995.203   108385043.252 8     -1573.455    20624996.471    84455864.327 8
     -1226.066                          49.000          45.000
  20693930.534   108747377.041 9      -486.917    20693934.001    84738247.511 9
      -379.415                          51.000          59.000
  20969160.108   110193645.056 8      1049.088    20969161.913    85865165.593 8
       817.474                          49.000          46.000
  21495241.459   112958297.828 8      2083.793    21495243.657    88019471.004 7
      1623.735                          49.000          40.000
  21957384.659   115386812.019 8     -2246.482    21957386.392    89911799.344 9
     -1750.503                          49.000          53.000
  23210816.441   121973694.189 7      2778.109    23210821.230    95044483.945 6
      2164.763                          44.000          33.000
  24178049.482   127056523.683 7      3133.607    24178056.826    99005124.991 4
      2441.779                          39.000          21.000
  24321629.512   127810902.525 7     -3749.592    24321635.927    99592879.263 5
     -2921.752                          42.000          29.000
  24604777.779   129298845.473 6     -3526.078    24604786.875   100752344.828 6
     -2747.587                          38.000          36.000
  24741350.757   130016672.050 7      3296.387    24741355.260   101311703.244 3
      2568.626                          40.000          19.000
  25223659.953   132551202.434 7      2045.792    25223664.439   103286650.008 4
      1594.120                          40.000          22.000
 23 11 29 10 11  0.0000000  0 11G20G30G05G13G07G14G22G11G09G15G18
  20634027.583   108432507.465 8     -1590.416    20634028.673    84492849.376 8
     -1239.284                          49.000          45.000
  20696751.981   108762203.280 9      -501.121    20696755.466    84749800.409 9
      -390.485                          51.000          59.000
  20963218.694   110162422.190 8      1032.817    20963220.302    85840836.062 8
       804.791                          49.000          46.000
  21483366.654   112895893.352 8      2076.842    21483368.619    87970844.158 7
      1618.317                          49.000          40.000
  21970234.648   115454338.455 8     -2254.937    21970236.310    89964417.254 9
     -1757.093                          49.000          53.000
  23194976.500   121890452.624 7      2771.618    23194981.181    94979620.302 6
      2159.706                          44.000          33.000
  24160164.913   126962540.290 7      3132.368    24160172.365    98931891.131 4
      2440.816                          39.000          22.000
  24343041.658   127923423.292 7     -3751.354    24343048.073    99680557.536 5
     -2923.129                          42.000          29.000
  24624910.825   129404645.405 7     -3526.725    24624920.207   100834786.126 6
     -2748.093                          39.000          35.000
  24722531.603   129917777.253 7      3296.970    24722536.285   101234642.421 4
      2569.068                          41.000          21.000
  25212018.660   132490027.592 7      2032.894    25212023.646   103238981.281 4
      1584.077                          39.000          22.000
 23 11 29 10 11 30.0000000  0 11G20G30G05G13G07G14G22G11G09G15G18
  20643166.105   108480530.069 8     -1609.641    20643167.141    84530269.531 8
     -1254.264                          49.000          45.000
  20699664.400   108777507.623 9      -517.674    20699667.670    84761725.857 9
      -403.383                          51.000          59.000
  20957379.758   110131738.740 8      1014.174    20957381.205    85816926.853 8
       790.262                          49.000          45.000
  21471540.738   112833748.903 8      2067.556    21471542.775    87922419.935 7
      1611.081                          48.000          39.000
  21983142.516   115522169.263 8     -2265.692    21983144.088    90017272.345 9
     -1765.479                          49.000          53.000
  23179183.089   121807458.138 7      2762.756    23179187.860    94914949.167 6
      2152.798                          44.000          33.000
  24142297.981   126868647.733 7      3128.695    24142304.950    98858728.037 4
      2437.943                          40.000          22.000
  24364473.103   128036045.714 7     -3755.280    24364479.786    99768315.023 5
     -2926.180                          42.000          29.000
  24645057.720   129510515.768 7     -3529.721    24645067.262   100917282.300 6
     -2750.426                          39.000          36.000
  24703718.756   129818916.323 7      3295.182    24703723.581   101157607.977 4
      2567.678                          40.000          21.000
  25200460.297   132429290.434 7      2017.680    25200465.533   103191653.578 4
      1572.220                          39.000          21.000
 23 11 29 10 12  0.0000000  0 11G20G30G05G13G07G14G22G11G09G15G18
  20652413.807   108529126.659 8     -1630.094    20652414.843    84568136.949 8
     -1270.205                          49.000          45.000
  20702670.577   108793305.939 9      -535.458    20702673.901    84774036.219 9
      -417.251                          51.000          59.000
  20951647.215   110101613.106 8       994.212    20951648.591    85793452.305 8
       774.710                          49.000          45.000
  21459767.928   112771881.827 8      2056.952    21459769.197    87874211.835 7
      1602.814                          48.000          39.000
  21996111.084   115590319.189 8     -2277.608    21996112.853    90070376.108 9
     -1774.764                          49.000          53.000
  23163440.426   121724730.300 7      2752.508    23163445.465    94850485.819 6
      2144.802                          43.000          33.000
  24124451.723   126774865.869 7      3123.500    24124458.192    98785651.173 4
      2433.899                          41.000          22.000
  24385926.813   128148783.429 7     -3760.451    24385933.318    99856162.337 5
     -2930.222                          42.000          29.000
  24665221.125   129616472.476 7     -3534.125    24665229.970   100999845.742 6
     -2753.865                          40.000          36.000
  24684916.327   129720107.129 7      3292.188    24684921.491   101080613.853 4
      2565.320                          40.000          21.000
  25188989.421   132369009.865 7      2001.037    25188994.924   103144681.658 4
      1559.237                          39.000          22.000
 23 11 29 10 12 30.0000000  0 11G20G30G05G13G07G14G22G11G15G09G18
  20661771.046   108578300.027 8     -1648.146    20661772.618    84606453.802 8
     -1284.266                          49.000          46.000
  20705771.460   108809601.307 9      -550.856    20705774.962    84786733.897 9
      -429.237                          51.000          60.000
  20946021.689   110072051.179 8       976.519    20946023.226    85770417.012 8
       760.925                          49.000          46.000
  21448048.601   112710297.022 8      2048.684    21448049.745    87826223.696 7
      1596.376                          49.000          40.000
  22009140.675   115658790.244 8     -2287.161    22009142.784    90123730.106 9
     -1782.201                          49.000          54.000
  23147750.387   121642275.839 7      2744.431    23147755.301    94786235.529 6
      2138.518                          44.000          34.000
  24106628.141   126681201.427 7      3120.709    24106634.556    98712665.782 4
      2431.723                          41.000          24.000
  24407402.109   128261637.147 7     -3763.065    24407408.863    99944100.046 5
     -2932.248                          42.000          30.000
  24666124.476   129621354.618 7      3291.403    24666129.712   101003663.799 4
      2564.737                          40.000          22.000
  24685400.452   129722518.589 7     -3535.721    24685409.762   101082478.841 6
     -2755.096                          40.000          37.000
  25177606.853   132309191.991 7      1986.724    25177612.500   103098070.279 4
      1548.091                          39.000          25.000
 23 11 29 10 13  0.0000000  0 11G20G30G05G13G07G14G22G11G15G09G18
  20671234.731   108628032.754 8     -1666.149    20671236.321    84645206.524 8
     -1298.295                          50.000          45.000
  20708963.546   108826376.275 9      -566.235    20708967.299    84799805.282 9
      -441.226                          51.000          59.000
  20940500.625   110043037.660 8       958.873    20940502.037    85747809.052 8
       747.178                          49.000          45.000
  21436380.165   112648978.791 8      2040.403    21436381.809    87778443.276 7
      1589.924                          49.000          40.000
  22022228.287   115727564.454 8     -2296.604    22022229.842    90177320.340 9
     -1789.562                          49.000          53.000
  23132109.381   121560081.029 7      2736.435    23132113.813    94722187.561 6
      2132.285                          44.000          34.000
  24088824.108   126587640.550 7      3117.777    24088831.148    98639761.054 4
      2429.428                          41.000          23.000
  24428896.095   128374587.227 7     -3765.713    24428902.707   100032112.843 5
     -2934.320                          42.000          29.000
  24647340.255   129522643.544 7      3290.674    24647345.598   100926746.072 4
      2564.154                          41.000          24.000
  24705594.717   129828636.774 7     -3537.598    24705604.009   101165168.085 6
     -2756.567                          39.000          37.000
  25166309.646   132249822.394 6      1972.310    25166314.846   103051808.224 4
      1536.871                          38.000          23.000
 23 11 29 10 13 30.0000000  0 11G20G30G05G13G07G14G22G11G15G09G18
  20680804.128   108678319.146 8     -1686.516    20680805.344    84684390.687 8
     -1314.161                          48.000          45.000
  20712245.979   108843625.206 9      -583.974    20712249.624    84813245.997 9
      -455.034                          51.000          59.000
  20935083.488   110014569.789 8       938.681    20935084.739    85725626.282 8
       731.442                          48.000          45.000
  21424761.404   112587922.905 8      2029.691    21424763.638    87730867.294 7
      1581.579                          49.000          40.000
  22035371.686   115796634.900 8     -2308.402    22035373.438    90231141.411 9
     -1798.749                          49.000          53.000
  23116516.854   121478143.907 7      2725.717    23116521.411    94658340.413 6
      2123.949                          44.000          33.000
  24071039.587   126494181.332 7      3112.499    24071046.860    98566935.531 4
      2425.335                          41.000          24.000
  24450406.807   128487625.781 7     -3770.589    24450413.419   100120194.580 5
     -2938.103                          41.000          28.000
  24628563.432   129423970.060 7      3287.315    24628568.293   100849857.622 4
      2561.548                          41.000          24.000
  24725801.670   129934821.492 6     -3541.707    24725810.890   101247909.170 6
     -2759.755                          38.000          36.000
  25155096.709   132190898.550 7      1955.496    25155101.748   103005893.513 4
      1523.771                          39.000          23.000
 23 11 29 10 14  0.0000000  0 11G20G30G05G13G07G14G22G11G15G09G18
  20690482.509   108729178.860 8     -1704.601    20690483.760    84724021.582 8
     -1328.258                          49.000          45.000
  20715622.206   108861368.038 9      -599.347    20715625.851    84827071.568 9
      -467.023                          51.000          59.000
  20929774.351   109986669.620 8       920.779    20929775.673    85703885.877 8
       717.492                          49.000          46.000
  21413196.912   112527151.274 8      2021.256    21413198.985    87683512.810 7
      1575.005                          49.000          39.000
  22048575.322   115866020.675 8     -2317.824    22048577.270    90285208.204 9
     -1806.096                          50.000          53.000
  23100978.595   121396488.106 7      2717.447    23100982.901    94594712.504 6
      2117.493                          44.000          34.000
  24053279.083   126400847.684 7      3109.286    24053286.249    98494207.847 4
      2422.819                          41.000          24.000
  24471937.640   128600770.512 7     -3772.924    24471944.519   100208359.067 5
     -2939.926                          41.000          28.000
  24609797.849   129325355.990 7      3286.431    24609802.209   100773015.444 4
      2560.856                          40.000          23.000
  24746024.168   130041092.697 6     -3543.502    24746033.978   101330717.617 6
     -2761.156                          38.000          35.000
  25143973.010   132132443.413 6      1940.876    25143977.513   102960344.007 4
      1512.369                          38.000          23.000
 23 11 29 10 14 30.0000000  0 11G20G30G05G13G07G14G22G11G15G09G18
  20700266.479   108780594.366 8     -1722.738    20700267.962    84764085.567 8
     -1342.391                          49.000          45.000
  20719089.404   108879587.412 8      -614.862    20719092.852    84841268.472 9
      -479.119                          50.000          59.000
  20924570.320   109959322.700 8       902.708    20924571.749    85682576.582 8
       703.410                          49.000          46.000
  21401683.615   112466648.071 8      2012.671    21401685.044    87636367.484 7
      1568.315                          48.000          39.000
  22061835.674   115935703.733 8     -2327.332    22061838.104    90339506.643 9
     -1813.507                          49.000          54.000
  23085490.762   121315099.999 7      2708.795    23085495.104    94531293.205 6
      2110.745                          44.000          34.000
  24035539.432   126307626.303 7      3105.841    24035546.740    98421567.677 4
      2420.124                          40.000          24.000
  24493485.251   128714001.865 7     -3775.345    24493492.381   100296591.041 5
     -2941.813                          41.000          28.000
  24591040.843   129226785.866 7      3285.316    24591045.507   100696207.546 4
      2559.979                          41.000          25.000
  24766259.782   130147433.190 6     -3545.482    24766269.789   101413580.081 6
     -2762.704                          38.000          34.000
  25132935.422   132074442.664 6      1926.115    25132940.621   102915148.557 4
      1500.864                          38.000          22.000
 23 11 29 10 15  0.0000000  0 11G20G30G05G13G07G14G22G11G15G09G18
  20710154.124   108832553.694 8     -1740.752    20710155.410    84804573.309 8
     -1356.429                          49.000          45.000
  20722645.018   108898271.567 8      -630.296    20722648.430    84855827.545 9
      -491.141                          50.000          59.000
  20919469.804   109932519.345 8       884.684    20919471.251    85661690.848 8
       689.366                          49.000          46.000
  21390219.511   112406403.296 8      2004.160    21390220.279    87589423.513 7
      1561.683                          49.000          39.000
  22075150.329   116005671.463 8     -2336.655    22075152.456    90394026.908 9
     -1820.767                          49.000          53.000
  23070052.266   121233971.512 8      2700.146    23070057.037    94468076.215 6
      2104.007                          45.000          34.000
  24017820.509   126214508.795 7      3102.486    24017827.245    98349008.548 4
      2417.519                          40.000          25.000
  24515046.032   128827305.828 7     -3777.658    24515053.377   100384879.592 5
     -2943.623                          41.000          28.000
  24572289.644   129128249.791 7      3284.282    24572294.880   100619426.161 4
      2559.182                          41.000          26.000
  24786507.387   130253831.234 7     -3547.289    24786516.911   101496487.371 6
     -2764.114                          39.000          35.000
  25121983.462   132016887.551 6      1911.399    25121988.608   102870300.401 4
      1489.409                          37.000          22.000
 23 11 29 10 15 30.0000000  0 11G20G30G05G13G07G14G22G11G15G09G18
  20720144.516   108885052.303 8     -1759.044    20720145.445    84845481.277 8
     -1370.683                          48.000          45.000
  20726288.029   108917416.091 8      -645.865    20726291.638    84870745.355 9
      -503.276                          50.000          59.000
  20914472.195   109906257.766 8       866.265    20914473.786    85641227.278 8
       675.008                          49.000          46.000
  21378803.778   112346414.549 8      1995.281    21378805.011    87542679.044 7
      1554.764                          49.000          40.000
  22088517.931   116075918.490 8     -2346.288    22088519.861    90448764.826 9
     -1828.285                          49.000          53.000
  23054663.320   121153101.972 7      2691.213    23054668.359    94405061.035 6
      2097.046                          44.000          34.000
  24000120.044   126121494.985 7      3098.613    24000127.210    98276530.380 4
      2414.493                          40.000          24.000
  24536619.929   128940675.869 7     -3780.243    24536627.130   100473219.645 5
     -2945.630                          40.000          27.000
  24553545.271   129029745.657 7      3282.873    24553550.096   100542669.684 4
      2558.069                          41.000          25.000
  24806764.676   130360282.614 6     -3549.241    24806774.486   101579436.217 6
     -2765.633                          38.000          35.000
  25111115.147   131959776.782 6      1896.228    25111120.668   102825798.517 4
      1477.582                          38.000          23.000
 23 11 29 10 16  0.0000000  0 11G30G20G05G13G07G14G22G15G11G09G18
  20730019.099   108937023.385 8      -661.363    20730022.780    84886023.760 9
      -515.351                          50.000          59.000
  20730237.512   108938092.487 8     -1777.130    20730238.816    84886811.245 8
     -1384.776                          49.000          45.000
  20909578.942   109880542.842 8       847.925    20909580.193    85621189.673 8
       660.720                          49.000          46.000
  21367437.722   112286685.386 8      1986.518    21367439.580    87496136.862 7
      1547.936                          49.000          40.000
  22101938.943   116146446.722 8     -2355.726    22101941.266    90503721.865 9
     -1835.630                          49.000          54.000
  23039324.908   121072497.490 7      2682.229    23039329.787    94342252.414 6
      2090.038                          44.000          34.000
  23982440.469   126028591.187 7      3094.900    23982448.277    98204138.132 4
      2411.612                          40.000          24.000
  24534807.027   128931277.819 7      3281.498    24534812.209   100465941.488 4
      2557.005                          40.000          26.000
  24558206.620   129054112.187 7     -3782.265    24558213.571   100561611.337 4
     -2947.215                          39.000          26.000
  24827032.258   130466789.858 7     -3551.247    24827042.801   101662428.563 6
     -2767.198                          39.000          36.000
  25100333.371   131903115.738 6      1881.090    25100338.285   102781647.040 4
      1465.777                          38.000          23.000
 23 11 29 10 16 30.0000000  0 11G30G20G05G13G07G14G22G15G11G09G18
  20733837.834   108957091.996 8      -676.753    20733841.640    84901661.636 9
      -527.339                          50.000          59.000
  20740433.451   108991672.645 8     -1795.154    20740434.916    84928561.974 8
     -1398.819                          48.000          45.000
  20904789.687   109855375.639 8       829.669    20904790.866    85601578.868 8
       646.495                          49.000          46.000
  21356121.538   112227216.799 8      1977.811    21356123.360    87449797.731 7
      1541.148                          48.000          40.000
  22115413.277   116217253.660 8     -2364.985    22115415.314    90558896.074 9
     -1842.847                          49.000          53.000
  23024037.119   120992160.379 8      2673.261    23024041.890    94279652.141 6
      2083.062                          45.000          34.000
  23964782.211   125935799.691 7      3090.957    23964790.055    98131833.532 4
      2408.516                          39.000          24.000
  24516075.913   128832846.777 7      3280.272    24516081.667   100389241.992 4
      2556.052                          41.000          26.000
  24579804.569   129167611.208 7     -3784.325    24579812.127   100650051.888 4
     -2948.809                          39.000          26.000
  24847310.740   130573351.664 6     -3553.114    24847321.104   101745463.417 6
     -2768.647                          38.000          36.000
  25089637.189   131846906.067 6      1865.913    25089642.174   102737847.287 4
      1453.967                          38.000          23.000
 23 11 29 10 17  0.0000000  0 11G30G20G05G13G07G14G22G15G11G09G18
  20737749.792   108977648.511 8      -693.003    20737753.473    84917679.698 9
      -539.998                          50.000          59.000
  20750737.462   109045818.873 8     -1814.022    20750738.660    84970753.786 8
     -1413.522                          48.000          45.000
  20900110.290   109830784.856 8       810.400    20900111.630    85582417.218 8
       631.479                          49.000          46.000
  21344859.943   112168036.871 8      1968.125    21344861.534    87403683.526 7
      1533.603                          49.000          40.000
  22128945.094   116288365.164 8     -2375.166    22128947.042    90614307.611 9
     -1850.778                          49.000          53.000
  23008805.761   120912120.998 7      2663.283    23008810.693    94217283.868 6
      2075.289                          44.000          34.000
  23947151.757   125843150.712 7      3086.133    23947158.958    98059640.124 4
      2404.766                          39.000          24.000
  24497357.522   128734481.237 7      3278.109    24497362.579   100312593.526 4
      2554.363                          40.000          25.000
  24601419.672   129281197.374 7     -3787.415    24601427.320   100738560.337 4
     -2951.218                          39.000          25.000
  24867604.161   130679994.740 6     -3555.816    24867614.292   101828561.591 6
     -2770.749                          38.000          35.000
  25079031.763   131791177.303 6      1849.877    25079037.338   102694422.288 4
      1441.451                          38.000          23.000
 23 11 29 10 17 30.0000000  0 11G30G20G05G13G07G14G22G15G11G09G18
  20741747.486   108998656.498 8      -707.457    20741751.274    84934049.552 9
      -551.257                          50.000          59.000
  20761141.683   109100494.496 8     -1830.958    20761142.952    85013358.119 8
     -1426.714                          49.000          45.000
  20895533.926   109806736.614 8       792.876    20895535.552    85563678.326 8
       617.830                          49.000          46.000
  21333646.559   112109111.078 8      1960.274    21333647.721    87357767.335 7
      1527.488                          49.000          40.000
  22142528.179   116359743.820 8     -2383.411    22142530.109    90669927.309 9
     -1857.195                          48.000          53.000
  22993625.615   120832346.615 8      2655.049    22993629.957    94155122.104 6
      2068.872                          45.000          34.000
  23929541.227   125750611.871 7      3083.067    23929548.321    97987532.634 4
      2402.372                          40.000          24.000
  24478644.938   128636146.767 7      3277.725    24478650.281   100235969.287 4
      2554.084                          40.000          25.000
  24623043.888   129394832.111 7     -3788.298    24623051.214   100827106.650 4
     -2951.911                          39.000          24.000
  24887906.480   130786682.875 6     -3556.651    24887916.111   101911694.875 6
     -2771.396                          38.000          35.000
  25068511.965   131735896.106 6      1835.632    25068517.701   102651346.003 4
      1430.367                          38.000          23.000
 23 11 29 10 18  0.0000000  0 11G30G20G05G13G07G14G22G15G11G09G18
  20745835.561   109020139.413 8      -722.919    20745839.224    84950789.479 9
      -563.312                          50.000          59.000
  20771651.242   109155723.014 8     -1849.101    20771652.654    85056393.279 8
     -1440.855                          49.000          45.000
  20891066.152   109783257.643 8       774.168    20891067.599    85545383.024 8
       603.247                          49.000          46.000
  21322486.318   112050464.239 8      1951.251    21322487.551    87312068.512 7
      1520.456                          49.000          40.000
  22156166.425   116431412.655 8     -2392.737    22156168.337    90725773.113 9
     -1864.473                          49.000          53.000
  22978500.684   120752864.491 8      2645.585    22978504.990    94093188.087 6
      2061.494                          45.000          35.000
  23911957.037   125658210.128 7      3078.797    23911964.327    97915532.003 4
      2399.053                          40.000          24.000
  24459943.433   128537869.111 6      3276.142    24459948.848   100159389.300 4
      2552.834                          38.000          25.000
  24644681.362   129508536.787 7     -3790.254    24644688.224   100915707.468 4
     -2953.435                          39.000          24.000
  24908222.022   130893439.710 6     -3558.744    24908231.832   101994881.693 6
     -2773.037                          38.000          35.000
  25058082.549   131681088.967 6      1819.801    25058087.749   102608639.130 4
      1418.021                          36.000          22.000
 23 11 29 10 18 30.0000000  0 11G30G20G05G13G07G14G22G15G11G09G18
  20750012.570   109042089.803 8      -738.484    20750016.090    84967893.672 9
      -575.442                          50.000          59.000
  20782264.798   109211496.511 8     -1867.218    20782266.067    85099853.097 7
     -1454.969                          48.000          44.000
  20886705.699   109760342.075 8       755.447    20886706.950    85527526.735 8
       588.659                          49.000          46.000
  21311378.308   111992091.302 8      1942.204    21311380.077    87266583.127 7
      1513.407                          49.000          40.000
  22169858.152   116503363.349 8     -2402.049    22169860.029    90781838.548 9
     -1871.730                          49.000          53.000
  22963430.325   120673670.935 8      2635.978    22963434.882    94031478.935 6
      2054.015                          45.000          34.000
  23894398.595   125565941.870 7      3074.330    23894405.189    97843635.396 4
      2395.570                          39.000          23.000
  24441251.899   128439642.690 7      3274.409    24441257.135   100082849.280 4
      2551.471                          39.000          25.000
  24666330.684   129622301.911 7     -3792.131    24666337.635   101004355.401 4
     -2954.901                          39.000          24.000
  24928548.822   131000258.020 6     -3560.705    24928559.079   102078116.421 6
     -2774.558                          37.000          34.000
  25047743.282   131626751.393 6      1804.236    25047747.767   102566298.140 4
      1405.884                          36.000          22.000
 23 11 29 10 19  0.0000000  0 11G30G20G05G13G07G14G22G15G11G09G18
  20754273.796   109064482.702 8      -754.376    20754277.530    84985342.678 9
      -587.834                          50.000          59.000
  20792977.063   109267790.071 8     -1885.667    20792978.367    85143718.166 7
     -1469.353                          48.000          44.000
  20882447.815   109737967.695 8       736.246    20882449.477    85510092.162 8
       573.696                          49.000          46.000
  21300317.973   111933968.791 8      1932.710    21300319.992    87221292.892 7
      1506.005                          50.000          41.000
  22183598.663   116575570.241 8     -2411.619    22183600.718    90838103.611 9
     -1879.190                          49.000          53.000
  22948411.126   120594744.775 8      2625.864    22948415.432    93969978.152 6
      2046.113                          45.000          34.000
  23876861.793   125473785.993 7      3069.432    23876867.368    97771826.332 4
      2391.719                          39.000          21.000
  24422565.279   128341445.024 6      3272.116    24422570.247   100006331.616 4
      2549.722                          38.000          23.000
  24687986.118   129736100.398 7     -3794.239    24687993.462   101093029.319 4
     -2956.550                          39.000          24.000
  24948883.377   131107113.016 6     -3562.988    24948893.294   102161379.727 6
     -2776.348                          37.000          33.000
  25037488.375   131572861.515 6      1788.372    25037493.235   102524305.987 4
      1393.538                          38.000          22.000
 23 11 29 10 19 30.0000000  0 11G30G20G05G13G07G14G22G15G11G09G18
  20758626.761   109087356.909 8      -769.260    20758630.353    85003166.727 9
      -599.426                          50.000          59.000
  20803795.809   109324642.049 8     -1903.128    20803796.971    85188018.360 7
     -1482.955                          49.000          44.000
  20878300.754   109716175.240 8       717.920    20878302.362    85493111.037 8
       559.416                          49.000          46.000
  21289313.085   111876137.444 8      1924.106    21289314.836    87176229.540 7
      1499.305                          50.000          42.000
  22197395.085   116648071.189 8     -2420.365    22197397.301    90894597.803 9
     -1886.000                          49.000          53.000
  22933450.929   120516128.575 8      2616.555    22933455.272    93908718.899 6
      2038.867                          45.000          34.000
  23859354.046   125381785.157 7      3065.411    23859359.407    97700138.058 4
      2388.597                          39.000          22.000
  24403892.668   128243316.635 6      3271.075    24403897.154    99929867.968 4
      2548.891                          36.000          23.000
  24709654.417   129849969.031 7     -3795.463    24709662.672   101181757.879 4
     -2957.504                          39.000          24.000
  24969231.906   131214043.747 6     -3564.325    24969242.163   102244702.062 6
     -2777.385                          38.000          34.000
  25027325.833   131519461.142 6      1773.067    25027331.872   102482695.256 4
      1381.614                          37.000          22.000
 23 11 29 10 20  0.0000000  0 11G30G20G05G13G07G14G22G15G11G09G18
  20763070.055   109110707.298 8      -787.045    20763073.593    85021361.819 9
      -613.276                          50.000          59.000
  20814719.447   109382047.084 8     -1923.478    20814721.073    85232749.511 8
     -1498.810                          49.000          45.000
  20874264.339   109694962.596 8       696.646    20874265.661    85476581.712 8
       542.842                          49.000          47.000
  21278363.144   111818594.076 8      1912.497    21278364.270    87131390.576 7
      1490.259                          50.000          41.000
  22211246.848   116720860.452 8     -2431.898    22211248.599    90951316.652 9
     -1894.983                          48.000          53.000
  22918549.326   120437821.008 7      2604.336    22918553.739    93847700.135 6
      2029.350                          44.000          35.000
  23841875.676   125289938.468 7      3058.021    23841880.929    97628569.854 4
      2382.862                          40.000          22.000
  24385232.352   128145254.916 6      3266.861    24385237.319    99853456.250 4
      2545.605                          36.000          24.000
  24731335.545   129963900.614 6     -3799.586    24731343.211   101270535.491 4
     -2960.710                          38.000          23.000
  24989593.532   131321045.316 6     -3568.698    24989603.932   102328079.610 6
     -2780.787                          37.000          33.000
  25017256.174   131466548.174 6      1754.797    25017262.481   102441464.322 4
      1367.393                          36.000          22.000
 23 11 29 10 20 30.0000000  0 11G30G20G05G13G07G14G22G15G11G18G09
  20767602.443   109134525.133 8      -802.861    20767605.927    85039921.159 9
      -625.598                          50.000          59.000
  20825746.760   109439996.158 8     -1941.809    20825748.762    85277904.580 8
     -1513.097                          49.000          45.000
  20870336.870   109674323.532 8       677.261    20870338.121    85460499.335 8
       527.732                          49.000          47.000
  21267466.399   111761331.731 8      1902.911    21267467.489    87086770.599 7
      1482.784                          50.000          42.000
  22225151.110   116793928.617 8     -2441.364    22225153.076    91008252.820 9
     -1902.361                          48.000          53.000
  22903705.814   120359817.125 8      2593.945    22903710.317    93786918.016 6
      2021.260                          45.000          35.000
  23824425.646   125198240.714 7      3052.867    23824431.060    97557117.660 4
      2378.847                          40.000          23.000
  24366583.489   128047253.239 6      3264.591    24366588.081    99777091.309 4
      2543.845                          35.000          22.000
  24753025.662   130077884.412 6     -3801.315    24753033.203   101359353.806 4
     -2962.045                          38.000          22.000
  25007279.183   131414116.882 6      1738.380    25007284.687   102400608.726 3
      1354.585                          35.000          20.000
  25009968.132   131428109.215 6     -3571.079    25009977.281   102411505.724 6
     -2782.646                          37.000          33.000
 23 11 29 10 21  0.0000000  0 11G30G20G05G13G07G14G22G15G11G18G09
  20772224.516   109158813.454 8      -817.275    20772228.125    85058847.112 9
      -636.837                          50.000          59.000
  20836878.304   109498492.075 8     -1958.821    20836879.984    85323485.762 8
     -1526.352                          49.000          45.000
  20866519.279   109654263.237 8       659.155    20866520.905    85444867.944 8
       513.630                          50.000          47.000
  21256624.102   111704355.209 8      1894.593    21256625.620    87042373.344 7
      1476.305                          50.000          42.000
  22239109.194   116867278.069 8     -2449.509    22239111.016    91065408.169 9
     -1908.706                          49.000          52.000
  22888920.824   120282123.779 8      2584.736    22888925.613    93726377.859 6
      2014.077                          45.000          35.000
  23807005.582   125106699.005 7      3048.904    23807010.764    97485787.018 4
      2375.746                          41.000          24.000
  24347946.330   127949316.425 6      3263.597    24347950.904    99700776.913 4
      2543.072                          36.000          24.000
  24774725.911   130191921.488 6     -3802.040    24774733.791   101448213.653 4
     -2962.616                          38.000          21.000
  24997395.058   131362173.365 6      1723.317    24997401.027   102360133.231 4
      1342.845                          35.000          21.000
  25030354.096   131535238.820 6     -3571.922    25030363.960   102494983.013 5
     -2783.303                          37.000          32.000
 23 11 29 10 21 30.0000000  0 11G30G20G05G13G07G14G22G15G11G18G09
  20776934.576   109183564.585 8      -833.222    20776938.221    85078133.694 9
      -649.265                          50.000          59.000
  20848112.130   109557526.613 8     -1977.234    20848113.792    85369486.650 8
     -1540.694                          49.000          45.000
  20862810.867   109634776.108 8       639.527    20862812.654    85429683.182 8
       498.339                          50.000          47.000
  21245835.054   111647658.649 8      1884.733    21245837.001    86998194.248 7
      1468.625                          50.000          42.000
  22253118.793   116940900.308 8     -2459.092    22253120.616    91122776.083 9
     -1916.171                          49.000          52.000
  22874194.390   120204737.078 8      2573.931    22874199.394    93666076.654 6
      2005.652                          45.000          35.000
  23789614.662   125015309.497 7      3043.242    23789619.898    97414574.933 4
      2371.338                          41.000          25.000
  24329320.089   127851439.638 6      3260.996    24329325.915    99624509.360 4
      2541.034                          36.000          23.000
  24796435.237   130306002.106 6     -3803.851    24796442.814   101537107.401 4
     -2964.041                          38.000          21.000
  24987603.191   131310712.979 6      1706.987    24987609.016   102320034.206 4
      1330.133                          35.000          22.000
  25050751.371   131642426.664 6     -3574.569    25050761.700   102578505.698 5
     -2785.365                          35.000          30.000
 23 11 29 10 22  0.0000000  0 11G30G05G20G13G07G14G22G15G11G18G09
  20781731.122   109208771.696 9      -847.560    20781734.874    85097775.581 9
      -660.439                          51.000          59.000
  20859211.170   109615858.523 8       621.329    20859212.617    85414942.218 8
       484.153                          50.000          47.000
  20859447.648   109617092.970 8     -1994.099    20859448.810    85415901.947 8
     -1553.841                          49.000          45.000
  21235098.004   111591236.968 8      1876.391    21235100.274    86954229.340 7
      1462.125                          50.000          42.000
  22267179.570   117014788.052 8     -2467.038    22267180.875    91180350.883 9
     -1922.370                          48.000          52.000
  22859526.192   120127654.059 8      2564.657    22859530.820    93606012.092 6
      1998.428                          45.000          36.000
  23772251.940   124924069.535 7      3039.159    23772257.122    97343479.334 4
      2368.148                          41.000          26.000
  24310705.571   127753617.892 6      3260.179    24310710.806    99548284.655 4
      2540.406                          36.000          24.000
  24818150.424   130420117.497 6     -3804.050    24818158.323   101626028.267 3
     -2964.202                          37.000          19.000
  24977900.526   131259731.868 5      1691.402    24977907.531   102280308.653 3
      1317.984                          32.000          18.000
  25071158.367   131749666.223 6     -3575.075    25071169.142   102662068.700 5
     -2785.759                          36.000          30.000
 23 11 29 10 22 30.0000000  0 11G30G05G20G13G07G14G22G15G11G18G09
  20786624.304   109234486.268 9      -865.657    20786628.074    85117812.893 9
      -674.542                          51.000          58.000
  20855729.712   109597563.490 8       599.454    20855731.124    85400686.353 8
       467.105                          49.000          47.000
  20870893.526   109677242.263 8     -2014.692    20870894.741    85462771.479 7
     -1569.891                          49.000          44.000
  21224424.015   111535144.223 8      1864.226    21224425.445    86910520.733 7
      1452.639                          49.000          40.000
  22281299.976   117088991.860 8     -2478.729    22281301.816    91238171.952 9
     -1931.479                          48.000          52.000
  22844925.985   120050930.033 8      2551.435    22844930.095    93546227.242 6
      1988.122                          46.000          35.000
  23754928.155   124833034.461 7      3030.990    23754933.087    97272543.339 4
      2361.793                          41.000          25.000
  24292111.584   127655904.991 6      3255.260    24292117.248    99472144.820 4
      2536.551                          37.000          24.000
  24839882.283   130534317.244 6     -3808.040    24839890.003   101715014.875 3
     -2967.316                          36.000          17.000
  24968301.394   131209284.524 6      1672.595    24968307.613   102240999.016 3
      1303.328                          36.000          19.000
  25091585.323   131857009.332 6     -3579.802    25091596.312   102745712.416 5
     -2789.444                          37.000          29.000
 23 11 29 10 23  0.0000000  0 11G30G05G20G13G07G14G22G15G11G18G09
  20791598.647   109260626.358 9      -878.756    20791602.292    85138181.776 9
      -684.749                          51.000          58.000
  20852351.716   109579812.117 8       582.357    20852353.200    85386854.118 8
       453.780                          50.000          47.000
  20882434.878   109737892.089 8     -2030.298    20882436.343    85510031.033 7
     -1582.051                          49.000          44.000
  21213797.253   111479300.141 8      1857.017    21213798.058    86867005.887 7
      1447.024                          50.000          41.000
  22295464.893   117163429.397 8     -2485.411    22295466.788    91296175.150 9
     -1936.689                          49.000          52.000
  22830379.135   119974486.824 8      2543.029    22830383.495    93486661.210 6
      1981.575                          45.000          35.000
  23737628.493   124742126.464 7      3027.853    23737633.085    97201706.311 4
      2359.364                          41.000          25.000
  24273522.707   127558221.520 6      3255.366    24273528.014    99396027.865 4
      2536.643                          38.000          24.000
  24861613.982   130648517.384 6     -3807.038    24861621.933   101804001.780 3
     -2966.505                          36.000          17.000
  24958787.748   131159292.069 6      1658.430    24958793.912   102202043.879 3
      1292.252                          34.000          19.000
  25112016.085   131964374.318 6     -3579.419    25112027.450   102829373.208 5
     -2789.151                          35.000          27.000
 23 11 29 10 23 30.0000000  0 11G30G05G20G13G07G14G22G15G11G18G09
  20796657.117   109287207.848 8      -894.590    20796660.744    85158894.612 9
      -697.088                          50.000          58.000
  20849080.542   109562621.980 8       562.457    20849081.918    85373459.218 8
       438.277                          50.000          47.000
  20894074.473   109799058.087 8     -2048.623    20894076.082    85557692.797 7
     -1596.329                          49.000          44.000
  21203221.311   111423722.345 9      1846.985    21203222.276    86823698.536 7
      1439.209                          51.000          42.000
  22309677.485   117238115.737 8     -2494.878    22309679.129    91354372.227 9
     -1944.063                          49.000          52.000
  22815889.948   119898344.161 8      2531.881    22815894.040    93427329.375 6
      1972.885                          45.000          35.000
  23720357.010   124651365.309 7      3021.713    23720361.423    97130983.656 4
      2354.571                          40.000          25.000
  24254943.516   127460585.334 7      3252.553    24254948.197    99319947.794 4
      2534.452                          39.000          25.000
  24883348.164   130762731.889 6     -3808.589    24883356.616   101892999.878 3
     -2967.735                          36.000          16.000
  24949365.358   131109773.264 6      1641.316    24949370.916   102163457.811 3
      1278.948                          33.000          19.000
  25132454.566   132071777.395 6     -3582.118    25132465.788   102913063.700 4
     -2791.248                          35.000          26.000
 23 11 29 10 24  0.0000000  0 11G30G05G20G13G07G14G22G15G11G18G09
  20801805.236   109314261.880 8      -909.916    20801809.131    85179975.653 9
      -709.020                          50.000          58.000
  20845922.746   109546026.882 8       543.009    20845923.943    85360527.970 9
       423.123                          49.000          53.000
  20905818.138   109860771.239 8     -2066.422    20905819.854    85605780.908 7
     -1610.200                          49.000          44.000
  21192702.014   111368444.025 8      1837.393    21192703.819    86780624.547 7
      1431.733                          50.000          42.000
  22323942.720   117313081.401 8     -2503.721    22323944.882    91412786.955 9
     -1950.947                          49.000          52.000
  22801463.893   119822537.079 8      2521.079    22801468.378    93368259.013 6
      1964.482                          45.000          35.000
  23703120.568   124560786.012 7      3015.998    23703124.767    97060402.696 4
      2350.120                          39.000          25.000
  24236379.191   127363030.192 6      3250.294    24236384.230    99243930.887 4
      2532.693                          38.000          24.000
  24905091.727   130876990.038 6     -3809.473    24905099.679   101982031.973 3
     -2968.400                          35.000          15.000
  24940038.139   131060762.311 6      1624.985    24940044.090   102125267.475 3
      1266.233                          35.000          20.000
  25152906.110   132179250.113 6     -3583.931    25152917.385   102996808.470 4
     -2792.660                          33.000          25.000
 23 11 29 10 24 30.0000000  0 11G30G05G20G13G07G14G22G15G11G18G09
  20807041.896   109341779.932 8      -925.789    20807045.452    85201418.277 9
      -721.399                          50.000          58.000
  20842876.846   109530020.804 8       522.842    20842878.025    85348055.702 9
       407.411                          50.000          57.000
  20917664.246   109923022.493 8     -2084.836    20917665.765    85654288.326 8
     -1624.548                          50.000          45.000
  21182238.772   111313458.571 8      1827.092    21182240.702    86737778.780 7
      1423.705                          49.000          42.000
  22338259.899   117388317.757 8     -2513.208    22338262.008    91471412.624 9
     -1958.342                          49.000          52.000
  22787101.576   119747060.844 8      2509.470    22787105.919    93309446.449 6
      1955.423                          45.000          35.000
  23685916.970   124470384.177 7      3009.513    23685921.651    96989959.953 4
      2345.058                          41.000          25.000
  24217829.591   127265549.638 7      3247.279    24217833.986    99167972.110 4
      2530.338                          39.000          24.000
  24926841.365   130991281.372 6     -3810.979    24926848.763   102071089.945 2
     -2969.607                          34.000          14.000
  24930808.539   131012253.608 6      1607.789    24930813.506   102087468.521 4
      1252.816                          35.000          21.000
  25173369.411   132286784.123 5     -3586.273    25173381.008   103080601.003 4
     -2794.488                          32.000          25.000
 23 11 29 10 25  0.0000000  0 11G30G05G20G13G07G14G22G15G18G11G09
  20812365.275   109369755.017 8      -939.627    20812368.759    85223217.027 9
      -732.174                          50.000          58.000
  20839942.073   109514598.913 8       504.786    20839943.378    85336038.639 9
       393.344                          49.000          57.000
  20929610.993   109985804.430 8     -2101.050    20929612.690    85703209.261 7
     -1637.177                          49.000          44.000
  21171830.209   111258760.889 8      1818.927    21171831.639    86695157.236 7
      1417.346                          50.000          41.000
  22352626.754   117463816.469 8     -2520.490    22352629.149    91530242.724 9
     -1964.015                          49.000          52.000
  22772800.640   119671912.302 8      2499.915    22772805.500    93250889.215 6
      1947.990                          45.000          36.000
  23668747.179   124380156.714 7      3005.107    23668751.539    96919653.044 4
      2341.644                          41.000          25.000
  24199292.498   127168138.965 7      3246.281    24199297.269    99092067.822 4
      2529.553                          40.000          25.000
  24921672.393   130964243.170 6      1592.644    24921677.843   102050057.832 4
      1241.020                          35.000          21.000
  24948593.524   131105597.021 6     -3810.407    24948602.458   102160166.887 2
     -2969.102                          34.000          12.000
  25193844.613   132394372.895 5     -3586.711    25193854.512   103164436.243 4
     -2794.838                          32.000          25.000
 23 11 29 10 25 30.0000000  0 12G30G05G20G13G07G14G22G15G18G11G09G27
  20817773.728   109398176.072 8      -954.538    20817777.176    85245363.291 9
      -743.798                          50.000          58.000
  20837117.088   109499752.805 8       485.562    20837118.249    85324470.236 9
       378.363                          49.000          56.000
  20941656.983   110049106.046 8     -2118.362    20941658.592    85752535.143 7
     -1650.666                          49.000          44.000
  21161474.521   111204342.051 8      1809.578    21161475.343    86652752.948 7
      1410.061                          50.000          42.000
  22367041.534   117539566.098 8     -2528.860    22367043.411    91589268.360 9
     -1970.539                          48.000          51.000
  22758561.155   119597084.299 8      2489.200    22758566.337    93192581.755 6
      1939.631                          45.000          36.000
  23651608.749   124290096.849 7      2999.436    23651613.806    96849476.677 4
      2337.208                          42.000          26.000
  24180767.271   127070789.560 7      3244.151    24180772.525    99016211.282 5
      2527.912                          41.000          27.000
  24912628.523   130916722.921 6      1576.138    24912635.135   102013029.094 4
      1228.155                          38.000          22.000
  24970348.988   131219924.129 6     -3810.808    24970358.565   102249252.733 2
     -2969.490                          34.000          11.000
  25214324.836   132502005.784 6     -3588.244    25214336.880   103248305.897 4
     -2796.036                          33.000          25.000
  25506110.632   134029164.199 6       -36.624
       -28.502                          33.000
 23 11 29 10 26  0.0000000  0 12G30G05G20G13G07G14G22G15G18G11G09G27
  20823267.577   109427046.158 8      -970.980    20823271.329    85267859.447 9
      -756.607                          50.000          58.000
  20834402.515   109485487.313 8       464.624    20834403.623    85313354.259 9
       362.048                          49.000          57.000
  20953802.362   110112929.618 8     -2137.291    20953804.059    85802267.746 7
     -1665.421                          49.000          44.000
  21151172.743   111150206.997 8      1798.572    21151173.994    86610569.796 7
      1401.486                          49.000          42.000
  22381504.704   117615569.304 8     -2538.848    22381506.723    91648491.583 9
     -1978.319                          48.000          51.000
  22744384.283   119522583.709 8      2476.721    22744388.858    93134529.414 6
      1929.914                          45.000          36.000
  23634504.181   124200211.501 7      2992.113    23634509.274    96779436.279 4
      2331.520                          41.000          26.000
  24162255.035   126973506.819 7      3240.511    24162260.038    98940406.705 4
      2525.068                          40.000          26.000
  24903679.627   130869698.840 6      1558.049    24903686.560   101976386.980 4
      1214.064                          38.000          23.000
  24992108.097   131334263.844 5     -3812.635    24992116.817   102338348.388 2
     -2970.911                          32.000           9.000
  25234816.246   132609686.182 6     -3591.180    25234827.861   103332212.634 4
     -2798.326                          33.000          25.000
  25506374.486   134036893.780 6       -56.877    25506384.493   104444380.143 4
       -44.314                          33.000          25.000
 23 11 29 10 26 30.0000000  0 12G30G05G20G13G07G14G22G15G18G11G09G27
  20828847.572   109456369.024 8      -985.126    20828851.325    85290708.415 9
      -767.638                          50.000          58.000
  20831799.445   109471809.262 8       445.892    20831800.893    85302696.024 9
       347.448                          50.000          56.000
  20966047.664   110177279.056 8     -2153.889    20966049.272    85852410.112 7
     -1678.353                          49.000          44.000
  21140926.377   111096361.280 8      1789.839    21140928.325    86568612.127 7
      1394.675                          49.000          42.000
  22396016.423   117691829.156 8     -2546.382    22396018.996    91707914.778 9
     -1984.194                          48.000          51.000
  22730270.882   119448418.170 8      2466.380    22730274.992    93076738.132 6
      1921.846                          45.000          35.000
  23617434.082   124110508.758 7      2986.905    23617439.353    96709538.142 4
      2327.455                          41.000          26.000
  24143756.451   126876296.807 7      3238.918    24143761.472    98864658.823 4
      2523.824                          41.000          25.000
  24894827.653   130823177.659 6      1542.121    24894832.996   101940136.732 4
      1201.657                          37.000          21.000
  25013870.083   131448618.107 5     -3812.129    25013877.910   102427455.357 1
     -2970.535                          30.000           8.000
  25255316.715   132717418.317 6     -3592.360    25255328.097   103416159.711 4
     -2799.245                          33.000          23.000
  25506746.787   134038851.312 6       -75.127    25506756.954   104445905.466 4
       -58.536                          33.000          25.000
 23 11 29 10 27  0.0000000  0 12G05G30G20G13G07G14G22G15G18G11G09G27
  20829304.697   109458698.507 8       427.057    20829306.038    85292479.840 9
       332.772                          49.000          56.000
  20834509.193   109486122.474 9      -999.454    20834513.071    85313892.910 9
      -778.794                          51.000          58.000
  20978388.869   110242131.185 8     -2170.618    20978390.262    85902944.191 7
     -1691.387                          49.000          44.000
  21130731.045   111042784.949 8      1780.868    21130733.332    86526864.379 7
      1387.690                          50.000          42.000
  22410572.708   117768323.008 8     -2554.182    22410575.156    91767520.315 9
     -1990.272                          48.000          51.000
  22716218.254   119374569.327 8      2455.833    22716222.417    93019193.634 6
      1913.635                          45.000          35.000
  23600395.433   124020970.183 7      2981.367    23600400.347    96639767.916 4
      2323.138                          42.000          26.000
  24125268.069   126779140.007 7      3237.185    24125272.626    98788952.387 4
      2522.480                          42.000          26.000
  24886068.454   130777140.051 6      1525.868    24886072.314   101904263.281 4
      1188.982                          36.000          22.000
  25035629.014   131562962.899 5     -3811.914    25035637.359   102516555.103 1
     -2970.244                          30.000           6.000
  25275823.491   132825180.236 6     -3593.154    25275834.463   103500130.079 4
     -2799.853                          33.000          24.000
  25507224.140   134041359.541 6       -93.273    25507234.683   104447859.827 4
       -72.685                          34.000          26.000
 23 11 29 10 27 30.0000000  0 12G05G30G20G13G07G14G22G15G18G11G09G27
  20826922.256   109446177.524 8       406.791    20826923.489    85282723.221 9
       316.981                          49.000          56.000
  20840257.050   109516327.259 8     -1015.041    20840260.749    85337429.097 9
      -790.942                          50.000          58.000
  20990829.318   110307506.393 8     -2188.595    20990831.230    85953885.855 7
     -1705.397                          49.000          44.000
  21120591.322   110989500.782 8      1770.539    21120593.162    86485344.277 7
      1379.641                          50.000          42.000
  22425177.275   117845070.860 8     -2563.200    22425179.759    91827323.779 9
     -1997.294                          48.000          51.000
  22702230.132   119301061.825 8      2443.764    22702234.403    92961915.117 6
      1904.230                          45.000          36.000
  23583392.700   123931620.744 7      2974.386    23583397.453    96570145.027 4
      2317.703                          42.000          26.000
  24106793.912   126682059.213 7      3234.039    24106798.058    98713305.149 4
      2520.012                          41.000          26.000
  24877404.283   130731609.769 6      1508.455    24877408.697   101868785.145 4
      1175.417                          37.000          24.000
  25057389.463   131677317.121 5     -3812.425    25057398.326   102605662.056 1
     -2970.688                          32.000           6.000
  25296339.560   132932993.195 5     -3595.776    25296350.746   103584140.236 4
     -2801.913                          32.000          22.000
  25507810.190   134044440.838 6      -113.092    25507821.019   104450260.712 4
       -88.123                          34.000          25.000
 23 11 29 10 28  0.0000000  0 12G05G30G20G13G07G14G22G15G18G11G09G27
  20524861.898   107858840.591 8       387.833    20524863.327    84045837.290 9
       302.207                          50.000          57.000
  20546300.687   107971576.227 9     -1029.314    20546304.368    84133726.985 9
      -802.066                          51.000          58.000
  20703579.413   108797998.345 8     -2205.159    20703581.450    84777645.762 7
     -1718.301                          49.000          44.000
  20810717.018   109361100.789 8      1761.514    20810718.233    85216461.182 7
      1372.609                          50.000          42.000
  22140040.400   116346666.741 8     -2570.864    22140043.080    90659736.092 9
     -2003.275                          48.000          51.000
  22388517.473   117652488.911 8      2433.051    22388521.422    91677312.894 6
      1895.878                          45.000          36.000
  23266636.017   122267053.375 7      2968.786    23266640.484    95273079.563 4
      2313.341                          42.000          26.000
  23788543.933   125009645.715 7      3232.110    23788548.507    97410125.931 4
      2518.511                          42.000          26.000
  24569046.041   129111180.090 6      1492.236    24569051.402   100606112.675 4
      1162.780                          38.000          24.000
  24779361.618   130216274.690 5     -3812.095    24779371.714   101467187.233 1
     -2970.411                          30.000           6.000
  25017075.839   131465452.994 5     -3596.093    25017085.650   102440602.522 4
     -2802.150                          32.000          21.000
  25208715.464   132472688.872 6      -131.550    25208726.436   103225518.796 4
      -102.495                          33.000          24.000
 23 11 29 10 28 30.0000000  0 11G05G30G20G13G07G14G22G15G18G09G27
  20522704.124   107847502.337 8       367.382    20522705.589    84037002.282 9
       286.275                          50.000          56.000
  20552219.408   108002679.168 9     -1044.904    20552223.357    84157963.036 9
      -814.213                          51.000          58.000
  20716217.869   108864414.321 8     -2223.165    20716219.210    84829398.432 7
     -1732.331                          49.000          43.000
  20800689.065   109308402.485 8      1751.015    20800690.102    85175397.589 7
      1364.427                          49.000          41.000
  22154740.852   116423916.850 8     -2579.827    22154743.157    90719930.925 9
     -2010.250                          48.000          51.000
  22374660.439   117579671.146 8      2420.746    22374664.781    91620571.819 6
      1886.290                          45.000          36.000
  23249706.994   122178089.931 7      2961.583    23249711.497    95203757.408 4
      2307.725                          42.000          26.000
  23770099.724   124912720.033 7      3228.874    23770104.477    97334599.556 4
      2516.011                          42.000          26.000
  24560575.231   129066668.736 7      1474.590    24560580.520   100571428.498 4
      1149.036                          40.000          23.000
  25037609.670   131573364.770 5     -3598.539    25037620.284   102524689.735 3
     -2804.069                          32.000          20.000
  25209520.732   132476916.834 6      -151.042    25209531.346   103228813.171 4
      -117.695                          35.000          23.000
 23 11 29 10 29  0.0000000  0 12G05G30G20G13G07G14G22G15G18G11G09G27
  20520659.979   107836758.828 8       348.540    20520661.033    84028630.708 9
       271.595                          49.000          56.000
  20558223.810   108034231.132 8     -1058.899    20558227.563    84182548.973 9
      -825.118                          50.000          58.000
  20728955.338   108931350.014 8     -2239.485    20728956.767    84881556.078 7
     -1745.049                          49.000          43.000
  20790717.257   109256000.030 8      1742.145    20790718.722    85134564.532 7
      1357.517                          49.000          42.000
  22169488.728   116501417.164 8     -2587.115    22169491.123    90780320.725 9
     -2015.926                          48.000          51.000
  22360869.985   117507204.012 8      2409.949    22360874.738    91564103.959 6
      1877.881                          46.000          36.000
  23232815.746   122089325.727 7      2955.741    23232820.857    95134590.510 5
      2303.164                          43.000          27.000
  23751670.400   124815875.609 7      3227.123    23751675.492    97259136.486 4
      2514.642                          42.000          26.000
  24552202.521   129022671.168 7      1458.436    24552208.186   100537144.703 4
      1136.432                          40.000          24.000
  24822886.788   130445003.218 4     -3811.926
                                        26.000
  25058155.026   131681326.446 5     -3598.757    25058165.336   102608815.865 3
     -2804.221                          30.000          20.000
  25210435.536   132481720.529 6      -169.418    25210445.739   103232556.264 4
      -132.016                          33.000          24.000
 23 11 29 10 29 30.0000000  0 12G05G30G20G13G07G14G22G15G18G11G09G27
  20518732.394   107826630.251 8       327.982    20518733.734    84020738.307 9
       255.567                          49.000          57.000
  20564316.611   108066249.764 8     -1074.442    20564320.238    84207498.549 9
      -837.227                          50.000          58.000
  20741795.124   108998822.620 8     -2257.444    20741797.018    84934132.089 7
     -1759.044                          48.000          44.000
  20780805.435   109203913.027 8      1731.612    20780807.079    85093977.273 7
      1349.309                          50.000          42.000
  22184287.281   116579185.051 8     -2596.078    22184289.908    90840919.017 9
     -2022.917                          47.000          51.000
  22347150.756   117435109.048 8      2397.516    22347155.527    91507926.097 6
      1868.195                          46.000          37.000
  23215966.598   122000782.291 7      2948.336    23215971.958    95065595.642 5
      2297.412                          41.000          27.000
  23733261.339   124719132.393 7      3223.621    23733264.877    97183752.247 4
      2511.894                          41.000          25.000
  24543931.522   128979207.926 7      1440.539    24543937.062   100503277.220 4
      1122.495                          39.000          24.000
  24844653.813   130559386.181 5     -3812.509
     -2971.011                          27.000
  25078712.175   131789356.272 5     -3601.842    25078722.682   102692995.137 3
     -2806.660                          29.000          19.000
  25211461.772   132487119.157 6      -189.105    25211472.583   103236763.017 4
      -147.364                          33.000          23.000
 23 11 29 10 30  0.0000000  0 12G05G30G20G13G07G14G22G15G18G11G09G27
  20516917.598   107817093.326 8       308.296    20516919.045    84013306.933 9
       240.232                          49.000          56.000
  20570493.557   108098709.826 9     -1089.096    20570497.041    84232792.088 9
      -848.646                          51.000          58.000
  20754732.029   109066806.289 8     -2274.299    20754733.959    84987106.324 7
     -1772.176                          48.000          43.000
  20770948.900   109152118.472 8      1721.873    20770950.580    85053617.884 7
      1341.721                          49.000          42.000
  22199132.044   116657194.483 8     -2604.022    22199134.509    90901705.523 8
     -2029.104                          47.000          50.000
  22333498.180   117363364.868 8      2385.939    22333503.129    91452021.576 6
      1859.169                          46.000          37.000
  23199155.742   121912438.609 7      2941.699    23199160.227    94996756.423 4
      2292.238                          41.000          26.000
  23714866.538   124622467.686 7      3221.090    23714870.344    97108429.165 4
      2509.946                          41.000          25.000
  24535758.678   128936256.651 6      1423.461    24535763.896   100469808.671 4
      1109.185                          38.000          23.000
  24866419.677   130673759.985 5     -3811.810
     -2970.501                          27.000
  25099276.240   131897429.375 5     -3603.157    25099287.640   102777208.153 3
     -2807.639                          29.000          17.000
  25212597.777   132493088.896 6      -208.154    25212608.874   103241414.782 4
      -162.193                          33.000          25.000
 23 11 29 10 30 30.0000000  0 12G05G30G13G20G07G14G22G15G18G11G09G27
  20515215.556   107808148.361 8       287.661    20515216.932    84006336.830 9
       224.150                          49.000          56.000
  20576754.327   108131609.509 9     -1104.600    20576757.847    84258428.193 9
      -860.728                          51.000          58.000
  20761148.670   109100616.614 8      1711.125    20761149.778    85013486.566 7
      1333.342                          49.000          41.000
  20767765.659   109135299.085 8     -2292.084    20767767.499    85040477.286 7
     -1786.035                          49.000          43.000
  22214022.658   116735443.243 8     -2612.864    22214024.766    90962678.508 8
     -2035.999                          47.000          50.000
  22319913.148   117291973.559 8      2373.160    22319917.526    91396392.018 6
      1849.211                          46.000          37.000
  23182383.091   121824297.030 7      2934.048    23182386.862    94928074.669 5
      2286.270                          42.000          27.000
  23696486.425   124525882.435 7      3217.541    23696490.964    97033168.018 4
      2507.168                          41.000          26.000
  24527683.774   128893818.505 7      1405.458    24527688.455   100436739.952 4
      1095.144                          40.000          24.000
  24888182.413   130788121.021 4     -3812.361
     -2970.999                          26.000
  25119849.418   132005544.391 4     -3605.190    25119860.997   102861453.840 3
     -2809.221                          26.000          16.000
  25213843.963   132499629.330 5      -228.081    25213853.809   103246511.263 4
      -177.730                          31.000          23.000
 23 11 29 10 31  0.0000000  0 11G05G30G13G20G07G14G22G15G18G11G27
  20513625.123   107799791.639 8       268.506    20513626.606    83999825.090 9
       209.225                          49.000          56.000
  20583097.276   108164942.862 9     -1118.454    20583101.082    84284402.218 9
      -871.517                          51.000          58.000
  20751403.209   109049403.440 8      1702.073    20751404.370    84973580.195 7
      1326.295                          50.000          42.000
  20780894.870   109204294.597 8     -2308.385    20780896.799    85094239.979 7
     -1798.736                          49.000          43.000
  22228957.301   116813925.020 8     -2620.139    22228959.410    91023833.059 8
     -2041.662                          48.000          50.000
  22306394.553   117220933.024 8      2361.935    22306398.645    91341035.776 6
      1840.479                          46.000          37.000
  23165648.108   121736355.640 7      2927.828    23165652.647    94859548.933 5
      2281.425                          41.000          27.000
  23678121.001   124429372.942 7      3215.571    23678125.915    96957965.861 4
      2505.647                          42.000          26.000
  24519704.951   128851890.393 7      1388.978    24519709.526   100404068.643 4
      1082.329                          39.000          24.000
  24909941.862   130902461.792 4     -3811.549
                                        24.000
  25215195.540   132506735.980 5      -246.384    25215206.226   103252048.844 4
      -191.976                          32.000          26.000
 23 11 29 10 31 30.0000000  0 11G05G30G13G20G07G14G22G15G18G11G27
  20512152.698   107792053.818 8       248.004    20512154.056    83993795.617 9
       193.249                          49.000          57.000
  20589528.480   108198737.836 9     -1133.772    20589531.804    84310735.944 9
      -883.461                          51.000          58.000
  20741718.234   108998509.138 8      1691.550    20741719.914    84933922.295 7
      1318.089                          50.000          43.000
  20794125.559   109273820.128 8     -2325.910    20794127.185    85148415.674 7
     -1812.397                          48.000          43.000
  22243941.317   116892667.419 8     -2628.714    22243943.854    91085190.695 9
     -2048.344                          47.000          51.000
  22292948.828   117150275.104 8      2349.266    22292952.830    91285977.672 6
      1830.593                          46.000          37.000
  23148957.779   121648646.922 7      2920.046    23148962.640    94791204.531 5
      2275.359                          41.000          27.000
  23659776.251   124332969.885 7      3212.035    23659781.004    96882846.642 4
      2502.885                          40.000          25.000
  24511828.572   128810503.132 7      1371.192    24511834.147   100371818.814 4
      1068.451                          40.000          24.000
  24931698.756   131016808.456 4     -3810.970
                                        24.000
  25216661.193   132514438.314 6      -266.290    25216672.183   103258050.548 5
      -207.497                          36.000          29.000
 23 11 29 10 32  0.0000000  0 10G05G30G13G20G07G14G22G15G18G27
  20510792.579   107784905.992 8       227.884    20510794.027    83988225.875 9
       177.571                          49.000          57.000
  20596041.525   108232964.201 9     -1148.600    20596044.866    84337405.816 9
      -895.007                          51.000          58.000
  20732088.439   108947905.368 8      1681.368    20732090.476    84894490.785 7
      1310.158                          49.000          42.000
  20807450.847   109343845.141 8     -2343.040    20807452.616    85202980.571 7
     -1825.742                          49.000          43.000
  22258969.451   116971639.374 8     -2636.785    22258972.131    91146727.196 8
     -2054.634                          47.000          50.000
  22279571.166   117079973.458 8      2336.882    22279574.758    91231197.169 6
      1820.954                          45.000          37.000
  23132306.459   121561144.391 7      2912.717    23132311.462    94723020.813 5
      2269.661                          42.000          28.000
  23641446.564   124236645.395 7      3208.942    23641450.960    96807788.616 4
      2500.487                          41.000          26.000
  24504050.722   128769629.382 7      1353.320    24504056.279   100339969.120 4
      1054.541                          41.000          23.000
  25218234.847   132522707.558 6      -285.666    25218245.675   103264493.998 5
      -222.590                          35.000          28.000
 23 11 29 10 32 30.0000000  0 10G05G30G13G20G14G07G22G15G18G27
  20509544.571   107778348.406 8       208.420    20509546.269    83983116.070 9
       162.405                          49.000          56.000
  20602636.356   108267620.477 9     -1162.629    20602640.072    84364410.688 9
      -905.947                          51.000          58.000
  20722514.502   108897593.023 8      1671.885    20722516.003    84855286.363 7
      1302.766                          49.000          41.000
  20820870.358   109414367.651 8     -2359.318    20820872.234    85257933.133 7
     -1838.426                          49.000          42.000
  22266261.460   117010030.490 8      2325.108    22266265.337    91176696.164 6
      1811.768                          45.000          37.000
  22274040.828   117050839.418 8     -2644.059    22274043.562    91208441.436 8
     -2060.308                          47.000          50.000
  23115694.379   121473850.742 7      2905.934    23115699.525    94654999.879 4
      2264.357                          41.000          26.000
  23623131.191   124140400.549 7      3206.469    23623135.623    96732792.645 4
      2498.552                          41.000          25.000
  24496370.437   128729270.507 7      1336.507    24496375.780   100308520.596 4
      1041.431                          41.000          23.000
  25219916.179   132531543.640 6      -304.532    25219926.775   103271379.051 5
      -237.285                          36.000          28.000
 23 11 29 10 33  0.0000000  0 10G05G30G13G20G14G07G22G15G18G27
  20508413.480   107772403.821 8       187.889    20508415.070    83978483.919 9
       146.407                          50.000          57.000
  20609316.851   108302725.870 9     -1177.690    20609320.657    84391765.515 9
      -917.679                          51.000          58.000
  20712999.891   108847593.109 8      1661.423    20713000.677    84816325.384 7
      1294.615                          50.000          42.000
  20834388.935   109485406.246 8     -2376.578    20834390.954    85313287.827 7
     -1851.878                          48.000          43.000
  22253024.659   116940469.272 8      2312.238    22253028.412    91122492.616 6
      1801.743                          46.000          37.000
  22289159.558   117130286.173 8     -2652.397    22289161.810    91270347.907 8
     -2066.803                          47.000          50.000
  23099127.168   121386789.325 7      2898.049    23099132.207    94587159.931 4
      2258.206                          41.000          26.000
  23604836.171   124044257.299 7      3202.944    23604840.048    96657875.818 4
      2495.801                          41.000          25.000
  24488792.721   128689448.563 7      1318.351    24488798.099   100277490.484 4
      1027.277                          42.000          24.000
  25221709.907   132540967.233 6      -324.002    25221720.396   103278721.809 5
      -252.464                          37.000          30.000
 23 11 29 10 33 30.0000000  0 10G05G30G13G20G14G07G22G15G18G27
  20507399.395   107767075.324 8       167.729    20507400.950    83974331.834 9
       130.700                          50.000          57.000
  20616082.885   108338281.561 9     -1192.249    20616086.566    84419471.220 9
      -929.022                          51.000          58.000
  20703545.248   108797909.185 8      1651.257    20703546.391    84777610.622 7
      1286.695                          50.000          42.000
  20848005.559   109556961.752 8     -2393.393    20848008.400    85369045.294 7
     -1864.979                          49.000          43.000
  22239860.747   116871294.877 8      2299.746    22239865.035    91068590.489 6
      1792.010                          46.000          37.000
  22304324.587   117209980.378 8     -2660.216    22304326.875    91332447.198 8
     -2072.891                          47.000          50.000
  23082605.272   121299965.699 7      2890.488    23082609.686    94519505.306 4
      2252.319                          42.000          26.000
  23586560.627   123948218.991 7      3199.888    23586564.898    96583040.752 4
      2493.418                          41.000          25.000
  24481317.823   128650167.538 7      1300.636    24481322.862   100246881.859 4
      1013.482                          41.000          23.000
  25223615.138   132550981.165 6      -343.233    25223625.949   103286524.632 5
      -267.448                          35.000          28.000
 23 11 29 10 34  0.0000000  0 10G05G30G13G20G14G07G22G15G18G27
  20506502.710   107762362.658 8       146.710    20506504.157    83970659.623 9
       114.319                          49.000          57.000
  20622934.208   108374285.189 8     -1207.641    20622937.603    84447525.963 9
      -941.020                          50.000          58.000
  20694150.966   108748541.081 8      1640.295    20694152.771    84739141.977 7
      1278.153                          49.000          42.000
  20861720.195   109629031.406 8     -2410.952    20861722.143    85425203.409 7
     -1878.662                          49.000          43.000
  22226770.865   116802508.859 8      2286.296    22226775.476    91014990.999 6
      1781.524                          46.000          37.000
  22319536.487   117289919.037 8     -2668.750    22319538.095    91394736.976 8
     -2079.544                          46.000          49.000
  23066128.925   121213381.515 7      2882.066    23066132.606    94452037.252 5
      2245.757                          42.000          27.000
  23568305.455   123852286.514 7      3195.836    23568310.047    96508288.150 4
      2490.241                          40.000          25.000
  24473946.082   128611427.930 7      1282.249    24473951.407   100216695.151 4
       999.151                          40.000          23.000
  25225633.855   132561584.662 6      -363.553    25225644.291   103294787.036 5
      -283.286                          35.000          28.000
 23 11 29 10 34 30.0000000  0 10G05G30G13G20G14G07G22G15G18G27
  20505716.901   107758234.186 8       128.884    20505718.581    83967442.620 9
       100.432                          50.000          57.000
  20629864.118   108410703.451 9     -1219.832    20629867.853    84475903.800 9
      -950.517                          51.000          58.000
  20684810.649   108699457.510 8      1632.394    20684812.668    84700895.052 7
      1271.995                          49.000          42.000
  20875525.945   109701580.960 8     -2425.313    20875527.071    85481735.496 7
     -1889.853                          48.000          42.000
  22213750.030   116734081.742 8      2275.890    22213753.943    90961671.168 6
      1773.423                          46.000          37.000
  22334788.555   117370068.821 8     -2674.180    22334790.539    91457191.264 8
     -2083.770                          47.000          50.000
  23049692.265   121127007.877 7      2876.603    23049696.750    94384733.274 5
      2241.502                          43.000          28.000
  23550064.613   123756429.097 7      3195.004    23550068.938    96433594.013 4
      2489.613                          40.000          26.000
  24466671.246   128573199.189 7      1266.806    24466676.589   100186906.495 4
       987.120                          41.000          22.000
  25227757.767   132572745.843 6      -380.411    25227768.381   103303484.179 4
      -296.436                          34.000          26.000
 23 11 29 10 35  0.0000000  0 10G05G30G13G20G14G07G22G15G18G27
  20505044.597   107754699.986 8       107.862    20505045.955    83964688.689 9
        84.051                          49.000          57.000
  20636874.833   108447544.169 8     -1235.129    20636878.586    84504610.821 9
      -962.443                          50.000          58.000
  20675526.191   108650668.367 8      1621.366    20675527.692    84662877.543 7
      1263.400                          50.000          42.000
  20889424.364   109774618.081 8     -2442.711    20889426.508    85538647.473 7
     -1903.410                          49.000          43.000
  22200799.509   116666025.280 8      2262.342    22200803.298    90908640.154 6
      1762.855                          45.000          37.000
  22350082.420   117450437.054 8     -2682.589    22350084.707    91519815.767 8
     -2090.325                          47.000          49.000
  23033298.223   121040856.324 7      2867.941    23033302.637    94317602.375 5
      2234.753                          42.000          28.000
  23531840.104   123660656.929 7      3190.877    23531843.928    96358966.301 4
      2486.399                          39.000          25.000
  24459496.386   128535492.017 7      1248.138    24459501.211   100157524.264 4
       972.577                          40.000          22.000
  25229986.642   132584473.929 5      -400.246    25229999.883   103312623.300 4
      -311.894                          31.000          21.000
 23 11 29 10 35 30.0000000  0 11G05G30G13G20G14G07G22G15G18G08G27
  20504486.583   107751767.600 8        87.416    20504487.977    83962403.702 9
        68.117                          50.000          57.000
  20643966.798   108484812.512 8     -1249.686    20643970.640    84533651.052 9
      -973.786                          50.000          58.000
  20666299.503   108602181.241 8      1610.894    20666300.343    84625095.368 7
      1255.245                          50.000          42.000
  20903416.702   109848147.298 8     -2459.448    20903419.043    85595942.893 7
     -1916.448                          49.000          43.000
  22187920.822   116598348.501 8      2249.188    22187925.325    90855905.008 6
      1752.604                          46.000          38.000
  22365418.312   117531028.511 8     -2690.402    22365420.796    91582614.211 8
     -2096.421                          47.000          49.000
  23016947.763   120954936.493 7      2859.685    23016952.373    94250652.033 5
      2228.315                          41.000          27.000
  23513632.749   123564977.979 7      3187.501    23513636.716    96284411.230 4
      2483.756                          40.000          26.000
  24452421.843   128498314.298 7      1230.103    24452426.722   100128554.600 4
       958.516                          40.000          24.000
  25211077.552   132485094.690 5      1247.604
       972.401                          32.000
  25232329.342   132596775.213 5      -419.707    25232339.831   103322209.164 3
      -327.069                          28.000          19.000
 23 11 29 10 36  0.0000000  0 11G05G30G13G20G14G07G22G15G18G08G27
  20504046.148   107749453.753 8        66.062    20504047.863    83960600.685 9
        51.477                          50.000          57.000
  20651142.980   108522523.018 9     -1265.108    20651146.572    84563035.825 9
      -985.803                          51.000          58.000
  20657133.320   108554012.951 8      1599.563    20657134.660    84587561.650 7
      1246.408                          50.000          43.000
  20917505.319   109922182.680 8     -2477.006    20917506.641    85653632.749 7
     -1930.135                          48.000          41.000
  22175117.738   116531069.824 8      2235.236    22175122.670    90803480.079 6
      1741.736                          46.000          38.000
  22380799.306   117611857.473 8     -2698.971    22380802.147    91645597.722 8
     -2103.093                          47.000          50.000
  23000645.282   120869267.097 7      2850.716    23000649.517    94183896.824 5
      2221.336                          42.000          28.000
  23495446.730   123469409.456 7      3183.053    23495450.822    96209942.194 5
      2480.297                          41.000          27.000
  24445450.584   128461683.356 7      1211.126    24445455.891   100100010.981 4
       943.734                          40.000          23.000
  25203998.024   132447887.272 5      1232.429    25204008.763   103206203.651 4
       960.335                          30.000          21.000
  25234780.543   132609665.432 5      -439.870    25234792.426   103332253.939 3
      -342.774                          27.000          17.000
 23 11 29 10 36 30.0000000  0 10G05G13G30G20G14G07G22G15G18G08
  20503720.806   107747742.887 8        47.692    20503722.415    83959267.522 9
        37.165                          50.000          57.000
  20648025.014   108506147.956 8      1591.136    20648026.747    84550264.277 7
      1239.847                          50.000          43.000
  20658399.876   108560658.608 8     -1277.586    20658403.414    84592751.825 9
      -995.525                          50.000          58.000
  20931686.855   109996706.587 8     -2491.544    20931688.034    85711703.268 7
     -1941.459                          50.000          43.000
  22162388.526   116464176.032 8      2224.051    22162393.189    90751355.060 6
      1733.022                          46.000          38.000
  22396222.542   117692906.360 8     -2704.587    22396225.062    91708752.612 8
     -2107.469                          48.000          49.000
  22984387.902   120783835.106 7      2844.428    22984392.887    94117326.592 5
      2216.420                          42.000          29.000
  23477279.222   123373936.760 7      3181.491    23477283.440    96135547.846 5
      2479.073                          40.000          27.000
  24438581.374   128425584.880 7      1195.042    24438586.627   100071882.274 4
       931.197                          40.000          22.000
  25196999.264   132411116.315 5      1218.807    25197011.737   103177550.932 4
       949.726                          32.000          23.000
 23 11 29 10 37  0.0000000  0 10G05G13G30G20G14G07G22G15G18G08
  20503510.631   107746638.390 8        27.567    20503512.132    83958406.859 9
        21.484                          49.000          57.000
  20638974.997   108458589.700 8      1581.003    20638976.677    84513205.927 7
      1231.948                          50.000          43.000
  20665737.772   108599220.071 8     -1291.668    20665741.382    84622799.685 9
     -1006.493                          50.000          58.000
  20945960.988   110071719.305 8     -2507.716    20945963.436    85770154.670 7
     -1954.062                          49.000          44.000
  22149733.147   116397671.812 8      2211.120    22149737.561    90699533.608 6
      1722.949                          46.000          38.000
  22411687.699   117774175.821 8     -2711.765    22411690.111    91772079.394 8
     -2113.062                          47.000          50.000
  22968176.534   120698645.603 7      2836.372    22968181.877    94050945.322 5
      2210.163                          43.000          29.000
  23459130.245   123278563.588 7      3178.368    23459134.659    96061231.078 5
      2476.649                          39.000          28.000
  24431814.214   128390022.406 7      1177.226    24431819.182   100044171.222 4
       917.329                          40.000          23.000
  25190086.007   132374786.503 5      1204.564    25190098.158   103149242.065 4
       938.620                          32.000          24.000
 23 11 29 10 37 30.0000000  0 10G05G13G30G20G14G07G22G15G18G08
  20503414.746   107746133.718 8         7.504    20503416.050    83958013.594 9
         5.845                          50.000          57.000
  20629982.072   108411332.222 8      1570.935    20629983.519    84476381.941 7
      1224.105                          50.000          43.000
  20673155.347   108638199.509 8     -1305.556    20673159.117    84653173.236 9
     -1017.319                          50.000          58.000
  20960327.200   110147212.357 8     -2523.717    20960329.130    85828980.350 7
     -1966.531                          48.000          41.000
  22137151.336   116331553.117 8      2198.188    22137155.660    90648012.583 6
      1712.869                          47.000          38.000
  22427193.043   117855657.683 8     -2718.867    22427195.813    91835571.683 8
     -2118.599                          47.000          49.000
  22952011.287   120613695.003 7      2828.381    22952016.094    93984750.184 5
      2203.930                          43.000          29.000
  23440999.227   123183285.147 7      3175.081    23441003.658    95986988.134 5
      2474.087                          41.000          28.000
  24425147.514   128354990.808 7      1159.541    24425153.214   100016873.876 4
       903.533                          41.000          23.000
  25183255.198   132338893.442 6      1189.901    25183267.599   103121273.611 4
       927.189                          34.000          24.000
 23 11 29 10 38  0.0000000  0 10G05G13G30G20G14G07G22G15G18G08
  20503427.522   107746200.529 8       -12.628    20503428.916    83958065.632 9
        -9.833                          50.000          58.000
  20621040.985   108364346.805 8      1560.727    20621042.360    84439769.955 7
      1216.151                          49.000          43.000
  20680646.667   108677565.921 8     -1319.573    20680650.437    84683848.325 9
     -1028.228                          50.000          58.000
  20974778.415   110223154.004 8     -2539.753    20974779.630    85888155.609 7
     -1979.024                          50.000          43.000
  22124637.141   116265792.829 8      2185.110    22124641.858    90596770.837 6
      1702.694                          46.000          38.000
  22442733.197   117937320.463 8     -2725.996    22442735.770    91899204.943 8
     -2124.143                          47.000          50.000
  22935886.102   120528956.505 7      2820.177    22935890.087    93918720.293 5
      2197.546                          42.000          29.000
  23422880.717   123088072.786 7      3171.836    23422885.309    95912796.689 5
      2471.574                          41.000          29.000
  24418576.985   128320461.796 7      1141.638    24418582.095    99989968.111 4
       889.613                          41.000          24.000
  25176502.762   132303410.009 6      1175.049    25176514.627   103093624.402 4
       915.616                          35.000          26.000
 23 11 29 10 38 30.0000000  0 10G05G13G30G20G14G07G22G15G18G08
  20503558.002   107746887.575 8       -32.884    20503559.699    83958600.976 9
       -25.621                          50.000          58.000
  20612160.938   108317682.713 8      1550.496    20612162.725    84403408.357 7
      1208.177                          50.000          43.000
  20688220.434   108717366.370 8     -1333.513    20688224.258    84714861.630 9
     -1039.099                          50.000          58.000
  20989323.871   110299590.930 8     -2555.726    20989325.944    85947716.786 7
     -1991.474                          49.000          43.000
  22112201.606   116200441.850 8      2171.896    22112205.537    90545848.042 6
      1692.382                          46.000          38.000
  22458316.343   118019210.757 8     -2733.036    22458318.844    91963015.495 8
     -2129.637                          47.000          49.000
  22919810.897   120444481.100 7      2811.814    22919814.756    93852895.405 5
      2191.021                          44.000          30.000
  23404784.221   122992976.239 7      3168.331    23404789.224    95838695.502 5
      2468.824                          42.000          30.000
  24412112.079   128286485.176 7      1123.716    24412117.333    99963492.841 4
       875.627                          39.000          24.000
  25169837.688   132268386.252 6      1160.296    25169850.429   103066333.433 5
       904.117                          34.000          27.000
 23 11 29 10 39  0.0000000  0 10G05G13G30G20G14G07G22G15G18G08
  20503806.399   107748192.266 8       -52.618    20503807.793    83959617.598 9
       -41.000                          50.000          57.000
  20603341.932   108271337.467 8      1540.704    20603343.737    84367295.212 7
      1200.548                          50.000          43.000
  20695875.827   108757596.111 8     -1346.895    20695879.651    84746209.446 9
     -1049.529                          50.000          58.000
  21003962.603   110376517.607 8     -2571.168    21003965.123    86007659.560 7
     -2003.505                          48.000          43.000
  22099843.389   116135499.334 8      2159.084    22099847.446    90495243.537 7
      1682.398                          46.000          39.000
  22473941.767   118101323.640 8     -2739.626    22473944.429    92026999.491 8
     -2134.774                          47.000          49.000
  22903785.939   120360268.458 7      2803.918    22903789.906    93787275.251 5
      2184.867                          42.000          29.000
  23386709.776   122897993.353 7      3165.376    23386714.654    95764682.897 5
      2466.525                          41.000          29.000
  24405751.029   128253058.898 7      1106.210    24405755.782    99937446.377 4
       861.985                          41.000          23.000
  25163260.279   132233820.539 6      1145.573    25163271.841   103039399.422 5
       892.644                          36.000          28.000
 23 11 29 10 39 30.0000000  0 10G05G13G30G20G14G07G22G15G18G08
  20504177.342   107750141.992 8       -75.213    20504178.700    83961136.845 9
       -58.602                          50.000          57.000
  20594588.630   108225338.556 8      1528.057    20594590.256    84331451.942 7
      1190.692                          50.000          43.000
  20703617.832   108798280.636 8     -1363.158    20703621.709    84777911.644 9
     -1062.194                          50.000          58.000
  21018699.169   110453958.969 8     -2589.418    21018701.384    86068003.400 7
     -2017.725                          49.000          43.000
  22087568.389   116070994.614 8      2143.360    22087572.481    90444980.174 7
      1670.151                          47.000          39.000
  22489614.705   118183684.487 8     -2748.945    22489617.171    92091176.696 8
     -2142.025                          47.000          49.000
  22887816.572   120276348.154 7      2792.961    22887820.396    93721882.891 5
      2176.336                          42.000          29.000
  23368661.973   122803152.643 7      3159.528    23368667.119    95690781.089 5
      2461.972                          42.000          30.000
  24399499.819   128220211.093 7      1085.788    24399505.394    99911850.682 4
       846.069                          40.000          24.000
  25156775.021   132199742.162 6      1128.346    25156785.385   103012845.105 5
       879.227                          35.000          28.000
 23 11 29 10 40  0.0000000  0 10G05G13G30G20G14G07G22G15G18G08
  20504668.186   107752720.827 8       -97.234    20504669.455    83963146.308 9
       -75.762                          50.000          57.000
  20585898.084   108179670.254 8      1515.947    20585899.514    84295866.282 7
      1181.257                          49.000          43.000
  20711443.141   108839401.866 8     -1378.775    20711446.930    84809954.129 9
     -1074.361                          50.000          58.000
  21033530.136   110531896.528 8     -2606.975    21033531.691    86128733.908 7
     -2031.408                          48.000          41.000
  22075373.942   116006913.444 8      2128.183    22075378.445    90395046.857 7
      1658.327                          46.000          39.000
  22505331.493   118266274.681 8     -2757.607    22505333.727    92155532.619 8
     -2148.773                          47.000          49.000
  22871899.865   120192706.230 7      2782.626    22871903.742    93656707.441 5
      2168.288                          43.000          30.000
  23350638.294   122708438.663 7      3154.203    23350643.494    95616978.043 5
      2457.819                          42.000          30.000
  24393356.485   128187926.397 7      1066.021    24393361.488    99886693.753 4
       830.673                          39.000          22.000
  25150380.145   132166136.210 6      1111.479    25150391.205   102986658.862 5
       866.089                          36.000          31.000
 23 11 29 10 40 30.0000000  0 10G05G13G30G20G14G07G22G15G18G08
  20505275.000   107755909.178 8      -115.629    20505276.305    83965630.720 9
       -90.096                          50.000          57.000
  20577267.185   108134313.838 8      1507.479    20577268.436    84260523.657 7
      1174.661                          49.000          43.000
  20719347.379   108880938.646 8     -1390.686    20719350.970    84842320.426 9
     -1083.646                          50.000          58.000
  21048451.717   110610307.892 8     -2620.802    21048452.861    86189833.625 7
     -2042.179                          48.000          41.000
  22063256.851   115943238.566 8      2116.509    22063261.693    90345430.155 7
      1649.228                          47.000          39.000
  22521087.290   118349073.272 8     -2762.600    22521089.774    92220050.944 8
     -2152.672                          47.000          49.000
  22856032.816   120109326.322 7      2775.775    22856037.033    93591736.144 5
      2162.944                          43.000          30.000
  23332635.682   122613833.443 7      3152.504    23332640.560    95543259.765 5
      2456.503                          42.000          30.000
  24387317.166   128156186.352 7      1049.723    24387321.794    99861961.285 4
       817.978                          40.000          24.000
  25144071.593   132132985.171 6      1098.244    25144083.297   102960827.030 5
       855.776                          35.000          29.000
 23 11 29 10 41  0.0000000  0 10G05G13G30G20G14G07G22G15G18G08
  20505999.178   107759715.079 8      -137.404    20506000.679    83968596.340 9
      -107.069                          50.000          57.000
  20568696.880   108089276.836 8      1495.642    20568698.524    84225429.923 7
      1165.432                          50.000          43.000
  20727331.741   108922896.572 8     -1405.847    20727335.332    84875014.886 9
     -1095.471                          50.000          58.000
  21063464.252   110689198.654 8     -2637.915    21063466.539    86251306.865 7
     -2055.519                          49.000          43.000
  22051219.187   115879979.418 8      2101.428    22051223.547    90296137.388 7
      1637.468                          47.000          39.000
  22536884.024   118432085.267 8     -2770.882    22536886.955    92284735.544 8
     -2159.130                          47.000          49.000
  22840218.158   120026217.977 7      2765.441    22840221.500    93526976.438 5
      2154.880                          44.000          30.000
  23314655.210   122519345.254 7      3147.409    23314660.088    95469632.694 5
      2452.519                          42.000          31.000
  24381381.988   128124999.131 7      1030.094    24381386.866    99837659.553 4
       802.652                          41.000          23.000
  25137851.136   132100298.089 6      1081.676    25137862.483   102935356.659 5
       842.862                          37.000          31.000
 23 11 29 10 41 30.0000000  0 10G05G13G30G20G14G07G22G15G18G08
  20506831.607   107764089.886 8      -156.157    20506833.179    83972005.266 9
      -121.683                          49.000          57.000
  20560178.217   108044511.808 8      1486.731    20560180.039    84190548.120 7
      1158.486                          50.000          43.000
  20735386.632   108965225.770 8     -1417.981    20735390.563    84907998.656 9
     -1104.926                          50.000          58.000
  21078557.822   110768518.259 8     -2651.951    21078560.950    86313114.258 7
     -2066.455                          48.000          43.000
  22039252.052   115817089.962 8      2089.248    22039256.180    90247132.709 7
      1627.979                          46.000          39.000
  22552711.976   118515260.579 8     -2776.054    22552714.710    92349547.407 8
     -2163.162                          47.000          49.000
  22824445.815   119943335.488 7      2758.091    22824449.711    93462392.733 5
      2149.157                          43.000          30.000
  23296687.925   122424926.762 7      3145.193    23296692.946    95396059.948 5
      2450.794                          43.000          31.000
  24375543.249   128094317.536 7      1013.429    24375548.467    99813751.839 4
       789.669                          40.000          22.000
  25131710.518   132068028.693 6      1067.777    25131721.543   102910211.677 5
       832.029                          36.000          31.000
 23 11 29 10 42  0.0000000  0 10G05G13G30G20G14G07G22G15G18G08
  20507781.113   107769079.138 8      -176.845    20507782.453    83975892.976 9
      -137.801                          49.000          57.000
  20551719.897   108000063.738 8      1476.066    20551721.219    84155913.288 7
      1150.179                          49.000          43.000
  20743520.271   109007969.017 8     -1431.948    20743524.506    84941305.064 9
     -1115.806                          50.000          58.000
  21093741.721   110848308.690 8     -2667.759    21093743.830    86375288.545 7
     -2078.771                          47.000          41.000
  22027363.559   115754616.779 8      2075.208    22027367.919    90198452.405 7
      1617.040                          46.000          39.000
  22568578.686   118598641.733 8     -2783.043    22568581.670    92414519.662 8
     -2168.602                          47.000          49.000
  22808725.292   119860725.870 7      2748.804    22808729.402    93398021.653 5
      2141.927                          43.000          30.000
  23278742.191   122330623.751 7      3141.259    23278747.498    95322577.195 5
      2447.732                          43.000          31.000
  24369809.437   128064186.969 7       994.863    24369814.047    99790273.466 4
       775.217                          40.000          22.000
  25125657.744   132036222.714 6      1052.025    25125669.448   102885427.729 5
       819.762                          37.000          32.000
 23 11 29 10 42 30.0000000  0 10G05G13G30G20G14G07G22G15G18G08
  20508844.749   107774668.344 8      -195.789    20508845.982    83980248.181 9
      -152.556                          50.000          57.000
  20543319.312   107955918.747 8      1466.968    20543320.509    84121514.618 7
      1143.093                          50.000          43.000
  20751729.979   109051110.294 8     -1444.112    20751734.089    84974921.628 9
     -1125.278                          50.000          58.000
  21109012.034   110928553.324 8     -2681.772    21109013.553    86437816.768 7
     -2089.689                          48.000          41.000
  22015551.849   115692547.696 8      2062.763    22015556.066    90150086.990 7
      1607.350                          46.000          39.000
  22584481.741   118682212.368 8     -2788.290    22584484.671    92479639.567 8
     -2172.686                          47.000          49.000
  22793054.695   119778377.363 7      2741.128    22793059.162    93333854.051 5
      2135.942                          43.000          31.000
  23260816.487   122236423.030 7      3138.857    23260821.508    95249174.150 5
      2445.860                          42.000          31.000
  24364178.676   128034593.952 7       978.119    24364183.750    99767214.018 4
       762.175                          40.000          23.000
  25119691.920   132004867.822 6      1038.171    25119702.642   102860995.258 5
       808.970                          36.000          30.000
 23 11 29 10 43  0.0000000  0 10G05G13G30G20G14G07G22G15G18G08
  20510026.534   107780878.908 8      -217.706    20510028.018    83985087.567 9
      -169.641                          50.000          57.000
  20534980.696   107912098.993 8      1454.881    20534982.430    84087369.390 7
      1133.671                          49.000          43.000
  20760018.919   109094669.452 8     -1459.209    20760022.904    85008863.813 9
     -1137.049                          50.000          58.000
  21124372.210   111009271.303 8     -2698.815    21124374.373    86500713.825 7
     -2102.970                          49.000          42.000
  22003821.818   115630906.429 8      2047.236    22003825.981    90102054.937 7
      1595.244                          47.000          39.000
  22600424.537   118765992.417 8     -2796.441    22600427.253    92544922.651 8
     -2179.041                          46.000          48.000
  22777439.009   119696314.148 7      2730.221    22777443.101    93269908.753 5
      2127.450                          43.000          30.000
  23242914.603   122142347.331 7      3133.448    23242919.320    95175868.540 5
      2441.637                          42.000          31.000
  24358653.931   128005560.986 7       958.122    24358658.702    99744590.893 4
       746.588                          39.000          23.000
  25113815.210   131973987.242 6      1021.067    25113826.896   102836932.373 5
       795.642                          36.000          32.000
 23 11 29 10 43 30.0000000  0 10G05G13G30G20G14G07G22G15G18G08
  20511327.507   107787715.157 8      -238.167    20511328.865    83990414.499 9
      -185.585                          50.000          57.000
  20526705.069   107868609.020 8      1444.270    20526706.964    84053481.131 7
      1125.403                          50.000          44.000
  20768388.269   109138648.811 8     -1472.838    20768392.021    85043133.427 9
     -1147.665                          50.000          58.000
  21139822.447   111090464.553 8     -2714.219    21139824.520    86563981.229 7
     -2114.974                          47.000          40.000
  21992174.270   115569699.084 8      2033.132    21992178.738    90054361.003 7
      1584.257                          47.000          39.000
  22616407.770   118849983.717 8     -2803.056    22616410.844    92610370.328 8
     -2184.201                          47.000          49.000
  22761878.450   119614542.618 7      2720.944    22761882.595    93206190.743 5
      2120.218                          44.000          31.000
  23225037.253   122048401.613 7      3129.390    23225041.810    95102664.206 5
      2438.486                          43.000          32.000
  24353236.293   127977092.916 7       939.717    24353242.530    99722408.008 4
       732.252                          40.000          24.000
  25108029.845   131943586.761 6      1005.651    25108041.871   102813243.597 6
       783.624                          37.000          33.000
 23 11 29 10 44  0.0000000  0 10G05G13G30G20G14G07G22G15G18G08
  20512744.520   107795162.458 8      -258.814    20512746.039    83996217.575 9
      -201.673                          50.000          57.000
  20518489.250   107825434.759 8      1433.485    20518490.805    84019838.880 7
      1116.999                          50.000          43.000
  20776833.669   109183031.818 8     -1486.560    20776837.833    85077717.584 9
     -1158.367                          50.000          58.000
  21155360.581   111172115.630 8     -2729.701    21155362.010    86627605.385 7
     -2127.041                          48.000          41.000
  21980607.009   115508912.930 8      2018.744    21980611.494    90006995.285 7
      1573.039                          47.000          39.000
  22632428.118   118934169.667 8     -2809.811    22632430.870    92675969.683 8
     -2189.466                          47.000          49.000
  22746370.372   119533050.482 7      2711.260    22746375.393    93142690.460 5
      2112.665                          44.000          31.000
  23207182.079   121954572.452 7      3125.264    23207186.564    95029550.695 5
      2435.257                          43.000          31.000
  24347923.690   127949175.753 7       920.969    24347929.158    99700654.336 4
       717.628                          42.000          25.000
  25102333.344   131913653.277 6       989.600    25102345.834   102789918.757 5
       771.120                          36.000          31.000
 23 11 29 10 44 30.0000000  0 10G13G05G30G20G14G07G22G15G18G08
  20510333.274   107782576.216 8      1424.522    20510334.739    83986442.635 7
      1110.020                          49.000          43.000
  20514277.915   107803220.272 8      -277.596    20514279.594    84002496.370 9
      -216.305                          50.000          57.000
  20785355.907   109227816.202 8     -1498.312    20785359.874    85112614.497 9
     -1167.516                          50.000          58.000
  21170984.683   111254221.667 8     -2743.246    21170987.524    86691584.040 7
     -2137.590                          49.000          43.000
  21969119.818   115448549.525 8      2006.209    21969124.106    89959958.966 7
      1563.279                          47.000          39.000
  22648484.275   119018547.780 8     -2814.628    22648487.169    92741718.770 8
     -2193.213                          46.000          48.000
  22730917.062   119451839.769 7      2703.406    22730921.511    93079409.472 5
      2106.548                          44.000          31.000
  23189349.026   121860860.487 7      3122.941    23189353.565    94956528.512 5
      2433.455                          43.000          31.000
  24342715.727   127921809.777 7       904.201    24342721.642    99679330.204 4
       704.558                          40.000          22.000
  25096726.527   131884187.647 6       975.483    25096738.070   102766958.475 5
       760.118                          36.000          30.000
 23 11 29 10 45  0.0000000  0 10G13G05G30G20G14G07G22G15G18G08
  20502236.445   107740026.937 8      1412.705    20502237.838    83953287.382 7
      1100.809                          49.000          43.000
  20515926.260   107811882.103 8      -299.214    20515927.869    84009245.835 9
      -233.156                          50.000          57.000
  20793952.980   109272993.535 8     -1512.868    20793956.893    85147817.611 9
     -1178.863                          50.000          58.000
  21186694.216   111336773.353 8     -2759.564    21186697.129    86755909.931 7
     -2150.304                          47.000          42.000
  21957713.198   115388604.219 8      1990.749    21957716.665    89913248.446 6
      1551.224                          46.000          38.000
  22664576.116   119103109.537 8     -2822.204    22664579.243    92807610.945 8
     -2199.123                          46.000          48.000
  22715515.662   119370906.384 7      2692.735    22715520.129    93016344.604 5
      2098.225                          44.000          31.000
  23171537.255   121767259.974 7      3117.708    23171541.866    94883593.167 5
      2429.373                          43.000          31.000
  24337612.406   127894989.100 7       884.495    24337617.892    99658430.938 4
       689.211                          40.000          24.000
  25091207.733   131855185.475 6       958.564    25091219.383   102744359.351 5
       746.931                          33.000          29.000
 23 11 29 10 45 30.0000000  0 10G13G05G30G20G14G07G22G15G18G08
  20494200.584   107697798.111 8      1403.169    20494202.067    83920381.827 7
      1093.379                          49.000          43.000
  20517691.595   107821158.652 8      -318.633    20517692.846    84016474.299 9
      -248.284                          50.000          57.000
  20802626.371   109318572.568 8     -1525.033    20802630.392    85183333.736 9
     -1188.339                          50.000          58.000
  21202489.646   111419778.825 8     -2773.435    21202491.004    86820589.451 7
     -2161.120                          49.000          40.000
  21946387.973   115329089.564 8      1977.546    21946391.296    89866873.488 7
      1540.943                          46.000          39.000
  22680704.518   119187863.740 8     -2827.448    22680707.734    92873653.081 8
     -2203.203                          46.000          48.000
  22700169.905   119290262.982 7      2684.269    22700173.533    92953505.692 5
      2091.637                          44.000          31.000
  23153749.501   121673782.950 7      3114.705    23153753.307    94810754.039 5
      2427.037                          44.000          31.000
  24332614.905   127868724.983 7       867.082    24332620.534    99637965.386 4
       675.647                          41.000          24.000
  25085779.588   131826657.945 6       943.822    25085790.810   102722130.126 5
       735.448                          37.000          31.000
 23 11 29 10 46  0.0000000  0 10G13G05G30G20G14G22G07G15G18G08
  20486228.123   107655901.782 8      1390.972    20486229.570    83887735.360 7
      1083.872                          50.000          44.000
  20519576.026   107831061.247 8      -340.573    20519577.313    84024190.598 9
      -265.383                          50.000          57.000
  20811378.297   109364563.033 8     -1539.918    20811382.049    85219170.465 9
     -1199.945                          50.000          58.000
  21218372.599   111503247.329 8     -2790.030    21218373.081    86885629.844 7
     -2174.050                          48.000          39.000
  21935146.838   115270019.129 8      1961.530    21935150.752    89820844.672 7
      1528.452                          47.000          39.000
  22684881.420   119209923.952 7      2672.824    22684885.118    92890903.959 5
      2082.713                          44.000          31.000
  22696871.177   119272819.781 8     -2835.251    22696874.250    92939852.511 8
     -2209.292                          46.000          48.000
  23135986.566   121580441.726 7      3109.081    23135990.783    94738020.725 5
      2422.644                          44.000          31.000
  24327725.351   127843029.620 7       847.032    24327730.479    99617942.988 4
       660.011                          40.000          24.000
  25080443.862   131798618.659 6       926.576    25080455.227   102700281.348 5
       722.004                          36.000          32.000
 23 11 29 10 46 30.0000000  0 10G13G05G30G20G14G22G07G15G18G08
  20478314.755   107614317.860 8      1380.142    20478316.381    83855332.322 7
      1075.438                          50.000          44.000
  20521575.606   107841569.108 8      -361.101    20521577.124    84032378.527 9
      -281.376                          50.000          57.000
  20820204.022   109410942.768 9     -1553.199    20820207.721    85255310.511 9
     -1210.281                          51.000          58.000
  21234340.483   111587156.124 8     -2805.019    21234342.663    86951013.240 7
     -2185.724                          47.000          40.000
  21923987.151   115211374.492 8      1946.935    21923991.171    89775147.638 7
      1517.094                          47.000          39.000
  22669647.631   119129871.125 7      2662.918    22669651.437    92828525.258 5
      2075.004                          44.000          31.000
  22713071.930   119357955.064 8     -2841.542    22713075.486    93006191.599 8
     -2214.182                          46.000          48.000
  23118246.772   121487217.269 7      3104.745    23118250.381    94665378.376 5
      2419.280                          44.000          31.000
  24322939.990   127817883.395 7       828.296    24322944.815    99598348.489 4
       645.433                          41.000          23.000
  25075197.160   131771048.530 6       910.628    25075208.989   102678798.129 5
       709.587                          36.000          31.000
 23 11 29 10 47  0.0000000  0 10G13G05G30G20G14G22G07G15G18G08
  20470466.412   107573075.282 8      1368.367    20470468.127    83823195.262 7
      1066.262                          50.000          44.000
  20523695.336   107852710.085 8      -382.608    20523697.195    84041059.803 9
      -298.135                          50.000          57.000
  20829108.817   109457738.039 9     -1567.378    20829112.516    85291774.351 9
     -1221.331                          51.000          58.000
  21250396.408   111671530.161 8     -2820.879    21250399.374    87016759.151 7
     -2198.083                          50.000          43.000
  21912914.110   115153185.718 8      1931.310    21912918.095    89729805.819 7
      1504.918                          47.000          39.000
  22654474.204   119050134.823 7      2651.912    22654477.974    92766393.202 5
      2066.418                          44.000          31.000
  22729312.013   119443296.043 8     -2848.755    22729315.229    93072690.962 8
     -2219.805                          46.000          48.000
  23100534.800   121394138.948 7      3099.448    23100538.481    94592849.901 5
      2415.151                          43.000          31.000
  24318264.650   127793315.025 7       808.630    24318270.439    99579204.302 4
       630.102                          41.000          25.000
  25070045.645   131743977.269 6       893.375    25070057.117   102657703.642 5
       696.138                          36.000          31.000
 23 11 29 10 47 30.0000000  0 10G13G05G30G20G14G22G07G15G18G08
  20462684.720   107532180.613 8      1357.395    20462686.221    83791329.295 7
      1057.710                          49.000          44.000
  20525937.523   107864490.789 8      -403.308    20525938.953    84050239.566 9
      -314.267                          49.000          57.000
  20838093.451   109504953.146 9     -1580.796    20838097.186    85328565.333 9
     -1231.795                          51.000          58.000
  21266541.302   111756373.144 8     -2835.852    21266543.643    87082870.507 7
     -2209.753                          48.000          42.000
  21901929.361   115095460.847 8      1916.468    21901932.774    89684825.462 7
      1493.347                          47.000          39.000
  22639363.121   118970724.018 7      2641.645    22639366.373    92704514.770 5
      2058.407                          44.000          31.000
  22745591.461   119528847.002 8     -2855.100    22745594.659    93139353.942 8
     -2224.755                          46.000          48.000
  23082851.722   121301214.010 7      3094.951    23082855.599    94520440.955 5
      2411.642                          43.000          31.000
  24313700.776   127769331.191 7       789.712    24313705.172    99560515.543 4
       615.360                          41.000          24.000
  25064991.535   131717412.515 6       877.022    25065002.328   102637003.799 5
       683.396                          36.000          32.000
 23 11 29 10 48  0.0000000  0 10G13G05G30G20G14G22G07G15G18G08
  20454966.839   107491623.187 8      1346.269    20454968.394    83759726.113 7
      1049.043                          49.000          44.000
  20528298.843   107876900.199 8      -424.145    20528300.487    84059909.229 9
      -330.502                          50.000          57.000
  20847155.619   109552575.283 8     -1594.164    20847159.282    85365673.478 9
     -1242.199                          50.000          58.000
  21282773.129   111841671.996 8     -2850.864    21282774.934    87149337.083 7
     -2221.446                          48.000          41.000
  21891031.330   115038190.861 8      1901.411    21891034.993    89640199.567 7
      1481.622                          47.000          39.000
  22624311.775   118891630.004 7      2631.143    22624315.671    92642883.190 5
      2050.250                          44.000          31.000
  22761908.845   119614594.428 8     -2861.572    22761911.793    93206170.004 8
     -2229.789                          46.000          48.000
  23065195.751   121208432.421 7      3090.382    23065199.682    94448143.681 5
      2408.088                          43.000          31.000
  24309245.922   127745921.576 7       770.689    24309251.533    99542274.278 4
       600.544                          41.000          24.000
  25060030.201   131691344.307 6       860.638    25060042.012   102616690.905 5
       670.632                          36.000          31.000
 23 11 29 10 48 30.0000000  0 10G13G05G30G20G14G22G07G15G18G08
  20447315.073   107451412.804 8      1335.011    20447316.288    83728393.349 7
      1040.271                          50.000          43.000
  20530781.548   107889946.853 8      -445.047    20530783.156    84070075.451 9
      -346.792                          49.000          57.000
  20856296.893   109600611.728 8     -1607.697    20856300.663    85403104.453 9
     -1252.742                          50.000          57.000
  21299093.069   111927432.973 8     -2865.949    21299095.070    87216163.739 7
     -2233.201                          47.000          40.000
  21880222.000   114981386.806 8      1886.118    21880225.574    89595936.731 7
      1469.710                          46.000          39.000
  22609323.310   118812864.388 7      2620.454    22609327.134    92581507.490 5
      2041.912                          43.000          31.000
  22778265.309   119700545.943 8     -2868.033    22778267.721    93273145.103 8
     -2234.825                          45.000          47.000
  23047569.175   121115804.094 7      3085.435    23047573.249    94375965.835 5
      2404.244                          43.000          31.000
  24304902.641   127723095.840 7       751.497    24304907.680    99524487.946 4
       585.584                          40.000          24.000
  25055166.324   131665783.477 6       843.920    25055177.743   102596773.366 5
       657.598                          35.000          32.000
 23 11 29 10 49  0.0000000  0 10G13G05G30G20G14G22G07G15G18G08
  20439725.224   107411526.828 8      1324.615    20439726.135    83697313.372 7
      1032.171                          49.000          44.000
  20533381.294   107903607.826 8      -465.096    20533382.616    84080720.360 9
      -362.414                          49.000          57.000
  20865511.859   109649037.569 9     -1620.112    20865515.826    85440838.854 9
     -1262.419                          51.000          58.000
  21315495.599   112013630.312 8     -2879.977    21315497.243    87283330.439 7
     -2244.133                          47.000          39.000
  21869496.923   114925027.511 8      1871.709    21869500.622    89552020.448 7
      1458.477                          47.000          39.000
  22594393.366   118734406.255 7      2610.672    22594397.065    92520371.392 5
      2034.293                          44.000          32.000
  22794655.348   119786676.505 8     -2873.437    22794658.636    93340259.717 8
     -2239.039                          45.000          47.000
  23029967.741   121023307.692 7      3081.561    23029971.869    94303890.776 5
      2401.220                          43.000          31.000
  24300665.932   127700831.473 7       733.280    24300670.989    99507139.091 4
       571.394                          41.000          23.000
  25050394.956   131640708.788 6       828.291    25050406.303   102577234.705 5
       645.416                          34.000          30.000
 23 11 29 10 49 30.0000000  0 11G13G05G30G20G14G22G07G15G18G08G27
  20432190.589   107371931.998 8      1314.181    20432191.679    83666460.265 7
      1024.036                          49.000          44.000
  20536091.006   107917848.757 8      -485.167    20536092.650    84091817.189 9
      -378.057                          49.000          57.000
  20874794.602   109697817.392 8     -1632.686    20874798.247    85478849.081 9
     -1272.223                          50.000          58.000
  21331975.163   112100228.118 8     -2894.054    21331976.449    87350809.206 7
     -2255.108                          48.000          40.000
  21858850.702   114869081.313 8      1857.167    21858854.526    89508426.072 7
      1447.141                          46.000          40.000
  22579515.707   118656224.280 7      2600.677    22579519.335    92459450.471 5
      2026.497                          43.000          32.000
  22811072.942   119872950.683 8     -2879.004    22811076.498    93407486.241 8
     -2243.382                          45.000          47.000
  23012385.230   120930910.964 7      3077.449    23012389.554    94231893.387 5
      2398.004                          44.000          31.000
  24296529.789   127679095.394 7       714.718    24296534.381    99490201.844 4
       556.908                          41.000          25.000
  25045709.251   131616087.578 6       812.362    25045720.920   102558049.435 5
       632.999                          35.000          31.000
  25342286.875   133174617.670 6      -954.907    25342296.203   103772466.513 2
      -744.079                          35.000          12.000
 23 11 29 10 50  0.0000000  0 11G13G05G30G20G14G22G07G15G18G08G27
  20424717.817   107332662.989 8      1303.271    20424719.247    83635861.042 7
      1015.537                          50.000          44.000
  20538918.028   107932703.739 8      -505.685    20538919.565    84103392.500 9
      -394.043                          50.000          57.000
  20884150.554   109746983.441 8     -1645.546    20884154.199    85517160.261 9
     -1282.243                          50.000          58.000
  21348536.191   112187257.649 8     -2908.424    21348538.889    87418624.349 7
     -2266.301                          49.000          42.000
  21848289.949   114813584.238 8      1842.150    21848293.684    89465181.653 7
      1435.439                          47.000          39.000
  22564697.873   118578355.410 7      2590.185    22564701.054    92398773.500 5
      2018.314                          44.000          32.000
  22827523.540   119959400.399 8     -2884.831    22827527.864    93474849.542 8
     -2247.921                          46.000          48.000
  22994828.093   120838649.033 7      3072.866    22994832.453    94160001.021 5
      2394.440                          43.000          31.000
  24292500.592   127657922.222 7       696.134    24292504.863    99473703.222 4
       542.447                          40.000          22.000
  25041116.662   131591954.997 6       795.942    25041128.831   102539245.026 5
       620.209                          36.000          31.000
  25347789.927   133203537.217 6      -973.589    25347799.808   103795001.362 3
      -758.662                          38.000          17.000
 23 11 29 10 50 30.0000000  0 11G13G05G30G20G14G22G07G15G18G08G27
  20417308.320   107293725.787 8      1292.462    20417309.714    83605520.374 7
      1007.111                          50.000          44.000
  20541862.826   107948178.728 8      -526.063    20541864.219    84115450.936 9
      -409.920                          50.000          57.000
  20893580.842   109796539.614 8     -1658.324    20893584.487    85555775.430 9
     -1292.206                          50.000          58.000
  21365179.953   112274722.109 8     -2922.583    21365183.223    87486778.371 7
     -2277.332                          47.000          41.000
  21837815.735   114758543.828 8      1827.104    21837819.827    89422293.078 7
      1423.712                          47.000          40.000
  22549940.491   118500807.601 7      2579.630    22549944.440    92338346.703 5
      2010.091                          44.000          32.000
  22844009.036   120046029.791 8     -2890.602    22844012.663    93542352.839 8
     -2252.416                          45.000          47.000
  22977298.224   120746528.524 7      3068.354    22977302.066    94088218.853 5
      2390.918                          44.000          31.000
  24288579.450   127637318.292 7       677.361    24288585.150    99457648.200 4
       527.817                          39.000          23.000
  25036617.671   131568318.616 6       779.773    25036630.358   102520827.314 5
       607.605                          35.000          31.000
  25353401.390   133233024.174 6      -992.292    25353410.825   103817978.308 3
      -773.202                          38.000          19.000
 23 11 29 10 51  0.0000000  0 11G13G05G30G20G14G22G07G15G18G08G27
  20409961.382   107255117.948 8      1282.030    20409962.776    83575436.357 7
       998.985                          50.000          44.000
  20544924.861   107964269.609 8      -546.037    20544926.291    84127989.287 9
      -425.485                          50.000          57.000
  20903084.196   109846480.745 8     -1670.494    20903088.198    85594690.568 9
     -1301.681                          50.000          57.000
  21381905.537   112362615.509 8     -2936.270    21381908.217    87555266.641 7
     -2287.999                          48.000          40.000
  21827429.008   114703958.659 8      1812.447    21827432.296    89379759.249 7
      1412.295                          47.000          39.000
  22535244.595   118423579.645 8      2569.518    22535248.598    92278169.141 5
      2002.221                          45.000          32.000
  22860527.411   120132833.199 8     -2895.747    22860529.859    93609991.739 8
     -2256.423                          45.000          46.000
  22959794.926   120654547.384 7      3064.236    22959798.518    94016545.301 5
      2387.716                          43.000          31.000
  24284766.075   127617280.666 7       659.075    24284771.400    99442034.422 4
       513.565                          40.000          23.000
  25032214.279   131545177.086 6       763.709    25032225.608   102502795.262 5
       595.086                          37.000          30.000
  25359119.495   133263074.121 6     -1010.424    25359129.680   103841393.955 2
      -787.323                          34.000          14.000
 23 11 29 10 51 30.0000000  0 11G13G05G30G20G14G22G07G15G18G08G27
  20402677.468   107216841.100 8      1269.305    20402678.647    83545610.244 7
       989.067                          50.000          44.000
  20548104.100   107980977.681 8      -568.282    20548106.012    84141008.563 9
      -442.813                          49.000          57.000
  20912660.830   109896806.236 8     -1685.032    20912664.833    85633905.193 9
     -1313.004                          50.000          57.000
  21398712.693   112450936.315 8     -2952.192    21398714.730    87624087.970 7
     -2300.404                          47.000          39.000
  21817128.839   114649831.836 8      1795.523    21817132.163    89337582.571 7
      1399.112                          47.000          40.000
  22520610.026   118346675.202 7      2557.016    22520614.029    92218243.660 6
      1992.483                          44.000          33.000
  22877078.433   120219810.189 8     -2903.161    22877080.863    93677765.900 8
     -2262.195                          45.000          46.000
  22942318.378   120562708.269 7      3057.817    22942321.881    93944982.437 5
      2382.718                          43.000          31.000
  24281061.326   127597811.041 7       638.452    24281067.563    99426863.295 4
       497.512                          40.000          22.000
  25027905.146   131522532.373 6       745.299    25027916.886   102485150.381 5
       580.745                          36.000          30.000
  25364944.618   133293687.044 5     -1030.720    25364955.125   103865248.293 1
      -803.175                          29.000           6.000
 23 11 29 10 52  0.0000000  0 11G13G05G30G20G14G22G07G15G18G08G27
  20395459.651   107178910.237 8      1257.918    20395460.545    83516053.742 7
       980.192                          50.000          44.000
  20551403.847   107998316.887 8      -589.174    20551405.384    84154519.638 9
      -459.098                          50.000          57.000
  20922313.069   109947528.770 9     -1698.028    20922316.875    85673429.208 9
     -1323.142                          51.000          57.000
  21415603.566   112539696.534 8     -2966.610    21415605.049    87693251.704 7
     -2311.643                          48.000          39.000
  21806919.015   114596179.728 8      1779.857    21806922.696    89295775.813 7
      1386.897                          47.000          40.000
  22506040.232   118270111.487 7      2545.761    22506043.949    92158583.675 5
      1983.703                          44.000          32.000
  22893665.532   120306973.768 8     -2909.212    22893668.248    93745685.440 8
     -2266.917                          45.000          46.000
  22924871.994   120471027.130 7      3052.705    22924875.407    93873542.673 5
      2378.733                          44.000          32.000
  24277467.812   127578924.364 7       619.140    24277473.191    99412146.384 4
       482.437                          40.000          23.000
  25023692.631   131500399.848 6       728.493    25023705.193   102467904.607 5
       567.639                          35.000          28.000
  25370880.082   133324876.606 5     -1049.899    25370890.428   103889551.675 1
      -818.095                          32.000           8.000
 23 11 29 10 52 30.0000000  0 11G13G05G30G20G14G22G15G07G18G08G27
  20388305.913   107141317.092 8      1247.196    20388307.021    83486760.393 7
       971.841                          50.000          44.000
  20554821.781   108016278.335 8      -609.330    20554822.924    84168515.574 9
      -474.799                          50.000          57.000
  20932038.732   109998637.706 8     -1710.313    20932042.645    85713254.315 9
     -1332.710                          50.000          57.000
  21432575.457   112628884.730 8     -2980.273    21432577.315    87762748.933 7
     -2322.285                          49.000          40.000
  21796798.251   114542995.398 8      1764.751    21796801.968    89254333.558 7
      1375.130                          47.000          40.000
  22491534.642   118193882.291 7      2535.131    22491537.447    92099184.338 5
      1975.426                          44.000          32.000
  22907454.271   120379496.170 7      3048.292    22907457.916    93802219.947 5
      2375.285                          44.000          32.000
  22910285.028   120394313.083 8     -2914.472    22910289.066    93813741.921 8
     -2271.008                          46.000          47.000
  24273982.781   127560612.324 7       600.581    24273987.445    99397877.206 4
       467.998                          39.000          21.000
  25019577.252   131478772.030 6       712.327    25019587.956   102451052.136 5
       555.050                          35.000          29.000
  25376923.636   133356632.609 5     -1068.318    25376933.589   103914296.611 1
      -832.523                          27.000           3.000
 23 11 29 10 53  0.0000000  0 11G13G05G30G20G14G22G15G07G18G08G27
  20381216.503   107104062.312 8      1235.996    20381217.825    83457730.710 7
       963.111                          50.000          44.000
  20558358.078   108034861.695 8      -630.011    20558359.275    84182996.114 9
      -490.918                          50.000          57.000
  20941837.889   110050131.454 8     -1723.048    20941841.553    85753379.279 9
     -1342.637                          50.000          57.000
  21449628.080   112718498.471 8     -2994.367    21449630.832    87832577.742 7
     -2333.271                          46.000          39.000
  21786766.974   114490280.893 8      1749.150    21786770.727    89213257.405 7
      1362.967                          47.000          40.000
  22477092.397   118117989.898 8      2523.957    22477096.168    92040047.457 6
      1966.715                          45.000          33.000
  22890065.335   120288116.877 7      3043.228    22890069.141    93731015.392 6
      2371.343                          44.000          33.000
  22926938.403   120481826.232 8     -2920.174    22926942.281    93881933.852 8
     -2275.458                          46.000          47.000
  24270607.555   127542875.525 7       581.583    24270613.255    99384056.338 4
       453.178                          39.000          23.000
  25015558.652   131457650.906 6       695.168    25015569.427   102434594.431 5
       541.685                          34.000          29.000
  25383073.832   133388954.293 4     -1087.014
      -847.232                          25.000
 23 11 29 10 53 30.0000000  0 11G13G05G30G20G14G22G15G07G18G08G27
  20374192.637   107067151.681 8      1224.715    20374193.977    83428969.200 8
       954.324                          50.000          45.000
  20562013.526   108054072.047 8      -650.664    20562015.152    84197965.219 9
      -507.012                          50.000          57.000
  20951710.614   110102013.529 8     -1735.745    20951714.295    85793806.838 9
     -1352.522                          50.000          57.000
  21466762.668   112808540.615 8     -3008.406    21466765.974    87902740.326 7
     -2344.207                          47.000          40.000
  21776826.473   114438043.415 8      1733.420    21776830.440    89172552.973 7
      1350.717                          47.000          40.000
  22462715.803   118042441.901 8      2512.577    22462719.931    91981178.941 6
      1957.860                          45.000          33.000
  22872706.347   120196895.762 7      3038.159    22872710.064    93659934.105 6
      2367.398                          44.000          33.000
  22943625.658   120569516.864 8     -2925.868    22943629.411    93950264.076 8
     -2279.892                          46.000          46.000
  24267342.884   127525719.731 7       562.331    24267349.049    99370688.168 4
       438.175                          39.000          24.000
  25011636.044   131437043.032 6       678.576    25011647.856   102418536.608 5
       528.753                          35.000          29.000
  25389331.778   133421846.056 5     -1106.281
      -861.674                          27.000
 23 11 29 10 54  0.0000000  0 11G13G05G30G20G14G22G15G07G18G08G27
  20367228.811   107030556.994 8      1214.410    20367230.240    83400453.875 8
       946.296                          50.000          45.000
  20565782.979   108073880.014 8      -670.367    20565784.319    84213399.994 9
      -522.363                          50.000          57.000
  20961651.473   110154253.043 8     -1747.422    20961655.368    85834512.925 9
     -1361.620                          50.000          57.000
  21483972.735   112898979.321 8     -3021.367    21483975.719    87973211.940 7
     -2354.307                          48.000          40.000
  21766971.296   114386255.726 8      1718.628    21766975.548    89132199.037 7
      1339.194                          48.000          41.000
  22448399.928   117967211.952 8      2502.194    22448403.985    91922558.249 6
      1949.764                          45.000          33.000
  22855372.484   120105805.254 8      3034.063    22855375.932    93588954.582 6
      2364.210                          45.000          33.000
  22960340.789   120657353.964 8     -2930.495    22960344.434    94018708.423 8
     -2283.495                          45.000          47.000
  24264183.212   127509116.213 7       544.081    24264189.520    99357750.360 4
       423.962                          40.000          24.000
  25007807.052   131416920.548 6       662.565    25007817.863   102402856.961 5
       516.280                          36.000          30.000
  25395694.973   133455277.490 4     -1123.346
      -874.819                          25.000
 23 11 29 10 54 30.0000000  0 10G13G05G30G20G14G22G15G07G18G08
  20360326.632   106994285.682 8      1203.759    20360327.901    83372190.537 8
       937.996                          50.000          45.000
  20569667.347   108094292.008 8      -690.309    20569668.258    84229305.439 9
      -537.905                          50.000          57.000
  20971661.539   110206855.074 8     -1759.261    20971665.416    85875501.488 9
     -1370.846                          50.000          57.000
  21501259.085   112989818.977 8     -3034.462    21501260.979    88043996.013 6
     -2364.513                          47.000          38.000
  21757203.426   114334926.519 8      1703.451    21757207.536    89092202.360 7
      1327.367                          48.000          41.000
  22434146.524   117892309.015 8      2491.432    22434150.312    91864192.381 6
      1941.377                          46.000          34.000
  22838064.530   120014853.428 8      3029.528    22838068.068    93518083.116 6
      2360.676                          45.000          33.000
  22977084.493   120745342.702 8     -2935.336    22977088.048    94087270.959 8
     -2287.269                          45.000          46.000
  24261130.075   127493072.231 7       525.578    24261136.562    99345248.547 4
       409.545                          39.000          23.000
  25004071.301   131397291.468 6       646.245    25004083.041   102387561.679 5
       503.564                          36.000          30.000
 23 11 29 10 55  0.0000000  0 10G13G05G30G20G14G22G15G07G18G08
  20353495.108   106958384.602 8      1189.302    20353496.163    83344215.684 8
       926.731                          50.000          45.000
  20573675.244   108115354.114 8      -714.162    20573676.459    84245717.461 9
      -556.491                          50.000          57.000
  20981748.549   110259864.256 8     -1774.993    20981752.712    85916807.319 9
     -1383.109                          50.000          57.000
  21518630.188   113081103.602 8     -3051.415    21518631.867    88115126.816 6
     -2377.723                          47.000          38.000
  21747532.247   114284104.094 8      1684.333    21747535.946    89052600.577 7
      1312.463                          47.000          40.000
  22419964.255   117817782.115 8      2476.677    22419968.347    91806119.531 6
      1929.874                          46.000          34.000
  22820792.315   119924088.191 7      3021.117    22820796.103    93447357.038 6
      2354.118                          44.000          34.000
  22993865.542   120833527.997 8     -2944.021    22993869.741    94155986.646 8
     -2294.036                          45.000          46.000
  24258193.587   127477634.650 6       503.377    24258198.233    99333219.212 4
       392.238                          38.000          23.000
  25000438.653   131378203.183 6       626.030    25000450.197   102372687.716 5
       487.821                          37.000          31.000
 23 11 29 10 55 30.0000000  0 10G13G05G30G20G14G22G15G07G18G08
  20346731.058   106922841.133 8      1178.121    20346732.559    83316519.496 8
       918.016                          50.000          45.000
  20577804.328   108137051.936 8      -734.573    20577805.793    84262624.846 9
      -572.395                          50.000          57.000
  20991910.608   110313265.489 8     -1787.255    20991914.450    85958418.640 9
     -1392.663                          50.000          57.000
  21536082.273   113172816.484 8     -3064.907    21536084.935    88186591.314 6
     -2388.237                          47.000          38.000
  21737955.558   114233776.912 8      1668.636    21737959.239    89013384.697 7
      1300.237                          47.000          41.000
  22405851.855   117743620.311 8      2465.259    22405856.018    91748331.190 6
      1920.984                          45.000          34.000
  22803553.657   119833497.393 8      3016.073    22803557.213    93376766.870 6
      2350.190                          45.000          34.000
  23010681.472   120921894.425 8     -2949.244    23010685.528    94224843.476 8
     -2298.107                          45.000          46.000
  24255367.994   127462790.408 7       484.187    24255373.301    99321652.263 4
       377.307                          39.000          23.000
  24996906.573   131359643.727 6       609.023    24996918.402   102358225.720 5
       474.568                          36.000          29.000
 23 11 29 10 56  0.0000000  0 10G13G05G30G20G14G22G15G07G18G08
  20340035.070   106887653.757 8      1167.390    20340036.536    83289100.780 8
       909.654                          50.000          45.000
  20582053.921   108159384.236 8      -754.587    20582055.315    84280026.620 9
      -587.990                          50.000          57.000
  21002146.396   110367055.138 8     -1799.069    21002150.416    86000332.622 9
     -1401.872                          50.000          57.000
  21553615.519   113264953.554 8     -3077.859    21553618.092    88258386.329 6
     -2398.328                          46.000          37.000
  21728472.593   114183944.987 8      1653.216    21728476.792    88974554.728 7
      1288.217                          48.000          41.000
  22391808.947   117669824.112 8      2454.196    22391812.467    91690827.723 6
      1912.361                          46.000          34.000
  22786347.611   119743080.643 8      3011.393    22786351.256    93306312.319 6
      2346.533                          46.000          34.000
  23027531.067   121010438.369 8     -2954.002    23027534.516    94293838.627 8
     -2301.816                          45.000          45.000
  24252656.406   127448538.094 7       465.691    24252661.105    99310546.530 4
       362.880                          39.000          23.000
  24993476.239   131341612.838 6       592.583    24993487.425   102344175.526 5
       461.760                          36.000          29.000
 23 11 29 10 56 30.0000000  0 10G13G05G30G20G14G22G15G07G18G08
  20333403.036   106852801.577 8      1154.956    20333404.215    83261943.257 8
       899.964                          50.000          45.000
  20586420.110   108182328.935 8      -776.240    20586421.343    84297905.592 9
      -604.864                          50.000          57.000
  21012451.622   110421209.908 8     -1812.393    21012455.911    86042531.119 9
     -1412.253                          50.000          57.000
  21571225.101   113357490.405 8     -3092.436    21571227.424    88330492.879 7
     -2409.690                          48.000          39.000
  21719080.259   114134588.574 8      1636.044    21719084.190    88936095.288 7
      1274.837                          48.000          40.000
  22377832.012   117596374.361 8      2441.324    22377835.693    91633594.235 6
      1902.327                          46.000          34.000
  22769170.887   119652817.438 8      3004.979    22769174.551    93235977.404 6
      2341.536                          46.000          35.000
  23044409.592   121099136.483 8     -2960.394    23044413.470    94362953.912 8
     -2306.800                          46.000          46.000
  24250052.460   127434856.466 7       445.326    24250058.160    99299885.485 4
       347.016                          40.000          24.000
  24990142.308   131324090.211 6       574.231    24990153.297   102330521.370 5
       447.457                          35.000          29.000
 23 11 29 10 57  0.0000000  0 10G13G05G30G20G14G22G15G07G18G08
  20326835.634   106818289.477 8      1144.530    20326836.849    83235050.737 8
       891.841                          50.000          45.000
  20590903.466   108205889.216 8      -795.799    20590904.877    84316264.234 9
      -620.103                          49.000          57.000
  21022826.859   110475732.156 8     -1823.719    21022831.130    86085015.963 9
     -1421.079                          50.000          56.000
  21588910.770   113450428.850 8     -3104.821    21588913.451    88402912.362 7
     -2419.341                          48.000          40.000
  21709779.736   114085713.586 8      1620.919    21709783.275    88898010.967 7
      1263.048                          47.000          41.000
  22363922.193   117523277.702 8      2430.452    22363925.713    91576635.898 6
      1893.855                          46.000          34.000
  22752024.899   119562714.134 8      3000.603    22752028.562    93165767.088 6
      2338.127                          45.000          35.000
  23061318.406   121187991.892 8     -2964.640    23061322.122    94432191.770 8
     -2310.106                          46.000          46.000
  24247558.195   127421749.928 7       427.230    24247564.628    99289672.573 4
       332.912                          40.000          24.000
  24986905.370   131307081.259 6       558.283    24986916.556   102317267.401 5
       435.030                          35.000          30.000
 23 11 29 10 57 30.0000000  0 10G13G05G30G20G14G22G15G07G18G08
  20320325.020   106784076.663 8      1135.367    20320326.485    83208391.431 8
       884.702                          50.000          45.000
  20595496.216   108230023.435 8      -814.092    20595497.699    84335070.098 9
      -634.358                          49.000          57.000
  21033263.852   110530578.699 8     -1833.617    21033267.962    86127753.502 9
     -1428.795                          49.000          57.000
  21606663.931   113543724.669 8     -3115.828    21606667.254    88475610.304 7
     -2427.916                          47.000          39.000
  21700563.055   114037280.465 8      1607.002    21700567.022    88860270.955 7
      1252.207                          47.000          41.000
  22350071.931   117450495.356 8      2420.791    22350075.630    91519922.482 6
      1886.328                          46.000          35.000
  22734901.425   119472730.424 8      2997.401    22734905.195    93095649.956 6
      2335.636                          45.000          35.000
  23078248.429   121276960.653 8     -2967.566    23078252.057    94501517.975 8
     -2312.389                          45.000          46.000
  24245165.836   127409177.466 7       410.088    24245171.787    99279875.824 4
       319.540                          39.000          24.000
  24983759.296   131290545.592 6       543.272    24983770.375   102304382.269 5
       423.332                          35.000          31.000
 23 11 29 10 58  0.0000000  0 10G13G05G30G20G14G22G15G07G18G08
  20313877.840   106750196.343 8      1122.418    20313879.145    83181991.214 7
       874.610                          50.000          44.000
  20600204.167   108254763.796 8      -836.149    20600205.614    84354348.279 9
      -651.542                          50.000          57.000
  21043768.497   110585780.416 8     -1847.296    21043772.535    86170767.801 9
     -1439.447                          49.000          56.000
  21624491.783   113637407.915 8     -3130.575    21624493.910    88548610.152 6
     -2439.406                          47.000          38.000
  21691437.292   113989323.614 8      1589.235    21691440.669    88822902.049 7
      1238.361                          47.000          40.000
  22336287.945   117378062.003 8      2407.243    22336291.966    91463481.025 6
      1875.770                          46.000          34.000
  22717807.274   119382899.986 8      2990.394    22717811.241    93025652.262 6
      2330.175                          45.000          34.000
  23095206.347   121366074.306 8     -2974.207    23095210.010    94570957.081 8
     -2317.559                          45.000          46.000
  24242881.800   127397171.898 7       389.414    24242886.625    99270520.808 4
       303.440                          40.000          24.000
  24980708.697   131274517.421 6       524.490    24980720.776   102291892.621 5
       408.701                          36.000          30.000
 23 11 29 10 58 30.0000000  0 10G13G05G30G20G14G22G15G07G18G08
  20307499.993   106716680.327 8      1111.700    20307501.065    83155874.867 7
       866.257                          50.000          44.000
  20605033.181   108280141.017 8      -855.972    20605034.575    84374122.712 9
      -666.988                          49.000          57.000
  21054346.243   110641366.628 8     -1858.546    21054350.210    86214081.712 9
     -1448.224                          50.000          56.000
  21642397.902   113731507.002 8     -3142.943    21642400.118    88621934.060 6
     -2449.046                          47.000          38.000
  21682408.307   113941875.942 8      1573.657    21682411.523    88785929.896 7
      1226.216                          47.000          40.000
  22322577.312   117306010.810 8      2395.889    22322580.689    91407337.345 6
      1866.915                          46.000          34.000
  22700748.540   119293255.591 8      2985.621    22700752.311    92955799.536 6
      2326.450                          45.000          34.000
  23112197.875   121455361.848 7     -2978.479    23112201.253    94640531.693 8
     -2320.893                          44.000          45.000
  24240711.053   127385764.655 7       370.899    24240715.931    99261632.020 4
       289.012                          40.000          25.000
  24977761.273   131259028.486 6       507.883    24977773.817   102279823.202 5
       395.756                          36.000          30.000
 23 11 29 10 59  0.0000000  0 10G13G05G30G20G14G22G15G07G18G08
  20301188.761   106683515.654 8      1098.911    20301190.227    83130032.290 8
       856.294                          49.000          45.000
  20609980.828   108306140.735 8      -877.762    20609982.239    84394382.210 9
      -683.969                          50.000          57.000
  21064994.180   110697322.237 8     -1872.012    21064998.308    86257683.460 9
     -1458.710                          49.000          56.000
  21660380.876   113826005.719 8     -3157.300    21660383.681    88695569.329 7
     -2460.229                          47.000          39.000
  21673473.670   113894925.786 8      1555.996    21673477.315    88749345.411 7
      1212.466                          47.000          41.000
  22308937.154   117234331.860 8      2382.375    22308940.621    91351483.723 6
      1856.389                          46.000          35.000
  22683722.881   119203785.309 8      2978.738    22683726.759    92886082.479 6
      2321.091                          45.000          34.000
  23129219.013   121544808.331 8     -2984.941    23129221.854    94710230.172 8
     -2325.924                          45.000          45.000
  24238651.505   127374942.550 7       350.205    24238656.527    99253199.177 4
       272.885                          41.000          25.000
  24974913.987   131244067.016 6       489.195    24974925.727   102268164.850 5
       381.193                          35.000          29.000
 23 11 29 10 59 30.0000000  0 10G13G05G30G14G20G22G15G07G18G08
  20294941.161   106650684.303 8      1089.287    20294942.823    83104449.447 8
       848.795                          49.000          45.000
  20615043.158   108332744.216 8      -896.393    20615044.819    84415112.169 9
      -698.484                          50.000          57.000
  21075708.571   110753626.857 8     -1882.189    21075712.877    86301557.161 9
     -1466.634                          49.000          56.000
  21664630.987   113848456.348 8      1541.418    21664634.400    88713135.503 7
      1201.112                          47.000          41.000
  21678435.862   113920883.171 8     -3168.392    21678438.632    88769499.715 7
     -2468.873                          48.000          40.000
  22295364.845   117163008.518 8      2371.932    22295368.401    91295907.210 6
      1848.265                          46.000          35.000
  22666727.350   119114472.123 8      2974.964    22666730.977    92816487.843 6
      2318.161                          45.000          34.000
  23146266.222   121634393.353 8     -2987.984    23146269.224    94780036.605 8
     -2328.294                          45.000          45.000
  24236699.779   127364687.252 7       332.879    24236705.104    99245207.985 4
       259.404                          41.000          25.000
  24972163.926   131229615.726 6       473.545    24972176.381   102256904.098 5
       368.998                          36.000          30.000
                            4  1
RINEX FILE SPLICE; other post-header comments skipped       COMMENT
 23 11 29 11  0  0.0000000  0 10G13G05G30G14G20G22G15G07G18G08
  20288758.747   106618195.079 8      1076.515    20288760.141    83079133.191 8
       838.839                          50.000          45.000
  20620222.172   108359958.974 8      -918.045    20620223.655    84436318.442 9
      -715.364                          49.000          57.000
  21086490.704   110810286.757 8     -1895.377    21086494.903    86345707.700 9
     -1476.921                          50.000          57.000
  21655881.492   113802477.391 8      1523.698    21655884.726    88677307.777 7
      1187.289                          47.000          41.000
  21696563.253   114016144.517 8     -3182.473    21696565.630    88843729.264 7
     -2479.851                          48.000          39.000
  22281861.957   117092050.738 8      2358.373    22281865.298    91240615.552 6
      1837.685                          47.000          35.000
  22649763.125   119025325.297 8      2968.005    22649767.110    92747022.850 6
      2312.722                          45.000          36.000
  23163341.038   121724123.189 8     -2994.110    23163344.809    94849955.866 8
     -2333.075                          46.000          46.000
  24234857.894   127355006.941 7       312.361    24234863.898    99237664.860 4
       243.394                          40.000          25.000
  24969513.307   131215683.256 6       455.122    24969525.315   102246047.686 5
       354.631                          35.000          30.000
 23 11 29 11  0 30.0000000  0 10G13G05G30G14G20G22G15G07G18G08
  20282641.823   106586050.388 8      1065.217    20282642.806    83054085.394 8
       830.035                          50.000          45.000
  20625517.282   108387785.632 8      -938.385    20625518.908    84458001.521 9
      -731.211                          49.000          57.000
  21097340.346   110867301.775 8     -1906.989    21097344.473    86390134.957 9
     -1485.973                          50.000          56.000
  21647225.612   113756992.255 8      1507.381    21647229.257    88641864.843 7
      1174.572                          48.000          41.000
  21714763.514   114111788.649 8     -3195.068    21714765.962    88918257.077 6
     -2489.663                          46.000          38.000
  22268429.419   117021462.631 8      2346.160    22268432.314    91185611.949 6
      1828.164                          46.000          35.000
  22632831.261   118936348.354 8      2962.485    22632835.496    92677690.250 6
      2308.417                          45.000          36.000
  23180443.534   121813998.032 8     -2998.791    23180447.411    94919988.131 8
     -2336.726                          45.000          45.000
  24233126.225   127345903.422 7       293.284    24233130.996    99230571.175 4
       228.532                          39.000          24.000
  24966961.307   131202272.829 6       437.852    24966972.743   102235598.106 5
       341.177                          36.000          31.000
 23 11 29 11  1  0.0000000  0 10G13G05G30G14G20G22G15G07G18G08
  20276592.784   106554263.038 8      1055.193    20276593.838    83029316.046 8
       822.227                          50.000          45.000
  20630931.596   108416236.559 8      -957.178    20630933.079    84480171.038 9
      -745.847                          49.000          57.000
  21108259.373   110924682.470 8     -1917.183    21108263.769    86434847.155 9
     -1493.910                          50.000          56.000
  21638666.904   113712014.793 8      1492.331    21638670.263    88606817.486 7
      1162.851                          47.000          40.000
  21733038.986   114207825.129 8     -3206.132    21733041.684    88993090.597 6
     -2498.280                          47.000          38.000
  22255070.180   116951259.007 8      2335.270    22255073.182    91130907.934 6
      1819.689                          46.000          35.000
  22615934.205   118847554.847 8      2958.325    22615938.387    92608500.595 6
      2305.182                          45.000          35.000
  23197575.799   121904028.556 8     -3001.974    23197579.695    94990141.724 8
     -2339.197                          45.000          45.000
  24231505.165   127337389.140 7       275.526    24231511.062    99223936.636 4
       214.704                          41.000          25.000
  24964511.017   131189397.177 6       421.752    24964521.756   102225565.222 5
       328.633                          35.000          30.000
 23 11 29 11  1 30.0000000  0 10G13G05G30G14G20G22G15G07G18G08
  20270608.948   106522818.025 8      1043.293    20270610.306    83004813.455 8
       812.956                          50.000          45.000
  20636461.147   108445295.219 8      -977.898    20636462.523    84502814.113 9
      -761.999                          50.000          57.000
  21119244.891   110982411.489 8     -1929.236    21119249.233    86479830.769 9
     -1503.304                          50.000          56.000
  21630201.776   113667531.399 8      1475.384    21630205.457    88572155.115 7
      1149.645                          47.000          41.000
  21751385.433   114304235.851 8     -3219.006    21751388.024    89068215.750 6
     -2508.311                          47.000          38.000
  22241781.327   116881426.685 8      2322.429    22241784.579    91076493.252 6
      1809.677                          47.000          36.000
  22599069.565   118758930.505 8      2952.189    22599073.496    92539442.751 6
      2300.399                          45.000          35.000
  23214734.761   121994197.442 8     -3006.975    23214738.442    95060403.134 8
     -2343.099                          46.000          45.000
  24229993.946   127329448.605 7       256.050    24229999.825    99217749.194 4
       199.510                          41.000          25.000
  24962160.168   131177042.137 6       403.979    24962171.068   102215938.032 5
       314.788                          36.000          31.000
 23 11 29 11  2  0.0000000  0 10G13G05G30G14G20G22G15G07G18G08
  20264694.409   106491735.599 8      1030.213    20264695.678    82980593.389 8
       802.764                          49.000          45.000
  20642110.260   108474980.147 8      -999.733    20642111.529    84525945.184 9
      -779.010                          49.000          57.000
  21130300.205   111040506.819 8     -1942.461    21130304.226    86525099.823 9
     -1513.596                          49.000          56.000
  21621835.160   113623563.393 8      1457.239    21621838.341    88537894.336 7
      1135.517                          47.000          41.000
  21769806.145   114401037.861 8     -3233.007    21769808.271    89143645.812 6
     -2519.223                          46.000          37.000
  22228567.256   116811987.714 8      2308.224    22228570.723    91022385.075 6
      1798.616                          46.000          36.000
  22582241.233   118670496.653 8      2944.779    22582244.664    92470533.336 6
      2294.636                          45.000          35.000
  23231922.902   122084522.713 8     -3013.159    23231927.084    95130786.399 8
     -2347.907                          45.000          45.000
  24228595.963   127322101.715 7       235.251    24228601.538    99212024.312 4
       183.325                          39.000          24.000
  24959911.477   131165228.396 6       385.022    24959922.913   102206732.594 5
       300.016                          36.000          31.000
 23 11 29 11  2 30.0000000  0 10G13G05G30G14G20G22G15G07G18G08
  20258851.096   106461028.994 8      1015.811    20258852.257    82956666.178 8
       791.543                          49.000          45.000
  20647880.329   108505303.941 8     -1022.989    20647882.008    84549574.074 9
      -797.131                          49.000          57.000
  21141426.996   111098979.196 8     -1956.850    21141431.213    86570662.687 9
     -1524.814                          50.000          56.000
  21613568.718   113580124.964 8      1437.605    21613572.649    88504046.219 7
      1120.212                          47.000          41.000
  21788303.174   114498240.602 8     -3248.226    21788305.676    89219388.135 6
     -2531.082                          47.000          38.000
  22215430.987   116742957.339 8      2292.642    22215434.829    90968595.282 6
      1786.474                          46.000          36.000
  22565451.946   118582267.672 8      2936.063    22565454.895    92401783.559 6
      2287.846                          45.000          35.000
  23249143.030   122175015.445 8     -3020.491    23249147.658    95201300.147 8
     -2353.623                          45.000          45.000
  24227313.253   127315361.043 6       213.066    24227318.560    99206771.830 4
       166.026                          38.000          24.000
  24957768.856   131153969.472 6       364.544    24957780.221   102197959.422 5
       284.066                          37.000          32.000
 23 11 29 11  3  0.0000000  0 10G13G05G30G14G20G22G15G07G18G08
  20253080.009   106430700.824 8      1004.740    20253080.956    82933033.845 8
       782.909                          49.000          45.000
  20653772.657   108536267.017 8     -1042.656    20653774.211    84573701.103 9
      -812.461                          49.000          57.000
  21152625.888   111157828.722 8     -1967.816    21152630.105    86616519.426 9
     -1533.365                          50.000          56.000
  21605404.200   113537219.578 8      1421.377    21605408.256    88470613.466 7
      1107.565                          47.000          41.000
  21806876.451   114595843.661 8     -3259.963    21806879.811    89295442.368 7
     -2540.230                          46.000          39.000
  22202373.502   116674339.183 8      2280.479    22202377.022    90915126.699 6
      1776.991                          46.000          36.000
  22548702.114   118494246.453 8      2930.607    22548704.919    92333195.658 6
      2283.585                          45.000          35.000
  23266395.357   122265675.710 8     -3024.711    23266400.021    95271944.443 8
     -2356.919                          45.000          46.000
  24226146.227   127309228.474 7       194.529    24226152.034    99201993.170 4
       151.578                          39.000          24.000
  24955732.824   131143268.343 6       347.542    24955744.474   102189620.836 5
       270.813                          36.000          32.000
 23 11 29 11  3 30.0000000  0 10G13G05G30G14G20G22G15G07G18G08
  20247373.393   106400713.432 8       992.472    20247374.591    82909667.052 8
       773.354                          50.000          45.000
  20659779.061   108567831.092 8     -1063.613    20659780.705    84598296.440 9
      -828.788                          50.000          57.000
  21163888.643   111217015.406 8     -1979.969    21163893.021    86662638.890 9
     -1542.831                          50.000          57.000
  21597334.210   113494810.671 8      1403.898    21597338.230    88437567.578 7
      1093.947                          47.000          41.000
  21825517.559   114693805.740 8     -3272.796    21825521.204    89371776.346 6
     -2550.227                          46.000          37.000
  22189387.601   116606097.476 8      2266.971    22189390.960    90861951.452 6
      1766.470                          46.000          36.000
  22531984.553   118406396.510 8      2924.037    22531987.430    92264741.220 6
      2278.470                          45.000          35.000
  23283672.004   122356463.768 8     -3029.784    23283676.489    95342688.307 8
     -2360.871                          45.000          45.000
  24225087.773   127303665.872 7       174.444    24225093.938    99197658.627 4
       135.924                          39.000          24.000
  24953794.875   131133087.339 6       329.249    24953806.954   102181687.483 5
       256.562                          37.000          32.000
 23 11 29 11  4  0.0000000  0 10G13G05G30G14G20G22G15G07G18G08
  20241734.537   106371081.829 8       980.698    20241735.859    82886577.487 8
       764.179                          50.000          45.000
  20665902.578   108600009.916 8     -1083.904    20665904.097    84623370.800 9
      -844.595                          49.000          58.000
  21175218.247   111276551.989 8     -1991.488    21175222.393    86709030.999 9
     -1551.808                          50.000          57.000
  21589361.892   113452914.345 8      1386.912    21589365.501    88404921.123 7
      1080.711                          47.000          41.000
  21844230.286   114792138.875 8     -3284.980    21844232.895    89448399.481 6
     -2559.723                          47.000          37.000
  22176476.177   116538249.175 8      2253.986    22176479.662    90809082.761 6
      1756.351                          46.000          37.000
  22515302.748   118318733.777 8      2917.922    22515306.089    92196432.666 6
      2273.705                          45.000          36.000
  23300975.955   122447392.195 7     -3034.409    23300978.975    95413541.558 8
     -2364.469                          43.000          45.000
  24224140.447   127298687.671 6       155.207    24224146.844    99193779.487 4
       120.947                          38.000          24.000
  24951960.637   131123442.221 6       311.549    24951971.484   102174171.658 5
       242.774                          36.000          32.000
 23 11 29 11  4 30.0000000  0 10G13G05G30G14G20G22G15G07G18G08
  20236167.461   106341826.678 8       969.297    20236168.658    82863781.266 8
       755.297                          49.000          45.000
  20672146.212   108632821.865 8     -1103.835    20672148.213    84648938.504 9
      -860.130                          50.000          58.000
  21186617.522   111336456.497 8     -2002.480    21186621.668    86755709.802 9
     -1560.374                          50.000          57.000
  21581490.998   113411552.027 8      1370.269    21581493.893    88372690.770 7
      1067.742                          47.000          41.000
  21863016.544   114890859.873 8     -3296.687    21863019.188    89525324.859 6
     -2568.842                          48.000          38.000
  22163644.307   116470816.225 8      2241.237    22163647.202    90756537.711 6
      1746.411                          46.000          36.000
  22498660.844   118231279.623 8      2912.112    22498664.239    92128286.647 6
      2269.179                          45.000          36.000
  23318309.354   122538479.384 7     -3038.380    23318312.213    95484518.517 8
     -2367.566                          44.000          45.000
  24223307.947   127294313.720 7       136.126    24223314.005    99190371.177 4
       106.081                          40.000          26.000
  24950231.416   131114354.210 6       294.065    24950242.531   102167089.975 6
       229.149                          37.000          33.000
 23 11 29 11  5  0.0000000  0 10G13G05G30G14G20G22G15G07G18G08
  20230662.069   106312895.784 8       958.789    20230663.230    82841237.710 8
       747.108                          49.000          45.000
  20678500.954   108666214.268 8     -1122.799    20678502.598    84674958.508 9
      -874.907                          49.000          58.000
  21198077.052   111396674.701 8     -2012.557    21198080.751    86802633.041 9
     -1568.229                          50.000          57.000
  21573711.701   113370672.851 8      1354.444    21573715.007    88340836.905 7
      1055.407                          47.000          41.000
  21881865.718   114989913.668 8     -3307.365    21881869.024    89602509.528 6
     -2577.161                          46.000          37.000
  22150881.214   116403748.444 8      2229.394    22150884.466    90704277.205 6
      1737.185                          47.000          37.000
  22482048.585   118143983.257 8      2907.134    22482052.534    92060263.587 6
      2265.294                          45.000          35.000
  23335662.641   122629671.333 7     -3041.379    23335665.339    95555577.099 7
     -2369.903                          44.000          44.000
  24222580.749   127290491.475 7       118.177    24222586.914    99187392.765 4
        92.082                          40.000          26.000
  24948597.616   131105770.872 6       277.502    24948609.713   102160401.532 6
       216.237                          36.000          33.000
 23 11 29 11  5 30.0000000  0 10G13G05G30G14G20G22G15G07G18G08
  20225224.453   106284319.450 8       946.016    20225225.436    82818970.430 8
       737.154                          49.000          45.000
  20684971.435   108700215.951 8     -1144.143    20684973.043    84701453.278 9
      -891.535                          49.000          58.000
  21209600.928   111457234.183 8     -2024.963    21209605.002    86849822.212 9
     -1577.900                          49.000          56.000
  21566030.219   113330307.699 8      1336.315    21566033.793    88309383.589 7
      1041.273                          47.000          41.000
  21900783.599   115089326.770 8     -3320.311    21900786.726    89679974.163 6
     -2587.253                          46.000          37.000
  22138194.440   116337077.609 8      2215.128    22138197.228    90652326.007 6
      1726.060                          46.000          36.000
  22465472.422   118056875.274 8      2899.817    22465476.478    91992387.305 6
      2259.585                          45.000          35.000
  23353040.480   122720995.690 7     -3047.022    23353043.875    95626738.847 7
     -2374.304                          44.000          44.000
  24221964.036   127287250.262 7        97.753    24221969.986    99184867.097 4
        76.168                          39.000          25.000
  24947066.187   131097722.760 6       258.771    24947077.158   102154130.209 5
       201.640                          37.000          31.000
 23 11 29 11  6  0.0000000  0 10G13G05G30G14G20G22G15G07G18G08
  20219855.205   106256105.480 8       934.712    20219856.688    82796985.520 8
       728.347                          50.000          46.000
  20691558.546   108734832.453 8     -1163.828    20691560.333    84728427.128 9
      -906.877                          49.000          58.000
  21221191.026   111518140.380 8     -2035.676    21221195.190    86897281.549 9
     -1586.242                          50.000          56.000
  21558448.482   113290465.343 8      1319.619    21558452.002    88278337.656 7
      1028.273                          47.000          41.000
  21919770.490   115189103.519 8     -3331.666    21919773.278    89757722.198 6
     -2596.099                          47.000          37.000
  22125584.789   116270813.148 8      2202.313    22125587.505    90600691.468 6
      1716.082                          46.000          37.000
  22448933.801   117969964.776 8      2893.981    22448937.804    91924664.910 6
      2255.047                          45.000          35.000
  23370445.337   122812458.269 7     -3050.761    23370449.001    95698008.285 7
     -2377.212                          44.000          44.000
  24221459.504   127284597.178 7        78.948    24221464.954    99182799.714 4
        61.527                          40.000          25.000
  24945638.363   131090218.595 6       241.355    24945649.298   102148282.822 5
       188.072                          36.000          32.000
 23 11 29 11  6 30.0000000  0 10G13G05G30G14G20G22G15G07G18G08
  20214554.342   106228248.884 8       921.913    20214555.789    82775279.084 8
       718.376                          50.000          45.000
  20698261.860   108770057.968 8     -1184.994    20698263.504    84755875.540 9
      -923.370                          50.000          57.000
  21232845.954   111579386.257 8     -2047.886    21232849.778    86945005.572 9
     -1595.750                          50.000          56.000
  21550965.167   113251142.035 8      1301.430    21550968.759    88247696.177 7
      1014.104                          48.000          41.000
  21938824.730   115289236.183 8     -3344.347    21938828.250    89835747.562 6
     -2605.977                          46.000          36.000
  22113051.778   116204952.150 8      2187.922    22113054.494    90549371.308 6
      1704.876                          47.000          37.000
  22432432.295   117883247.966 8      2886.630    22432436.029    91857093.436 6
      2249.326                          45.000          35.000
  23387874.925   122904051.959 8     -3055.971    23387878.714    95769379.887 7
     -2381.275                          45.000          44.000
  24221065.546   127282526.883 7        58.665    24221071.550    99181186.471 4
        45.709                          40.000          26.000
  24944312.749   131083253.922 6       222.489    24944324.578   102142855.882 5
       173.364                          37.000          31.000
 23 11 29 11  7  0.0000000  0 10G13G05G30G14G20G22G15G07G18G08
  20209320.112   106200742.718 8       911.062    20209321.434    82753845.710 8
       709.918                          49.000          45.000
  20705079.125   108805883.830 8     -1204.118    20705080.983    84783791.751 9
      -938.270                          50.000          58.000
  21244563.422   111640962.276 8     -2057.969    21244567.318    86992986.845 9
     -1603.608                          50.000          57.000
  21543579.918   113212331.555 8      1285.131    21543583.492    88217454.311 7
      1001.402                          48.000          42.000
  21957945.567   115389714.127 8     -3354.957    21957949.213    89914041.940 6
     -2614.248                          46.000          37.000
  22100594.031   116139488.984 8      2175.518    22100597.355    90498361.144 6
      1695.208                          47.000          37.000
  22415966.705   117796718.770 7      2881.182    22415970.189    91789668.164 6
      2245.075                          44.000          36.000
  23405327.761   122995767.513 7     -3059.206    23405331.746    95840846.452 7
     -2383.789                          44.000          44.000
  24220781.089   127281031.450 7        40.307    24220786.610    99180021.164 4
        31.416                          40.000          26.000
  24943089.096   131076821.160 6       205.760    24943100.068   102137843.497 5
       160.324                          36.000          32.000
 23 11 29 11  7 30.0000000  0 10G13G05G30G14G20G22G15G07G18G08
  20204152.926   106173590.363 8       898.955    20204154.374    82732688.038 8
       700.486                          49.000          45.000
  20712011.359   108842311.926 8     -1224.447    20712013.110    84812177.248 9
      -954.118                          49.000          57.000
  21256344.040   111702869.260 8     -2069.221    21256347.829    87041226.012 9
     -1612.385                          50.000          57.000
  21536292.788   113174037.933 8      1267.687    21536296.629    88187615.205 7
       987.799                          47.000          41.000
  21977131.769   115490537.147 8     -3366.655    21977135.218    89992605.220 6
     -2623.364                          47.000          38.000
  22088213.389   116074428.529 8      2161.739    22088216.892    90447664.790 6
      1684.463                          48.000          37.000
  22399536.853   117710381.042 8      2874.525    22399540.605    91722392.094 6
      2239.878                          45.000          36.000
  23422804.416   123087605.927 7     -3063.445    23422808.079    95912408.747 7
     -2387.105                          44.000          44.000
  24220606.169   127280113.317 7        20.755    24220611.958    99179305.696 4
        16.155                          40.000          25.000
  24941966.975   131070924.529 6       187.302    24941978.215   102133248.928 5
       145.938                          35.000          31.000
 23 11 29 11  8  0.0000000  0 10G13G05G30G14G20G22G15G07G18G08
  20199055.287   106146800.451 8       885.898    20199056.431    82711812.789 8
       690.304                          49.000          45.000
  20719059.187   108879349.205 8     -1245.787    20719060.992    84841037.428 9
      -970.744                          49.000          57.000
  21268188.558   111765113.589 8     -2081.450    21268192.704    87089728.041 9
     -1621.913                          50.000          56.000
  21529105.813   113136270.828 8      1249.077    21529109.333    88158186.367 7
       973.296                          48.000          41.000
  21996384.212   115591710.485 8     -3379.324    21996387.536    90071441.494 6
     -2633.240                          45.000          36.000
  22075911.532   116009781.099 8      2146.948    22075914.713    90397290.271 6
      1672.935                          47.000          37.000
  22383145.330   117624244.827 8      2866.738    22383149.529    91655273.058 6
      2233.809                          45.000          37.000
  23440305.087   123179573.865 7     -3068.761    23440309.304    95984071.961 7
     -2391.243                          43.000          44.000
  24220542.734   127279780.448 7         0.324    24220548.112    99179046.274 4
         0.245                          39.000          25.000
  24940948.173   131065571.996 6       168.149    24940958.787   102129078.340 5
       131.016                          35.000          30.000
 23 11 29 11  8 30.0000000  0 10G13G05G30G14G20G22G15G07G18G08
  20194026.015   106120371.265 8       875.256    20194027.248    82691218.627 8
       682.015                          49.000          45.000
  20726222.378   108916992.482 8     -1264.590    20726224.201    84870369.816 9
      -985.393                          49.000          57.000
  21280096.654   111827691.042 8     -2091.174    21280100.889    87138489.642 9
     -1629.483                          50.000          56.000
  21522019.298   113099029.253 8      1232.858    21522022.139    88129167.033 7
       960.663                          47.000          41.000
  22015702.681   115693228.946 8     -3389.427    22015705.897    90150546.685 6
     -2641.110                          45.000          35.000
  22063688.262   115945546.149 8      2134.530    22063690.728    90347237.148 6
      1663.270                          46.000          37.000
  22366792.261   117538309.012 8      2861.389    22366796.032    91588310.177 6
      2229.652                          45.000          36.000
  23457830.042   123271667.059 7     -3071.596    23457834.205    96055832.789 7
     -2393.448                          44.000          44.000
  24220589.872   127280030.222 7       -17.856    24220596.341    99179240.853 4
       -13.914                          39.000          25.000
  24940031.974   131060762.320 6       151.637    24940044.250   102125330.792 5
       118.156                          35.000          31.000
 23 11 29 11  9  0.0000000  0 10G13G05G30G14G20G22G15G07G18G08
  20189068.558   106094320.397 8       861.975    20189069.916    82670919.263 8
       671.670                          49.000          46.000
  20733504.184   108955257.787 8     -1285.971    20733506.006    84900186.909 9
     -1002.057                          49.000          57.000
  21292071.222   111890616.914 8     -2103.458    21292075.278    87187522.734 9
     -1639.050                          50.000          56.000
  21515035.905   113062331.692 8      1214.065    21515038.925    88100571.614 7
       946.027                          48.000          41.000
  22035089.963   115795106.692 8     -3401.945    22035093.126    90229931.827 6
     -2650.860                          46.000          37.000
  22051546.726   115881743.370 8      2119.461    22051549.406    90297520.789 6
      1651.529                          47.000          37.000
  22350480.649   117452592.269 8      2853.412    22350484.294    91521518.009 6
      2223.438                          46.000          36.000
  23475381.747   123363901.116 7     -3076.954    23475386.267    96127703.377 7
     -2397.620                          43.000          44.000
  24220752.087   127280879.425 7       -38.393    24220758.198    99179902.540 4
       -29.911                          39.000          25.000
  24939224.098   131056512.828 6       132.097    24939235.284   102122019.710 5
       102.925                          36.000          32.000
 23 11 29 11  9 30.0000000  0 10G13G05G30G14G22G20G15G07G18G08
  20184178.843   106068624.242 8       850.180    20184179.951    82650896.299 8
       662.478                          49.000          46.000
  20740899.440   108994120.034 8     -1305.856    20740901.280    84930469.154 9
     -1017.549                          49.000          57.000
  21304107.010   111953865.325 8     -2114.101    21304111.137    87236807.154 9
     -1647.346                          50.000          57.000
  21508151.453   113026155.481 8      1196.692    21508154.920    88072382.438 7
       932.489                          48.000          42.000
  22039483.313   115818351.021 8      2105.736    22039486.011    90248124.244 6
      1640.836                          47.000          37.000
  22054539.752   115897317.204 8     -3412.963    22054543.093    90309576.266 6
     -2659.446                          46.000          37.000
  22334206.579   117367072.373 8      2846.798    22334210.117    91454879.233 6
      2218.285                          45.000          37.000
  23492955.359   123456250.693 7     -3080.716    23492959.951    96199663.968 7
     -2400.554                          43.000          43.000
  24221022.999   127282303.748 7       -57.554    24221029.075    99181012.347 4
       -44.838                          39.000          25.000
  24938517.521   131052800.663 6       114.097    24938528.904   102119127.315 5
        88.901                          36.000          31.000
 23 11 29 11 10  0.0000000  0 10G13G05G30G14G22G20G15G07G18G08
  20179359.353   106043298.072 8       838.498    20179360.711    82631161.639 8
       653.376                          49.000          46.000
  20748410.898   109033592.779 8     -1325.462    20748412.756    84961227.112 9
     -1032.826                          49.000          57.000
  21316206.715   112017449.039 8     -2124.536    21316210.932    87286352.847 9
     -1655.484                          50.000          56.000
  21501369.676   112990516.552 8      1179.472    21501372.607    88044611.917 7
       919.063                          47.000          41.000
  22027501.436   115755385.977 8      2092.188    22027504.188    90199060.654 6
      1630.268                          47.000          37.000
  22074055.191   115999871.860 8     -3423.691    22074058.121    90389488.870 6
     -2667.809                          46.000          35.000
  22317973.233   117281765.472 8      2840.486    22317976.646    91388406.424 6
      2213.359                          46.000          36.000
  23510553.380   123548728.750 7     -3084.233    23510557.722    96271724.670 7
     -2403.294                          43.000          43.000
  24221407.594   127284317.402 6       -76.354    24221412.759    99182581.378 4
       -59.495                          37.000          24.000
  24937915.943   131049640.764 6        96.594    24937927.182   102116665.202 5
        75.265                          36.000          31.000
 23 11 29 11 10 30.0000000  0 10G13G05G30G14G22G20G15G07G18G08
  20174606.443   106018321.549 8       825.929    20174607.980    82611699.436 8
       643.580                          49.000          46.000
  20756034.073   109073653.678 8     -1345.963    20756036.092    84992443.379 9
     -1048.798                          49.000          57.000
  21328365.781   112081345.289 8     -2135.876    21328370.266    87336142.078 9
     -1664.317                          49.000          56.000
  21494686.537   112955395.262 8      1161.263    21494689.181    88017244.752 7
       904.875                          48.000          41.000
  22015597.397   115692828.801 8      2077.618    22015599.863    90150314.889 6
      1618.922                          47.000          37.000
  22093631.777   116102746.746 8     -3435.277    22093634.744    90469651.009 6
     -2676.836                          47.000          36.000
  22301776.697   117196651.916 8      2833.031    22301779.913    91322084.277 6
      2207.551                          46.000          37.000
  23528171.629   123641312.801 7     -3088.778    23528175.829    96343867.986 7
     -2406.833                          42.000          43.000
  24221897.849   127286899.094 6       -96.363    24221903.603    99184593.029 4
       -75.087                          38.000          25.000
  24937415.556   131047013.030 6        77.889    24937426.546   102114617.727 5
        60.690                          37.000          30.000
 23 11 29 11 11  0.0000000  0 10G13G05G30G14G22G20G15G07G18G08
  20169924.920   105993719.647 8       813.975    20169926.117    82592529.148 8
       634.269                          49.000          46.000
  20763774.094   109114326.113 8     -1365.801    20763775.702    85024136.160 9
     -1064.252                          49.000          57.000
  21340588.514   112145576.881 8     -2146.434    21340593.035    87386192.610 9
     -1672.540                          50.000          56.000
  21488106.233   112920817.542 8      1143.693    21488109.325    87990301.142 7
       891.192                          48.000          42.000
  22003775.591   115630706.364 8      2063.629    22003778.235    90101907.878 6
      1608.025                          47.000          38.000
  22113273.658   116205964.182 8     -3446.096    22113276.713    90550080.066 6
     -2685.264                          47.000          38.000
  22285621.796   117111757.798 8      2826.241    22285624.923    91255933.108 6
      2202.267                          46.000          37.000
  23545814.341   123734025.355 7     -3092.408    23545818.701    96416111.418 7
     -2409.655                          43.000          43.000
  24222501.447   127290073.096 7      -115.465    24222507.808    99187066.232 4
       -89.965                          40.000          26.000
  24937021.670   131044942.210 6        60.031    24937032.605   102113004.165 5
        46.783                          37.000          30.000
 23 11 29 11 11 30.0000000  0 10G13G05G30G14G22G20G15G07G18G08
  20165312.067   105969479.586 8       800.615    20165313.104    82573640.814 8
       623.854                          49.000          46.000
  20771627.351   109155596.014 8     -1386.938    20771629.049    85056294.508 9
     -1080.726                          49.000          57.000
  21352872.377   112210128.353 8     -2158.334    21352876.452    87436492.412 9
     -1681.816                          50.000          56.000
  21481627.462   112886771.085 8      1124.692    21481630.481    87963771.500 7
       876.383                          48.000          42.000
  21992034.517   115569007.009 8      2048.205    21992037.001    90053830.536 6
      1596.005                          47.000          37.000
  22132976.829   116309506.843 8     -3458.124    22132980.581    90630762.529 6
     -2694.636                          46.000          37.000
  22269506.457   117027071.298 8      2818.032    22269509.530    91189943.723 6
      2195.863                          45.000          36.000
  23563478.621   123826851.481 7     -3097.431    23563482.820    96488443.382 7
     -2413.580                          44.000          44.000
  24223215.850   127293825.399 7      -136.138    24223221.729    99189990.070 4
      -106.082                          39.000          26.000
  24936731.334   131043415.510 6        40.413    24936741.447   102111814.564 5
        31.495                          36.000          30.000
 23 11 29 11 12  0.0000000  0 10G13G05G30G14G22G20G15G07G18G08
  20160775.069   105945637.841 8       788.597    20160776.159    82555062.854 8
       614.493                          49.000          45.000
  20779601.099   109197497.519 8     -1406.684    20779602.778    85088945.011 9
     -1096.115                          49.000          57.000
  21365223.643   112275033.994 8     -2168.846    21365227.717    87487068.184 9
     -1690.005                          49.000          56.000
  21475256.708   112853293.286 8      1106.994    21475259.996    87937684.958 7
       862.595                          48.000          42.000
  21980380.983   115507769.226 8      2034.088    21980383.914    90006112.863 6
      1585.005                          48.000          38.000
  22152749.099   116413408.455 8     -3468.838    22152752.315    90711724.686 6
     -2702.984                          46.000          35.000
  22253437.898   116942630.479 8      2811.139    22253441.008    91124145.779 6
      2190.499                          45.000          36.000
  23581170.937   123919825.694 7     -3101.092    23581175.654    96560890.706 7
     -2416.434                          43.000          42.000
  24224047.099   127298191.626 7      -155.283    24224052.764    99193392.304 4
      -120.999                          39.000          26.000
  24936551.107   131042470.207 6        22.339    24936561.739   102111078.041 5
        17.407                          37.000          30.000
 23 11 29 11 12 30.0000000  0 10G13G05G30G14G22G20G15G07G18G08
  20156309.135   105922169.103 8       777.313    20156310.333    82536775.550 8
       605.699                          49.000          46.000
  20787689.637   109240004.319 8     -1425.670    20787691.603    85122067.175 9
     -1110.911                          49.000          57.000
  21377636.681   112340265.914 8     -2178.554    21377641.452    87537898.199 9
     -1697.574                          49.000          56.000
  21468989.738   112820359.338 8      1089.944    21468992.400    87912022.189 7
       849.304                          48.000          42.000
  21968811.184   115446968.981 8      2020.613    21968814.168    89958736.124 6
      1574.499                          47.000          38.000
  22172583.786   116517639.834 8     -3478.583    22172586.520    90792943.840 6
     -2710.577                          46.000          35.000
  22237411.207   116858410.336 8      2804.867    22237414.263    91058519.794 6
      2185.607                          45.000          36.000
  23598886.179   124012920.275 7     -3103.939    23598891.701    96633431.830 7
     -2418.649                          42.000          42.000
  24224989.065   127303145.239 7      -173.568    24224995.623    99197252.210 4
      -135.240                          40.000          26.000
  24936476.361   131042079.826 6         5.013    24936487.243   102110773.903 5
         3.900                          36.000          31.000
 23 11 29 11 13  0.0000000  0 10G13G05G30G14G22G20G15G07G18G08
  20151909.746   105899049.584 8       764.867    20151910.926    82518760.366 8
       596.003                          49.000          45.000
  20795888.892   109283090.280 8     -1445.813    20795890.607    85155640.632 9
     -1126.605                          49.000          57.000
  21390107.151   112405798.198 8     -2189.378    21390111.868    87588962.261 9
     -1705.998                          49.000          56.000
  21462821.780   112787946.339 8      1071.761    21462824.568    87886765.351 7
       835.145                          48.000          42.000
  21957320.545   115386584.186 8      2005.905    21957323.314    89911683.117 6
      1563.048                          47.000          38.000
  22192475.797   116622173.769 8     -3489.434    22192479.067    90874398.742 6
     -2719.035                          46.000          36.000
  22221422.310   116774388.357 8      2797.402    22221425.687    90993048.229 6
      2179.800                          45.000          37.000
  23616619.701   124106109.987 7     -3107.861    23616624.919    96706047.065 7
     -2421.703                          43.000          42.000
  24226039.084   127308661.680 7      -193.277    24226045.803    99201550.675 5
      -150.597                          41.000          27.000
  24936503.879   131042221.595 6       -13.556    24936514.582   102110884.436 5
       -10.563                          38.000          32.000
 23 11 29 11 13 30.0000000  0 10G13G05G30G14G22G15G20G07G18G08
  20147582.816   105876312.066 8       750.889    20147584.085    82501042.843 8
       585.106                          49.000          46.000
  20804204.099   109326786.837 8     -1467.347    20804205.743    85189689.877 9
     -1143.387                          49.000          57.000
  21402640.787   112471661.227 8     -2201.593    21402644.861    87640284.056 9
     -1715.529                          49.000          56.000
  21456758.767   112756087.749 8      1052.014    21456762.091    87861940.518 7
       819.745                          48.000          42.000
  21945915.248   115326648.951 8      1989.662    21945917.660    89864980.405 6
      1550.379                          47.000          38.000
  22205477.566   116690598.516 8      2788.537    22205481.032    90927757.547 6
      2172.879                          45.000          37.000
  22212431.117   116727039.905 8     -3501.637    22212435.120    90956112.468 6
     -2728.543                          46.000          36.000
  23634377.490   124199425.066 7     -3113.116    23634382.028    96778760.001 7
     -2425.802                          41.000          42.000
  24227202.286   127314772.645 7      -214.224    24227208.183    99206312.412 4
      -166.929                          40.000          26.000
  24936637.664   131042927.802 6       -33.601    24936648.725   102111434.792 5
       -26.185                          37.000          32.000
 23 11 29 11 14  0.0000000  0 10G13G05G30G14G22G15G20G07G18G08
  20143327.630   105853951.473 8       738.448    20143329.095    82483619.031 8
       575.416                          49.000          46.000
  20812633.900   109371086.362 8     -1487.263    20812635.633    85224208.974 9
     -1158.906                          49.000          57.000
  21415235.589   112537847.502 8     -2212.169    21415239.628    87691857.736 9
     -1723.770                          49.000          56.000
  21450801.271   112724779.074 8      1033.845    21450803.969    87837544.180 7
       805.590                          48.000          42.000
  21934594.775   115267159.897 8      1974.930    21934597.348    89818625.369 6
      1538.903                          47.000          38.000
  22189576.280   116607036.772 8      2780.993    22189579.639    90862644.598 6
      2167.000                          45.000          37.000
  22232448.640   116832229.798 8     -3512.243    22232452.089    91038078.472 6
     -2736.806                          46.000          36.000
  23652157.578   124292858.713 7     -3116.972    23652161.956    96851565.322 7
     -2428.813                          42.000          42.000
  24228477.420   127321472.005 7      -233.730    24228482.816    99211532.635 4
      -182.133                          40.000          26.000
  24936878.574   131044193.107 6       -52.311    24936889.296   102112420.794 5
       -40.759                          36.000          32.000
 23 11 29 11 14 30.0000000  0 10G13G05G30G14G22G15G20G07G18G08
  20139145.689   105831974.112 8       727.478    20139146.868    82466493.838 8
       566.864                          49.000          46.000
  20821179.653   109415993.864 8     -1505.728    20821181.314    85259201.807 9
     -1173.296                          49.000          57.000
  21427892.629   112604360.717 8     -2221.243    21427896.650    87743686.172 9
     -1730.840                          49.000          55.000
  21444949.576   112694026.985 8      1017.017    21444952.328    87813581.536 7
       792.476                          48.000          42.000
  21923360.967   115208124.355 8      1961.589    21923363.165    89772623.715 6
      1528.508                          47.000          38.000
  22173719.434   116523710.002 8      2774.776    22173722.722    90797714.736 6
      2162.157                          46.000          37.000
  22252527.918   116937745.597 8     -3521.335    22252531.028    91120298.447 6
     -2743.894                          46.000          36.000
  23669961.022   124386414.311 7     -3119.266    23669964.882    96924465.655 7
     -2430.597                          42.000          42.000
  24229864.860   127328764.647 7      -251.653    24229870.346    99217215.163 4
      -196.095                          41.000          26.000
  24937226.377   131046023.355 6       -69.155    24937238.153   102113846.961 5
       -53.887                          37.000          32.000
 23 11 29 11 15  0.0000000  0 10G13G05G14G30G22G15G20G07G18G08
  20135035.313   105810374.189 8       713.922    20135036.260    82449662.745 8
       556.301                          49.000          45.000
  20829839.374   109461501.689 8     -1526.699    20829841.215    85294662.434 9
     -1189.637                          49.000          56.000
  21439202.488   112663826.727 8       997.668    21439205.275    87790048.887 7
       777.414                          48.000          42.000
  21440610.334   112671193.094 8     -2232.779    21440614.605    87795763.312 9
     -1739.817                          49.000          55.000
  21912212.054   115149538.151 8      1945.572    21912214.645    89726972.186 6
      1516.041                          48.000          38.000
  22157906.742   116440614.011 8      2766.159    22157909.887    90732964.698 6
      2155.456                          45.000          37.000
  22272666.986   117043578.512 8     -3532.926    22272670.328    91202765.519 6
     -2752.926                          45.000          35.000
  23687785.801   124480084.431 7     -3124.065    23687789.250    96997455.254 7
     -2434.329                          42.000          42.000
  24231364.446   127336644.063 7      -272.079    24231370.093    99223354.917 4
      -212.007                          41.000          26.000
  24937681.608   131048413.231 6       -88.867    24937692.187   102115709.168 5
       -69.248                          36.000          30.000
 23 11 29 11 15 30.0000000  0 10G13G05G14G30G22G15G20G07G18G08
  20130995.449   105789144.537 8       701.585    20130996.432    82433120.177 8
       546.688                          49.000          45.000
  20838611.671   109507600.503 8     -1546.410    20838613.493    85330583.567 9
     -1204.999                          50.000          56.000
  21433559.146   112634171.359 8       979.530    21433562.184    87766940.821 7
       763.271                          48.000          42.000
  21453387.097   112738334.732 8     -2243.062    21453391.153    87848081.435 9
     -1747.839                          49.000          55.000
  21901147.877   115091395.545 8      1930.742    21901150.343    89681666.312 7
      1504.473                          48.000          39.000
  22142136.865   116357742.488 8      2758.792    22142139.849    90668389.568 6
      2149.704                          46.000          37.000
  22292864.808   117149717.770 8     -3542.818    22292868.274    91285471.272 6
     -2760.633                          45.000          35.000
  23705630.487   124573859.968 7     -3127.541    23705634.543    97070526.970 7
     -2437.045                          42.000          41.000
  24232973.802   127345101.566 7      -291.452    24232980.199    99229945.134 4
      -227.109                          41.000          26.000
  24938241.159   131051355.230 6      -107.230    24938252.148   102118001.525 5
       -83.550                          36.000          31.000
 23 11 29 11 16  0.0000000  0 10G13G05G14G30G22G15G20G07G18G08
  20127026.560   105768287.875 8       689.455    20127027.757    82416868.251 8
       537.233                          49.000          46.000
  20847496.989   109554291.824 8     -1565.723    20847498.633    85366966.394 9
     -1220.049                          49.000          56.000
  21428020.053   112605064.603 8       961.535    21428023.305    87744260.241 7
       749.239                          48.000          42.000
  21466222.773   112805786.403 8     -2253.072    21466227.080    87900641.136 9
     -1755.649                          49.000          55.000
  21890168.613   115033701.401 8      1916.064    21890171.776    89636709.889 7
      1493.028                          48.000          39.000
  22126410.374   116275099.385 8      2751.430    22126413.465    90603992.425 6
      2143.959                          45.000          37.000
  22313120.828   117256163.047 8     -3552.814    22313124.420    91368415.488 6
     -2768.426                          45.000          35.000
  23723495.561   124667741.768 7     -3130.600    23723499.974    97143681.498 7
     -2439.435                          42.000          41.000
  24234693.267   127354139.139 7      -310.374    24234699.717    99236987.359 4
      -241.853                          40.000          26.000
  24938907.155   131054851.901 6      -125.459    24938918.109   102120726.062 5
       -97.756                          37.000          31.000
 23 11 29 11 16 30.0000000  0 10G13G05G14G30G22G15G20G07G18G08
  20123126.950   105747794.781 8       676.522    20123127.950    82400899.623 8
       527.163                          49.000          46.000
  20856492.309   109601563.798 8     -1585.957    20856494.221    85403801.681 9
     -1235.806                          50.000          56.000
  21422584.136   112576497.639 8       942.719    21422587.334    87722000.276 7
       734.592                          48.000          42.000
  21479115.095   112873536.362 8     -2263.834    21479119.776    87953433.270 9
     -1764.018                          49.000          55.000
  21879273.834   114976447.190 8      1900.564    21879276.461    89592096.269 6
      1480.966                          48.000          38.000
  22110725.624   116192676.800 8      2743.185    22110728.859    90539767.123 6
      2137.553                          46.000          37.000
  22333432.368   117362901.081 8     -3563.283    22333435.674    91451587.838 6
     -2776.570                          45.000          34.000
  23741378.807   124761718.274 7     -3134.575    23741383.328    97216909.812 7
     -2442.516                          43.000          41.000
  24236521.303   127363746.177 7      -330.206    24236527.665    99244473.310 4
      -257.303                          40.000          26.000
  24939675.720   131058893.699 6      -144.445    24939686.977   102123875.316 5
      -112.541                          36.000          30.000
 23 11 29 11 17  0.0000000  0 10G13G05G14G30G22G15G20G07G18G08
  20119298.261   105727675.147 8       663.937    20119299.173    82385221.999 8
       517.353                          49.000          46.000
  20865600.042   109649424.399 8     -1605.611    20865601.919    85441095.631 9
     -1251.124                          49.000          56.000
  21417252.502   112548480.291 8       924.294    21417255.932    87700168.586 7
       720.230                          48.000          42.000
  21492065.544   112941591.523 8     -2273.956    21492070.190    88006463.224 9
     -1771.912                          49.000          55.000
  21868464.362   114919643.725 8      1885.476    21868466.792    89547833.874 7
      1469.199                          48.000          39.000
  22095084.743   116110484.934 8      2735.461    22095088.299    90475721.597 6
      2131.530                          46.000          38.000
  22353801.017   117469938.263 7     -3573.341    22353804.073    91534993.292 6
     -2784.417                          44.000          33.000
  23759281.138   124855796.625 7     -3138.141    23759286.034    97290217.486 7
     -2445.301                          42.000          41.000
  24238460.074   127373930.805 7      -349.546    24238465.650    99252409.336 4
      -272.360                          39.000          25.000
  24940550.623   131063489.758 6      -162.802    24940562.059   102127456.414 5
      -126.844                          36.000          31.000
 23 11 29 11 17 30.0000000  0 10G13G05G14G30G22G15G20G07G18G08
  20115541.531   105707933.404 8       652.406    20115542.318    82369838.830 8
       508.370                          49.000          45.000
  20874819.690   109697875.682 8     -1624.215    20874822.049    85478849.847 9
     -1265.620                          49.000          56.000
  21412026.884   112521017.901 8       906.820    21412029.958    87678769.325 7
       706.615                          48.000          42.000
  21505074.782   113009954.400 8     -2283.188    21505079.160    88059732.946 9
     -1779.102                          49.000          54.000
  21857741.769   114863297.122 8      1871.201    21857744.396    89503927.469 7
      1458.079                          48.000          39.000
  22079489.536   116028529.657 8      2728.508    22079492.520    90411860.407 6
      2126.107                          46.000          38.000
  22374227.062   117577275.658 8     -3582.227    22374230.474    91618632.664 6
     -2791.342                          45.000          34.000
  23777204.126   124949979.849 7     -3140.514    23777208.629    97363606.855 7
     -2447.146                          42.000          40.000
  24240508.347   127384696.619 7      -367.902    24240514.458    99260798.247 4
      -286.655                          39.000          25.000
  24941532.508   131068645.064 6      -180.458    24941543.068   102131473.250 5
      -140.605                          36.000          31.000
 23 11 29 11 18  0.0000000  0 10G13G05G14G30G22G15G20G07G18G08
  20111854.151   105688555.313 8       639.648    20111854.938    82354739.028 8
       498.428                          49.000          46.000
  20884149.518   109746902.216 8     -1643.953    20884151.448    85517052.316 9
     -1281.003                          49.000          56.000
  21406903.371   112494096.766 8       888.159    21406906.891    87657791.824 7
       692.071                          48.000          42.000
  21518139.057   113078608.397 8     -2293.548    21518143.400    88113229.517 9
     -1787.181                          49.000          55.000
  21847104.018   114807394.430 8      1855.828    21847106.662    89460366.977 7
      1446.097                          48.000          39.000
  22063936.695   115946797.973 8      2720.474    22063939.412    90348173.449 6
      2119.847                          46.000          38.000
  22394706.356   117684895.158 8     -3592.144    22394710.358    91702491.847 6
     -2799.066                          45.000          35.000
  23795143.713   125044251.542 7     -3143.976    23795147.877    97437065.173 7
     -2449.848                          42.000          41.000
  24242665.031   127396028.126 7      -387.293    24242670.517    99269627.950 4
      -301.776                          39.000          25.000
  24942617.354   131074344.409 6      -199.215    24942627.950   102135913.998 5
      -155.224                          36.000          31.000
 23 11 29 11 18 30.0000000  0 10G13G05G14G30G22G15G20G07G18G08
  20108238.908   105669558.666 8       626.747    20108240.159    82339936.450 8
       488.378                          49.000          46.000
  20893591.206   109796519.783 8     -1663.829    20893593.118    85555715.328 9
     -1296.491                          49.000          56.000
  21401887.358   112467735.237 8       869.327    21401890.181    87637250.391 7
       677.395                          48.000          42.000
  21531261.800   113147568.997 8     -2303.921    21531266.071    88166964.994 9
     -1795.259                          49.000          54.000
  21836554.236   114751955.721 8      1840.090    21836556.952    89417168.025 7
      1433.838                          48.000          39.000
  22048429.564   115865308.669 8      2712.100    22048432.584    90284675.361 6
      2113.323                          46.000          38.000
  22415242.152   117792811.640 7     -3602.205    22415245.940    91786582.443 6
     -2806.901                          44.000          33.000
  23813102.689   125138627.858 7     -3147.756    23813107.228    97510605.002 7
     -2452.798                          42.000          41.000
  24244931.859   127407941.872 7      -406.941    24244938.185    99278911.348 4
      -317.097                          40.000          26.000
  24943809.111   131080606.131 6      -218.061    24943819.850   102140792.997 5
      -169.914                          36.000          32.000
 23 11 29 11 19  0.0000000  0 11G13G05G14G30G22G15G20G07G18G08G23
  20104695.285   105650936.178 8       614.546    20104696.428    82325425.432 8
       478.870                          49.000          46.000
  20903143.753   109846718.207 8     -1682.945    20903145.540    85594830.962 9
     -1311.382                          50.000          56.000
  21396976.503   112441926.223 8       851.110    21396978.898    87617139.494 7
       663.207                          48.000          42.000
  21544441.169   113216826.361 8     -2313.518    21544445.458    88220931.712 9
     -1802.734                          49.000          54.000
  21826091.744   114696974.446 8      1825.101    21826094.228    89374325.516 7
      1422.159                          48.000          39.000
  22032967.445   115784055.512 8      2704.527    22032970.715    90221361.284 6
      2107.426                          47.000          38.000
  22435832.341   117901013.936 7     -3611.369    22435835.772    91870895.762 5
     -2814.044                          44.000          32.000
  23831080.409   125233098.824 7     -3150.532    23831084.108    97584218.584 7
     -2454.954                          43.000          41.000
  24247308.493   127420429.033 7      -425.652    24247314.747    99288641.559 4
      -331.675                          40.000          26.000
  24945105.723   131087422.227 6      -236.313    24945117.052   102146104.067 5
      -184.133                          36.000          31.000
  25625205.865   134661369.934 6      3359.160    25625210.815   104930953.022 2
      2617.515                          35.000          13.000
 23 11 29 11 19 30.0000000  0 11G13G05G14G30G22G15G20G07G18G08G23
  20101225.013   105632700.242 8       602.228    20101226.139    82311215.623 8
       469.267                          49.000          46.000
  20912808.875   109897508.623 8     -1702.083    20912810.769    85634407.889 9
     -1326.297                          50.000          56.000
  21392172.220   112416682.727 8       832.841    21392175.436    87597469.258 7
       648.960                          48.000          42.000
  21557678.720   113286390.662 8     -2323.129    21557683.241    88275137.604 9
     -1810.230                          49.000          55.000
  21815718.544   114642464.135 8      1809.935    21815721.385    89331849.995 7
      1410.337                          48.000          39.000
  22017552.911   115703052.094 8      2696.806    22017556.199    90158241.808 7
      2101.400                          47.000          39.000
  22456478.818   118009511.049 7     -3620.624    22456482.516    91955438.810 6
     -2821.263                          44.000          33.000
  23849077.499   125327675.220 7     -3153.397    23849081.377    97657914.321 7
     -2457.186                          43.000          41.000
  24249795.361   127433500.812 7      -444.611    24249802.097    99298827.318 4
      -346.431                          41.000          26.000
  24946511.103   131094805.059 6      -254.814    24946522.379   102151856.879 5
      -198.557                          36.000          31.000
  25606042.553   134560662.801 6      3355.663    25606048.772   104852479.541 3
      2614.826                          38.000          19.000
 23 11 29 11 20  0.0000000  0 11G13G05G14G30G22G15G20G07G18G08G23
  20097831.328   105614867.062 8       587.619    20097832.508    82297319.648 8
       457.887                          49.000          46.000
  20922589.378   109948905.194 8     -1723.378    20922591.183    85674457.144 9
     -1342.890                          50.000          56.000
  21387479.457   112392021.344 8       812.248    21387482.638    87578252.624 7
       632.928                          48.000          42.000
  21570977.651   113356275.722 8     -2334.842    21570982.226    88329593.435 9
     -1819.349                          49.000          55.000
  21805438.192   114588442.283 8      1792.514    21805441.068    89289755.096 7
      1396.771                          48.000          39.000
  22002189.661   115622315.919 8      2686.696    22002192.467    90095330.569 7
      2093.535                          47.000          39.000
  22477184.244   118118315.845 8     -3631.926    22477188.229    92040221.587 6
     -2830.062                          45.000          34.000
  23867096.837   125422371.244 7     -3158.534    23867102.215    97731703.271 7
     -2461.188                          43.000          41.000
  24252397.394   127447172.088 7      -465.775    24252403.577    99309480.228 4
      -362.941                          41.000          26.000
  24948028.237   131102770.736 6      -275.195    24948038.369   102158064.026 5
      -214.446                          35.000          31.000
  25586905.115   134460096.518 6      3349.832    25586912.102   104774115.836 3
      2610.286                          37.000          19.000
 23 11 29 11 20 30.0000000  0 11G13G05G14G30G22G15G20G07G18G08G23
  20094511.996   105597423.286 8       575.506    20094513.247    82283727.107 8
       448.447                          49.000          46.000
  20932482.312   110000892.222 8     -1742.140    20932484.010    85714966.494 9
     -1357.510                          50.000          56.000
  21382894.695   112367929.120 8       794.109    21382898.072    87559479.488 7
       618.779                          48.000          43.000
  21584334.424   113426465.877 8     -2344.137    21584339.159    88384286.998 9
     -1826.603                          49.000          55.000
  21795249.221   114534897.019 8      1777.396    21795251.741    89248031.554 7
      1384.974                          48.000          40.000
  21986874.550   115541834.639 8      2679.012    21986877.106    90032617.941 7
      2087.533                          46.000          39.000
  22497944.439   118227411.031 7     -3640.756    22497948.424    92125230.645 6
     -2836.944                          44.000          34.000
  23885137.349   125517171.490 7     -3161.160    23885142.691    97805573.423 7
     -2463.239                          41.000          40.000
  24255110.376   127461428.075 7      -484.408    24255116.005    99320588.751 4
      -377.459                          41.000          26.000
  24949649.386   131111305.084 6      -293.634    24949662.752   102164714.476 5
      -228.818                          36.000          31.000
  25567793.463   134359659.455 6      3346.319    25567800.128   104695852.850 4
      2607.529                          38.000          21.000
 23 11 29 11 21  0.0000000  0 11G13G05G14G30G22G15G20G07G18G08G23
  20091265.213   105580362.171 8       562.147    20091266.732    82270432.740 8
       438.037                          49.000          46.000
  20942485.892   110053461.020 8     -1762.106    20942487.553    85755929.173 9
     -1373.068                          49.000          56.000
  21378417.218   112344399.704 8       774.787    21378420.488    87541144.918 7
       603.723                          48.000          43.000
  21597747.645   113496952.020 8     -2354.581    21597752.238    88439211.206 9
     -1834.742                          49.000          55.000
  21785149.363   114481822.753 8      1761.109    21785152.294    89206675.039 7
      1372.287                          48.000          40.000
  21971606.596   115461602.441 8      2670.049    21971609.080    89970099.397 7
      2080.547                          47.000          39.000
  22518757.348   118336786.563 8     -3650.640    22518761.422    92210458.153 6
     -2844.648                          45.000          33.000
  23903195.426   125612067.051 7     -3164.877    23903200.554    97879517.849 7
     -2466.136                          42.000          40.000
  24257933.396   127476260.641 7      -504.214    24257938.542    99332146.558 5
      -392.894                          40.000          27.000
  24951381.038   131120401.184 6      -312.836    24951392.688   102171802.763 5
      -243.779                          36.000          31.000
  25548704.468   134259346.688 7      3341.564    25548712.009   104617686.752 4
      2603.820                          39.000          23.000
 23 11 29 11 21 30.0000000  0 12G13G05G14G30G22G15G20G07G18G24G08G23
  20088089.673   105563674.817 8       548.679    20088091.049    82257429.612 8
       427.543                          49.000          46.000
  20952598.043   110106600.227 8     -1782.169    20952599.830    85797336.327 9
     -1388.703                          49.000          57.000
  21374044.990   112321424.692 8       755.222    21374047.992    87523242.351 7
       588.484                          48.000          43.000
  21611214.778   113567723.052 8     -2365.123    21611219.459    88494357.403 9
     -1842.952                          49.000          55.000
  21775138.136   114429212.486 8      1744.553    21775140.530    89165680.080 7
      1359.390                          48.000          40.000
  21956384.762   115381611.719 8      2660.994    21956387.263    89907769.022 7
      2073.505                          47.000          39.000
  22539622.363   118446430.177 7     -3660.636    22539625.937    92295894.576 5
     -2852.438                          44.000          32.000
  23921270.014   125707047.176 7     -3168.749    23921274.803    97953528.174 7
     -2469.151                          41.000          40.000
  24260863.291   127491659.582 7      -524.057    24260869.509    99344145.695 5
      -408.354                          41.000          27.000
  24709639.156   129850033.859 6      3395.428    24709649.395   101181883.451 2
      2645.798                          35.000          14.000
  24953216.436   131130049.478 6      -332.219    24953228.480   102179321.428 5
      -258.892                          36.000          32.000
  25529638.328   134159151.053 7      3336.540    25529645.886   104539612.032 4
      2599.921                          39.000          22.000
 23 11 29 11 22  0.0000000  0 12G13G05G14G30G22G15G20G07G18G24G08G23
  20084988.218   105547376.139 8       537.453    20084989.451    82244729.353 8
       418.792                          49.000          46.000
  20962820.911   110160323.070 8     -1799.824    20962822.948    85839198.258 9
     -1402.460                          49.000          57.000
  21369781.548   112299019.574 8       737.988    21369784.621    87505783.865 7
       575.053                          48.000          43.000
  21624738.554   113638791.780 8     -2373.248    21624743.433    88549735.576 9
     -1849.284                          49.000          55.000
  21765217.648   114377082.092 8      1730.295    21765220.507    89125059.062 7
      1348.277                          48.000          40.000
  21941212.103   115301878.732 8      2654.116    21941214.783    89845639.483 7
      2068.140                          47.000          39.000
  22560540.395   118556353.611 7     -3668.095    22560543.915    92381549.051 5
     -2858.254                          44.000          32.000
  23939363.132   125802125.377 7     -3170.223    23939367.957    98027614.919 7
     -2470.297                          42.000          41.000
  24263904.938   127507638.610 7      -541.697    24263910.692    99356596.841 5
      -422.097                          40.000          27.000
  24690258.360   129748184.158 6      3393.872    24690268.224   101102519.883 3
      2644.564                          35.000          15.000
  24955160.854   131140265.146 6      -349.574    24955172.308   102187282.178 5
      -272.418                          35.000          31.000
  25510597.669   134059089.599 7      3333.738    25510604.673   104461641.891 4
      2597.728                          40.000          25.000
 23 11 29 11 22 30.0000000  0 12G13G05G14G30G22G15G20G07G18G24G08G23
  20081961.974   105531471.628 8       524.280    20081962.850    82232336.229 8
       408.528                          48.000          46.000
  20973155.604   110214632.683 8     -1819.340    20973157.748    85881517.402 9
     -1417.662                          49.000          57.000
  21365627.393   112277189.713 8       718.813    21365630.574    87488773.630 7
       560.117                          48.000          43.000
  21638320.013   113710160.946 8     -2383.236    21638324.533    88605347.842 9
     -1857.059                          49.000          55.000
  21755390.042   114325438.009 8      1714.103    21755393.044    89084816.982 7
      1335.667                          48.000          40.000
  21926089.656   115222410.139 8      2645.273    21926092.390    89783715.955 7
      2061.255                          46.000          39.000
  22581511.891   118666558.204 7     -3677.374    22581515.465    92467422.597 6
     -2865.480                          44.000          33.000
  23957475.353   125897304.601 7     -3173.574    23957480.410    98101780.366 7
     -2472.897                          43.000          42.000
  24267055.926   127524201.321 7      -561.084    24267062.358    99369502.817 5
      -437.198                          40.000          27.000
  24670898.257   129646445.393 6      3390.226    24670908.675   101023242.823 2
      2641.745                          34.000          14.000
  24957212.951   131151052.000 6      -368.206    24957223.601   102195688.001 5
      -286.925                          34.000          31.000
  25491583.080   133959168.904 7      3328.995    25491590.371   104383781.479 4
      2594.034                          39.000          25.000
 23 11 29 11 23  0.0000000  0 12G13G05G14G30G22G15G20G07G18G24G08G23
  20079005.955   105515938.906 8       511.259    20079006.938    82220232.814 8
       398.382                          49.000          46.000
  20983597.617   110269504.430 8     -1838.720    20983599.583    85924274.577 9
     -1432.765                          49.000          56.000
  21361578.612   112255912.961 8       699.687    21361581.578    87472194.390 7
       545.209                          48.000          43.000
  21651953.863   113781805.757 8     -2393.011    21651958.098    88661174.908 9
     -1864.681                          49.000          55.000
  21745651.353   114274258.946 8      1697.928    21745654.016    89044937.261 7
      1323.062                          48.000          40.000
  21911013.347   115143184.633 8      2636.461    21911016.224    89721981.856 7
      2054.386                          47.000          39.000
  22602531.312   118777017.958 7     -3686.479    22602535.923    92553494.953 6
     -2872.574                          44.000          34.000
  23975602.083   125992560.213 7     -3176.735    23975606.854    98176005.362 7
     -2475.367                          42.000          42.000
  24270313.788   127541323.769 7      -580.411    24270320.399    99382844.947 4
      -452.270                          40.000          26.000
  24651554.825   129544795.607 6      3386.613    24651565.421   100944035.181 3
      2638.920                          34.000          15.000
  24959369.259   131162387.510 6      -387.158    24959380.499   102204521.303 5
      -301.691                          36.000          32.000
  25472592.294   133859368.295 7      3324.332    25472599.102   104306014.657 4
      2590.404                          39.000          25.000
 23 11 29 11 23 30.0000000  0 12G13G05G14G30G22G15G20G07G18G24G08G23
  20076124.289   105500795.579 8       498.411    20076125.326    82208432.826 8
       388.374                          49.000          46.000
  20994149.204   110324953.870 8     -1857.847    20994151.098    85967481.911 9
     -1447.669                          49.000          56.000
  21357638.671   112235207.484 8       680.711    21357641.512    87456060.303 7
       530.421                          48.000          43.000
  21665642.928   113853741.788 8     -2402.608    21665647.270    88717228.901 9
     -1872.162                          48.000          55.000
  21736004.225   114223564.480 8      1681.907    21736006.941    89005435.153 7
      1310.569                          48.000          41.000
  21895987.071   115064221.340 8      2627.818    21895989.948    89660452.070 7
      2047.648                          47.000          39.000
  22623602.965   118887747.515 7     -3695.318    22623607.289    92639777.550 6
     -2879.459                          44.000          33.000
  23993746.182   126087908.245 7     -3179.714    23993750.702    98250302.363 7
     -2477.694                          41.000          40.000
  24273681.652   127559022.328 7      -599.428    24273688.103    99396635.994 4
      -467.086                          40.000          26.000
  24632231.407   129443253.218 6      3383.239    24632242.396   100864911.295 3
      2636.289                          35.000          15.000
  24961634.033   131174288.978 6      -405.552    24961644.719   102213795.508 5
      -316.026                          35.000          31.000
  25453627.560   133759707.402 7      3319.909    25453634.636   104228356.713 4
      2586.943                          39.000          26.000
 23 11 29 11 24  0.0000000  0 12G13G05G14G30G22G15G20G07G18G24G08G23
  20073314.832   105486032.081 8       485.215    20073316.065    82196928.807 8
       378.088                          49.000          46.000
  21004808.666   110380969.335 8     -1877.174    21004810.596    86011130.296 9
     -1462.727                          49.000          57.000
  21353805.444   112215064.162 8       661.514    21353808.339    87440364.251 7
       515.474                          48.000          43.000
  21679384.904   113925957.328 8     -2412.367    21679389.550    88773500.698 9
     -1879.756                          49.000          55.000
  21726447.800   114173346.091 8      1665.471    21726450.498    88966304.006 7
      1297.775                          48.000          40.000
  21881009.184   114985511.628 8      2618.893    21881011.775    89599119.868 7
      2040.705                          47.000          40.000
  22644722.988   118998733.824 7     -3704.368    22644726.973    92726260.233 6
     -2886.512                          44.000          33.000
  24011906.505   126183337.376 7     -3182.815    24011910.615    98324662.553 7
     -2480.100                          40.000          40.000
  24277157.016   127577286.065 7      -618.695    24277163.235    99410867.434 4
      -482.088                          40.000          26.000
  24612927.340   129341809.339 6      3379.192    24612937.526   100785864.219 3
      2633.119                          35.000          16.000
  24964005.163   131186746.020 6      -425.040    24964014.473   102223502.509 5
      -331.197                          36.000          31.000
  25434687.254   133660178.506 6      3314.943    25434694.687   104150801.608 4
      2583.093                          37.000          23.000
 23 11 29 11 24 30.0000000  0 12G13G05G14G30G22G15G20G07G18G24G08G23
  20070579.406   105471656.289 8       472.929    20070580.514    82185726.902 8
       368.516                          48.000          46.000
  21015576.896   110437556.300 8     -1895.530    21015578.701    86055224.002 9
     -1477.036                          50.000          56.000
  21350080.754   112195490.846 8       643.167    21350083.452    87425112.362 7
       501.166                          48.000          43.000
  21693181.147   113998457.645 8     -2421.201    21693186.169    88829994.396 9
     -1886.648                          49.000          55.000
  21716984.223   114123612.601 8      1649.870    21716986.849    88927550.706 7
      1285.609                          48.000          41.000
  21866080.902   114907064.696 8      2610.695    21866083.886    89537992.427 7
      2034.306                          48.000          40.000
  22665892.688   119109980.991 7     -3712.335    22665896.297    92812946.186 5
     -2892.723                          44.000          32.000
  24030082.018   126278853.279 7     -3185.122    24030087.343    98399090.365 7
     -2481.909                          42.000          40.000
  24280741.471   127596121.027 7      -637.069    24280747.653    99425543.973 4
      -496.424                          40.000          26.000
  24593642.948   129240472.004 6      3376.152    24593653.097   100706900.213 3
      2630.763                          35.000          15.000
  24966482.846   131199765.871 6      -443.166    24966492.031   102233647.969 5
      -345.327                          37.000          31.000
  25415775.537   133560790.997 6      3310.755    25415781.952   104073356.675 3
      2579.808                          35.000          20.000
 23 11 29 11 25  0.0000000  0 12G13G05G14G30G22G15G20G07G18G24G08G23
  20067916.958   105457665.256 8       459.552    20067917.923    82174824.800 8
       358.095                          49.000          46.000
  21026452.859   110494709.619 8     -1914.958    21026454.414    86099759.035 9
     -1492.171                          50.000          56.000
  21346463.956   112176485.054 8       623.616    21346466.762    87410302.693 7
       485.939                          48.000          43.000
  21707030.945   114071237.759 8     -2431.022    21707035.305    88886706.109 9
     -1894.293                          49.000          54.000
  21707612.027   114074362.315 8      1633.200    21707614.922    88889173.934 7
      1272.628                          48.000          41.000
  21851202.618   114828878.677 8      2601.388    21851205.638    89477068.300 7
      2027.063                          48.000          40.000
  22687111.098   119221482.880 8     -3721.387    22687115.012    92899830.619 6
     -2899.769                          45.000          33.000
  24048273.720   126374451.267 7     -3188.263    24048279.098    98473582.119 7
     -2484.354                          42.000          40.000
  24284434.069   127615522.914 7      -656.580    24284440.341    99440662.273 4
      -511.625                          40.000          25.000
  24574379.444   129139239.054 6      3372.227    24574388.772   100628017.607 3
      2627.704                          35.000          17.000
  24969066.206   131213344.832 6      -462.227    24969075.498   102244228.970 5
      -360.168                          37.000          32.000
  25396889.696   133461544.058 6      3305.551    25396896.111   103996021.246 3
      2575.760                          35.000          20.000
 23 11 29 11 25 30.0000000  0 12G13G05G14G22G30G15G20G07G18G24G08G23
  20065331.167   105444075.972 8       445.662    20065331.828    82164235.750 8
       347.270                          48.000          46.000
  21037439.289   110552444.304 8     -1934.773    21037441.058    86144747.075 9
     -1507.611                          50.000          56.000
  21342958.608   112158064.001 8       603.709    21342961.502    87395948.660 7
       470.429                          48.000          43.000
  21698335.253   114025613.615 8      1615.959    21698338.112    88851188.006 7
      1259.192                          48.000          41.000
  21720936.797   114144312.323 8     -2441.305    21720940.835    88943647.271 9
     -1902.308                          48.000          54.000
  21836377.511   114750972.000 8      2591.606    21836380.478    89416361.835 7
      2019.436                          47.000          40.000
  22708380.436   119333252.807 8     -3730.700    22708384.796    92986923.902 6
     -2907.029                          45.000          34.000
  24066483.898   126470146.418 7     -3192.024    24066488.526    98548149.611 7
     -2487.282                          42.000          39.000
  24288236.579   127635507.130 7      -676.442    24288243.101    99456234.332 4
      -527.089                          40.000          26.000
  24555138.652   129038127.906 6      3367.817    24555148.069   100549229.946 3
      2624.273                          34.000          18.000
  24971760.051   131227500.356 6      -482.120    24971769.486   102255259.120 5
      -375.667                          37.000          31.000
  25378033.230   133362456.470 6      3299.717    25378040.825   103918810.004 3
      2571.234                          35.000          19.000
 23 11 29 11 26  0.0000000  0 12G13G05G14G22G30G15G20G07G18G24G08G23
  20062817.925   105430869.815 8       433.989    20062818.890    82153945.255 8
       338.173                          48.000          46.000
  21048532.325   110610738.774 8     -1952.311    21048534.183    86190171.312 9
     -1521.280                          50.000          56.000
  21339560.706   112140208.957 8       585.884    21339563.761    87382035.673 7
       456.534                          47.000          43.000
  21689150.378   113977348.664 8      1600.950    21689153.309    88813579.022 7
      1247.494                          49.000          41.000
  21734894.327   114217660.170 8     -2449.357    21734898.615    89000801.383 9
     -1908.587                          49.000          55.000
  21821602.260   114673326.952 8      2583.924    21821605.047    89355859.244 7
      2013.446                          47.000          40.000
  22729696.089   119445268.277 8     -3737.784    22729700.414    93074208.531 6
     -2912.554                          45.000          33.000
  24084708.943   126565918.181 7     -3193.494    24084713.321    98622776.797 7
     -2488.434                          43.000          40.000
  24292147.107   127656053.187 7      -694.070    24292153.290    99472244.206 4
      -540.832                          39.000          26.000
  24535916.890   128937120.192 6      3365.299    24535927.094   100470522.870 3
      2622.302                          36.000          19.000
  24974559.483   131242212.462 6      -499.512    24974568.722   102266722.901 5
      -389.226                          36.000          30.000
  25359204.444   133263511.213 6      3295.681    25359212.039   103841709.659 3
      2568.089                          35.000          19.000
 23 11 29 11 26 30.0000000  0 12G13G05G14G22G30G15G20G07G18G24G08G23
  20060376.159   105418038.282 8       421.637    20060377.159    82143946.660 8
       328.547                          48.000          46.000
  21059730.037   110669582.464 8     -1970.478    21059732.003    86236023.508 9
     -1535.439                          49.000          56.000
  21336269.321   112122911.815 8       567.396    21336272.091    87368557.408 7
       442.129                          48.000          43.000
  21680056.975   113929560.326 8      1585.148    21680059.155    88776341.419 7
      1235.180                          48.000          41.000
  21748901.925   114291270.709 8     -2457.910    21748906.321    89058160.189 9
     -1915.251                          49.000          54.000
  21806875.415   114595936.518 8      2575.589    21806878.292    89295555.048 7
      2006.954                          47.000          40.000
  22751056.648   119557517.634 7     -3745.327    22751060.704    93161675.418 5
     -2918.434                          44.000          32.000
  24102946.211   126661756.201 7     -3195.530    24102951.000    98697455.611 7
     -2490.021                          41.000          39.000
  24296160.954   127677151.181 7      -712.324    24296167.530    99488684.140 4
      -555.069                          40.000          25.000
  24516714.034   128836208.193 6      3362.258    24516724.130   100391890.416 4
      2619.921                          37.000          21.000
  24977462.949   131257471.905 6      -517.643    24977473.456   102278613.103 5
      -403.349                          37.000          31.000
  25340401.979   133164701.852 6      3291.520    25340410.020   103764715.179 3
      2564.833                          36.000          19.000
 23 11 29 11 27  0.0000000  0 12G13G05G14G22G30G15G20G07G18G24G08G23
  20058004.814   105405577.420 8       409.027    20058005.833    82134236.904 8
       318.723                          49.000          46.000
  21071031.176   110728969.861 8     -1988.779    21071033.427    86282299.369 9
     -1549.696                          49.000          57.000
  21333082.988   112106168.768 8       548.748    21333085.919    87355510.896 7
       427.593                          47.000          43.000
  21671053.114   113882245.723 8      1569.135    21671055.634    88739472.963 7
      1222.698                          48.000          41.000
  21762958.217   114365137.728 8     -2466.622    21762962.541    89115718.855 9
     -1922.043                          49.000          54.000
  21792196.048   114518797.789 8      2566.891    21792199.336    89235446.989 7
      2000.173                          48.000          41.000
  22772459.645   119669993.463 7     -3753.071    22772464.256    93249318.785 5
     -2924.466                          44.000          32.000
  24121194.951   126757654.692 7     -3197.779    24121200.508    98772181.527 7
     -2491.770                          42.000          39.000
  24300280.336   127698795.438 7      -730.688    24300286.715    99505549.733 4
      -569.366                          39.000          25.000
  24497527.903   128735388.395 6      3358.915    24497538.339   100313329.813 4
      2617.318                          36.000          22.000
  24980470.109   131273274.415 6      -536.109    24980480.795   102290926.409 5
      -417.735                          36.000          31.000
  25321624.692   133066026.200 6      3286.861    25321632.894   103687824.934 3
      2561.196                          35.000          19.000
 23 11 29 11 27 30.0000000  0 12G13G05G14G22G30G15G20G07G18G24G08G23
  20055712.647   105393531.964 8       394.259    20055713.630    82124850.843 8
       307.215                          48.000          46.000
  21082443.763   110788942.944 8     -2009.138    21082446.015    86329031.608 9
     -1565.558                          49.000          56.000
  21330010.892   112090024.680 8       527.847    21330014.091    87342931.103 7
       411.317                          47.000          43.000
  21662148.498   113835450.890 8      1550.793    21662150.964    88703009.525 7
      1208.419                          48.000          41.000
  21777071.654   114439303.599 8     -2477.458    21777076.174    89173510.393 9
     -1930.475                          49.000          54.000
  21777574.005   114441956.980 8      2556.030    21777576.829    89175571.068 7
      1991.720                          48.000          41.000
  22793914.624   119782736.785 7     -3762.916    22793919.073    93337170.593 5
     -2932.133                          44.000          32.000
  24139463.704   126853656.428 7     -3202.042    24139469.279    98846987.914 7
     -2495.085                          43.000          39.000
  24304510.774   127721029.011 7      -751.294    24304517.439    99522874.531 4
      -585.423                          40.000          25.000
  24478368.826   128634706.070 6      3353.435    24478378.851   100234876.337 4
      2613.058                          37.000          22.000
  24983589.005   131289663.802 6      -556.434    24983600.262   102303697.008 5
      -433.570                          37.000          31.000
  25302881.552   132967530.805 6      3279.833    25302889.468   103611075.159 3
      2555.748                          36.000          19.000
 23 11 29 11 28  0.0000000  0 12G13G05G14G22G15G30G20G07G18G24G08G23
  20053496.370   105381885.091 8       381.364    20053497.371    82115775.372 8
       297.165                          49.000          46.000
  21093963.797   110849482.117 8     -2027.604    21093966.049    86376204.955 9
     -1579.950                          49.000          56.000
  21327049.709   112074463.012 8       508.845    21327052.711    87330805.136 7
       396.506                          48.000          43.000
  21653339.409   113789159.966 8      1534.434    21653341.893    88666938.742 7
      1195.666                          49.000          41.000
  21763005.409   114365398.553 8      2546.996    21763007.946    89115915.185 7
      1984.675                          48.000          40.000
  21791238.519   114513749.441 8     -2486.382    21791243.129    89231520.091 9
     -1937.436                          49.000          54.000
  22815416.151   119895727.598 7     -3770.630    22815420.761    93425215.243 6
     -2938.149                          44.000          33.000
  24157748.628   126949742.729 7     -3204.444    24157754.096    98921860.222 7
     -2496.958                          42.000          40.000
  24308850.248   127743833.561 7      -769.936    24308857.038    99540644.225 4
      -599.940                          39.000          25.000
  24459232.782   128534145.026 6      3349.875    24459242.485   100156517.356 4
      2610.281                          37.000          23.000
  24986817.437   131306623.265 6      -574.872    24986828.087   102316911.876 5
      -447.942                          37.000          31.000
  25284169.951   132869201.027 6      3274.633    25284177.903   103534454.434 3
      2551.653                          36.000          20.000
 23 11 29 11 28 30.0000000  0 12G13G05G14G22G15G30G20G07G18G24G08G23
  20051354.339   105370628.644 8       368.705    20051355.429    82107004.135 8
       287.305                          49.000          46.000
  21105589.920   110910577.351 8     -2045.723    21105591.939    86423811.594 9
     -1594.067                          49.000          56.000
  21324197.420   112059475.748 8       489.976    21324200.780    87319126.757 7
       381.796                          48.000          43.000
  21644625.205   113743365.979 8      1518.170    21644627.367    88631255.175 7
      1182.984                          49.000          41.000
  21748489.222   114289115.876 8      2538.163    21748491.777    89056474.177 7
      1977.787                          48.000          40.000
  21805456.507   114588464.832 8     -2494.898    21805460.992    89289739.835 9
     -1944.075                          48.000          54.000
  22836962.476   120008954.244 7     -3778.110    22836967.158    93513443.664 5
     -2943.974                          44.000          32.000
  24176047.616   127045903.841 7     -3206.488    24176053.495    98996790.780 7
     -2498.556                          41.000          39.000
  24313297.240   127767199.235 7      -788.149    24313304.013    99558851.176 4
      -614.148                          39.000          25.000
  24440117.949   128433697.691 6      3346.301    24440127.706   100078246.955 4
      2607.491                          37.000          23.000
  24990151.832   131324143.905 6      -593.465    24990162.821   102330564.047 5
      -462.429                          37.000          32.000
  25265489.746   132771030.469 6      3269.744    25265497.001   103457957.791 3
      2547.858                          35.000          19.000
 23 11 29 11 29  0.0000000  0 12G13G05G14G22G15G30G20G07G18G24G08G23
  20049287.215   105359766.798 8       355.497    20049288.501    82098540.372 8
       277.011                          48.000          46.000
  21117321.934   110972230.133 8     -2064.373    21117323.971    86471852.684 9
     -1608.603                          49.000          56.000
  21321455.865   112045066.952 8       470.628    21321458.992    87307899.128 7
       366.727                          48.000          43.000
  21636006.510   113698074.438 8      1501.321    21636008.869    88595963.126 7
      1169.863                          48.000          41.000
  21734026.482   114213113.926 8      2528.705    21734029.180    88997251.915 7
      1970.423                          48.000          41.000
  21819725.798   114663451.542 8     -2504.061    21819730.479    89348170.990 9
     -1951.210                          48.000          54.000
  22858553.652   120122417.252 7     -3786.018    22858558.477    93601856.257 5
     -2950.135                          43.000          32.000
  24194361.577   127142141.791 7     -3209.229    24194367.063    99071781.219 7
     -2500.689                          40.000          39.000
  24317850.696   127791128.348 7      -806.926    24317857.737    99577497.153 4
      -628.767                          40.000          25.000
  24421025.416   128333368.633 6      3342.249    24421035.584   100000068.703 4
      2604.347                          36.000          23.000
  24993594.192   131342228.621 6      -612.148    24993604.735   102344655.793 5
      -476.994                          36.000          32.000
  25246840.401   132673025.115 6      3264.031    25246847.495   103381589.840 3
      2543.414                          36.000          20.000
 23 11 29 11 29 30.0000000  0 12G13G05G14G22G15G30G20G07G18G24G08G23
  20047294.229   105349292.768 8       343.214    20047295.444    82090378.807 8
       267.438                          49.000          46.000
  21129158.732   111034431.363 8     -2081.908    21129160.322    86520321.136 9
     -1622.263                          49.000          56.000
  21318822.632   112031229.986 8       452.261    21318825.634    87297117.079 7
       352.417                          48.000          43.000
  21627482.236   113653279.452 8      1485.442    21627484.344    88561058.002 7
      1157.486                          49.000          41.000
  21719616.276   114137387.239 8      2520.221    21719618.671    88938244.137 7
      1963.812                          48.000          41.000
  21834045.157   114738700.533 8     -2512.095    21834049.928    89406806.524 9
     -1957.471                          48.000          54.000
  22880188.447   120236106.223 7     -3792.841    22880192.789    93690444.926 5
     -2955.459                          43.000          31.000
  24212687.976   127238448.331 7     -3210.714    24212694.141    99146825.082 7
     -2501.846                          40.000          39.000
  24322509.758   127815612.346 7      -824.808    24322516.763    99596575.513 4
      -642.705                          39.000          26.000
  24401954.487   128233151.535 6      3339.581    24401964.923    99921977.639 4
      2602.278                          38.000          23.000
  24997141.050   131360870.620 6      -630.069    24997152.808   102359181.854 5
      -490.959                          37.000          32.000
  25228220.503   132575180.103 6      3259.470    25228227.990   103305346.781 3
      2539.853                          37.000          19.000
 23 11 29 11 30  0.0000000  0 12G13G05G14G22G15G30G20G07G18G24G08G23
  20045376.383   105339213.490 8       328.566    20045377.240    82082524.842 8
       256.024                          49.000          46.000
  21141100.636   111097185.875 8     -2101.841    21141102.030    86569220.726 9
     -1637.794                          49.000          55.000
  21316299.723   112017971.837 8       431.478    21316302.296    87286786.061 7
       336.214                          48.000          43.000
  21619053.632   113608988.833 8      1467.071    21619055.794    88526545.891 7
      1143.167                          49.000          41.000
  21705259.767   114061944.073 8      2509.159    21705262.430    88879457.288 7
      1955.186                          48.000          41.000
  21848415.336   114814216.541 8     -2522.500    21848420.321    89465650.119 9
     -1965.585                          49.000          54.000
  22901866.877   120350024.756 7     -3801.913    22901870.505    93779212.493 5
     -2962.528                          43.000          31.000
  24231028.955   127334828.103 7     -3214.710    24231035.084    99221926.006 7
     -2504.959                          40.000          39.000
  24327276.016   127840656.438 7      -844.983    24327281.913    99616090.307 4
      -658.420                          40.000          25.000
  24382906.716   128133054.037 6      3333.727    24382916.419    99843979.746 4
      2597.698                          37.000          22.000
  25000796.105   131380075.537 6      -650.366    25000807.434   102374146.634 5
      -506.774                          37.000          31.000
  25209634.182   132477504.273 6      3252.228    25209640.669   103229235.541 3
      2534.171                          38.000          18.000
 23 11 29 11 30 30.0000000  0 12G13G05G14G22G15G30G20G07G18G24G08G23
  20043535.033   105329537.566 8       315.581    20043535.820    82074985.179 8
       245.908                          49.000          46.000
  21153148.592   111160499.701 8     -2120.013    21153150.683    86618556.143 9
     -1651.959                          49.000          56.000
  21313888.531   112005301.241 8       412.328    21313891.443    87276912.885 7
       321.295                          48.000          43.000
  21610723.540   113565212.391 8      1450.388    21610725.595    88492434.448 7
      1130.172                          49.000          41.000
  21690959.456   113986794.363 8      2499.864    21690961.976    88820899.109 7
      1947.946                          48.000          41.000
  21862837.657   114890006.025 8     -2531.083    21862842.428    89524706.818 9
     -1972.273                          49.000          54.000
  22923589.462   120464177.960 7     -3809.243    22923593.501    93868162.928 5
     -2968.235                          44.000          32.000
  24249384.534   127431288.068 7     -3216.879    24249390.502    99297089.416 6
     -2506.654                          40.000          38.000
  24332149.470   127866267.526 7      -863.312    24332155.778    99636046.931 4
      -672.713                          39.000          25.000
  24363883.712   128033085.249 6      3329.943    24363892.324    99766082.102 4
      2594.753                          37.000          22.000
  25004559.125   131399851.583 6      -669.056    25004569.668   102389556.480 5
      -521.342                          37.000          31.000
  25191080.990   132380008.342 6      3246.404    25191087.977   103153264.494 3
      2529.702                          37.000          19.000
 23 11 29 11 31  0.0000000  0 12G13G05G14G22G15G30G20G07G18G24G08G23
  20041769.842   105320261.941 8       302.569    20041770.664    82067757.434 8
       235.769                          49.000          46.000
  21165302.280   111224367.153 8     -2138.024    21165304.710    86668322.940 9
     -1665.992                          49.000          56.000
  21311589.020   111993215.114 8       393.244    21311591.593    87267495.135 7
       306.431                          48.000          43.000
  21602490.495   113521948.010 8      1433.703    21602492.729    88458722.015 7
      1117.174                          49.000          41.000
  21676714.432   113911936.443 8      2490.463    21676716.916    88762568.290 7
      1940.626                          48.000          41.000
  21877311.244   114966063.653 8     -2539.610    21877315.729    89583972.455 9
     -1978.908                          48.000          53.000
  22945355.237   120578559.303 7     -3816.471    22945359.633    93957291.121 5
     -2973.867                          43.000          31.000
  24267754.497   127527823.513 7     -3218.971    24267760.501    99372311.667 6
     -2508.277                          41.000          38.000
  24337129.799   127892440.716 7      -881.633    24337136.858    99656441.524 4
      -686.984                          40.000          25.000
  24344884.133   127933242.690 6      3326.238    24344892.621    99688282.806 4
      2591.867                          37.000          22.000
  25008430.002   131420194.389 6      -687.423    25008440.670   102405408.005 5
      -535.656                          37.000          31.000
  25172561.910   132282691.110 6      3240.993    25172569.165   103077432.741 3
      2525.476                          38.000          18.000
 23 11 29 11 31 30.0000000  0 12G13G05G14G22G15G30G20G07G24G18G08G23
  20040082.595   105311395.465 8       289.239    20040083.435    82060848.502 8
       225.380                          49.000          46.000
  21177562.359   111288795.092 8     -2156.406    21177564.736    86718526.484 9
     -1680.318                          49.000          56.000
  21309401.744   111981722.341 8       373.704    21309404.532    87258539.739 7
       291.190                          48.000          43.000
  21594356.927   113479205.726 8      1416.547    21594359.250    88425416.403 7
      1103.793                          49.000          42.000
  21662526.678   113837380.724 8      2480.662    21662529.394    88704472.963 7
      1932.976                          48.000          41.000
  21891836.776   115042396.119 8     -2548.495    21891841.350    89643452.252 9
     -1985.846                          48.000          53.000
  22967165.612   120693174.142 7     -3823.791    22967170.330    94046601.260 5
     -2979.577                          43.000          31.000
  24286140.525   127624441.386 7     -3221.448    24286146.100    99447598.164 6
     -2510.219                          41.000          38.000
  24325910.573   127833535.905 6      3321.865    24325919.185    99610589.236 4
      2588.459                          37.000          23.000
  24342219.362   127919183.105 7      -900.359    24342225.491    99677279.653 4
      -701.590                          40.000          25.000
  25012409.523   131441112.431 6      -706.321    25012420.923   102421707.811 5
      -550.381                          38.000          31.000
  25154079.836   132185563.564 6      3234.982    25154086.716   103001748.797 3
      2520.765                          38.000          18.000
 23 11 29 11 32  0.0000000  0 12G13G05G14G22G15G30G20G07G24G18G08G23
  20038466.396   105302902.279 8       276.225    20038467.325    82054230.451 8
       215.242                          49.000          46.000
  21189921.844   111353745.246 8     -2174.280    21189924.328    86769136.946 9
     -1694.240                          49.000          55.000
  21307320.753   111970787.127 8       354.576    21307323.738    87250018.812 7
       276.294                          49.000          44.000
  21586316.063   113436950.893 8      1399.720    21586318.404    88392490.630 7
      1090.691                          49.000          42.000
  21648390.315   113763092.580 8      2471.148    21648392.763    88646586.134 7
      1925.569                          48.000          41.000
  21906407.302   115118965.386 8     -2556.884    21906411.680    89703116.577 9
     -1992.374                          49.000          53.000
  22989012.923   120807983.319 7     -3830.802    22989017.944    94136062.828 5
     -2985.037                          43.000          30.000
  24304534.843   127721104.154 7     -3223.443    24304540.758    99522919.618 6
     -2511.770                          40.000          38.000
  24306955.989   127733929.557 6      3317.856    24306965.316    99532973.905 4
      2585.344                          38.000          24.000
  24347409.169   127946457.016 7      -918.575    24347415.620    99698531.976 4
      -715.768                          40.000          25.000
  25016492.988   131462569.059 6      -724.710    25016503.477   102438427.305 5
      -564.707                          38.000          30.000
  25135626.639   132088591.811 6      3229.146    25135633.644   102926186.276 3
      2516.231                          38.000          19.000
