     2.11           OBSERVATION DATA    M (MIXED)           RINEX VERSION / TYPE
RTKCONV 2.4.2                           20230813 104226 UTC PGM / RUN BY / DATE 
log: C:\Users\oo\Desktop\divers\verniquet\Réseau\beaumonts  COMMENT             
format: u-blox                                              COMMENT             
                                                            MARKER NAME         
                                                            MARKER NUMBER       
                                                            OBSERVER / AGENCY   
                                                            REC # / TYPE / VERS 
                                                            ANT # / TYPE        
  4200743.7814   179782.6927  4780178.3159                  APPROX POSITION XYZ 
        0.0000        0.0000        0.0000                  ANTENNA: DELTA H/E/N
     1     1                                                WAVELENGTH FACT L1/2
     4    C1    L1    D1    S1                              # / TYPES OF OBSERV 
  2023     8     9    17    30   33.0030000     GPS         TIME OF FIRST OBS   
  2023     8     9    18    47   28.0040000     GPS         TIME OF LAST OBS    
                                                            END OF HEADER       
 23  8  9 17 30 33.0030000  0  9G 5G13G 7G20G30G15G11G 9G14
  22001854.393   115620531.472        1475.064          47.000  
  22959757.467   120654342.370        2446.732          44.000  
  22539727.532   118447062.464       -1883.434          34.000  
  21297737.287   111920360.510        -654.380          39.000  
  21612430.762   113574095.121        -113.293          41.000  
  26100332.275   137158171.4392       3357.009          28.000  
  24319177.207   127798072.946       -3402.310          31.000  
  25036640.432                       -3391.795          26.000  
  24795896.739                        3077.852          24.000  
 23  8  9 17 30 34.0030000  0  9G 5G13G 7G20G30G15G11G 9G14
  22001572.485   115619049.949        1485.332          47.000  
  22959290.534   120651889.017        2457.279          45.000  
  22540084.599   118448939.642       -1872.849          35.000  
  21297860.433   111921008.960        -644.652          39.000  
  21612450.969   113574202.117        -103.314          41.000  
  26099690.787                        3369.291          27.000  
  24319827.926                       -3391.555          31.000  
  25037283.385                       -3380.420          26.000  
  24795307.201                        3089.372          24.000  
 23  8  9 17 30 35.0030000  0  9G 5G13G 7G20G30G15G11G 9G14
  22001290.105   115617565.723        1483.145          45.000  
  22958823.391   120649432.702        2455.137          44.000  
  22540441.281   118450814.064       -1875.710          37.000  
  21297983.091   111921654.803        -646.883          38.000  
  21612471.176   113574306.425        -105.347          44.000  
  26099047.572                        3366.617          26.000  
  24320471.839   127804950.6303      -3394.079          25.000  
  25037928.397                       -3382.814          26.000  
  24794720.961                        3085.671          23.000  
 23  8  9 17 30 36.0030000  0  8G 5G13G 7G20G30G11G 9G14
  22001008.249   115616083.821        1480.495          45.000  
  22958356.266   120646978.373        2453.555          46.000  
  22540798.400   118452690.568       -1877.404          37.000  
  21298106.184   111922302.959        -649.280          46.000  
  21612491.611   113574412.942        -107.733          46.000  
  24321114.827   127808321.0353      -3396.482          41.000  
  25038571.612                       -3385.619          26.000  
  24794134.948                        3082.423          25.000  
 23  8  9 17 30 37.0030000  0  8G 5G13G 7G20G30G11G 9G14
  22000726.603   115614603.797        1476.851          46.000  
  22957889.473   120644525.622        2449.942          47.000  
  22541156.059   118454568.796       -1881.329          38.000  
  21298229.610   111922953.142        -653.021          46.000  
  21612512.499   113574521.401        -111.176          46.000  
  24321760.363   127811717.8392      -3399.560          41.000  
  25039212.175                       -3388.659          25.000  
  24793548.812   130290977.4472       3079.852          27.000  
 23  8  9 17 30 38.0030000  0  8G 5G13G 7G20G30G11G 9G14
  22000444.712   115613122.940        1478.434          46.000  
  22957422.750   120642071.746        2451.543          47.000  
  22541513.405   118456446.014       -1879.058          38.000  
  21298352.948   111923602.604        -651.722          46.000  
  21612533.003   113574629.061        -109.686          46.000  
  24322405.672   127815113.5212      -3397.508          42.000  
  25039854.395                       -3387.027          26.000  
  24792960.094                        3080.389          27.000  
 23  8  9 17 30 39.0030000  0  8G 5G13G 7G20G30G11G 9G14
  22000163.589   115611646.187        1473.093          47.000  
  22956956.602   120639621.693        2446.745          46.000  
  22541871.518   118458327.256       -1884.637          38.000  
  21298477.263   111924256.293        -657.103          46.000  
  21612554.501   113574740.839        -115.137          44.000  
  24323052.656   127818513.1182      -3402.776          41.000  
  25040498.431                       -3390.504          26.000  
  24792372.371                        3077.643          28.000  
 23  8  9 17 30 40.0030000  0  9G 5G13G 7G20G30G15G11G 9G14
  21999884.193   115610176.486        1467.814          47.000  
  22956491.432   120637178.333        2441.531          46.000  
  22542230.644   118460215.338       -1889.934          37.000  
  21298603.149   111924917.091        -662.443          44.000  
  21612576.960   113574859.625        -120.673          43.000  
  26095849.506                        3357.629          28.000  
  24323703.637   127821919.4192      -3407.860          41.000  
  25041143.164                       -3392.972          25.000  
  24791779.290   130281739.8222       3071.655          31.000  
 23  8  9 17 35 32.0030000  0  9G 5G13G 7G20G30G18G11G15G14
  21924703.193   115215084.4101       1251.460          46.000  
  22824749.512   119944865.1711       2314.025          46.000  
  22652297.561   119038618.801       -2056.294          44.000  
  21342550.825   112155872.6251       -904.721          46.000  
  21625648.220   113643544.9471       -335.345          48.000  
  26487817.989   139194402.2502       2411.975          27.000  
  24517093.371   128838207.0351      -3536.621          41.000  
  25911507.011   136165884.269        3294.066          38.000  
  24624299.534   129401570.4951       2969.025          44.000  
 23  8  9 17 35 33.0030000  0  9G 5G13G 7G20G30G18G11G15G14
  21924464.806   115213833.260        1251.530          45.000  
  22824309.452   119942551.405        2314.070          45.000  
  22652689.091   119040675.545       -2056.480          44.000  
  21342723.407   112156777.791        -905.330          46.000  
  21625712.384   113643880.512        -335.376          48.000  
  26487359.607   139191989.9402       2411.470          28.000  
  24517766.461   128841744.117       -3536.703          41.000  
  25910880.513   136162589.708        3295.148          38.000  
  24623734.584   129398601.946        2969.061          43.000  
 23  8  9 17 35 34.0030000  0  9G 5G13G 7G20G30G18G11G15G14
  21924226.960   115212582.139        1251.087          45.000  
  22823869.061   119940237.384        2314.193          45.000  
  22653080.412   119042732.151       -2056.382          44.000  
  21342895.309   112157683.094        -905.342          46.000  
  21625776.235   113644216.101        -335.651          48.000  
  26486901.992   139189577.4412       2412.446          28.000  
  24518439.673   128845280.913       -3536.951          41.000  
  25910253.841   136159294.687        3295.450          39.000  
  24623169.580   129395633.115        2968.817          43.000  
 23  8  9 17 35 35.0030000  0  9G 5G13G 7G20G30G18G11G15G14
  21923989.148   115211332.273        1247.867          46.000  
  22823429.089   119937924.304        2311.524          45.000  
  22653471.611   119044789.834       -2059.233          44.000  
  21343067.822   112158589.719        -908.109          46.000  
  21625840.329   113644552.893        -338.184          47.000  
  26486444.674   139187166.1262       2408.701          28.000  
  24519112.850   128848818.639       -3538.907          42.000  
  25909627.256   136156000.391        3292.849          40.000  
  24622604.944   129392665.091        2966.876          41.000  
 23  8  9 17 35 36.0030000  0  9G 5G13G 7G20G30G18G11G15G14
  21923752.383   115210085.678        1245.476          47.000  
  22822989.745   119935614.212        2309.115          45.000  
  22653863.805   119046850.662       -2061.921          44.000  
  21343240.946   112159499.715        -911.124          45.000  
  21625904.808   113644892.992        -341.400          47.000  
  26485988.787                        2405.912          27.000  
  24519786.498   128852359.323       -3541.642          42.000  
  25909001.299   136152708.836        3290.322          40.000  
  24622040.900   129389699.989        2964.233          42.000  
 23  8  9 17 35 37.0030000  0  9G 5G13G 7G20G30G18G11G15G14
  21923515.793   115208840.213        1246.314          47.000  
  22822550.174   119933304.919        2310.424          45.000  
  22654256.313   119048912.354       -2060.699          45.000  
  21343414.401   112160410.895        -910.246          45.000  
  21625969.827   113645234.162        -340.118          47.000  
  26485531.854                        2408.029          27.000  
  24520460.251   128855900.803       -3540.346          41.000  
  25908375.342   136149417.794        3292.570          40.000  
  24621477.206   129386735.638        2965.125          42.000  
 23  8  9 17 35 38.0030000  0  9G 5G13G 7G20G30G18G11G15G14
  21923278.872   115207593.408        1246.625          47.000  
  22822110.201   119930993.963        2311.010          45.000  
  22654648.210   119050972.515       -2060.076          45.000  
  21343587.071   112161320.787        -909.972          45.000  
  21626034.498   113645573.961        -339.880          47.000  
  26485072.773                        2408.398          27.000  
  24521133.917   128859440.585       -3539.634          41.000  
  25907748.670   136146124.884        3293.074          40.000  
  24620912.936   129383769.507        2966.498          42.000  
 23  8  9 17 35 39.0030000  0  9G 5G13G 7G20G30G18G11G15G14
  21923041.758   115206346.726        1246.097          47.000  
  22821669.758   119928682.858        2310.777          44.000  
  22655040.491   119053032.670       -2060.600          45.000  
  21343760.352   112162230.929        -910.776          45.000  
  21626099.325   113645913.907        -340.540          48.000  
  26484613.361   139177587.0453       2408.654          28.000  
  24521807.478   128862980.215       -3539.905          41.000  
  25907122.190   136142831.618        3292.980          40.000  
  24620348.648   129380803.216        2966.058          43.000  
 23  8  9 17 35 40.0030000  0  9G 5G13G 7G20G30G18G11G15G14
  21922804.662   115205100.535        1245.812          46.000  
  22821230.100   119926371.958        2310.295          45.000  
  22655432.562   119055093.091       -2060.854          44.000  
  21343933.423   112163141.631        -911.337          46.000  
  21626164.327   113646254.313        -341.040          49.000  
  26484156.689   139175178.5492       2408.404          28.000  
  24522480.882   128866519.998       -3540.126          40.000  
  25906495.361   136139538.238        3293.527          40.000  
  24619784.238   129377836.984        2966.003          44.000  
 23  8  9 17 35 41.0030000  0  9G 5G13G 7G20G30G18G11G15G14
  21922567.915   115203855.579        1244.169          46.000  
  22820790.930   119924061.914        2309.262          45.000  
  22655824.843   119057154.520       -2062.162          44.000  
  21344107.349   112164053.599        -912.869          46.000  
  21626229.487   113646595.906        -342.346          49.000  
  26483697.417   139172771.1642       2407.115          28.000  
  24523154.565   128870060.657       -3541.291          40.000  
  25905868.811   136136245.595        3292.217          40.000  
  24619220.055   129374871.599        2964.508          43.000  
 23  8  9 17 35 42.0030000  0  9G 5G13G 7G20G30G18G11G15G14
  21922331.395   115202611.623        1243.480          47.000  
  22820351.708   119921752.582        2309.005          45.000  
  22656217.333   119059216.790       -2062.668          44.000  
  21344281.310   112164966.675        -913.619          45.000  
  21626294.733   113646938.488        -343.066          49.000  
  26483243.223   139170364.6722       2406.009          29.000  
  24523828.300   128873601.981       -3541.775          40.000  
  25905242.278   136132953.392        3291.983          40.000  
  24618656.204   129371906.821        2964.166          43.000  
 23  8  9 17 35 43.0030000  0  9G 5G13G 7G20G30G18G11G15G14
  21922095.049   115201368.335        1243.089          47.000  
  22819912.556   119919443.639        2308.885          45.000  
  22656609.841   119061279.547       -2062.852          44.000  
  21344454.957   112165880.505        -913.962          45.000  
  21626360.311   113647281.734        -343.341          49.000  
  26482791.314   139167958.7232       2405.437          29.000  
  24524502.106   128877143.676       -3541.771          39.000  
  25904615.693   136129661.340        3291.954          40.000  
  24618091.968   129368942.352        2964.374          43.000  
 23  8  9 17 35 44.0030000  0  9G 5G13G 7G20G30G18G11G15G14
  21921858.040   115200125.332        1242.783          47.000  
  22819473.456   119917134.666        2308.830          45.000  
  22657002.366   119063342.411       -2062.991          44.000  
  21344628.639   112166794.713        -914.307          45.000  
  21626425.836   113647625.266        -343.701          49.000  
  26482332.915   139165552.8052       2405.895          28.000  
  24525175.824   128880685.361       -3541.947          39.000  
  25903989.631   136126369.015        3292.442          40.000  
  24617527.855   129365977.808        2964.453          43.000  
 23  8  9 17 35 45.0030000  0  9G 5G13G 7G20G30G18G11G15G14
  21921621.869   115198883.257        1241.414          47.000  
  22819034.531   119914826.306        2307.709          45.000  
  22657394.944   119065405.986       -2064.383          44.000  
  21344802.636   112167709.911        -915.858          45.000  
  21626491.449   113647969.694        -345.038          49.000  
  26481873.049   139163147.7272       2404.820          27.000  
  24525849.838   128884227.577       -3542.466          39.000  
  25903363.204   136123077.106        3291.276          40.000  
  24616963.707   129363013.786        2963.775          43.000  
 23  8  9 17 35 46.0030000  0  9G 5G13G 7G20G30G18G11G15G14
  21921385.837   115197642.312        1240.529          47.000  
  22818595.867   119912518.749        2307.353          45.000  
  22657787.731   119067470.483       -2064.723          44.000  
  21344976.771   112168626.307        -916.928          45.000  
  21626557.045   113648315.216        -345.917          49.000  
  26481413.497   139160743.6102       2403.856          28.000  
  24526524.080   128887770.640       -3543.219          39.000  
  25902736.811   136119785.734        3291.116          40.000  
  24616400.065   129360050.522        2963.007          43.000  
 23  8  9 17 35 47.0030000  0  9G 5G13G 7G20G30G18G11G15G14
  21921150.102   115196402.033        1239.982          47.000  
  22818157.134   119910211.552        2307.036          45.000  
  22658180.587   119069535.456       -2065.016          44.000  
  21345151.361   112169543.435        -917.568          45.000  
  21626623.041   113648661.362        -346.393          49.000  
  26480955.831   139158339.9862       2403.661          28.000  
  24527198.688   128891313.999       -3543.389          40.000  
  25902110.784   136116494.490        3291.156          40.000  
  24615836.702   129357087.525        2962.945          43.000  
 23  8  9 17 35 48.0030000  0  9G 5G13G 7G20G30G18G11G15G14
  21920914.175   115195161.900        1240.078          47.000  
  22817718.261   119907904.194        2307.516          46.000  
  22658573.270   119071600.389       -2064.806          43.000  
  21345325.950   112170460.793        -917.544          45.000  
  21626689.125   113649007.660        -346.307          49.000  
  26480498.181   139155936.3382       2403.856          28.000  
  24527872.510   128894857.212       -3543.295          39.000  
  25901484.374   136113202.863        3291.651          40.000  
  24615272.973   129354124.291        2963.342          44.000  
 23  8  9 17 35 49.0030000  0  9G 5G13G 7G20G30G18G11G15G14
  21920678.493   115193922.548        1238.957          47.000  
  22817279.667   119905597.319        2306.682          46.000  
  22658966.266   119073665.917       -2065.685          43.000  
  21345500.522   112171379.021        -918.719          45.000  
  21626755.227   113649354.716        -347.369          49.000  
  26480039.991   139153533.375        2402.289          28.000  
  24528546.857   128898400.868       -3543.766          40.000  
  25900858.225   136109911.482        3291.165          40.000  
  24614709.383   129351161.490        2962.604          43.000  
 23  8  9 17 35 50.0030000  0  9G 5G13G 7G20G30G18G11G15G14
  21920442.758   115192684.407        1237.905          47.000  
  22816841.387   119903291.343        2305.851          46.000  
  22659359.489   119075732.467       -2066.871          44.000  
  21345675.705   112172298.523        -919.887          45.000  
  21626821.503   113649702.967        -348.486          49.000  
  26479580.282   139151131.486        2401.594          28.000  
  24529221.552   128901945.415       -3544.622          40.000  
  25900231.675   136106620.769        3290.612          40.000  
  24614145.532   129348199.494        2962.048          43.000  
 23  8  9 17 35 51.0030000  0  9G 5G13G 7G20G30G18G11G15G14
  21920207.302   115191446.956        1237.075          47.000  
  22816403.003   119900985.746        2305.141          46.000  
  22659752.643   119077799.494       -2067.362          43.000  
  21345850.975   112173218.789        -920.557          45.000  
  21626887.866   113650051.871        -349.249          49.000  
  26479123.523   139148730.023        2401.423          27.000  
  24529896.125   128905490.293       -3545.316          40.000  
  25899605.125   136103330.211        3290.550          40.000  
  24613581.977   129345237.816        2961.255          43.000  
 23  8  9 17 35 52.0030000  0  9G 5G13G 7G20G30G18G11G15G14
  21919971.899   115190209.873        1237.064          47.000  
  22815964.409   119898680.193        2305.829          46.000  
  22660146.128   119079866.708       -2067.064          43.000  
  21346025.966   112174139.512        -920.686          45.000  
  21626954.473   113650401.127        -349.194          49.000  
  26478665.769   139146328.833        2401.323          26.000  
  24530570.663   128909035.231       -3545.154          40.000  
  25898978.871   136100039.471        3290.933          41.000  
  24613018.213   129342276.113        2962.091          44.000  
 23  8  9 17 35 53.0030000  0  9G 5G13G 7G20G30G18G11G15G14
  21919736.373   115188973.520        1235.716          47.000  
  22815526.042   119896375.089        2304.848          46.000  
  22660539.421   119081934.482       -2068.312          43.000  
  21346201.358   112175061.044        -922.073          45.000  
  21627021.151   113650751.115        -350.549          50.000  
  26478209.411   139143928.190        2400.855          26.000  
  24531245.411   128912580.552       -3545.637          40.000  
  25898352.635   136096748.949        3290.514          41.000  
  24612454.641   129339314.776        2961.090          43.000  
 23  8  9 17 35 54.0030000  0  9G 5G13G 7G20G30G18G11G15G14
  21919501.371   115187738.182        1235.034          47.000  
  22815087.815   119894070.706        2303.933          47.000  
  22660933.237   119084003.072       -2068.710          43.000  
  21346376.907   112175983.677        -923.246          45.000  
  21627087.967   113651102.078        -351.239          50.000  
  26477752.110   139141528.527        2398.188          26.000  
  24531920.315   128916126.591       -3546.439          40.000  
  25897726.085   136093458.882        3290.045          40.000  
  24611891.557   129336354.080        2960.583          44.000  
 23  8  9 17 35 55.0030000  0  9G 5G13G 7G20G30G18G11G15G14
  21919266.526   115186503.663        1233.967          46.000  
  22814649.989   119891766.782        2303.500          46.000  
  22661327.176   119086072.282       -2069.647          43.000  
  21346552.735   112176907.174        -923.991          45.000  
  21627154.819   113651453.844        -352.271          49.000  
  26477294.600   139139129.294        2399.193          25.000  
  24532595.272   128919673.067       -3546.645          39.000  
  25897099.937   136090169.100        3289.263          39.000  
  24611328.107   129333393.798        2959.918          43.000  
 23  8  9 17 35 56.0030000  0  9G 5G13G 7G20G30G18G11G15G14
  21919031.663   115185269.430        1234.149          47.000  
  22814211.832   119889462.856        2304.058          46.000  
  22661721.237   119088141.602       -2069.357          43.000  
  21346728.651   112177831.055        -924.011          45.000  
  21627221.741   113651805.873        -352.106          49.000  
  26476839.586   139136730.393        2398.684          25.000  
  24533270.194   128923219.559       -3546.515          39.000  
  25896473.648   136086879.025        3290.235          38.000  
  24610764.482   129330433.445        2960.486          43.000  
 23  8  9 17 35 57.0030000  0  9G 5G13G 7G20G30G18G11G15G14
  21918796.923   115184035.906        1233.051          47.000  
  22813773.726   119887159.354        2303.374          46.000  
  22662115.071   119090211.442       -2070.274          43.000  
  21346904.706   112178755.731        -925.079          45.000  
  21627288.697   113652158.608        -353.174          49.000  
  26476383.420   139134332.030        2397.881          24.000  
  24533945.448   128926766.414       -3547.384          39.000  
  25895847.116   136083589.145        3289.598          38.000  
  24610201.207   129327473.415        2959.937          43.000  
 23  8  9 17 35 58.0030000  0  9G 5G13G 7G20G30G18G11G15G14
  21918562.305   115182803.217        1232.672          47.000  
  22813335.656   119884856.356        2303.065          46.000  
  22662509.027   119092281.897       -2070.422          43.000  
  21347080.884   112179681.288        -925.597          45.000  
  21627355.619   113652512.138        -353.668          49.000  
  26475925.020   139131934.337        2397.095          23.000  
  24534620.178   128930313.736       -3547.382          39.000  
  25895220.757   136080299.549        3289.889          38.000  
  24609637.949   129324513.837        2959.668          42.000  
 23  8  9 17 35 59.0030000  0  9G 5G13G 7G20G30G18G11G15G14
  21918327.826   115181571.393        1230.985          47.000  
  22812897.708   119882553.908        2301.713          46.000  
  22662903.541   119094353.019       -2071.938          43.000  
  21347257.305   112180607.794        -927.606          45.000  
  21627422.767   113652866.523        -355.444          49.000  
  26475470.721   139129537.2813       2396.287          24.000  
  24535295.135   128933861.602       -3548.687          39.000  
  25894594.609   136077010.265        3288.531          38.000  
  24609075.005   129321554.751        2958.099          42.000  
 23  8  9 17 36  0.0030000  0  9G 5G13G 7G20G30G18G11G15G14
  21918093.487   115180340.267        1231.125          46.000  
  22812459.620   119880251.854        2302.250          46.000  
  22663297.829   119096424.657       -2071.363          43.000  
  21347433.727   112181535.070        -927.321          45.000  
  21627490.230   113653221.557        -354.962          49.000  
  26475011.920   139127140.7772       2397.127          24.000  
  24535970.162   128937409.848       -3548.092          39.000  
  25893968.373   136073721.128        3289.983          38.000  
  24608511.799   129318595.950        2959.076          43.000  
 23  8  9 17 36  1.0030000  0  9G 5G13G 7G20G30G18G11G15G14
  21917859.253   115179109.448        1230.310          46.000  
  22812021.498   119877949.786        2301.776          46.000  
  22663692.029   119098496.419       -2072.117          43.000  
  21347610.288   112182462.733        -928.183          45.000  
  21627557.867   113653576.900        -355.865          49.000  
  26474556.225                        2398.016          23.000  
  24536645.398   128940958.074       -3548.618          39.000  
  25893342.224   136070431.804        3288.810          37.000  
  24607948.593   129315637.100        2958.508          42.000  
 23  8  9 17 36  2.0030000  0  9G 5G13G 7G20G30G18G11G15G14
  21917625.280   115177879.611        1229.377          46.000  
  22811583.532   119875648.398        2301.058          46.000  
  22664086.509   119100568.936       -2072.987          43.000  
  21347786.937   112183391.427        -929.064          45.000  
  21627625.487   113653933.182        -356.769          49.000  
  26474099.815                        2396.243          21.000  
  24537320.529   128944506.900       -3548.640          39.000  
  25892716.110   136067142.848        3288.884          37.000  
  24607385.562   129312678.808        2958.331          42.000  
 23  8  9 17 36  3.0030000  0  8G 5G13G 7G20G30G11G15G14
  21917391.133   115176650.721        1228.586          46.000  
  22811145.933   119873347.650        2300.736          46.000  
  22664480.971   119102642.218       -2073.283          43.000  
  21347963.777   112184321.168        -929.961          45.000  
  21627693.507   113654290.389        -357.294          49.000  
  24537995.417   128948056.391       -3549.510          38.000  
  25892089.996   136063854.326        3288.553          36.000  
  24606822.705   129309721.137        2957.709          42.000  
 23  8  9 17 36  4.0030000  0  9G 5G13G 7G20G30G18G11G15G14
  21917157.231   115175422.147        1228.897          46.000  
  22810708.124   119871046.915        2301.174          46.000  
  22664875.555   119104715.638       -2073.092          43.000  
  21348140.897   112185251.302        -930.007          45.000  
  21627761.528   113654647.908        -357.239          48.000  
  26473190.170                        2394.954          19.000  
  24538670.758   128951605.855       -3548.949          39.000  
  25891464.127   136060565.596        3289.099          37.000  
  24606260.180   129306763.371        2958.215          42.000  
 23  8  9 17 36  5.0030000  0  9G 5G13G 7G20G30G18G11G15G14
  21916923.572   115174194.013        1227.552          46.000  
  22810270.054   119868746.325        2300.181          46.000  
  22665270.262   119106789.305       -2074.250          44.000  
  21348317.633   112186181.963        -931.382          44.000  
  21627829.392   113655005.846        -358.520          48.000  
  26472734.457                        2401.773          21.000  
  24539346.029   128955155.456       -3550.001          38.000  
  25890838.013   136057276.745        3288.840          37.000  
  24605697.149   129303805.685        2957.373          42.000  
 23  8  9 17 36  6.0030000  0  8G 5G13G 7G20G30G11G15G14
  21916689.984   115172966.991        1226.571          46.000  
  22809832.368   119866446.454        2299.599          46.000  
  22665664.899   119108863.823       -2074.712          43.000  
  21348495.014   112187113.747        -932.258          45.000  
  21627897.623   113655364.812        -359.442          48.000  
  24540021.282   128958705.755       -3550.598          38.000  
  25890212.196   136053988.447        3288.643          37.000  
  24605134.466   129300848.690        2956.604          42.000  
 23  8  9 17 36  7.0030000  0  8G 5G13G 7G20G30G11G15G14
  21916456.639   115171740.720        1225.855          46.000  
  22809394.734   119864147.057        2299.082          46.000  
  22666059.762   119110938.943       -2075.637          43.000  
  21348672.727   112188046.378        -933.134          45.000  
  21627965.870   113655724.532        -360.223          48.000  
  24540697.007   128962256.509       -3551.237          38.000  
  25889586.431   136050700.408        3287.657          37.000  
  24604571.749   129297892.071        2956.201          42.000  
 23  8  9 17 36  8.0030000  0  9G 5G13G 7G20G30G18G11G15G14
  21916223.173   115170515.105        1225.637          46.000  
  22808957.100   119861848.018        2299.294          46.000  
  22666454.765   119113014.520       -2075.237          42.000  
  21348850.597   112188979.758        -933.343          45.000  
  21628034.206   113656084.892        -360.236          48.000  
  26471368.943                        2391.944          24.000  
  24541372.592   128965807.596       -3550.711          38.000  
  25888960.823   136047412.475        3287.628          37.000  
  24604008.823   129294935.735        2956.604          41.000  
 23  8  9 17 36  9.0030000  0  9G 5G13G 7G20G30G18G11G15G14
  21915989.898   115169289.726        1224.669          46.000  
  22808519.413   119859548.929        2298.382          46.000  
  22666849.664   119115090.164       -2076.398          43.000  
  21349028.380   112189913.444        -934.496          45.000  
  21628102.628   113656445.480        -361.224          48.000  
  26470915.150   139105589.9543       2391.656          26.000  
  24542048.247   128969358.586       -3551.441          39.000  
  25888334.902   136044124.197        3287.781          37.000  
  24603445.826   129291979.275        2955.823          41.000  
 23  8  9 17 36 10.0030000  0  9G 5G13G 7G20G30G18G11G15G14
  21915756.624   115168065.533        1223.466          46.000  
  22808081.762   119857250.668        2297.748          46.000  
  22667245.121   119117166.764       -2077.313          43.000  
  21349205.989   112190848.367        -935.600          45.000  
  21628171.137   113656807.202        -362.262          48.000  
  26470462.666   139103198.8372       2390.693          28.000  
  24542723.832   128972910.390       -3552.058          39.000  
  25887708.892   136040836.529        3287.389          35.000  
  24602882.934   129289023.581        2955.383          41.000  
 23  8  9 17 36 11.0030000  0  9G 5G13G 7G20G30G18G11G15G14
  21915523.768   115166842.274        1222.941          46.000  
  22807644.233   119854953.077        2297.512          46.000  
  22667640.385   119119244.146       -2077.722          43.000  
  21349383.789   112191784.340        -936.232          44.000  
  21628240.066   113657169.873        -362.836          48.000  
  26470011.263   139100808.5662       2390.030          28.000  
  24543399.732   128976462.847       -3552.484          38.000  
  25887082.744   136037549.295        3286.962          34.000  
  24602320.427   129286068.481        2954.938          41.000  
 23  8  9 17 36 12.0030000  0  9G 5G13G 7G20G30G18G11G15G14
  21915291.017   115165619.388        1223.073          46.000  
  22807206.983   119852655.543        2297.870          46.000  
  22668036.069   119121321.679       -2077.233          44.000  
  21349561.676   112192720.759        -936.415          44.000  
  21628309.099   113657532.891        -362.927          47.000  
  26469558.343   139098418.4712       2390.101          30.000  
  24544075.509   128980015.333       -3552.050          38.000  
  25886457.241   136034261.897        3287.604          35.000  
  24601757.762   129283113.375        2955.292          40.000  
 23  8  9 17 36 13.0030000  0  9G 5G13G 7G20G30G18G11G15G14
  21915057.935   115164396.832        1222.026          46.000  
  22806769.680   119850357.993        2297.118          45.000  
  22668431.474   119123399.335       -2077.827          44.000  
  21349739.861   112193657.549        -937.529          44.000  
  21628378.271   113657896.202        -363.837          48.000  
  26469106.051   139096028.5442       2389.802          30.000  
  24544751.600   128983567.810       -3552.958          39.000  
  25885831.371   136030974.257        3287.319          36.000  
  24601195.237   129280158.194        2954.858          40.000  
 23  8  9 17 36 14.0030000  0  9G 5G13G 7G20G30G18G11G15G14
  21914825.288   115163175.480        1220.950          46.000  
  22806332.360   119848061.357        2296.311          45.000  
  22668827.279   119125478.019       -2079.022          44.000  
  21349918.237   112194595.629        -938.525          44.000  
  21628447.479   113658260.682        -364.801          48.000  
  26468655.329   139093639.6802       2388.246          29.000  
  24545427.970   128987121.140       -3553.662          39.000  
  25885206.357   136027687.303        3286.662          36.000  
  24600633.113   129277203.830        2954.498          41.000  
 23  8  9 17 36 15.0030000  0  9G 5G13G 7G20G30G18G11G15G14
  21914593.131   115161954.799        1220.677          46.000  
  22805895.215   119845765.112        2296.293          45.000  
  22669223.015   119127557.208       -2079.309          44.000  
  21350097.067   112195534.496        -939.286          44.000  
  21628516.948   113658625.847        -365.283          48.000  
  26468194.766   139091251.3422       2388.260          30.000  
  24546104.533   128990674.856       -3553.890          39.000  
  25884580.697   136024400.462        3287.376          35.000  
  24600071.198   129274249.816        2954.077          41.000  
 23  8  9 17 36 16.0030000  0  9G 5G13G 7G20G30G18G11G15G14
  21914361.008   115160734.733        1220.175          45.000  
  22805458.244   119843469.121        2296.310          46.000  
  22669618.420   119129636.770       -2079.445          44.000  
  21350275.792   112196474.008        -939.587          44.000  
  21628586.418   113658991.575        -365.564          47.000  
  26467736.837   139088863.4502       2388.519          30.000  
  24546780.938   128994228.825       -3553.813          39.000  
  25883955.455   136021113.681        3287.146          36.000  
  24599509.144   129271296.003        2954.272          42.000  
 23  8  9 17 36 17.0030000  0  9G 5G13G 7G20G30G18G11G15G14
  21914128.676   115159514.969        1219.323          45.000  
  22805020.854   119841173.164        2295.681          46.000  
  22670013.702   119131716.472       -2080.153          43.000  
  21350454.534   112197413.913        -940.468          44.000  
  21628655.695   113659357.614        -366.449          47.000  
  26467281.805   139086475.7582       2387.256          29.000  
  24547457.448   128997782.750       -3554.100          40.000  
  25883330.458   136017826.674        3286.651          36.000  
  24598947.160   129268342.111        2953.510          42.000  
 23  8  9 17 36 18.0030000  0  9G 5G13G 7G20G30G18G11G15G14
  21913896.972   115158296.062        1218.559          46.000  
  22804583.674   119838877.726        2295.474          45.000  
  22670409.613   119133796.785       -2080.536          43.000  
  21350633.416   112198354.714        -941.070          44.000  
  21628725.670   113659724.454        -367.175          47.000  
  26466825.098   139084088.6452       2386.485          30.000  
  24548133.784   129001337.167       -3554.355          40.000  
  25882705.043   136014540.000        3286.972          35.000  
  24598385.228   129265388.680        2952.954          41.000  
 23  8  9 17 36 19.0030000  0  9G 5G13G 7G20G30G18G11G15G14
  21913665.128   115157078.240        1217.279          46.000  
  22804146.563   119836583.050        2294.404          45.000  
  22670805.715   119135878.014       -2081.465          43.000  
  21350812.491   112199296.687        -942.303          44.000  
  21628795.942   113660092.355        -368.359          47.000  
  26466373.347   139081702.492        2385.874          30.000  
  24548810.782   129004892.352       -3555.235          40.000  
  25882080.203   136011253.862        3285.971          36.000  
  24597823.209   129262435.949        2952.405          41.000  
 23  8  9 17 36 20.0030000  0  9G 5G13G 7G20G30G18G11G15G14
  21913433.354   115155860.974        1217.615          45.000  
  22803709.558   119834288.601        2295.032          45.000  
  22671201.608   119137959.572       -2081.057          43.000  
  21350991.373   112200239.276        -942.136          44.000  
  21628866.389   113660460.772        -368.103          48.000  
  26465917.966   139079316.798        2385.779          30.000  
  24549487.886   129008447.769       -3555.036          40.000  
  25881455.485   136007967.708        3287.033          37.000  
  24597261.033   129259483.392        2952.972          41.000  
 23  8  9 17 36 21.0030000  0  9G 5G13G 7G20G30G18G11G15G14
  21913201.877   115154643.719        1216.774          45.000  
  22803272.814   119831993.891        2294.433          45.000  
  22671597.676   119140040.995       -2081.655          43.000  
  21351170.935   112201181.982        -943.059          44.000  
  21628936.364   113660829.200        -368.909          47.000  
  26465468.431   139076930.936        2385.171          29.000  
  24550165.181   129012002.906       -3555.567          41.000  
  25880830.627   136004681.070        3286.450          38.000  
  24596699.345   129256530.508        2952.728          41.000  
 23  8  9 17 36 22.0030000  0  9G 5G13G 7G20G30G18G11G15G14
  21912970.225   115153427.521        1215.422          45.000  
  22802836.349   119829699.917        2293.632          44.000  
  22671993.744   119142123.265       -2082.898          43.000  
  21351350.865   112202125.814        -944.657          44.000  
  21629006.427   113661198.642        -370.142          47.000  
  26465015.336   139074545.916        2384.604          29.000  
  24550842.738   129015558.676       -3556.147          41.000  
  25880205.177   136001394.932        3285.562          37.000  
  24596137.448   129253578.277        2951.617          42.000  
 23  8  9 17 36 23.0030000  0  9G 5G13G 7G20G30G18G11G15G14
  21912738.591   115152212.018        1215.618          45.000  
  22802399.360   119827406.347        2293.552          44.000  
  22672390.439   119144206.032       -2082.783          43.000  
  21351530.829   112203070.415        -944.678          44.000  
  21629076.961   113661568.758        -370.270          47.000  
  26464559.257   139072161.515        2384.460          28.000  
  24551520.016   129019114.867       -3556.356          42.000  
  25879579.534   135998108.920        3286.256          36.000  
  24595575.342   129250626.366        2952.008          41.000  
 23  8  9 17 36 24.0030000  0  9G 5G13G 7G20G30G18G11G15G14
  21912507.184   115150997.088        1214.962          45.000  
  22801962.861   119825113.004        2293.562          44.000  
  22672786.629   119146289.159       -2083.036          43.000  
  21351710.392   112204015.624        -945.019          44.000  
  21629147.355   113661939.433        -370.624          47.000  
  26464098.728   139069777.443        2384.999          27.000  
  24552196.892   129022671.250       -3556.349          41.000  
  25878953.612   135994822.972        3285.542          35.000  
  24595013.724   129247674.621        2951.880          41.000  
 23  8  9 17 36 25.0030000  0  9G 5G13G 7G20G30G18G11G15G14
  21912276.405   115149782.538        1214.400          44.000  
  22801525.977   119822819.743        2293.086          44.000  
  22673183.098   119148372.470       -2083.346          44.000  
  21351890.233   112204961.310        -945.855          44.000  
  21629218.028   113662310.469        -371.143          47.000  
  26463641.969   139067393.753        2383.609          27.000  
  24552873.786   129026227.697       -3556.543          42.000  
  25878327.743   135991536.825        3286.491          36.000  
  24594451.827   129244722.863        2952.039          41.000  
 23  8  9 17 36 26.0030000  0  9G 5G13G 7G20G30G18G11G15G14
  21912045.504   115148568.847        1213.374          44.000  
  22801089.233   119820527.022        2292.446          44.000  
  22673579.584   119150456.449       -2084.056          44.000  
  21352070.704   112205907.941        -946.918          44.000  
  21629288.894   113662682.324        -372.095          47.000  
  26463185.803   139065010.648        2382.859          26.000  
  24553550.925   129029784.663       -3557.049          41.000  
  25877702.501   135988250.999        3285.755          36.000  
  24593889.878   129241771.629        2951.227          40.000  
 23  8  9 17 36 27.0030000  0  9G 5G13G 7G20G30G18G11G15G14
  21911814.655   115147356.170        1212.106          44.000  
  22800652.768   119818235.021        2291.625          44.000  
  22673976.455   119152541.266       -2085.406          44.000  
  21352251.121   112206855.666        -948.348          44.000  
  21629359.968   113663055.190        -373.401          47.000  
  26462734.784   139062628.399        2382.196          27.000  
  24554228.150   129033342.334       -3558.378          42.000  
  25877077.295   135984965.658        3285.160          37.000  
  24593328.364   129238821.021        2950.512          41.000  
 23  8  9 17 36 28.0030000  0  9G 5G13G 7G20G30G18G11G15G14
  21911583.858   115146144.194        1212.241          44.000  
  22800216.356   119815943.385        2292.006          44.000  
  22674373.185   119154626.581       -2085.036          44.000  
  21352431.487   112207804.146        -948.383          44.000  
  21629431.444   113663428.711        -373.273          47.000  
  26462283.626   139060246.753        2381.672          26.000  
  24554905.079   129036900.327       -3557.567          42.000  
  25876452.280   135981680.454        3285.704          38.000  
  24592767.253   129235870.738        2950.629          41.000  
 23  8  9 17 36 29.0030000  0  9G 5G13G 7G20G30G18G11G15G14
  21911353.114   115144932.289        1211.382          44.000  
  22799780.030   119813651.522        2291.498          44.000  
  22674770.143   119156711.764       -2085.851          44.000  
  21352612.027   112208752.785        -949.437          44.000  
  21629502.746   113663802.295        -374.249          47.000  
  26461832.870   139057864.936        2381.771          27.000  
  24555582.304   129040458.073       -3558.149          42.000  
  25875827.545   135978394.789        3285.174          38.000  
  24592205.705   129232920.124        2950.220          41.000  
 23  8  9 17 36 30.0030000  0  9G 5G13G 7G20G30G18G11G15G14
  21911122.439   115143721.509        1210.365          44.000  
  22799344.002   119811360.464        2290.682          44.000  
  22675166.996   119158797.871       -2086.609          44.000  
  21352792.916   112209702.601        -950.423          44.000  
  21629574.309   113664176.953        -375.220          47.000  
  26461381.607   139055484.190        2380.604          27.000  
  24556259.949   129044016.603       -3559.103          42.000  
  25875202.461   135975109.691        3284.678          38.000  
  24591644.610   129229970.276        2949.371          41.000  
 23  8  9 17 36 31.0030000  0  9G 5G13G 7G20G30G18G11G15G14
  21910891.939   115142511.441        1210.088          45.000  
  22798907.816   119809069.822        2290.604          44.000  
  22675564.250   119160884.494       -2086.668          43.000  
  21352973.997   112210653.212        -950.746          45.000  
  21629646.030   113664552.296        -375.488          47.000  
  26460930.257   139053103.965        2379.763          27.000  
  24556937.453   129047575.496       -3559.023          42.000  
  25874577.394   135971824.796        3284.578          38.000  
  24591083.115   129227020.727        2949.573          41.000  
 23  8  9 17 36 32.0030000  0  9G 5G13G 7G20G30G18G11G15G14
  21910661.963   115141301.959        1209.239          45.000  
  22798471.421   119806779.406        2290.554          43.000  
  22675961.155   119162971.468       -2086.987          43.000  
  21353155.095   112211604.465        -951.356          45.000  
  21629717.803   113664928.198        -376.062          48.000  
  26460476.255   139050724.096        2379.918          28.000  
  24557614.871   129051134.636       -3559.009          42.000  
  25873952.170   135968539.853        3285.190          38.000  
  24590522.369   129224071.393        2949.243          41.000  
 23  8  9 17 36 33.0030000  0  9G 5G13G 7G20G30G18G11G15G14
  21910431.603   115140092.860        1208.702          45.000  
  22798035.654   119804489.093        2289.939          44.000  
  22676357.956   119165058.663       -2087.410          43.000  
  21353336.036   112212556.183        -952.013          45.000  
  21629789.418   113665304.472        -376.660          47.000  
  26460022.392   139048344.545        2378.910          27.000  
  24558292.149   129054693.828       -3559.547          42.000  
  25873326.807   135965254.828        3284.808          37.000  
  24589961.240   129221122.064        2949.188          40.000  
 23  8  9 17 36 34.0030000  0  9G 5G13G 7G20G30G18G11G15G14
  21910202.028   115138884.665        1207.608          45.000  
  22797599.695   119802199.376        2289.266          44.000  
  22676755.315   119167146.556       -2088.258          42.000  
  21353517.449   112213508.901        -953.503          44.000  
  21629861.016   113665681.625        -377.777          47.000  
  26459568.355   139045965.729        2378.266          26.000  
  24558969.601   129058253.596       -3560.313          42.000  
  25872701.862   135961970.150        3284.094          37.000  
  24589399.971   129218173.264        2948.407          40.000  
 23  8  9 17 36 35.0030000  0  9G 5G13G 7G20G30G18G11G15G14
  21909972.138   115137677.207        1207.083          44.000  
  22797164.103   119799910.120        2288.851          44.000  
  22677152.621   119169235.040       -2088.816          42.000  
  21353699.036   112214462.437        -953.909          44.000  
  21629932.946   113666059.521        -378.375          47.000  
  26459117.058   139043587.492        2377.993          26.000  
  24559646.896   129061813.775       -3560.198          42.000  
  25872076.813   135958685.652        3284.946          37.000  
  24588838.807   129215224.855        2948.090          41.000  
 23  8  9 17 36 36.0030000  0  9G 5G13G 7G20G30G18G11G15G14
  21909742.214   115136470.460        1206.561          44.000  
  22796728.842   119797621.251        2288.641          44.000  
  22677549.683   119171324.021       -2089.221          42.000  
  21353880.605   112215416.780        -954.832          44.000  
  21630004.824   113666438.079        -378.680          47.000  
  26458668.447   139041209.835        2377.813          27.000  
  24560324.576   129065374.336       -3560.609          42.000  
  25871452.357   135955401.382        3284.185          38.000  
  24588277.957   129212276.769        2947.778          41.000  
 23  8  9 17 36 37.0030000  0  9G 5G13G 7G20G30G18G11G15G14
  21909512.552   115135263.920        1206.340          44.000  
  22796293.547   119795332.262        2288.772          44.000  
  22677947.252   119173413.006       -2089.139          42.000  
  21354062.454   112216371.359        -954.775          44.000  
  21630076.823   113666816.841        -379.028          47.000  
  26458219.802   139038832.182        2377.821          27.000  
  24561002.115   129068934.751       -3560.352          42.000  
  25870827.604   135952116.738        3284.900          38.000  
  24587717.038   129209328.507        2948.157          41.000  
 23  8  9 17 36 38.0030000  0  9G 5G13G 7G20G30G18G11G15G14
  21909283.012   115134058.271        1204.865          44.000  
  22795858.338   119793043.885        2287.673          44.000  
  22678344.838   119175502.700       -2090.394          42.000  
  21354244.198   112217326.926        -956.343          44.000  
  21630149.189   113667196.463        -380.334          47.000  
  26457767.458   139036455.279        2376.471          27.000  
  24561679.812   129072495.737       -3561.709          42.000  
  25870202.537   135948832.453        3283.821          38.000  
  24587155.961   129206380.761        2947.198          41.000  
 23  8  9 17 36 39.0030000  0  9G 5G13G 7G20G30G18G11G15G14
  21909054.030   115132853.482        1204.323          44.000  
  22795423.008   119790756.038        2287.635          44.000  
  22678742.336   119177593.039       -2090.832          42.000  
  21354426.396   112218283.392        -956.869          44.000  
  21630221.433   113667576.915        -380.963          47.000  
  26457312.932   139034079.128        2376.081          27.000  
  24562357.613   129076057.230       -3561.733          42.000  
  25869577.575   135945548.494        3283.893          38.000  
  24586595.355   129203433.504        2946.899          41.000  
 23  8  9 17 36 40.0030000  0  9G 5G13G 7G20G30G18G11G15G14
  21908824.926   115131649.218        1204.316          44.000  
  22794988.009   119788468.410        2287.985          44.000  
  22679140.184   119179683.729       -2090.621          42.000  
  21354608.576   112219240.480        -957.067          45.000  
  21630293.869   113667957.874        -380.951          47.000  
  26456857.132   139031703.379        2375.374          27.000  
  24563035.362   129079618.903       -3561.289          42.000  
  25868952.770   135942264.525        3284.014          38.000  
  24586034.383   129200486.377        2947.564          41.000  
 23  8  9 17 36 41.0030000  0  9G 5G13G 7G20G30G18G11G15G14
  21908595.753   115130445.244        1203.460          44.000  
  22794552.381   119786180.766        2287.288          44.000  
  22679538.118   119181774.443       -2090.990          42.000  
  21354791.036   112220197.900        -958.035          45.000  
  21630366.148   113668339.069        -381.683          47.000  
  26456404.090   139029327.686        2375.552          27.000  
  24563712.989   129083180.525       -3561.984          42.000  
  25868327.703   135938980.228        3284.203          37.000  
  24585473.393   129197539.156        2947.083          42.000  
 23  8  9 17 36 42.0030000  0  9G 5G13G 7G20G30G18G11G15G14
  21908366.596   115129242.281        1202.856          44.000  
  22794117.121   119783893.828        2286.784          44.000  
  22679936.175   119183866.038       -2091.517          42.000  
  21354973.530   112221156.421        -958.752          44.000  
  21630438.863   113668721.282        -382.330          47.000  
  26455955.113   139026952.899        2374.186          28.000  
  24564391.017   129086742.839       -3562.385          42.000  
  25867702.951   135935696.505        3283.825          37.000  
  24584912.700   129194592.607        2946.381          41.000  
 23  8  9 17 36 43.0030000  0  9G 5G13G 7G20G30G18G11G15G14
  21908137.615   115128039.799        1201.996          44.000  
  22793681.964   119781607.024        2286.703          45.000  
  22680334.162   119185957.883       -2092.126          42.000  
  21355155.815   112222115.475        -959.603          44.000  
  21630511.753   113669103.927        -383.081          47.000  
  26455502.070   139024578.424        2373.819          27.000  
  24565069.098   129090305.286       -3562.862          42.000  
  25867077.989   135932412.658        3283.963          37.000  
  24584351.920   129191646.102        2946.124          41.000  
 23  8  9 17 36 44.0030000  0  9G 5G13G 7G20G30G18G11G15G14
  21907908.755   115126838.052        1201.361          44.000  
  22793247.070   119779320.661        2286.475          45.000  
  22680732.184   119188050.249       -2092.626          42.000  
  21355338.362   112223075.344        -960.048          44.000  
  21630584.764   113669487.287        -383.398          47.000  
  26455055.170   139022204.468        2374.390          27.000  
  24565746.987   129093868.107       -3562.837          42.000  
  25866453.096   135929128.984        3284.132          37.000  
  24583791.454   129188699.965        2946.185          42.000  
 23  8  9 17 36 45.0030000  0  9G 5G13G 7G20G30G18G11G15G14
  21907679.913   115125636.553        1201.399          44.000  
  22792812.106   119777034.248        2286.260          45.000  
  22681130.538   119190142.695       -2092.560          43.000  
  21355521.205   112224035.549        -960.489          44.000  
  21630657.863   113669870.889        -383.789          47.000  
  26454603.384   139019830.647        2374.135          27.000  
  24566424.788   129097430.864       -3562.751          42.000  
  25865828.152   135925845.092        3283.977          38.000  
  24583230.761   129185753.724        2946.124          41.000  
 23  8  9 17 36 46.0030000  0  9G 5G13G 7G20G30G18G11G15G14
  21907451.158   115124435.897        1200.434          44.000  
  22792377.281   119774748.345        2285.630          45.000  
  22681529.014   119192235.774       -2093.301          43.000  
  21355704.101   112224996.658        -961.575          44.000  
  21630730.945   113670255.286        -384.686          47.000  
  26454149.801   139017457.530        2372.878          28.000  
  24567102.537   129100994.107       -3563.490          41.000  
  25865203.102   135922561.428        3283.727          38.000  
  24582670.330   129182807.916        2945.629          42.000  
 23  8  9 17 36 47.0030000  0  9G 5G13G 7G20G30G18G11G15G14
  21907222.944   115123235.872        1199.666          44.000  
  22791942.457   119772462.752        2285.388          45.000  
  22681927.332   119194329.259       -2093.820          43.000  
  21355887.171   112225958.469        -962.240          44.000  
  21630804.201   113670640.285        -385.455          47.000  
  26453695.624   139015084.905        2372.220          27.000  
  24567780.268   129104557.635       -3563.772          41.000  
  25864578.385   135919277.908        3282.681          38.000  
  24582110.108   129179862.368        2945.415          41.000  
 23  8  9 17 36 48.0030000  0  9G 5G13G 7G20G30G18G11G15G14
  21906994.817   115122036.568        1199.332          44.000  
  22791507.842   119770177.593        2285.470          45.000  
  22682325.843   119196423.297       -2093.718          43.000  
  21356070.171   112226921.086        -962.538          44.000  
  21630877.544   113671025.996        -385.657          47.000  
  26453241.534   139012712.769        2372.596          28.000  
  24568457.983   129108121.554       -3563.673          41.000  
  25863953.981   135915994.521        3283.551          38.000  
  24581549.712   129176917.187        2945.397          41.000  
 23  8  9 17 36 49.0030000  0  9G 5G13G 7G20G30G18G11G15G14
  21906766.394   115120837.495        1199.133          44.000  
  22791073.000   119767892.329        2285.297          46.000  
  22682724.406   119198517.371       -2094.295          43.000  
  21356253.311   112227884.001        -963.143          44.000  
  21630950.835   113671411.884        -386.133          47.000  
  26452791.232   139010340.771        2371.935          28.000  
  24569135.976   129111685.348       -3563.678          42.000  
  25863329.211   135912710.799        3283.986          38.000  
  24580989.473   129173971.844        2945.274          41.000  
 23  8  9 17 36 50.0030000  0  9G 5G13G 7G20G30G18G11G15G14
  21906538.128   115119639.339        1197.705          45.000  
  22790638.577   119765607.649        2284.578          47.000  
  22683123.161   119200612.102       -2094.774          44.000  
  21356436.626   112228847.873        -964.160          45.000  
  21631024.597   113671798.633        -386.932          48.000  
  26452339.602   139007969.511        2370.784          28.000  
  24569814.161   129115249.687       -3564.287          43.000  
  25862704.283   135909427.445        3283.173          37.000  
  24580429.111   129171026.982        2945.018          42.000  
 23  8  9 17 36 51.0030000  0  9G 5G13G 7G20G30G18G11G15G14
  21906310.280   115118441.601        1197.213          43.000  
  22790204.188   119763323.097        2284.395          45.000  
  22683522.160   119202707.094       -2095.498          42.000  
  21356620.010   112229812.298        -965.092          44.000  
  21631098.603   113672185.815        -387.604          46.000  
  26451887.938   139005598.507        2370.368          26.000  
  24570491.893   129118814.166       -3564.482          41.000  
  25862079.409   135906143.981        3283.590          37.000  
  24579868.889   129168082.219        2944.251          41.000  
 23  8  9 17 36 52.0030000  0  9G 5G13G 7G20G30G18G11G15G14
  21906082.537   115117244.568        1196.731          43.000  
  22789769.678   119761038.943        2283.993          44.000  
  22683921.090   119204802.582       -2095.819          43.000  
  21356803.517   112230777.440        -965.331          44.000  
  21631172.662   113672573.667        -387.939          47.000  
  26451434.896   139003228.049        2370.191          26.000  
  24571169.432   129122378.943       -3564.579          39.000  
  25861454.534   135902860.676        3283.676          37.000  
  24579308.493   129165137.745        2944.544          42.000  
 23  8  9 17 36 53.0030000  0  9G 5G13G 7G20G30G18G11G15G14
  21905855.004   115116047.658        1196.479          43.000  
  22789335.272   119758754.613        2284.117          45.000  
  22684320.019   119206898.026       -2095.730          42.000  
  21356987.041   112231742.832        -965.834          44.000  
  21631246.581   113672961.644        -388.239          47.000  
  26450982.883   139000857.615        2369.625          25.000  
  24571846.920   129125943.575       -3564.820          39.000  
  25860829.362   135899577.024        3283.449          37.000  
  24578747.818   129162193.069        2944.573          42.000  
 23  8  9 17 36 54.0030000  0  9G 5G13G 7G20G30G18G11G15G14
  21905627.226   115114851.579        1195.412          43.000  
  22788900.413   119756470.833        2283.219          45.000  
  22684718.722   119208994.117       -2096.822          43.000  
  21357170.826   112232709.130        -967.120          44.000  
  21631320.588   113673350.433        -389.490          47.000  
  26450532.004   138998487.787        2369.522          25.000  
  24572524.599   129129508.683       -3565.622          39.000  
  25860204.836   135896293.632        3282.927          37.000  
  24578187.753   129159248.862        2943.475          41.000  
 23  8  9 17 36 55.0030000  0  9G 5G13G 7G20G30G18G11G15G14
  21905399.571   115113656.383        1195.001          43.000  
  22788466.147   119754187.565        2283.211          44.000  
  22685117.616   119211090.818       -2096.745          42.000  
  21357354.630   112233676.312        -967.357          44.000  
  21631394.734   113673740.032        -390.015          47.000  
  26450081.091   138996118.782        2368.661          26.000  
  24573202.662   129133074.301       -3565.838          39.000  
  25859580.119   135893010.558        3283.103          37.000  
  24577627.583   129156305.059        2943.535          41.000  
 23  8  9 17 36 56.0030000  0  9G 5G13G 7G20G30G18G11G15G14
  21905172.229   115112461.858        1194.207          44.000  
  22788031.758   119751904.669        2282.796          44.000  
  22685516.790   119213188.031       -2097.362          42.000  
  21357538.869   112234644.282        -968.201          44.000  
  21631468.967   113674130.282        -390.478          48.000  
  26449631.329   138993750.193        2368.601          26.000  
  24573881.161   129136640.242       -3565.941          39.000  
  25858955.471   135889727.589        3283.160          38.000  
  24577067.501   129153361.603        2943.272          41.000  
 23  8  9 17 36 57.0030000  0  9G 5G13G 7G20G30G18G11G15G14
  21904944.975   115111267.493        1194.136          44.000  
  22787597.126   119749621.632        2282.807          44.000  
  22685915.929   119215285.199       -2097.098          42.000  
  21357723.178   112235612.480        -968.348          44.000  
  21631543.322   113674520.664        -390.594          48.000  
  26449178.304   138991381.704        2368.764          26.000  
  24574559.486   129140206.026       -3565.829          39.000  
  25858330.735   135886444.272        3283.541          38.000  
  24576507.541   129150417.922        2943.460          41.000  
 23  8  9 17 36 58.0030000  0  9G 5G13G 7G20G30G18G11G15G14
  21904717.895   115110074.175        1192.957          44.000  
  22787162.755   119747339.332        2281.995          45.000  
  22686314.928   119217383.230       -2098.284          42.000  
  21357907.627   112236581.816        -969.760          44.000  
  21631617.747   113674912.082        -391.687          48.000  
  26448724.947   138989014.036        2368.110          27.000  
  24575238.055   129143772.523       -3566.627          39.000  
  25857706.262   135883161.406        3282.887          37.000  
  24575947.668   129147474.923        2942.783          41.000  
 23  8  9 17 36 59.0030000  0  9G 5G13G 7G20G30G18G11G15G14
  21904491.060   115108881.670        1192.206          44.000  
  22786728.716   119745057.548        2281.510          45.000  
  22686714.171   119219481.879       -2098.987          42.000  
  21358092.285   112237552.042        -970.608          44.000  
  21631692.487   113675304.307        -392.535          48.000  
  26448271.852   138986647.129        2366.472          27.000  
  24575916.939   129147339.505       -3567.202          39.000  
  25857081.562   135879878.888        3282.366          37.000  
  24575387.953   129144532.368        2942.276          41.000  
 23  8  9 17 37  0.0030000  0  9G 5G13G 7G20G30G18G11G15G14
  21904264.137   115107689.644        1192.146          44.000  
  22786294.659   119742775.896        2281.908          44.000  
  22687113.642   119221580.782       -2098.697          42.000  
  21358277.118   112238522.804        -970.664          44.000  
  21631766.964   113675696.952        -392.548          48.000  
  26447824.359   138984280.537        2366.139          27.000  
  24576595.368   129150906.586       -3566.838          39.000  
  25856457.018   135876596.214        3283.227          37.000  
  24574828.237   129141589.900        2942.875          41.000  
 23  8  9 17 37  1.0030000  0  9G 5G13G 7G20G30G18G11G15G14
  21904037.442   115106497.826        1191.611          44.000  
  22785860.253   119740494.144        2281.550          44.000  
  22687512.885   119223679.701       -2099.127          42.000  
  21358461.636   112239493.835        -971.298          44.000  
  21631842.018   113676089.790        -393.280          48.000  
  26447373.881   138981913.889        2366.310          27.000  
  24577273.658   129154473.558       -3567.389          39.000  
  25855832.440   135873313.284        3282.780          37.000  
  24574268.329   129138647.277        2942.496          41.000  
 23  8  9 17 37  2.0030000  0  9G 5G13G 7G20G30G18G11G15G14
  21903810.938   115105306.939        1190.880          44.000  
  22785426.074   119738213.012        2281.092          44.000  
  22687912.338   119225779.341       -2099.908          42.000  
  21358646.783   112240465.891        -972.345          44.000  
  21631916.827   113676483.525        -394.122          48.000  
  26446922.078   138979548.046        2365.710          27.000  
  24577952.367   129158041.074       -3567.659          39.000  
  25855207.687   135870030.681        3282.453          37.000  
  24573708.509   129135705.180        2942.238          41.000  
 23  8  9 17 37  3.0030000  0  9G 5G13G 7G20G30G18G11G15G14
  21903584.696   115104116.827        1190.001          44.000  
  22784991.843   119735932.344        2280.639          44.000  
  22688311.861   119227879.553       -2100.447          42.000  
  21358831.651   112241438.777        -973.252          44.000  
  21631991.810   113676878.002        -394.861          47.000  
  26446471.164   138977182.864        2365.306          28.000  
  24578631.163   129161609.044       -3567.958          39.000  
  25854583.354   135866748.288        3282.667          36.000  
  24573148.531   129132763.492        2941.593          41.000  
 23  8  9 17 37  4.0030000  0  9G 5G13G 7G20G30G18G11G15G14
  21903358.593   115102927.394        1189.353          44.000  
  22784557.926   119733652.033        2280.289          44.000  
  22688711.750   119229980.230       -2100.650          42.000  
  21359016.728   112242412.403        -973.723          44.000  
  21632066.584   113677273.128        -395.142          47.000  
  26446018.052   138974818.229        2364.474          28.000  
  24579310.325   129165177.375       -3568.667          39.000  
  25853958.496   135863466.078        3282.531          36.000  
  24572588.624   129129822.090        2941.523          41.000  
 23  8  9 17 37  5.0030000  0  9G 5G13G 7G20G30G18G11G15G14
  21903132.334   115101738.276        1189.032          44.000  
  22784124.166   119731371.717        2280.557          44.000  
  22689111.657   119232081.036       -2100.873          41.000  
  21359202.084   112243386.435        -974.294          44.000  
  21632141.777   113677668.544        -395.453          47.000  
  26445568.377   138972453.734        2364.419          27.000  
  24579989.401   129168745.638       -3568.361          39.000  
  25853333.237   135860183.639        3282.145          35.000  
  24572028.908   129126880.638        2941.485          41.000  
 23  8  9 17 37  6.0030000  0  9G 5G13G 7G20G30G18G11G15G14
  21902906.249   115100549.773        1187.947          44.000  
  22783690.598   119729091.726        2279.521          44.000  
  22689511.563   119234182.259       -2101.669          41.000  
  21359387.528   112244361.133        -975.210          44.000  
  21632216.813   113678064.552        -396.637          48.000  
  26445122.978   138970089.701        2363.185          28.000  
  24580668.476   129172314.169       -3568.881          39.000  
  25852708.659   135856901.226        3281.963          35.000  
  24571469.733   129123939.406        2940.841          41.000  
 23  8  9 17 37  7.0030000  0  9G 5G13G 7G20G30G18G11G15G14
  21902680.059   115099362.079        1187.122          44.000  
  22783257.169   119726812.213        2279.237          44.000  
  22689911.749   119236284.092       -2102.466          41.000  
  21359573.058   112245336.750        -976.419          44.000  
  21632292.495   113678461.355        -397.314          47.000  
  26444675.118   138967726.282        2362.886          28.000  
  24581347.883   129175883.193       -3569.299          40.000  
  25852084.029   135853619.100        3282.375          36.000  
  24570910.209   129120998.642        2940.411          42.000  
 23  8  9 17 37  8.0030000  0  9G 5G13G 7G20G30G18G11G15G14
  21902453.642   115098174.929        1187.306          43.000  
  22782823.322   119724532.942        2279.519          44.000  
  22690311.726   119238386.256       -2101.763          41.000  
  21359758.973   112246312.963        -976.075          44.000  
  21632367.845   113678858.675        -397.198          47.000  
  26444227.118   138965363.239        2363.678          27.000  
  24582027.394   129179452.424       -3568.934          40.000  
  25851459.346   135850337.001        3282.520          36.000  
  24570350.406   129118058.039        2940.677          42.000  
 23  8  9 17 37  9.0030000  0  9G 5G13G 7G20G30G18G11G15G14
  21902228.081   115096987.851        1186.913          44.000  
  22782389.545   119722253.418        2279.434          44.000  
  22690711.685   119240488.305       -2102.089          41.000  
  21359945.167   112247289.309        -976.397          44.000  
  21632443.073   113679256.008        -397.485          47.000  
  26443776.030   138963000.151        2363.261          28.000  
  24582707.115   129183021.351       -3568.644          41.000  
  25850834.645   135847054.364        3283.047          35.000  
  24569790.725   129115117.089        2940.701          42.000  
 23  8  9 17 37 10.0030000  0  9G 5G13G 7G20G30G18G11G15G14
  21902002.415   115095801.533        1185.738          44.000  
  22781956.221   119719974.346        2278.887          44.000  
  22691111.626   119242590.878       -2102.884          41.000  
  21360131.291   112248266.486        -977.602          44.000  
  21632518.685   113679654.066        -398.425          47.000  
  26443326.146   138960637.682        2362.196          28.000  
  24583386.522   129186590.723       -3569.751          41.000  
  25850209.980   135843771.990        3282.293          36.000  
  24569231.149   129112176.527        2940.114          42.000  
 23  8  9 17 37 11.0030000  0  9G 5G13G 7G20G30G18G11G15G14
  21901776.940   115094616.163        1185.466          44.000  
  22781522.810   119717695.910        2278.877          45.000  
  22691512.126   119244694.212       -2103.143          41.000  
  21360317.397   112249244.671        -978.210          44.000  
  21632594.523   113680053.054        -398.969          47.000  
  26442880.572   138958276.045        2361.197          28.000  
  24584066.103   129190160.671       -3569.708          40.000  
  25849585.541   135840489.967        3282.461          36.000  
  24568671.852   129109236.544        2940.194          41.000  
 23  8  9 17 37 12.0030000  0  9G 5G13G 7G20G30G18G11G15G14
  21901551.396   115093431.100        1184.730          44.000  
  22781089.416   119715417.492        2278.251          45.000  
  22691912.347   119246797.659       -2103.732          41.000  
  21360503.678   112250223.248        -978.890          44.000  
  21632670.676   113680452.336        -399.664          47.000  
  26442430.915   138955914.446        2361.568          29.000  
  24584746.312   129193730.599       -3570.203          41.000  
  25848961.016   135837207.786        3282.305          37.000  
  24568112.067   129106296.503        2939.681          41.000  
 23  8  9 17 37 13.0030000  0  9G 5G13G 7G20G30G18G11G15G14
  21901326.131   115092246.360        1184.290          44.000  
  22780656.057   119713139.081        2277.903          45.000  
  22692312.620   119248901.222       -2104.000          41.000  
  21360690.169   112251202.227        -979.531          44.000  
  21632746.637   113680851.905        -400.043          47.000  
  26441985.446   138953553.113        2360.614          29.000  
  24585425.929   129197300.501       -3570.166          40.000  
  25848336.210   135833925.325        3282.549          36.000  
  24567552.403   129103356.404        2939.730          41.000  
 23  8  9 17 37 14.0030000  0  9G 5G13G 7G20G30G18G11G15G14
  21901101.093   115091062.353        1183.598          44.000  
  22780222.646   119710861.080        2277.676          45.000  
  22692712.963   119251005.311       -2104.310          41.000  
  21360876.659   112252181.980        -980.165          44.000  
  21632822.510   113681252.172        -400.543          47.000  
  26441535.597   138951192.287        2360.271          30.000  
  24586105.388   129200870.785       -3570.612          40.000  
  25847711.475   135830643.082        3282.044          36.000  
  24566992.792   129100416.662        2939.612          41.000  
 23  8  9 17 37 15.0030000  0  9G 5G13G 7G20G30G18G11G15G14
  21900876.247   115089879.122        1182.721          44.000  
  22779789.497   119708583.531        2277.422          45.000  
  22693113.602   119253109.985       -2105.021          42.000  
  21361063.516   112253162.592        -981.020          44.000  
  21632898.785   113681653.201        -401.562          47.000  
  26441081.211   138948832.166        2359.384          30.000  
  24586785.039   129204441.510       -3571.161          40.000  
  25847086.513   135827361.071        3281.959          35.000  
  24566433.810   129097477.298        2939.263          41.000  
 23  8  9 17 37 16.0030000  0  9G 5G13G 7G20G30G18G11G15G14
  21900650.860   115088696.578        1182.516          44.000  
  22779356.173   119706306.371        2277.400          45.000  
  22693514.207   119255215.134       -2105.142          42.000  
  21361250.356   112254143.963        -981.455          44.000  
  21632975.165   113682054.873        -401.764          47.000  
  26440637.783   138946472.548        2358.876          30.000  
  24587464.847   129208012.569       -3571.051          40.000  
  25846461.568   135824079.211        3282.022          35.000  
  24565874.740   129094538.289        2939.104          41.000  
 23  8  9 17 37 17.0030000  0  9G 5G13G 7G20G30G18G11G15G14
  21900426.102   115087514.216        1182.003          45.000  
  22778922.780   119704029.083        2277.046          45.000  
  22693914.864   119257320.268       -2105.634          42.000  
  21361437.091   112255125.583        -982.057          44.000  
  21633051.614   113682456.701        -402.173          47.000  
  26440188.911   138944112.959        2359.271          31.000  
  24588144.498   129211583.470       -3571.289          40.000  
  25845836.781   135820796.983        3282.457          35.000  
  24565315.565   129091599.061        2938.705          41.000  
 23  8  9 17 37 18.0030000  0  9G 5G13G 7G20G30G18G11G15G14
  21900201.325   115086332.793        1181.100          45.000  
  22778489.683   119701752.416        2276.495          45.000  
  22694315.608   119259426.116       -2106.005          42.000  
  21361624.262   112256108.212        -982.889          44.000  
  21633128.430   113682859.431        -402.966          47.000  
  26439741.296   138941754.124        2358.451          32.000  
  24588824.306   129215154.954       -3571.545          41.000  
  25845211.801   135817515.124        3281.878          35.000  
  24564756.582   129088660.364        2938.571          41.000  
 23  8  9 17 37 19.0030000  0  9G 5G13G 7G20G30G18G11G15G14
  21899976.793   115085151.876        1180.944          45.000  
  22778056.603   119699475.941        2276.591          45.000  
  22694716.771   119261532.270       -2105.749          42.000  
  21361811.084   112257091.404        -983.086          44.000  
  21633205.490   113683262.645        -403.253          47.000  
  26439293.017   138939395.740        2358.131          31.000  
  24589504.167   129218726.603       -3571.594          41.000  
  25844586.892   135814233.258        3281.743          34.000  
  24564196.971   129085721.829        2938.814          41.000  
 23  8  9 17 37 20.0030000  0  9G 5G13G 7G20G30G18G11G15G14
  21899752.471   115083971.457        1180.489          45.000  
  22777623.454   119697199.653        2276.348          45.000  
  22695117.865   119263638.752       -2106.385          42.000  
  21361998.202   112258075.185        -983.904          44.000  
  21633282.463   113683666.334        -403.851          47.000  
  26438843.534   138937037.523        2358.368          31.000  
  24590184.079   129222298.410       -3571.527          41.000  
  25843961.633   135810951.326        3281.793          35.000  
  24563637.779   129082783.411        2938.483          41.000  
 23  8  9 17 37 21.0030000  0  9G 5G13G 7G20G30G18G11G15G14
  21899528.183   115082791.393        1179.735          45.000  
  22777190.078   119694923.380        2276.286          45.000  
  22695518.731   119265745.345       -2106.749          42.000  
  21362185.269   112259059.356        -984.331          44.000  
  21633359.436   113684070.327        -404.065          47.000  
  26438394.296   138934679.628        2357.784          31.000  
  24590863.992   129225870.198       -3571.973          41.000  
  25843336.810   135807669.183        3281.988          35.000  
  24563078.656   129079844.927        2938.526          41.000  
 23  8  9 17 37 22.0030000  0  9G 5G13G 7G20G30G18G11G15G14
  21899304.175   115081612.226        1178.713          45.000  
  22776757.155   119692647.732        2275.371          45.000  
  22695919.685   119267852.660       -2107.497          42.000  
  21362372.701   112260044.536        -985.900          44.000  
  21633436.706   113684475.208        -405.408          47.000  
  26437945.459   138932322.451        2356.946          31.000  
  24591543.975   129229442.565       -3572.748          41.000  
  25842712.180   135804387.376        3282.305          34.000  
  24562519.900   129076907.013        2937.527          41.000  
 23  8  9 17 37 23.0030000  0  9G 5G13G 7G20G30G18G11G15G14
  21899080.009   115080433.803        1178.153          45.000  
  22776324.181   119690372.500        2275.071          45.000  
  22696320.761   119269960.525       -2108.100          42.000  
  21362560.466   112261030.508        -986.348          44.000  
  21633513.783   113684880.803        -405.939          47.000  
  26437497.110   138929965.867        2356.520          32.000  
  24592224.254   129233015.321       -3572.778          42.000  
  25842087.270   135801105.834        3281.443          34.000  
  24561960.917   129073969.443        2937.618          41.000  
 23  8  9 17 37 24.0030000  0  9G 5G13G 7G20G30G18G11G15G14
  21898856.001   115079255.892        1177.780          45.000  
  22775891.118   119688097.473        2275.244          45.000  
  22696722.150   119272068.683       -2107.903          42.000  
  21362747.829   112262017.075        -986.628          44.000  
  21633591.088   113685286.883        -405.957          47.000  
  26437048.797   138927609.635        2356.237          32.000  
  24592904.621   129236588.220       -3572.498          42.000  
  25841461.959   135797824.277        3281.770          34.000  
  24561402.249   129071032.013        2937.837          41.000  
 23  8  9 17 37 25.0030000  0  9G 5G13G 7G20G30G18G11G15G14
  21898631.870   115078078.179        1177.536          45.000  
  22775457.812   119685822.345        2275.025          45.000  
  22697123.558   119274176.850       -2108.206          43.000  
  21362935.244   112263003.901        -987.078          44.000  
  21633668.567   113685693.143        -406.415          47.000  
  26436600.326   138925253.491        2356.769          32.000  
  24593584.865   129240161.028       -3572.986          42.000  
  25840836.944   135794542.293        3282.517          33.000  
  24560843.057   129068094.455        2937.409          41.000  
 23  8  9 17 37 26.0030000  0  9G 5G13G 7G20G30G18G11G15G14
  21898408.036   115076901.379        1176.558          45.000  
  22775024.942   119683547.795        2274.178          44.000  
  22697525.035   119276285.696       -2109.135          43.000  
  21363123.462   112263991.698        -988.216          44.000  
  21633745.889   113686100.254        -407.562          47.000  
  26436152.100   138922898.128        2354.698          31.000  
  24594265.179   129243734.354       -3573.578          42.000  
  25840211.808   135791260.732        3281.340          33.000  
  24560284.091   129065157.366        2936.660          42.000  
 23  8  9 17 37 27.0030000  0  9G 5G13G 7G20G30G18G11G15G14
  21898184.429   115075725.490        1175.573          44.000  
  22774592.194   119681273.833        2273.767          44.000  
  22697926.373   119278395.248       -2109.510          43.000  
  21363311.785   112264980.480        -989.143          44.000  
  21633823.420   113686508.260        -408.301          47.000  
  26435703.751   138920543.405        2354.374          31.000  
  24594945.685   129247308.260       -3573.932          42.000  
  25839586.881   135787979.469        3281.136          33.000  
  24559725.126   129062220.815        2936.642          42.000  
 23  8  9 17 37 28.0030000  0  9G 5G13G 7G20G30G18G11G15G14
  21897960.857   115074550.036        1175.533          44.000  
  22774159.254   119678999.993        2273.952          44.000  
  22698327.780   119280505.039       -2109.735          42.000  
  21363500.195   112265969.761        -989.374          44.000  
  21633901.265   113686916.667        -408.447          47.000  
  26435256.659   138918189.070        2354.389          30.000  
  24595625.965   129250882.243       -3574.084          42.000  
  25838962.320   135784698.120        3281.656          33.000  
  24559166.178   129059284.330        2936.670          41.000  
 23  8  9 17 37 29.0030000  0  9G 5G13G 7G20G30G18G11G15G14
  21897737.058   115073374.804        1174.738          44.000  
  22773726.559   119676726.062        2273.611          44.000  
  22698729.205   119282614.843       -2110.106          42.000  
  21363688.884   112266959.326        -989.962          44.000  
  21633978.901   113687325.261        -409.204          47.000  
  26434807.910   138915834.756        2353.710          30.000  
  24596306.366   129254456.089       -3574.194          42.000  
  25838337.655   135781416.451        3281.783          33.000  
  24558607.178   129056347.693        2936.166          41.000  
 23  8  9 17 37 30.0030000  0  9G 5G13G 7G20G30G18G11G15G14
  21897513.381   115072200.287        1174.386          44.000  
  22773294.003   119674452.544        2273.481          44.000  
  22699130.787   119284725.172       -2110.244          42.000  
  21363877.381   112267949.698        -990.718          45.000  
  21634056.660   113687734.545        -409.601          47.000  
  26434364.534   138913481.043        2353.204          30.000  
  24596986.890   129258030.302       -3574.457          42.000  
  25837712.605   135778134.962        3281.597          32.000  
  24558048.474   129053411.394        2936.144          41.000  
 23  8  9 17 37 31.0030000  0  9G 5G13G 7G20G30G18G11G15G14
  21897290.228   115071026.442        1173.810          44.000  
  22772861.272   119672179.352        2273.192          44.000  
  22699532.491   119286835.958       -2110.720          42.000  
  21364066.071   112268940.778        -991.278          45.000  
  21634134.732   113688144.454        -410.114          47.000  
  26433917.617   138911127.778        2353.305          30.000  
  24597667.221   129261604.851       -3574.591          42.000  
  25837087.818   135774853.600        3281.214          32.000  
  24557489.491   129050475.376        2936.345          41.000  
 23  8  9 17 37 32.0030000  0  9G 5G13G 7G20G30G18G11G15G14
  21897066.970   115069853.100        1173.233          44.000  
  22772428.803   119669906.378        2272.888          45.000  
  22699934.142   119288947.043       -2111.409          42.000  
  21364254.934   112269932.452        -991.948          45.000  
  21634212.839   113688554.853        -410.583          47.000  
  26433471.083   138908774.872        2353.380          30.000  
  24598347.361   129265179.548       -3574.860          42.000  
  25836458.179   135771572.134        3281.722          31.000  
  24556930.491   129047539.501        2935.738          40.000  
 23  8  9 17 37 33.0030000  0  9G 5G13G 7G20G30G18G11G15G14
  21896843.607   115068679.982        1172.750          44.000  
  22771995.951   119667633.306        2272.732          45.000  
  22700335.968   119291058.158       -2111.668          42.000  
  21364443.815   112270924.428        -992.574          45.000  
  21634290.789   113688965.456        -411.035          47.000  
  26433023.922   138906422.092        2352.427          30.000  
  24599027.902   129268754.137       -3575.006          42.000  
  25835831.978   135768290.429        3281.509          31.000  
  24556371.351   129044603.470        2935.587          40.000  
 23  8  9 17 37 34.0030000  0  9G 5G13G 7G20G30G18G11G15G14
  21896620.227   115067507.870        1171.416          44.000  
  22771563.482   119665360.901        2271.789          45.000  
  22700738.144   119293170.034       -2112.286          42.000  
  21364632.609   112271917.439        -993.635          45.000  
  21634369.141   113689377.000        -412.152          47.000  
  26432575.329   138904070.114        2351.794          30.000  
  24599708.234   129272329.340       -3575.555          43.000  
  25835211.518   135765009.124        3280.944          32.000  
  24555812.490   129041668.042        2934.793          40.000  
 23  8  9 17 37 35.0030000  0  9G 5G13G 7G20G30G18G11G15G14
  21896397.021   115066336.511        1171.231          44.000  
  22771131.275   119663088.966        2271.896          45.000  
  22701139.970   119295282.486       -2112.485          42.000  
  21364821.525   112272911.285        -993.877          45.000  
  21634447.562   113689789.290        -412.506          47.000  
  26432123.944   138901718.776        2351.265          31.000  
  24600388.827   129275904.971       -3575.635          43.000  
  25834583.816   135761728.082        3280.393          32.000  
  24555253.682   129038733.000        2934.916          40.000  
 23  8  9 17 37 36.0030000  0  9G 5G13G 7G20G30G18G11G15G14
  21896173.937   115065165.335        1171.127          44.000  
  22770698.806   119660816.905        2272.085          44.000  
  22701541.726   119297394.940       -2112.567          42.000  
  21365010.808   112273905.417        -994.215          45.000  
  21634526.175   113690201.737        -412.567          47.000  
  26431686.607   138899367.394        2351.713          30.000  
  24601069.089   129279480.461       -3575.476          43.000  
  25833962.361   135758446.638        3282.089          33.000  
  24554694.874   129035797.781        2935.474          40.000  
 23  8  9 17 37 37.0030000  0  9G 5G13G 7G20G30G18G11G15G14
  21895950.889   115063994.456        1170.466          43.000  
  22770266.599   119658544.811        2271.876          45.000  
  22701943.779   119299507.457       -2112.740          42.000  
  21365199.916   112274899.895        -994.861          45.000  
  21634604.631   113690614.445        -413.116          47.000  
  26431234.663   138897016.227        2350.781          30.000  
  24601749.438   129283055.882       -3575.568          43.000  
  25833338.097   135755165.009        3280.818          32.000  
  24554136.170   129032862.488        2934.917          40.000  
 23  8  9 17 37 38.0030000  0  9G 5G13G 7G20G30G18G11G15G14
  21895727.665   115062824.517        1169.544          43.000  
  22769834.235   119656273.360        2271.333          44.000  
  22702345.815   119301620.730       -2113.514          42.000  
  21365389.478   112275895.395        -995.875          45.000  
  21634683.559   113691028.076        -413.953          47.000  
  26430784.326   138894665.865        2350.043          30.000  
  24602429.979   129286631.895       -3576.031          43.000  
  25832713.589   135751883.738        3280.972          32.000  
  24553577.466   129029927.770        2934.570          40.000  
 23  8  9 17 37 39.0030000  0  9G 5G13G 7G20G30G18G11G15G14
  21895505.053   115061655.179        1168.959          44.000  
  22769401.784   119654002.189        2270.636          44.000  
  22702748.077   119303734.394       -2114.149          42.000  
  21365579.423   112276891.553        -996.467          45.000  
  21634762.346   113691442.268        -414.532          47.000  
  26430336.553   138892315.888        2349.134          31.000  
  24603110.503   129290208.162       -3576.324          43.000  
  25832089.377   135748602.503        3282.069          32.000  
  24553018.920   129026993.228        2934.492          40.000  
 23  8  9 17 37 40.0030000  0  9G 5G13G 7G20G30G18G11G15G14
  21895282.650   115060486.459        1168.522          43.000  
  22768969.263   119651731.307        2270.791          44.000  
  22703150.287   119305848.418       -2113.987          42.000  
  21365769.369   112277888.388        -997.135          45.000  
  21634841.413   113691857.034        -414.954          47.000  
  26429887.838   138889966.415        2348.663          30.000  
  24603790.957   129293784.682       -3576.355          43.000  
  25831465.322   135745321.352        3281.568          32.000  
  24552460.443   129024058.944        2934.578          40.000  
 23  8  9 17 37 41.0030000  0  9G 5G13G 7G20G30G18G11G15G14
  21895060.177   115059318.061        1168.010          44.000  
  22768537.108   119649460.422        2270.625          44.000  
  22703552.393   119307962.588       -2114.638          42.000  
  21365959.210   112278885.605        -997.534          45.000  
  21634920.463   113692272.072        -415.387          47.000  
  26429436.261   138887617.073        2348.951          30.000  
  24604471.445   129297361.151       -3576.440          43.000  
  25830841.163   135742039.958        3281.192          32.000  
  24551901.879   129021124.589        2934.178          40.000  
 23  8  9 17 37 42.0030000  0  9G 5G13G 7G20G30G18G11G15G14
  21894838.193   115058150.382        1167.195          44.000  
  22768104.884   119647189.964        2270.115          44.000  
  22703954.655   119310077.265       -2115.083          41.000  
  21366149.312   112279883.631        -998.821          45.000  
  21634999.442   113692687.828        -416.302          47.000  
  26428984.789   138885268.364        2348.422          30.000  
  24605152.300   129300938.027       -3577.203          43.000  
  25830219.517   135738758.742        3280.901          32.000  
  24551343.402   129018190.621        2933.648          40.000  
 23  8  9 17 37 43.0030000  0  9G 5G13G 7G20G30G18G11G15G14
  21894616.523   115056983.744        1166.099          44.000  
  22767673.078   119644920.206        2269.326          44.000  
  22704357.493   119312192.771       -2116.049          42.000  
  21366339.398   112280882.741        -999.814          45.000  
  21635078.981   113693104.570        -417.377          47.000  
  26428540.978   138882920.462        2347.563          29.000  
  24605832.772   129304515.579       -3578.027          43.000  
  25829590.838   135735478.037        3280.944          32.000  
  24550784.891   129015257.285        2932.772          39.000  
 23  8  9 17 37 44.0030000  0  9G 5G13G 7G20G30G18G11G15G14
  21894394.521   115055817.447        1166.467          45.000  
  22767241.621   119642650.489        2269.928          46.000  
  22704760.122   119314308.406       -2115.454          42.000  
  21366529.640   112281882.245        -999.266          45.000  
  21635158.484   113693521.597        -416.864          47.000  
  26428090.605   138880572.759        2348.162          27.000  
  24606513.749   129308093.080       -3577.118          43.000  
  25828970.360   135732197.083        3281.269          32.000  
  24550226.815   129012323.927        2933.630          39.000  
 23  8  9 17 37 45.0030000  0  9G 5G13G 7G20G30G18G11G15G14
  21894172.764   115054651.468        1165.526          45.000  
  22766810.357   119640380.765        2269.583          46.000  
  22705162.594   119316424.165       -2116.188          42.000  
  21366720.161   112282882.151       -1000.460          45.000  
  21635238.179   113693938.931        -417.859          47.000  
  26427640.268   138878225.302        2346.987          26.000  
  24607194.273   129311670.595       -3577.893          43.000  
  25828345.136   135728915.926        3281.729          32.000  
  24549668.618   129009390.484        2933.053          39.000  
 23  8  9 17 37 46.0030000  0  9G 5G13G 7G20G30G18G11G15G14
  21893951.565   115053486.496        1164.416          46.000  
  22766378.865   119638111.760        2268.743          46.000  
  22705565.485   119318540.726       -2117.036          42.000  
  21366910.648   112283883.154       -1001.322          45.000  
  21635317.612   113694357.247        -418.884          47.000  
  26427190.715   138875878.618        2346.077          27.000  
  24607874.831   129315248.738       -3578.338          43.000  
  25827719.284   135725635.281        3280.109          31.000  
  24549110.071   129006457.690        2932.507          40.000  
 23  8  9 17 37 47.0030000  0  9G 5G13G 7G20G30G18G11G15G14
  21893729.877   115052322.190        1163.999          46.000  
  22765947.409   119635843.093        2268.669          46.000  
  22705968.253   119320657.739       -2117.204          42.000  
  21367101.309   112284884.876       -1001.868          45.000  
  21635397.360   113694776.186        -419.055          47.000  
  26426745.944   138873532.458        2346.109          27.000  
  24608555.739   129318827.211       -3578.448          43.000  
  25827095.125   135722354.698        3280.828          32.000  
  24548551.839   129003525.182        2932.360          40.000  
 23  8  9 17 37 48.0030000  0  9G 5G13G 7G20G30G18G11G15G14
  21893509.167   115051158.341        1163.679          46.000  
  22765515.533   119633574.586        2268.539          45.000  
  22706371.213   119322775.002       -2117.268          42.000  
  21367292.267   112285887.143       -1002.265          45.000  
  21635477.264   113695195.561        -419.281          47.000  
  26426297.177   138871186.565        2346.102          26.000  
  24609236.629   129322405.785       -3578.461          43.000  
  25826472.920   135719074.023        3280.859          33.000  
  24547993.693   129000592.746        2932.445          39.000  
 23  8  9 17 37 49.0030000  0  9G 5G13G 7G20G30G18G11G15G14
  21893287.671   115049994.964        1162.951          46.000  
  22765083.850   119631306.202        2268.210          45.000  
  22706774.331   119324892.526       -2117.977          42.000  
  21367483.277   112286889.932       -1003.250          45.000  
  21635557.082   113695615.362        -420.227          47.000  
  26425848.863   138868841.055        2345.414          26.000  
  24609917.728   129325984.473       -3578.900          43.000  
  25825850.558   135715793.299        3280.603          34.000  
  24547435.827   128997660.392        2932.119          39.000  
 23  8  9 17 37 50.0030000  0  9G 5G13G 7G20G30G18G11G15G14
  21893066.926   115048832.363        1162.377          46.000  
  22764651.992   119629038.299        2267.669          45.000  
  22707177.431   119327010.633       -2118.595          42.000  
  21367674.270   112287893.562       -1003.930          45.000  
  21635637.143   113696035.916        -420.819          47.000  
  26425403.115   138866496.144        2344.533          25.000  
  24610598.653   129329563.585       -3579.199          43.000  
  25825226.399   135712512.769        3280.251          34.000  
  24546877.944   128994728.445        2931.849          39.000  
 23  8  9 17 37 51.0030000  0  9G 5G13G 7G20G30G18G11G15G14
  21892845.867   115047670.477        1161.302          45.000  
  22764219.942   119626770.759        2267.095          45.000  
  22707580.653   119329129.171       -2118.808          42.000  
  21367865.751   112288897.933       -1004.804          45.000  
  21635717.205   113696457.139        -421.588          47.000  
  26424955.831   138864151.726        2344.490          25.000  
  24611279.718   129333143.034       -3579.803          43.000  
  25824602.745   135709232.410        3279.780          35.000  
  24546320.043   128991796.790        2931.470          39.000  
 23  8  9 17 37 52.0030000  0  9G 5G13G 7G20G30G18G11G15G14
  21892624.563   115046509.044        1161.073          44.000  
  22763788.031   119624503.365        2267.190          45.000  
  22707983.526   119331248.020       -2119.110          42.000  
  21368057.075   112289902.861       -1005.356          45.000  
  21635797.249   113696878.787        -421.991          46.000  
  26424507.674   138861807.712        2343.854          25.000  
  24611961.114   129336722.597       -3579.700          43.000  
  25823978.900   135705951.953        3280.168          35.000  
  24545762.509   128988865.255        2931.235          39.000  
 23  8  9 17 37 53.0030000  0  9G 5G13G 7G20G30G18G11G15G14
  21892403.748   115045347.944        1160.381          44.000  
  22763356.505   119622236.015        2266.647          45.000  
  22708386.417   119333366.992       -2119.657          42.000  
  21368248.451   112290908.189       -1006.131          45.000  
  21635877.380   113697300.734        -422.479          46.000  
  26424058.959                        2343.097          24.000  
  24612642.335   129340302.158       -3580.066          43.000  
  25823354.932   135702671.253        3280.911          34.000  
  24545204.852   128985933.667        2931.238          39.000  
 23  8  9 17 37 54.0030000  0  9G 5G13G 7G20G30G18G11G15G14
  21892183.125   115044187.762        1159.814          45.000  
  22762925.118   119619969.253        2266.531          45.000  
  22708789.674   119335486.667       -2120.062          42.000  
  21368440.142   112291914.499       -1006.889          45.000  
  21635957.896   113697723.580        -423.352          46.000  
  26423613.926                        2343.632          23.000  
  24613323.819   129343882.273       -3580.377          43.000  
  25822730.773   135699390.973        3280.243          33.000  
  24544647.108   128983002.639        2930.772          39.000  
 23  8  9 17 37 55.0030000  0  9G 5G13G 7G20G30G18G11G15G14
  21891962.502   115043028.251        1159.288          45.000  
  22762493.871   119617702.858        2266.201          45.000  
  22709192.792   119337606.821       -2120.339          42.000  
  21368631.658   112292921.552       -1007.374          45.000  
  21636038.324   113698147.063        -423.816          46.000  
  26423170.865                        2342.169          24.000  
  24614005.023   129347462.724       -3580.737          43.000  
  25822106.701   135696110.852        3280.230          33.000  
  24544089.504   128980071.920        2930.547          39.000  
 23  8  9 17 37 56.0030000  0  9G 5G13G 7G20G30G18G11G15G14
  21891741.983   115041868.988        1159.038          45.000  
  22762062.728   119615436.404        2266.343          45.000  
  22709596.153   119339727.021       -2120.661          42.000  
  21368823.105   112293928.936       -1007.785          45.000  
  21636118.874   113698570.775        -424.017          46.000  
  26422727.351                        2343.240          24.000  
  24614686.105   129351043.076       -3580.658          42.000  
  25821482.821   135692830.423        3280.500          33.000  
  24543531.743   128977141.066        2930.581          39.000  
 23  8  9 17 37 57.0030000  0  9G 5G13G 7G20G30G18G11G15G14
  21891521.430   115040710.436        1157.997          44.000  
  22761631.324   119613170.333        2265.737          45.000  
  22709999.585   119341847.703       -2121.052          42.000  
  21369014.848   112294937.085       -1008.638          45.000  
  21636199.668   113698995.152        -424.792          46.000  
  26422279.945                        2341.168          23.000  
  24615367.431   129354623.772       -3581.061          42.000  
  25820858.592   135689550.187        3279.599          33.000  
  24542974.243   128974210.530        2930.284          39.000  
 23  8  9 17 37 58.0030000  0  9G 5G13G 7G20G30G18G11G15G14
  21891300.999   115039552.713        1157.633          44.000  
  22761200.304   119610904.789        2265.459          45.000  
  22710403.243   119343969.032       -2121.500          42.000  
  21369206.643   112295946.134       -1009.229          45.000  
  21636280.568   113699420.350        -425.446          46.000  
  26421834.301                        2340.680          22.000  
  24616049.054   129358204.961       -3581.378          42.000  
  25820234.519   135686270.193        3279.751          33.000  
  24542416.534   128971280.466        2930.200          39.000  
 23  8  9 17 37 59.0030000  0  9G 5G13G 7G20G30G18G11G15G14
  21891080.376   115038395.390        1157.317          44.000  
  22760769.213   119608639.323        2265.565          45.000  
  22710806.954   119346090.542       -2121.466          42.000  
  21369398.875   112296955.640       -1009.620          45.000  
  21636361.589   113699845.885        -425.623          47.000  
  26421387.000                        2341.168          21.000  
  24616730.258   129361786.184       -3581.244          42.000  
  25819610.168   135682990.047        3280.254          32.000  
  24541859.017   128968350.434        2930.163          39.000  
 23  8  9 17 38  0.0030000  0  9G 5G13G 7G20G30G18G11G15G14
  21890860.276   115037238.622        1156.524          45.000  
  22760337.949   119606374.103        2264.929          45.000  
  22711210.752   119348212.411       -2122.080          42.000  
  21369591.368   112297965.775       -1010.579          45.000  
  21636442.610   113700271.963        -426.312          47.000  
  26420939.785                        2342.098          21.000  
  24617411.323   129365367.604       -3581.390          42.000  
  25818985.712   135679709.943        3278.772          31.000  
  24541301.448   128965420.580        2929.737          39.000  
 23  8  9 17 38  1.0030000  0  9G 5G13G 7G20G30G18G11G15G14
  21890640.595   115036082.469        1155.626          45.000  
  22759906.789   119604109.173        2264.801          44.000  
  22711614.655   119350334.680       -2122.560          42.000  
  21369783.634   112298976.580       -1011.140          45.000  
  21636523.597   113700698.609        -427.142          46.000  
  26420495.799                        2337.182          21.000  
  24618092.579   129368949.296       -3581.885          42.000  
  25818361.361   135676429.835        3279.905          31.000  
  24540743.774   128962490.966        2929.067          39.000  
 23  8  9 17 38  2.0030000  0  9G 5G13G 7G20G30G18G11G15G14
  21890420.426   115034927.290        1154.571          45.000  
  22759475.507   119601844.934        2263.623          44.000  
  22712018.575   119352457.718       -2123.711          42.000  
  21369976.442   112299988.439       -1012.638          45.000  
  21636604.548   113701126.216        -428.485          46.000  
  26420054.675                        2336.290          21.000  
  24618773.923   129372531.627       -3583.081          42.000  
  25817736.905   135673150.219        3278.528          30.000  
  24540186.414   128959561.946        2928.409          39.000  
 23  8  9 17 38  3.0030000  0  9G 5G13G 7G20G30G18G11G15G14
  21890200.797   115033772.889        1154.464          45.000  
  22759044.312   119599581.131        2263.941          44.000  
  22712422.565   119354581.329       -2123.459          42.000  
  21370169.180   112301001.129       -1012.732          45.000  
  21636686.407   113701554.540        -428.351          46.000  
  26419614.878                        2346.780          21.000  
  24619455.214   129376114.342       -3582.306          41.000  
  25817109.604   135669870.743        3280.579          30.000  
  24539629.036   128956633.322        2928.741          39.000  
 23  8  9 17 38  4.0030000  0  9G 5G13G 7G20G30G18G11G15G14
  21889981.221   115032618.725        1154.142          45.000  
  22758613.379   119597317.286        2264.160          44.000  
  22712826.887   119356705.002       -2123.807          42.000  
  21370362.109   112302014.156       -1012.969          45.000  
  21636768.092   113701983.114        -428.455          46.000  
  26419170.752                        2340.503          21.000  
  24620136.698   129379696.989       -3582.385          41.000  
  25816481.327   135666591.108        3280.147          30.000  
  24539071.694   128953704.587        2928.912          39.000  
 23  8  9 17 38  5.0030000  0  9G 5G13G 7G20G30G18G11G15G14
  21889761.890   115031465.203        1153.218          45.000  
  22758182.498   119595053.760        2263.468          44.000  
  22713231.156   119358829.088       -2124.596          42.000  
  21370554.690   112303027.875       -1014.174          45.000  
  21636849.968   113702412.290        -429.620          46.000  
  26418727.534                        2338.162          22.000  
  24620818.076   129383279.892       -3583.167          41.000  
  25815859.383   135663311.449        3280.153          30.000  
  24538514.316   128950776.105        2928.394          39.000  
 23  8  9 17 38  6.0030000  0  9G 5G13G 7G20G30G18G11G15G14
  21889542.610   115030312.212        1152.759          45.000  
  22757751.547   119592790.458        2263.156          44.000  
  22713635.128   119360953.479       -2124.466          42.000  
  21370747.567   112304042.182       -1014.624          45.000  
  21636931.374   113702841.937        -429.938          47.000  
  26418282.553                        2337.651          21.000  
  24621499.944   129386862.979       -3583.038          41.000  
  25815235.486   135660031.843        3279.703          31.000  
  24537957.131   128947847.752        2928.450          39.000  
 23  8  9 17 38  7.0030000  0  9G 5G13G 7G20G30G18G11G15G14
  21889323.261   115029159.965        1152.020          45.000  
  22757321.068   119590527.553        2262.769          44.000  
  22714039.642   119363078.404       -2125.083          42.000  
  21370940.322   112305057.294       -1015.479          45.000  
  21637013.424   113703272.298        -430.701          47.000  
  26417838.236                        2334.289          19.000  
  24622181.689   129390446.444       -3583.539          41.000  
  25814613.351   135656752.402        3279.559          31.000  
  24537400.242   128944919.809        2927.779          39.000  
 23  8  9 17 38  8.0030000  0  9G 5G13G 7G20G30G18G11G15G14
  21889104.418   115028008.208        1151.370          45.000  
  22756890.623   119588264.813        2262.548          44.000  
  22714443.737   119365203.592       -2125.343          42.000  
  21371133.531   112306072.945       -1016.018          45.000  
  21637095.249   113703703.100        -431.171          46.000  
  26417394.547                        2331.428          20.000  
  24622863.643   129394030.043       -3583.826          42.000  
  25813991.774   135653472.962        3278.786          32.000  
  24536843.109   128941991.942        2927.578          39.000  
 23  8  9 17 38  9.0030000  0  9G 5G13G 7G20G30G18G11G15G14
  21888885.592   115026857.282        1150.616          45.000  
  22756460.127   119586002.617        2261.881          44.000  
  22714848.407   119367329.435       -2126.221          41.000  
  21371326.600   112307089.509       -1016.982          45.000  
  21637177.247   113704134.706        -432.043          46.000  
  26416948.833                        2336.770          20.000  
  24623545.877   129397614.115       -3584.271          42.000  
  25813366.533   135650193.712        3278.802          32.000  
  24536286.273   128939064.532        2927.029          40.000  
 23  8  9 17 38 10.0030000  0  9G 5G13G 7G20G30G18G11G15G14
  21888666.644   115025707.187        1150.016          45.000  
  22756029.856   119583740.913        2261.538          43.000  
  22715252.973   119369455.859       -2126.416          41.000  
  21371520.280   112308106.961       -1017.792          45.000  
  21637259.490   113704567.105        -432.617          46.000  
  26416506.732                        2330.173          20.000  
  24624227.831   129401198.648       -3584.485          42.000  
  25812742.879   135646914.828        3278.312          32.000  
  24535729.768   128936137.595        2926.819          39.000  
 23  8  9 17 38 11.0030000  0  9G 5G13G 7G20G30G18G11G15G14
  21888447.801   115024557.718        1149.263          45.000  
  22755599.552   119581479.495        2261.407          43.000  
  22715657.312   119371582.670       -2126.763          42.000  
  21371713.524   112309125.079       -1018.244          45.000  
  21637341.576   113705000.082        -433.240          46.000  
  26416062.851                        2337.468          20.000  
  24624910.100   129404783.456       -3584.558          42.000  
  25812121.320   135643635.891        3279.578          33.000  
  24535173.018   128933210.872        2926.629          39.000  
 23  8  9 17 38 12.0030000  0  9G 5G13G 7G20G30G18G11G15G14
  21888228.940   115023408.423        1149.030          45.000  
  22755169.159   119579217.957        2261.397          43.000  
  22716061.791   119373709.474       -2126.862          42.000  
  21371907.431   112310143.456       -1018.623          45.000  
  21637424.115   113705433.189        -433.313          46.000  
  26415616.980                        2330.514          19.000  
  24625591.915   129408368.072       -3584.594          42.000  
  25811497.178   135640356.712        3278.739          33.000  
  24534616.287   128930283.954        2926.670          39.000  
 23  8  9 17 38 13.0030000  0  9G 5G13G 7G20G30G18G11G15G14
  21888010.150   115022259.931        1147.705          45.000  
  22754738.750   119576956.907        2260.367          43.000  
  22716466.793   119375836.854       -2127.855          42.000  
  21372101.198   112311162.694       -1020.004          45.000  
  21637506.986   113705867.083        -434.711          46.000  
  26415171.616                        2332.824          19.000  
  24626273.520   129411953.147       -3585.498          41.000  
  25810872.303   135637077.712        3278.445          33.000  
  24534059.433   128927357.464        2925.870          39.000  
 23  8  9 17 38 14.0030000  0  9G 5G13G 7G20G30G18G11G15G14
  21887791.568   115021112.195        1147.734          45.000  
  22754308.358   119574696.304        2260.545          43.000  
  22716871.952   119377964.822       -2128.022          42.000  
  21372295.105   112312182.767       -1020.104          45.000  
  21637589.770   113706301.694        -434.619          46.000  
  26414727.298                        2332.824          17.000  
  24626955.737   129415538.624       -3585.364          41.000  
  25810248.440   135633798.961        3278.565          33.000  
  24533502.771   128924431.372        2926.307          39.000  
 23  8  9 17 38 15.0030000  0  9G 5G13G 7G20G30G18G11G15G14
  21887573.091   115019964.921        1147.095          45.000  
  22753878.035   119572435.849        2260.537          43.000  
  22717276.919   119380093.015       -2128.299          42.000  
  21372489.483   112313203.360       -1020.680          45.000  
  21637672.432   113706736.734        -435.071          46.000  
  26414282.754                        2332.893          15.000  
  24627637.778   129419124.190       -3585.364          41.000  
  25809624.403   135630520.094        3278.840          33.000  
  24532946.283   128921505.369        2926.296          39.000  
 23  8  9 17 38 16.0030000  0  9G 5G13G 7G20G30G18G11G15G14
  21887354.859   115018818.065        1146.637          45.000  
  22753447.870   119570175.506        2260.288          43.000  
  22717681.921   119382221.431       -2128.652          42.000  
  21372683.878   112314224.446       -1021.368          45.000  
  21637755.425   113707172.181        -435.785          46.000  
  26413837.582                        2332.893          14.000  
  24628319.960   129422709.852       -3585.815          41.000  
  25809000.348   135627241.154        3278.447          33.000  
  24532389.621   128918579.393        2926.168          39.000  
 23  8  9 17 38 17.0030000  0  9G 5G13G 7G20G30G18G11G15G14
  21887136.679   115017671.979        1146.051          45.000  
  22753018.193   119567915.617        2259.898          43.000  
  22718086.941   119384350.396       -2129.005          41.000  
  21372878.151   112315246.350       -1022.095          45.000  
  21637838.401   113707608.337        -436.224          46.000  
  26413393.543                        2328.799          17.000  
  24629002.490   129426295.908       -3585.992          41.000  
  25808376.643   135623962.392        3278.350          34.000  
  24531833.500   128915653.832        2925.333          39.000  
 23  8  9 17 38 18.0030000  0  9G 5G13G 7G20G30G18G11G15G14
  21886918.551   115016526.671        1144.753          45.000  
  22752588.307   119565656.185        2259.011          43.000  
  22718492.222   119386479.934       -2130.009          41.000  
  21373072.756   112316269.117       -1023.422          45.000  
  21637921.499   113708045.242        -437.347          46.000  
  26412949.051                        2331.853          20.000  
  24629684.759   129429882.389       -3586.798          41.000  
  25807753.321   135620683.876        3278.193          35.000  
  24531276.926   128912728.663        2924.705          39.000  
 23  8  9 17 38 19.0030000  0  9G 5G13G 7G20G30G18G11G15G14
  21886700.807   115015381.918        1144.627          45.000  
  22752158.334   119563397.006        2259.014          43.000  
  22718897.294   119388609.835       -2130.300          41.000  
  21373267.483   112317292.509       -1023.781          45.000  
  21638004.248   113708482.683        -437.714          46.000  
  26412505.118                        2331.483          22.000  
  24630367.359   129433469.066       -3586.731          42.000  
  25807130.017   135617405.380        3278.572          36.000  
  24530720.491   128909803.668        2924.919          39.000  
 23  8  9 17 38 20.0030000  0  9G 5G13G 7G20G30G18G11G15G14
  21886482.889   115014237.479        1143.961          45.000  
  22751728.727   119561137.821        2258.780          43.000  
  22719302.383   119390739.823       -2130.460          41.000  
  21373462.228   112318316.268       -1024.400          45.000  
  21638087.625   113708920.393        -438.214          46.000  
  26412058.776                        2329.532          24.000  
  24631049.977   129437055.703       -3586.993          42.000  
  25806507.201   135614126.628        3278.882          36.000  
  24530163.672   128906878.625        2924.864          39.000  
 23  8  9 17 38 21.0030000  0  9G 5G13G 7G20G30G18G11G15G14
  21886264.953   115013093.698        1143.111          45.000  
  22751299.242   119558878.995        2258.171          44.000  
  22719707.787   119392870.261       -2131.225          41.000  
  21373657.251   112319340.747       -1025.198          45.000  
  21638171.037   113709358.721        -438.910          47.000  
  26411614.337                        2334.130          25.000  
  24631732.751   129440642.643       -3587.653          42.000  
  25805883.705   135610847.992        3278.371          37.000  
  24529606.696   128903953.851        2924.427          39.000  
 23  8  9 17 38 22.0030000  0  9G 5G13G 7G20G30G18G11G15G14
  21886047.349   115011950.804        1142.166          45.000  
  22750869.932   119556620.715        2257.793          44.000  
  22720112.928   119395001.356       -2131.897          40.000  
  21373852.624   112320366.175       -1025.948          46.000  
  21638254.833   113709797.892        -439.801          47.000  
  26411170.578                        2329.569          26.000  
  24632415.072   129444230.089       -3587.933          40.000  
  25805260.522   135607569.703        3277.961          38.000  
  24529050.034   128901029.579        2923.769          40.000  
 23  8  9 17 38 23.0030000  0  9G 5G13G 7G20G30G18G11G15G14
  21885829.919   115010808.315        1142.631          45.000  
  22750440.988   119554362.544        2258.447          44.000  
  22720518.105   119397132.660       -2130.992          40.000  
  21374047.822   112321392.089       -1025.696          46.000  
  21638338.402   113710237.452        -439.313          47.000  
  26410729.419                        2330.366          27.000  
  24633097.515   129447817.614       -3587.066          41.000  
  25804637.567   135604291.296        3278.671          38.000  
  24528493.808   128898105.353        2924.886          41.000  
 23  8  9 17 38 24.0030000  0  9G 5G13G 7G20G30G18G11G15G14
  21885611.966   115009665.948        1141.700          45.000  
  22750011.590   119552104.145        2257.962          45.000  
  22720923.508   119399263.876       -2131.834          40.000  
  21374243.142   112322418.160       -1026.705          46.000  
  21638422.373   113710677.088        -440.228          47.000  
  26410286.480   138786989.6063       2329.921          27.000  
  24633779.958   129451404.861       -3587.653          40.000  
  25804014.176   135601012.404        3278.352          38.000  
  24527937.425   128895180.862        2923.816          41.000  
 23  8  9 17 38 25.0030000  0  9G 5G13G 7G20G30G18G11G15G14
  21885394.292   115008524.661        1141.113          45.000  
  22749582.559   119549846.511        2257.398          45.000  
  22721329.086   119401395.939       -2132.443          39.000  
  21374438.689   112323445.366       -1027.632          45.000  
  21638506.203   113711117.753        -440.875          47.000  
  26409842.005   138784660.7442       2328.908          27.000  
  24634462.820   129454992.855       -3588.434          40.000  
  25803390.662   135597734.059        3278.633          38.000  
  24527380.973   128892257.061        2923.582          40.000  
 23  8  9 17 38 26.0030000  0  9G 5G13G 7G20G30G18G11G15G14
  21885177.351   115007383.924        1140.381          45.000  
  22749153.144   119547589.127        2257.324          45.000  
  22721734.315   119403528.360       -2132.401          39.000  
  21374634.463   112324473.223       -1028.102          45.000  
  21638590.348   113711558.930        -441.138          47.000  
  26409400.480   138782332.2872       2328.344          27.000  
  24635145.700   129458581.036       -3588.165          40.000  
  25802767.148   135594455.662        3278.960          37.000  
  24526824.660   128889333.472        2923.369          40.000  
 23  8  9 17 38 27.0030000  0  9G 5G13G 7G20G30G18G11G15G14
  21884960.375   115006243.774        1140.076          46.000  
  22748723.572   119545331.992        2257.285          45.000  
  22722139.754   119405661.100       -2132.425          39.000  
  21374829.853   112325501.695       -1028.878          45.000  
  21638674.528   113712000.664        -441.833          47.000  
  26408957.960   138780004.1172       2327.944          26.000  
  24635828.980   129462169.431       -3588.501          41.000  
  25802143.041   135591177.361        3278.662          37.000  
  24526268.242   128886410.047        2923.456          41.000  
 23  8  9 17 38 28.0030000  0  9G 5G13G 7G20G30G18G11G15G14
  21884743.224   115005103.966        1139.404          45.000  
  22748294.158   119543074.912        2256.744          45.000  
  22722545.471   119407794.047       -2133.684          39.000  
  21375025.435   112326530.593       -1029.447          44.000  
  21638758.865   113712442.717        -442.603          47.000  
  26408517.586   138777676.2632       2327.747          28.000  
  24636512.052   129465757.815       -3588.489          41.000  
  25801519.231   135587898.851        3278.754          38.000  
  24525711.894   128883486.610        2923.213          41.000  
 23  8  9 17 38 29.0030000  0  9G 5G13G 7G20G30G18G11G15G14
  21884526.371   115003964.895        1138.696          44.000  
  22747864.603   119540818.251        2256.324          45.000  
  22722951.486   119409927.489       -2133.673          40.000  
  21375221.489   112327560.294       -1030.296          45.000  
  21638842.975   113712885.465        -442.896          47.000  
  26408077.195   138775349.0062       2326.709          28.000  
  24637195.071   129469346.564       -3588.751          41.000  
  25800895.490   135584620.569        3278.421          38.000  
  24525155.895   128880563.533        2923.311          40.000  
 23  8  9 17 38 30.0030000  0  9G 5G13G 7G20G30G18G11G15G14
  21884309.482   115002826.724        1137.695          45.000  
  22747435.363   119538562.118        2256.125          45.000  
  22723357.395   119412061.578       -2134.064          39.000  
  21375417.996   112328590.908       -1030.965          46.000  
  21638927.190   113713329.051        -444.025          47.000  
  26407632.947   138773022.3242       2326.798          28.000  
  24637878.404   129472935.865       -3589.404          42.000  
  25800272.186   135581342.594        3277.981          40.000  
  24524599.862   128877640.982        2922.539          40.000  
 23  8  9 17 38 31.0030000  0  9G 5G13G 7G20G30G18G11G15G14
  21884093.082   115001688.954        1137.659          45.000  
  22747006.017   119536306.121        2256.021          45.000  
  22723763.514   119414195.885       -2134.255          39.000  
  21375614.276   112329622.024       -1031.339          46.000  
  21639011.701   113713773.026        -443.835          47.000  
  26407186.780   138770695.4941       2326.636          27.000  
  24638561.405   129476525.222       -3589.386          42.000  
  25799648.742   135578064.486        3278.140          40.000  
  24524044.020   128874718.462        2922.661          40.000  
 23  8  9 17 38 32.0030000  0  9G 5G13G 7G20G30G18G11G15G14
  21883876.629   115000551.503        1136.987          45.000  
  22746577.039   119534050.122        2255.511          45.000  
  22724169.563   119416330.294       -2134.826          39.000  
  21375810.591   112330653.511       -1032.039          46.000  
  21639096.265   113714217.275        -444.537          47.000  
  26406742.812   138768369.370        2325.677          27.000  
  24639244.442   129480114.502       -3589.636          42.000  
  25799025.054   135574786.123        3278.149          40.000  
  24523488.073   128871795.879        2922.183          40.000  
 23  8  9 17 38 33.0030000  0  9G 5G13G 7G20G30G18G11G15G14
  21883660.281   114999415.058        1135.974          45.000  
  22746147.973   119531794.831        2255.027          45.000  
  22724576.293   119418465.516       -2135.783          40.000  
  21376007.115   112331686.081       -1033.102          46.000  
  21639181.213   113714662.530        -445.776          47.000  
  26406303.188   138766044.123        2325.051          28.000  
  24639927.705   129483704.453       -3590.320          42.000  
  25798401.470   135571508.278        3277.827          38.000  
  24522932.040   128868873.970        2921.870          40.000  
 23  8  9 17 38 34.0030000  0  9G 5G13G 7G20G30G18G11G15G14
  21883444.440   114998279.207        1135.919          45.000  
  22745719.081   119529539.801        2255.133          45.000  
  22724983.022   119420601.099       -2135.796          40.000  
  21376203.814   112332719.299       -1033.176          45.000  
  21639265.881   113715108.310        -445.795          47.000  
  26405862.919   138763719.278        2325.114          28.000  
  24640611.509   129487294.629       -3589.966          42.000  
  25797777.904   135568230.435        3278.195          39.000  
  24522375.744   128865952.243        2922.209          40.000  
 23  8  9 17 38 35.0030000  0  9G 5G13G 7G20G30G18G11G15G14
  21883228.493   114997143.894        1135.260          46.000  
  22745290.015   119527284.983        2255.003          45.000  
  22725389.909   119422736.991       -2135.816          40.000  
  21376400.635   112333753.132       -1033.986          45.000  
  21639351.073   113715554.553        -446.277          47.000  
  26405424.151   138761394.803        2324.533          28.000  
  24641294.877   129490884.987       -3590.204          42.000  
  25797154.408   135564952.589        3278.173          39.000  
  24521819.850   128863030.651        2922.048          39.000  
 23  8  9 17 38 36.0030000  0  9G 5G13G 7G20G30G18G11G15G14
  21883012.634   114996008.872        1134.564          46.000  
  22744860.618   119525030.109        2254.633          45.000  
  22725796.255   119424872.960       -2136.110          41.000  
  21376597.177   112334787.301       -1034.631          45.000  
  21639436.248   113716001.073        -446.765          46.000  
  26404983.044   138759070.473        2323.522          28.000  
  24641978.158   129494475.253       -3590.350          42.000  
  25796530.388   135561674.469        3277.675          39.000  
  24521263.904   128860109.009        2921.455          41.000  
 23  8  9 17 38 37.0030000  0  9G 5G13G 7G20G30G18G11G15G14
  21882797.403   114994874.640        1134.009          46.000  
  22744431.430   119522775.752        2254.097          45.000  
  22726203.072   119427009.530       -2136.947          41.000  
  21376793.788   112335822.343       -1035.267          45.000  
  21639521.597   113716448.357        -447.369          47.000  
  26404540.838   138756746.769        2323.016          28.000  
  24642661.351   129498065.975       -3590.942          42.000  
  25795906.752   135558396.583        3277.783          38.000  
  24520708.132   128857187.757        2920.994          41.000  
 23  8  9 17 38 38.0030000  0  9G 5G13G 7G20G30G18G11G15G14
  21882582.015   114993741.157        1133.081          46.000  
  22744002.521   119520521.832        2253.487          45.000  
  22726609.749   119429146.630       -2137.513          41.000  
  21376990.871   112336858.191       -1036.298          45.000  
  21639606.928   113716896.366        -448.328          46.000  
  26404099.906   138754423.683        2322.535          28.000  
  24643345.138   129501657.065       -3591.266          42.000  
  25795283.360   135555118.905        3277.846          38.000  
  24520152.133   128854266.926        2920.642          42.000  
 23  8  9 17 38 39.0030000  0  9G 5G13G 7G20G30G18G11G15G14
  21882366.906   114992608.065        1133.276          46.000  
  22743573.629   119518267.983        2254.286          46.000  
  22727016.409   119431283.879       -2136.907          41.000  
  21377187.989   112337894.462       -1036.472          45.000  
  21639692.155   113717344.721        -448.376          47.000  
  26403657.962   138752100.804        2323.028          28.000  
  24644028.785   129505248.184       -3590.900          43.000  
  25794659.725   135551841.136        3278.260          40.000  
  24519596.274   128851346.073        2920.796          41.000  
 23  8  9 17 38 40.0030000  0  9G 5G13G 7G20G30G18G11G15G14
  21882151.518   114991475.358        1131.946          46.000  
  22743144.738   119516014.189        2253.253          45.000  
  22727423.156   119433421.300       -2138.008          41.000  
  21377385.054   112338931.194       -1037.182          45.000  
  21639777.382   113717793.420        -449.365          47.000  
  26403218.374   138749778.169        2322.473          27.000  
  24644712.415   129508839.350       -3591.766          42.000  
  25794035.810   135548563.131        3277.903          39.000  
  24519040.484   128848425.231        2920.212          41.000  
 23  8  9 17 38 41.0030000  0  9G 5G13G 7G20G30G18G11G15G14
  21881936.182   114990343.575        1131.689          46.000  
  22742715.497   119513761.008        2253.238          45.000  
  22727830.305   119435559.452       -2137.901          40.000  
  21377582.189   112339968.954       -1037.902          44.000  
  21639863.132   113718243.006        -449.481          47.000  
  26402776.220   138747456.364        2321.813          27.000  
  24645396.202   129512431.064       -3591.510          42.000  
  25793412.296   135545285.522        3277.978          39.000  
  24518484.625   128845504.939        2920.449          41.000  
 23  8  9 17 38 42.0030000  0  9G 5G13G 7G20G30G18G11G15G14
  21881720.899   114989212.419        1131.030          46.000  
  22742286.466   119511508.161        2252.625          44.000  
  22728237.104   119437698.016       -2138.477          40.000  
  21377779.638   112341007.381       -1038.610          44.000  
  21639948.865   113718693.197        -450.360          47.000  
  26402331.850   138745134.935        2321.991          26.000  
  24646079.849   129516023.056       -3591.931          42.000  
  25792789.009   135542008.010        3277.699          40.000  
  24517928.888   128842584.915        2919.995          41.000  
 23  8  9 17 38 43.0030000  0  9G 5G13G 7G20G30G18G11G15G14
  21881506.331   114988081.577        1130.457          46.000  
  22741857.348   119509255.291        2252.426          44.000  
  22728644.061   119439836.675       -2138.893          40.000  
  21377977.262   112342046.194       -1039.172          44.000  
  21640034.668   113719143.664        -450.800          47.000  
  26401886.870   138742813.828        2320.365          25.000  
  24646763.531   129519615.003       -3592.004          42.000  
  25792165.827   135538730.262        3277.517          40.000  
  24517373.290   128839664.838        2919.767          41.000  
 23  8  9 17 38 44.0030000  0  9G 5G13G 7G20G30G18G11G15G14
  21881291.292   114986951.354        1130.084          46.000  
  22741428.544   119507002.721        2252.544          44.000  
  22729050.930   119441975.726       -2138.739          40.000  
  21378174.973   112343085.673       -1039.542          44.000  
  21640120.506   113719594.697        -451.062          47.000  
  26401446.147   138740493.159        2320.065          25.000  
  24647447.597   129523207.193       -3592.059          42.000  
  25791542.261   135535452.572        3277.804          39.000  
  24516817.902   128836744.993        2919.771          41.000  
 23  8  9 17 38 45.0030000  0  9G 5G13G 7G20G30G18G11G15G14
  21881076.515   114985821.926        1129.541          46.000  
  22740999.635   119504750.628        2252.170          44.000  
  22729458.148   119444115.385       -2139.436          40.000  
  21378372.928   112344126.025       -1040.398          44.000  
  21640206.291   113720046.502        -451.685          47.000  
  26401005.756   138738173.002        2320.138          25.000  
  24648131.436   129526799.817       -3592.383          42.000  
  25790918.607   135532175.108        3278.216          39.000  
  24516262.060   128833825.554        2919.685          41.000  
 23  8  9 17 38 46.0030000  0  9G 5G13G 7G20G30G18G11G15G14
  21880861.773   114984693.117        1128.485          46.000  
  22740571.075   119502498.832        2251.553          44.000  
  22729865.611   119446255.434       -2140.365          40.000  
  21378571.110   112345167.050       -1041.507          44.000  
  21640292.163   113720498.879        -452.753          47.000  
  26400564.981   138735853.429        2319.077          26.000  
  24648815.624   129530392.699       -3593.115          42.000  
  25790295.233   135528897.739        3277.242          39.000  
  24515706.829   128830906.373        2918.820          41.000  
 23  8  9 17 38 47.0030000  0  9G 5G13G 7G20G30G18G11G15G14
  21880647.030   114983564.730        1127.979          46.000  
  22740142.445   119500247.188        2251.578          45.000  
  22730272.864   119448395.688       -2140.368          40.000  
  21378769.275   112346208.579       -1042.019          45.000  
  21640378.280   113720951.631        -453.174          47.000  
  26400123.089   138733533.994        2320.030          26.000  
  24649499.917   129533985.651       -3592.889          43.000  
  25789671.493   135525620.228        3277.330          40.000  
  24515151.232   128827987.257        2918.729          41.000  
 23  8  9 17 38 48.0030000  0  9G 5G13G 7G20G30G18G11G15G14
  21880432.427   114982436.910        1127.563          46.000  
  22739714.147   119497995.747        2251.380          45.000  
  22730680.536   119450536.316       -2140.730          40.000  
  21378967.771   112347250.715       -1042.569          44.000  
  21640464.502   113721404.924        -453.448          47.000  
  26399680.360   138731215.155        2318.999          25.000  
  24650183.809   129537578.786       -3593.109          43.000  
  25789047.857   135522342.745        3277.636          39.000  
  24514595.983   128825068.331        2918.655          41.000  
 23  8  9 17 38 49.0030000  0  9G 5G13G 7G20G30G18G11G15G14
  21880217.615   114981309.899        1126.935          46.000  
  22739285.762   119495744.812        2250.925          45.000  
  22731088.330   119452677.511       -2141.253          41.000  
  21379166.390   112348293.708       -1042.996          45.000  
  21640551.002   113721858.989        -454.065          47.000  
  26399243.127   138728896.883        2318.050          25.000  
  24650868.049   129541172.373       -3593.494          43.000  
  25788424.500   135519065.548        3277.358          39.000  
  24514040.351   128822149.783        2919.352          41.000  
 23  8  9 17 38 50.0030000  0  9G 5G13G 7G20G30G18G11G15G14
  21880003.466   114980183.478        1126.117          46.000  
  22738857.394   119493494.127        2250.642          45.000  
  22731496.351   119454819.081       -2141.801          41.000  
  21379365.060   112349337.354       -1044.046          45.000  
  21640637.503   113722313.589        -454.938          47.000  
  26398806.156   138726578.971        2318.519          25.000  
  24651552.063   129544766.177       -3593.835          43.000  
  25787801.283   135515788.353        3277.061          39.000  
  24513485.329   128819231.472        2918.031          41.000  
 23  8  9 17 38 51.0030000  0  9G 5G13G 7G20G30G18G11G15G14
  21879788.985   114979057.178        1126.398          46.000  
  22738428.956   119491243.282        2251.150          45.000  
  22731904.442   119456960.553       -2140.907          41.000  
  21379563.975   112350381.199       -1043.805          45.000  
  21640723.760   113722768.290        -454.639          47.000  
  26398369.098   138724261.142        2318.200          25.000  
  24652236.111   129548359.755       -3593.335          43.000  
  25787177.595   135512510.741        3278.159          38.000  
  24512929.610   128816312.945        2918.819          41.000  
 23  8  9 17 38 52.0030000  0  9G 5G13G 7G20G30G18G11G15G14
  21879575.011   114977931.653        1124.677          46.000  
  22738000.571   119488992.888        2249.941          45.000  
  22732312.376   119459102.614       -2142.832          42.000  
  21379763.013   112351425.885       -1045.500          45.000  
  21640810.313   113723223.715        -456.116          47.000  
  26397930.033   138721943.896        2316.720          24.000  
  24652919.898   129551953.743       -3594.476          43.000  
  25786553.959   135509233.363        3277.190          38.000  
  24512374.483   128813394.806        2917.445          41.000  
 23  8  9 17 38 53.0030000  0  9G 5G13G 7G20G30G18G11G15G14
  21879361.141   114976806.860        1124.713          46.000  
  22737572.360   119486742.922        2249.978          45.000  
  22732720.466   119461245.183       -2142.604          41.000  
  21379961.945   112352471.361       -1045.668          45.000  
  21640897.180   113723679.856        -456.268          47.000  
  26397486.867                        2321.408          22.000  
  24653604.017   129555548.108       -3594.324          43.000  
  25785930.271   135505956.165        3277.795          38.000  
  24511819.148   128810477.022        2917.828          41.000  
 23  8  9 17 38 54.0030000  0  9G 5G13G 7G20G30G18G11G15G14
  21879147.166   114975682.546        1124.023          46.000  
  22737144.393   119484493.127        2249.579          45.000  
  22733128.575   119463388.038       -2143.371          42.000  
  21380161.192   112353517.415       -1046.658          45.000  
  21640984.012   113724136.451        -457.135          47.000  
  26397045.412                        2314.870          22.000  
  24654288.170   129559142.612       -3594.983          43.000  
  25785307.001   135502678.955        3276.870          38.000  
  24511263.899   128807559.369        2917.696          41.000  
 23  8  9 17 38 55.0030000  0  9G 5G13G 7G20G30G18G11G15G14
  21878933.035   114974558.630        1123.700          46.000  
  22736716.235   119482243.414        2249.717          46.000  
  22733536.491   119465531.064       -2142.894          41.000  
  21380360.630   112354563.919       -1046.773          45.000  
  21641071.071   113724593.385        -457.117          47.000  
  26396603.904                        2325.230          22.000  
  24654972.585   129562737.138       -3594.635          43.000  
  25784683.278   135499401.539        3277.531          39.000  
  24510708.564   128804641.788        2917.725          41.000  
 23  8  9 17 38 56.0030000  0  9G 5G13G 7G20G30G18G11G15G14
  21878719.706   114973435.483        1122.552          46.000  
  22736288.024   119479994.142        2248.802          45.000  
  22733944.425   119467674.650       -2144.330          41.000  
  21380559.842   112355611.229       -1047.978          45.000  
  21641158.113   113725051.035        -458.319          47.000  
  26396160.738                        2309.639          23.000  
  24655656.947   129566332.061       -3595.587          42.000  
  25784059.258   135496124.325        3277.212          36.000  
  24510153.018   128801724.518        2917.063          41.000  
 23  8  9 17 38 57.0030000  0  9G 5G13G 7G20G30G18G11G15G14
  21878506.080   114972313.048        1122.174          46.000  
  22735859.900   119477745.272        2248.846          45.000  
  22734352.760   119469818.731       -2144.337          41.000  
  21380759.280   112356659.335       -1048.499          45.000  
  21641244.980   113725509.385        -458.612          47.000  
  26395718.706                        2313.848          25.000  
  24656341.153   129569927.315       -3595.099          43.000  
  25783435.256   135492847.341        3277.113          37.000  
  24509598.032   128798807.618        2916.613          41.000  
 23  8  9 17 38 58.0030000  0  9G 5G13G 7G20G30G18G11G15G14
  21878292.856   114971191.321        1121.667          47.000  
  22735432.195   119475496.772        2248.484          45.000  
  22734761.269   119471963.280       -2144.503          41.000  
  21380958.789   112357708.193       -1049.122          45.000  
  21641332.179   113725968.389        -459.265          46.000  
  26395278.577                        2313.335          26.000  
  24657025.428   129573522.932       -3595.453          43.000  
  25782811.690   135489570.495        3276.935          38.000  
  24509042.818   128795891.013        2916.885          41.000  
 23  8  9 17 38 59.0030000  0  9G 5G13G 7G20G30G18G11G15G14
  21878079.545   114970069.629        1121.405          47.000  
  22735004.299   119473248.003        2248.679          45.000  
  22735169.430   119474107.664       -2144.435          41.000  
  21381158.402   112358757.156       -1049.225          45.000  
  21641419.325   113726427.415        -459.259          46.000  
  26394837.366                        2313.923          25.000  
  24657709.198   129577118.213       -3595.398          43.000  
  25782187.548   135486293.132        3277.282          38.000  
  24508487.465   128792974.115        2916.612          41.000  
 23  8  9 17 39  0.0030000  0  9G 5G13G 7G20G30G18G11G15G14
  21877866.338   114968948.726        1120.245          47.000  
  22734576.297   119470999.719        2247.858          45.000  
  22735577.870   119476252.616       -2145.449          42.000  
  21381358.067   112359806.958       -1050.274          45.000  
  21641506.873   113726887.167        -460.345          47.000  
  26394397.341                        2313.016          25.000  
  24658393.159   129580713.914       -3596.100          43.000  
  25781563.807   135483016.009        3276.732          38.000  
  24507932.880   128790057.609        2915.946          41.000  
 23  8  9 17 39  1.0030000  0  9G 5G13G 7G20G30G18G11G15G14
  21877653.463   114967828.647        1120.007          47.000  
  22734148.749   119468751.922        2247.959          45.000  
  22735986.362   119478398.171       -2145.480          41.000  
  21381557.802   112360857.668       -1050.838          45.000  
  21641594.717   113727347.722        -460.614          47.000  
  26393954.472                        2313.343          23.000  
  24659077.626   129584310.086       -3596.130          43.000  
  25780940.416   135479739.162        3277.042          39.000  
  24507378.085   128787141.555        2916.173          41.000  
 23  8  9 17 39  2.0030000  0  9G 5G13G 7G20G30G18G11G15G14
  21877440.308   114966709.068        1119.489          47.000  
  22733721.079   119466504.332        2247.627          45.000  
  22736395.046   119480544.007       -2145.692          41.000  
  21381757.834   112361908.934       -1051.343          45.000  
  21641682.440   113727808.736        -461.139          46.000  
  26393514.220                        2316.290          22.000  
  24659762.181   129587906.406       -3596.234          43.000  
  25780316.501   135476462.286        3276.924          39.000  
  24506823.238   128784225.631        2916.237          41.000  
 23  8  9 17 39  3.0030000  0  9G 5G13G 7G20G30G18G11G15G14
  21877227.660   114965590.036        1118.225          47.000  
  22733293.549   119464256.963        2246.730          45.000  
  22736803.782   119482690.194       -2146.785          41.000  
  21381958.442   112362960.800       -1052.567          45.000  
  21641769.778   113728270.250        -462.030          46.000  
  26393073.934                        2314.138          21.000  
  24660446.718   129591502.894       -3596.967          44.000  
  25779693.092   135473185.390        3276.699          39.000  
  24506268.251   128781309.899        2915.138          41.000  
 23  8  9 17 39  4.0030000  0  9G 5G13G 7G20G30G18G11G15G14
  21877014.889   114964471.693        1118.060          47.000  
  22732866.246   119462009.996        2246.707          45.000  
  22737212.763   119484836.883       -2147.151          41.000  
  21382158.875   112364013.447       -1052.850          46.000  
  21641857.971   113728732.456        -462.775          46.000  
  26392634.398                        2307.359          21.000  
  24661131.360   129595099.754       -3597.033          43.000  
  25779069.805   135469908.654        3276.688          39.000  
  24505713.369   128778394.474        2915.183          41.000  
 23  8  9 17 39  5.0030000  0  9G 5G13G 7G20G30G18G11G15G14
  21876801.997   114963353.885        1117.572          46.000  
  22732438.890   119459763.169        2246.673          45.000  
  22737621.046   119486983.815       -2147.159          40.000  
  21382359.902   112365066.636       -1053.269          46.000  
  21641946.078   113729195.080        -462.848          47.000  
  26392197.078                        2308.601          19.000  
  24661815.757   129598696.696       -3596.893          43.000  
  25778446.396   135466631.868        3276.962          38.000  
  24505158.243   128775479.183        2915.309          41.000  
 23  8  9 17 39  6.0030000  0  9G 5G13G 7G20G30G18G11G15G14
  21876589.540   114962236.686        1117.035          46.000  
  22732011.010   119457516.672        2246.330          46.000  
  22738029.835   119489131.185       -2147.206          40.000  
  21382560.911   112366120.551       -1054.151          46.000  
  21642034.149   113729658.321        -463.354          47.000  
  26391757.036                        2308.572          17.000  
  24662500.225   129602293.936       -3597.314          42.000  
  25777822.795   135463355.186        3276.830          39.000  
  24504603.012   128772564.164        2915.082          41.000  
 23  8  9 17 39  7.0030000  0  9G 5G13G 7G20G30G18G11G15G14
  21876377.241   114961119.913        1116.266          46.000  
  22731583.532   119455270.271        2245.913          45.000  
  22738438.362   119491278.747       -2148.059          40.000  
  21382761.588   112367174.893       -1054.973          46.000  
  21642122.552   113730121.919        -464.038          47.000  
  26391319.315                        2310.700          16.000  
  24663184.675   129605891.156       -3597.656          42.000  
  25777199.089   135460078.366        3276.409          39.000  
  24504048.618   128769649.165        2914.549          42.000  
 23  8  9 17 39  8.0030000  0  9G 5G13G 7G20G30G18G11G15G14
  21876164.715   114960003.832        1115.759          46.000  
  22731156.159   119453024.258        2245.802          46.000  
  22738847.343   119493426.779       -2148.209          40.000  
  21382962.388   112368230.045       -1055.586          46.000  
  21642211.234   113730586.216        -464.532          47.000  
  26390880.878                        2320.558          18.000  
  24663869.002   129609488.815       -3598.083          41.000  
  25776575.296   135456801.723        3276.659          38.000  
  24503494.312   128766734.533        2914.491          42.000  
 23  8  9 17 39  9.0030000  0  9G 5G13G 7G20G30G18G11G15G14
  21875952.258   114958888.469        1114.801          46.000  
  22730728.925   119450778.629        2245.414          45.000  
  22739256.131   119495575.301       -2148.761          40.000  
  21383163.118   112369285.929       -1056.449          46.000  
  21642300.055   113731051.151        -465.405          47.000  
  26390443.820                        2309.504          20.000  
  24664553.906   129613086.741       -3598.206          42.000  
  25775951.207   135453525.219        3275.922          38.000  
  24502939.674   128763820.206        2913.981          40.000  
 23  8  9 17 39 10.0030000  0  9G 5G13G 7G20G30G18G11G15G14
  21875739.889   114957773.522        1114.874          46.000  
  22730301.587   119448533.134        2245.533          45.000  
  22739665.112   119497724.057       -2148.785          40.000  
  21383364.005   112370342.312       -1056.476          46.000  
  21642388.598   113731516.499        -465.613          48.000  
  26390004.266                        2306.719          20.000  
  24665238.565   129616684.759       -3597.858          42.000  
  25775327.658   135450248.595        3276.701          38.000  
  24502384.687   128760905.919        2914.362          41.000  
 23  8  9 17 39 11.0030000  0  8G 5G13G 7G20G30G11G15G14
  21875527.921   114956659.115        1113.745          46.000  
  22729874.755   119446287.854        2245.078          45.000  
  22740074.041   119499873.138       -2149.665          40.000  
  21383565.031   112371399.314       -1057.670          46.000  
  21642477.472   113731982.327        -466.418          48.000  
  24665923.068   129620282.939       -3598.413          42.000  
  25774704.092   135446971.969        3276.192          38.000  
  24501830.015   128757991.832        2913.798          41.000  
 23  8  9 17 39 12.0030000  0  9G 5G13G 7G20G30G18G11G15G14
  21875315.622   114955545.401        1113.287          46.000  
  22729447.591   119444042.964        2244.540          45.000  
  22740483.109   119502022.679       -2149.812          40.000  
  21383766.354   112372457.037       -1058.194          46.000  
  21642566.380   113732448.817        -466.937          48.000  
  26389119.662                        2311.237          22.000  
  24666607.692   129623881.461       -3599.030          42.000  
  25774080.281   135443695.445        3276.567          38.000  
  24501275.395   128755078.051        2913.246          41.000  
 23  8  9 17 39 13.0030000  0  9G 5G13G 7G20G30G18G11G15G14
  21875104.038   114954432.169        1113.098          46.000  
  22729020.689   119441798.213        2244.639          45.000  
  22740892.089   119504172.474       -2149.828          40.000  
  21383967.590   112373515.324       -1058.595          45.000  
  21642655.132   113732915.735        -467.279          48.000  
  26388681.924                        2303.173          21.000  
  24667292.334   129627480.072       -3598.639          42.000  
  25773456.523   135440418.887        3276.711          38.000  
  24500720.774   128752164.360        2913.536          41.000  
 23  8  9 17 39 14.0030000  0  8G 5G13G 7G20G30G11G15G14
  21874892.245   114953319.369        1112.555          46.000  
  22728593.787   119439553.558        2244.399          45.000  
  22741301.105   119506322.449       -2149.909          40.000  
  21384169.035   112374574.070       -1058.942          45.000  
  21642744.041   113733383.020        -467.462          48.000  
  24667977.150   129631078.729       -3598.682          42.000  
  25772832.765   135437142.165        3277.372          38.000  
  24500166.102   128749250.723        2913.636          41.000  
 23  8  9 17 39 15.0030000  0  8G 5G13G 7G20G30G11G15G14
  21874680.696   114952207.268        1111.865          46.000  
  22728167.041   119437309.290        2244.107          46.000  
  22741710.278   119508472.931       -2150.712          40.000  
  21384370.481   112375633.598       -1059.771          45.000  
  21642832.810   113733850.981        -468.286          48.000  
  24668661.809   129634677.736       -3599.188          42.000  
  25772209.147   135433865.649        3276.242          38.000  
  24499611.359   128746337.408        2913.215          40.000  
 23  8  9 17 39 16.0030000  0  8G 5G13G 7G20G30G11G15G14
  21874469.095   114951095.937        1110.938          46.000  
  22727740.628   119435065.517        2243.352          46.000  
  22742119.590   119510623.984       -2151.580          41.000  
  21384572.101   112376693.979       -1060.803          45.000  
  21642921.946   113734319.689        -469.116          48.000  
  24669346.661   129638277.158       -3599.506          42.000  
  25771585.773   135430589.334        3276.073          38.000  
  24499056.914   128743424.531        2912.745          40.000  
 23  8  9 17 39 17.0030000  0  8G 5G13G 7G20G30G11G15G14
  21874257.685   114949985.207        1110.559          46.000  
  22727313.988   119432821.997        2243.364          46.000  
  22742528.693   119512775.396       -2151.470          41.000  
  21384773.982   112377754.999       -1061.197          45.000  
  21643011.012   113734788.959        -469.586          47.000  
  24670031.355   129641876.823       -3599.695          42.000  
  25770962.032   135427313.088        3276.190          38.000  
  24498502.450   128740511.862        2912.575          40.000  
 23  8  9 17 39 18.0030000  0  8G 5G13G 7G20G30G11G15G14
  21874046.660   114948874.833        1110.522          46.000  
  22726887.120   119430578.535        2243.659          46.000  
  22742938.110   119514926.970       -2151.393          41.000  
  21384975.619   112378816.456       -1061.445          46.000  
  21643100.095   113735258.536        -469.391          47.000  
  24670716.032   129645476.488       -3599.609          43.000  
  25770338.361   135424036.621        3276.874          37.000  
  24497947.795   128737599.199        2912.953          40.000  
 23  8  9 17 39 19.0030000  0  9G 5G13G 7G20G30G18G11G15G14
  21873835.669   114947765.018        1109.106          47.000  
  22726460.271   119428335.265        2242.790          45.000  
  22743347.562   119517078.846       -2152.502          40.000  
  21385177.728   112379878.500       -1062.797          46.000  
  21643189.475   113735728.620        -470.905          47.000  
  26386062.681                        2307.469          19.000  
  24671401.110   129649076.294       -3600.281          42.000  
  25769714.569   135420760.177        3275.599          36.000  
  24497393.297   128734686.643        2911.979          39.000  
 23  8  9 17 39 20.0030000  0  8G 5G13G 7G20G30G11G15G14
  21873625.063   114946656.054        1108.850          47.000  
  22726033.944   119426092.554        2242.760          45.000  
  22743756.944   119519231.346       -2152.450          40.000  
  21385379.976   112380941.435       -1062.956          46.000  
  21643279.065   113736199.487        -470.911          47.000  
  24672085.874   129652676.568       -3600.177          42.000  
  25769090.933   135417483.961        3276.618          37.000  
  24496838.851   128731774.614        2912.142          39.000  
 23  8  9 17 39 21.0030000  0  8G 5G13G 7G20G30G11G15G14
  21873414.089   114945547.469        1108.490          46.000  
  22725607.321   119423849.910        2242.851          45.000  
  22744166.361   119521384.007       -2152.052          40.000  
  21385582.451   112382004.845       -1063.469          46.000  
  21643368.916   113736670.726        -471.246          48.000  
  24672770.760   129656276.876       -3600.055          42.000  
  25768467.611   135414207.678        3276.704          38.000  
  24496284.458   128728862.581        2912.086          40.000  
 23  8  9 17 39 22.0030000  0  8G 5G13G 7G20G30G11G15G14
  21873203.448   114944439.275        1107.587          46.000  
  22725180.681   119421607.336        2242.060          46.000  
  22744575.691   119523536.865       -2153.314          41.000  
  21385785.013   112383068.695       -1064.611          46.000  
  21643458.715   113737142.298        -472.327          48.000  
  24673455.768   129659877.197       -3600.751          41.000  
  25767844.045   135410931.226        3275.817          37.000  
  24495730.221   128725950.581        2911.279          39.000  
 23  8  9 17 39 23.0030000  0  8G 5G13G 7G20G30G11G15G14
  21872992.754   114943331.917        1106.897          46.000  
  22724754.302   119419365.281        2241.806          46.000  
  22744985.631   119525690.327       -2153.583          41.000  
  21385987.592   112384133.437       -1065.245          46.000  
  21643548.531   113737614.660        -472.742          48.000  
  24674140.846   129663478.002       -3601.123          41.000  
  25767220.252   135407654.958        3276.128          36.000  
  24495176.020   128723039.024        2911.264          40.000  
 23  8  9 17 39 24.0030000  0  8G 5G13G 7G20G30G11G15G14
  21872782.025   114942225.169        1106.494          46.000  
  22724327.837   119417123.524        2241.604          46.000  
  22745395.502   119527844.187       -2154.005          41.000  
  21386190.381   112385198.861       -1065.884          46.000  
  21643638.574   113738087.609        -473.132          48.000  
  24674825.767   129667079.029       -3601.019          41.000  
  25766596.860   135404378.830        3276.436          37.000  
  24494621.853   128720127.705        2911.131          40.000  
 23  8  9 17 39 25.0030000  0  8G 5G13G 7G20G30G11G15G14
  21872571.855   114941118.766        1106.097          46.000  
  22723901.091   119414881.735        2241.706          46.000  
  22745805.216   119529998.153       -2154.074          41.000  
  21386393.048   112386264.650       -1066.213          46.000  
  21643728.792   113738560.835        -473.651          48.000  
  24675510.671   129670680.021       -3600.946          42.000  
  25765973.364   135401102.476        3276.302          37.000  
  24494067.582   128717216.331        2911.241          39.000  
 23  8  9 17 39 26.0030000  0  8G 5G13G 7G20G30G11G15G14
  21872361.510   114940013.004        1105.389          47.000  
  22723474.469   119412640.342        2241.181          46.000  
  22746215.453   119532152.551       -2154.722          41.000  
  21386596.169   112387331.184       -1066.729          46.000  
  21643818.957   113739034.683        -474.084          47.000  
  24676195.749   129674281.329       -3601.190          42.000  
  25765349.868   135397826.232        3275.683          37.000  
  24493513.939   128714305.285        2910.889          40.000  
 23  8  9 17 39 27.0030000  0  8G 5G13G 7G20G30G11G15G14
  21872150.938   114938907.771        1104.938          46.000  
  22723047.671   119410399.124        2241.165          46.000  
  22746625.271   119534307.230       -2154.855          41.000  
  21386799.412   112388398.275       -1067.458          44.000  
  21643909.000   113739508.996        -474.664          47.000  
  24676881.194   129677882.749       -3601.495          41.000  
  25764726.075   135394549.929        3275.993          37.000  
  24492960.104   128711394.385        2910.507          41.000  
 23  8  9 17 39 28.0030000  0  8G 5G13G 7G20G30G11G15G14
  21871940.541   114937803.233        1103.851          47.000  
  22722621.502   119408158.307        2240.395          46.000  
  22747035.229   119536462.416       -2155.792          41.000  
  21387002.829   112389466.129       -1068.495          45.000  
  21643999.322   113739983.986        -475.568          47.000  
  24677566.795   129681484.524       -3602.276          41.000  
  25764102.910   135391273.813        3275.499          37.000  
  24492406.199   128708483.750        2910.346          40.000  
 23  8  9 17 39 29.0030000  0  8G 5G13G 7G20G30G11G15G14
  21871730.283   114936699.219        1103.693          47.000  
  22722195.088   119405917.678        2240.427          46.000  
  22747445.361   119538617.915       -2155.693          41.000  
  21387206.194   112390534.573       -1068.813          46.000  
  21644089.854   113740459.450        -475.714          47.000  
  24678251.769   129685086.432       -3602.234          41.000  
  25763479.239   135387997.627        3276.045          37.000  
  24491852.260   128705573.318        2910.579          38.000  
 23  8  9 17 39 30.0030000  0  8G 5G13G 7G20G30G11G15G14
  21871520.304   114935595.729        1103.479          46.000  
  22721768.727   119403677.263        2240.413          46.000  
  22747855.581   119540773.716       -2155.859          41.000  
  21387409.733   112391603.618       -1069.319          46.000  
  21644180.683   113740935.395        -475.970          47.000  
  24678936.969   129688688.503       -3601.898          41.000  
  25762855.848   135384721.418        3276.782          38.000  
  24491298.425   128702663.020        2910.244          39.000  
 23  8  9 17 39 31.0030000  0  8G 5G13G 7G20G30G11G15G14
  21871310.169   114934492.845        1102.466          47.000  
  22721342.663   119401437.145        2239.849          46.000  
  22748265.871   119542929.934       -2156.580          41.000  
  21387613.168   112392673.307       -1070.162          46.000  
  21644271.476   113741411.919        -476.941          47.000  
  24679622.187   129692290.813       -3602.704          41.000  
  25762232.334   135381445.346        3275.828          38.000  
  24490744.764   128699752.961        2909.837          39.000  
 23  8  9 17 39 32.0030000  0  8G 5G13G 7G20G30G11G15G14
  21871099.946   114933390.576        1101.886          47.000  
  22720916.389   119399197.301        2239.802          46.000  
  22748676.370   119545086.516       -2156.750          40.000  
  21387816.934   112393743.677       -1070.775          45.000  
  21644362.357   113741889.011        -477.606          47.000  
  24680306.916   129695893.378       -3602.649          41.000  
  25761608.942   135378169.290        3275.770          38.000  
  24490190.946   128696843.164        2909.443          40.000  
 23  8  9 17 39 33.0030000  0  8G 5G13G 7G20G30G11G15G14
  21870890.212   114932288.607        1101.770          47.000  
  22720490.080   119396957.470        2239.899          47.000  
  22749086.642   119547243.178       -2156.781          40.000  
  21388020.560   112394814.410       -1070.900          45.000  
  21644453.115   113742366.357        -477.576          47.000  
  24680992.500   129699495.856       -3602.618          41.000  
  25760985.551   135374892.960        3276.642          38.000  
  24489637.094   128693933.275        2910.082          40.000  
 23  8  9 17 39 34.0030000  0  8G 5G13G 7G20G30G11G15G14
  21870680.757   114931187.130        1101.031          47.000  
  22720063.893   119394717.784        2239.583          47.000  
  22749497.001   119549400.100       -2156.773          40.000  
  21388223.908   112395885.677       -1071.645          45.000  
  21644544.206   113742844.150        -478.308          47.000  
  24681677.875   129703098.446       -3602.459          41.000  
  25760362.124   135371616.634        3275.981          38.000  
  24489083.538   128691023.493        2909.696          40.000  
 23  8  9 17 39 35.0030000  0  9G 5G13G 7G20G30G18G11G15G14
  21870471.093   114930086.204        1100.262          47.000  
  22719637.916   119392478.345        2239.032          47.000  
  22749907.535   119551557.360       -2157.214          39.000  
  21388427.622   112396957.566       -1072.502          45.000  
  21644635.016   113743322.445        -478.839          48.000  
  26379052.754                        2291.840          24.000  
  24682363.232   129706701.228       -3603.113          41.000  
  25759738.733   135368340.282        3276.107          39.000  
  24488530.000   128688113.910        2909.342          40.000  
 23  8  9 17 39 36.0030000  0  9G 5G13G 7G20G30G18G11G15G14
  21870261.673   114928986.003        1099.762          47.000  
  22719211.799   119390239.311        2238.965          47.000  
  22750317.929   119553715.150       -2158.163          39.000  
  21388631.807   112398030.224       -1073.153          45.000  
  21644726.299   113743801.419        -479.224          47.000  
  26378613.375                        2291.840          23.000  
  24683048.816   129710304.351       -3603.406          41.000  
  25759115.045   135365064.115        3275.926          39.000  
  24487976.566   128685204.679        2908.840          40.000  
 23  8  9 17 39 37.0030000  0  9G 5G13G 7G20G30G18G11G15G14
  21870052.724   114927886.429        1099.292          47.000  
  22718785.717   119388000.581        2238.496          47.000  
  22750728.794   119555873.342       -2158.821          38.000  
  21388835.817   112399103.567       -1073.652          45.000  
  21644817.424   113744280.985        -479.712          48.000  
  26378171.326                        2291.840          23.000  
  24683734.435   129713907.741       -3603.400          41.000  
  25758491.775   135361787.997        3276.514          38.000  
  24487423.202   128682295.689        2909.042          40.000  
 23  8  9 17 39 38.0030000  0  9G 5G13G 7G20G30G18G11G15G14
  21869843.862   114926787.446        1098.456          47.000  
  22718359.827   119385762.102        2238.000          47.000  
  22751139.520   119558031.829       -2158.911          39.000  
  21389040.159   112400177.530       -1074.433          45.000  
  21644908.584   113744761.085        -480.725          48.000  
  26377733.570                        2291.840          23.000  
  24684420.106   129717511.321       -3604.041          41.000  
  25757868.558   135358511.923        3275.919          38.000  
  24486869.716   128679386.884        2908.531          40.000  
 23  8  9 17 39 39.0030000  0  9G 5G13G 7G20G30G18G11G15G14
  21869634.704   114925689.132        1097.845          47.000  
  22717934.181   119383523.982        2237.637          47.000  
  22751550.037   119560190.817       -2159.300          38.000  
  21389244.728   112401252.251       -1075.134          45.000  
  21644999.883   113745241.818        -481.183          47.000  
  26377296.180                        2291.840          24.000  
  24685106.040   129721115.214       -3604.413          41.000  
  25757245.341   135355235.982        3275.826          38.000  
  24486316.230   128676478.404        2908.307          40.000  
 23  8  9 17 39 40.0030000  0  9G 5G13G 7G20G30G18G11G15G14
  21869425.964   114924591.386        1097.162          47.000  
  22717508.344   119381286.124        2237.339          47.000  
  22751960.850   119562350.161       -2159.938          38.000  
  21389449.384   112402327.611       -1075.950          45.000  
  21645091.409   113745723.081        -481.750          47.000  
  26376858.214                        2297.515          25.000  
  24685791.868   129724719.309       -3604.498          41.000  
  25756621.757   135351960.073        3275.344          38.000  
  24485763.024   128673570.132        2907.951          40.000  
 23  8  9 17 39 41.0030000  0  9G 5G13G 7G20G30G18G11G15G14
  21869217.138   114923494.257        1096.851          47.000  
  22717082.367   119379048.570        2237.357          47.000  
  22752371.872   119564509.868       -2160.013          38.000  
  21389654.145   112403403.637       -1076.429          45.000  
  21645183.110   113746204.923        -482.166          47.000  
  26376422.744                        2295.459          26.000  
  24686477.888   129728323.641       -3604.572          41.000  
  25755998.680   135348684.197        3275.902          38.000  
  24485209.625   128670662.083        2908.156          40.000  
 23  8  9 17 39 42.0030000  0  9G 5G13G 7G20G30G18G11G15G14
  21869008.276   114922397.655        1096.210          47.000  
  22716656.651   119376811.221        2237.035          47.000  
  22752782.790   119566669.896       -2160.311          38.000  
  21389858.714   112404480.242       -1077.115          45.000  
  21645274.707   113746687.236        -482.745          47.000  
  26375987.588                        2295.728          26.000  
  24687163.630   129731928.124       -3604.529          41.000  
  25755375.707   135345408.331        3275.605          38.000  
  24484656.086   128667754.217        2907.743          39.000  
 23  8  9 17 39 43.0030000  0  9G 5G13G 7G20G30G18G11G15G14
  21868799.397   114921301.345        1095.935          47.000  
  22716230.621   119374573.836        2237.181          46.000  
  22753193.742   119568829.977       -2159.987          38.000  
  21390063.300   112405557.191       -1077.308          45.000  
  21645366.512   113747169.795        -482.690          47.000  
  26375549.151                        2294.907          26.000  
  24687849.825   129735532.523       -3604.315          42.000  
  25754752.525   135342132.162        3276.043          38.000  
  24484102.688   128664846.262        2907.490          40.000  
 23  8  9 17 39 44.0030000  0  9G 5G13G 7G20G30G18G11G15G14
  21868590.867   114920205.657        1095.349          46.000  
  22715804.313   119372336.751        2236.957          46.000  
  22753604.852   119570990.442       -2160.307          38.000  
  21390268.462   112406634.833       -1078.083          45.000  
  21645458.370   113747652.941        -483.447          47.000  
  26375110.627                        2295.526          26.000  
  24688535.705   129739137.167       -3604.639          42.000  
  25754129.325   135338856.079        3276.150          39.000  
  24483549.359   128661938.537        2907.571          40.000  
 23  8  9 17 39 45.0030000  0  9G 5G13G 7G20G30G18G11G15G14
  21868382.616   114919110.805        1094.537          46.000  
  22715378.423   119370100.196        2236.276          46.000  
  22754016.276   119573151.575       -2161.346          38.000  
  21390473.869   112407713.362       -1078.792          45.000  
  21645550.752   113748136.876        -484.235          47.000  
  26374672.295                        2294.920          26.000  
  24689221.883   129742742.296       -3605.169          42.000  
  25753506.038   135335580.312        3275.560          39.000  
  24482996.623   128659031.280        2906.978          40.000  
 23  8  9 17 39 46.0030000  0  9G 5G13G 7G20G30G18G11G15G14
  21868173.963   114918016.429        1094.000          46.000  
  22714952.672   119367863.804        2236.142          46.000  
  22754427.700   119575312.949       -2161.962          38.000  
  21390679.275   112408792.448       -1079.655          45.000  
  21645643.028   113748621.275        -484.741          47.000  
  26374232.114                        2294.468          26.000  
  24689907.816   129746347.521       -3605.200          41.000  
  25752882.699   135332304.463        3275.661          38.000  
  24482443.713   128656124.160        2906.796          40.000  
 23  8  9 17 39 47.0030000  0  9G 5G13G 7G20G30G18G11G15G14
  21867966.044   114916922.780        1093.555          46.000  
  22714526.695   119365627.830        2236.075          46.000  
  22754839.158   119577474.801       -2161.519          38.000  
  21390884.595   112409872.312       -1079.936          44.000  
  21645735.305   113749106.343        -485.120          47.000  
  26373792.822                        2294.098          25.000  
  24690594.028   129749953.117       -3605.371          41.000  
  25752259.587   135329028.758        3276.201          38.000  
  24481890.698   128653217.375        2907.053          40.000  
 23  8  9 17 39 48.0030000  0  9G 5G13G 7G20G30G18G11G15G14
  21867757.933   114915829.689        1092.529          46.000  
  22714101.189   119363392.095        2235.333          46.000  
  22755250.565   119579637.003       -2162.671          38.000  
  21391090.298   112410952.802       -1081.125          44.000  
  21645827.652   113749591.919        -486.273          47.000  
  26373355.083                        2293.232          26.000  
  24691280.415   129753558.895       -3606.213          41.000  
  25751636.719   135325753.118        3275.069          38.000  
  24481337.858   128650310.797        2906.062          40.000  
 23  8  9 17 39 49.0030000  0  9G 5G13G 7G20G30G18G11G15G14
  21867549.839   114914737.088        1092.334          46.000  
  22713675.683   119361156.533        2235.443          46.000  
  22755661.866   119581799.500       -2162.754          38.000  
  21391296.053   112412033.831       -1081.405          45.000  
  21645920.365   113750077.944        -486.102          48.000  
  26372920.922                        2292.986          26.000  
  24691966.575   129757164.800       -3605.884          41.000  
  25751013.414   135322477.413        3275.496          38.000  
  24480785.000   128647404.327        2906.365          40.000  
 23  8  9 17 39 50.0030000  0  9G 5G13G 7G20G30G18G11G15G14
  21867342.251   114913645.234        1091.595          46.000  
  22713250.665   119358921.386        2235.294          46.000  
  22756073.011   119583962.512       -2163.309          37.000  
  21391501.844   112413115.659       -1082.389          44.000  
  21646013.147   113750564.679        -486.890          47.000  
  26372485.172                        2293.099          27.000  
  24692653.067   129760771.035       -3606.250          41.000  
  25750390.110   135319201.892        3275.490          38.000  
  24480232.421   128644498.218        2906.215          40.000  
 23  8  9 17 39 51.0030000  0  9G 5G13G 7G20G30G18G11G15G14
  21867134.681   114912554.000        1091.193          47.000  
  22712825.735   119356686.531        2235.118          46.000  
  22756484.365   119586125.886       -2163.332          38.000  
  21391707.791   112414198.156       -1082.501          45.000  
  21646106.140   113751051.983        -487.439          48.000  
  26372047.800   138586052.7293       2292.454          27.000  
  24693339.628   129764377.547       -3606.360          42.000  
  25749766.980   135315926.358        3276.439          38.000  
  24479679.703   128641592.354        2906.029          41.000  
 23  8  9 17 39 52.0030000  0  9G 5G13G 7G20G30G18G11G15G14
  21866926.866   114911462.795        1090.942          47.000  
  22712400.351   119354451.427        2234.921          46.000  
  22756895.440   119588289.073       -2163.605          38.000  
  21391914.001   112415280.737       -1082.818          45.000  
  21646199.394   113751539.278        -487.616          48.000  
  26371612.190   138583760.7522       2292.384          26.000  
  24694025.858   129767983.678       -3606.177          42.000  
  25749143.659   135312650.444        3275.820          38.000  
  24479126.950   128638686.151        2906.262          41.000  
 23  8  9 17 39 53.0030000  0  9G 5G13G 7G20G30G18G11G15G14
  21866719.401   114910372.557        1089.941          46.000  
  22711975.473   119352216.934        2234.368          46.000  
  22757307.178   119590453.001       -2164.110          39.000  
  21392120.227   112416364.352       -1083.881          45.000  
  21646292.438   113752027.510        -488.397          48.000  
  26371174.923   138581469.6512       2290.940          26.000  
  24694712.210   129771590.471       -3606.854          41.000  
  25748520.092   135309374.854        3276.011          37.000  
  24478574.232   128635780.546        2905.505          39.000  
 23  8  9 17 39 54.0030000  0  9G 5G13G 7G20G30G18G11G15G14
  21866511.691   114909282.858        1089.917          46.000  
  22711550.456   119349982.690        2234.441          46.000  
  22757718.723   119592617.252       -2163.980          38.000  
  21392327.100   112417448.585       -1084.104          45.000  
  21646385.954   113752516.252        -488.641          48.000  
  26370737.987   138579179.0162       2290.447          26.000  
  24695399.138   129775197.410       -3606.573          41.000  
  25747896.160   135306099.295        3276.633          36.000  
  24478021.496   128632875.117        2905.492          39.000  
 23  8  9 17 39 55.0030000  0  9G 5G13G 7G20G30G18G11G15G14
  21866304.400   114908193.829        1088.989          46.000  
  22711125.368   119347748.797        2233.939          46.000  
  22758130.531   119594781.994       -2164.807          38.000  
  21392533.815   112418533.536       -1085.005          45.000  
  21646479.243   113753005.599        -489.380          48.000  
  26370300.615   138576888.7872       2290.282          26.000  
  24696085.874   129778804.644       -3607.349          41.000  
  25747272.751   135302823.871        3275.901          36.000  
  24477468.883   128629969.998        2905.371          39.000  
 23  8  9 17 39 56.0030000  0 10G 5G13G 7G20G30G18G11G 9G15G14
  21866097.318   114907105.078        1088.770          46.000  
  22710700.508   119345514.862        2233.983          46.000  
  22758542.182   119596946.773       -2164.577          38.000  
  21392740.408   112419618.849       -1085.553          45.000  
  21646572.532   113753495.198        -489.606          48.000  
  26369865.197   138574598.7352       2289.860          27.000  
  24696772.313   129782411.771       -3607.001          42.000  
  25408231.144                       -3511.052          28.000  
  25746649.202   135299548.193        3276.119          36.000  
  24476916.025   128627064.822        2905.163          39.000  
 23  8  9 17 39 57.0030000  0 10G 5G13G 7G20G30G18G11G 9G15G14
  21865890.114   114906016.899        1087.494          46.000  
  22710275.438   119343281.190        2233.114          46.000  
  22758954.164   119599111.883       -2165.390          38.000  
  21392947.001   112420704.762       -1086.524          45.000  
  21646666.065   113753985.312        -490.790          48.000  
  26369427.545   138572309.0642       2289.227          27.000  
  24697458.839   129786019.105       -3608.056          42.000  
  25408892.839                       -3511.052          27.000  
  25746025.811   135296272.504        3275.881          36.000  
  24476363.342   128624159.804        2904.768          40.000  
 23  8  9 17 39 58.0030000  0 10G 5G13G 7G20G30G18G11G 9G15G14
  21865683.154   114904929.476        1087.000          46.000  
  22709850.577   119341047.949        2233.004          46.000  
  22759366.164   119601277.561       -2166.266          38.000  
  21393153.804   112421791.513       -1087.245          45.000  
  21646759.476   113754476.146        -491.241          48.000  
  26368993.052   138570020.0512       2288.525          27.000  
  24698145.121   129789626.810       -3608.062          41.000  
  25409551.864                       -3510.692          27.000  
  25745402.314   135292997.029        3275.892          36.000  
  24475810.938   128621255.182        2904.139          40.000  
 23  8  9 17 39 59.0030000  0 10G 5G13G 7G20G30G18G11G 9G15G14
  21865476.160   114903842.661        1086.560          46.000  
  22709425.455   119338814.974        2232.938          46.000  
  22759778.181   119603443.584       -2166.565          38.000  
  21393360.676   112422878.899       -1087.594          45.000  
  21646853.061   113754967.519        -491.449          48.000  
  26368556.657   138567731.4072       2288.717          28.000  
  24698831.526   129793234.735       -3608.173          41.000  
  25410222.877                       -3510.683          27.000  
  25744778.434   135289721.591        3275.646          36.000  
  24475258.237   128618350.784        2904.547          40.000  
 23  8  9 17 40  0.0030000  0 10G 5G13G 7G20G30G18G11G 9G15G14
  21865269.392   114902756.375        1085.889          46.000  
  22709000.211   119336582.231        2232.514          46.000  
  22760190.372   119605609.893       -2166.697          38.000  
  21393567.775   112423966.885       -1088.585          45.000  
  21646946.874   113755459.401        -492.377          48.000  
  26368121.850   138565443.1982       2288.381          28.000  
  24699517.459   129796842.812       -3608.313          41.000  
  25410888.062                       -3510.741          27.000  
  25744155.043   135286446.138        3275.578          35.000  
  24474705.780   128615446.562        2903.984          40.000  
 23  8  9 17 40  1.0030000  0 10G 5G13G 7G20G30G18G11G 9G15G14
  21865063.043   114901670.851        1085.059          46.000  
  22708575.298   119334349.930        2232.011          46.000  
  22760602.878   119607776.756       -2166.877          37.000  
  21393775.136   112425055.687       -1089.112          45.000  
  21647040.546   113755951.982        -492.834          48.000  
  26367685.106   138563155.629        2287.337          29.000  
  24700203.968   129800451.295       -3608.697          41.000  
  25411554.224   133538618.3522      -3511.509          27.000  
  25743531.546   135283170.919        3275.420          35.000  
  24474153.341   128612542.707        2903.513          40.000  
 23  8  9 17 40  2.0030000  0 10G 5G13G 7G20G30G18G11G 9G15G14
  21864856.119   114900585.706        1084.741          45.000  
  22708150.246   119332117.697        2232.027          46.000  
  22761015.017   119609943.775       -2167.363          37.000  
  21393982.392   112426144.935       -1089.737          45.000  
  21647134.132   113756444.909        -493.457          48.000  
  26367249.845   138560868.263        2287.716          29.000  
  24700890.512   129804059.760       -3608.557          40.000  
  25412219.234   133542129.5612      -3511.367          26.000  
  25742907.823   135279895.517        3274.760          35.000  
  24473600.885   128609638.872        2903.715          40.000  
 23  8  9 17 40  3.0030000  0 10G 5G13G 7G20G30G18G11G 9G15G14
  21864649.560   114899501.163        1084.473          45.000  
  22707725.420   119329885.737        2232.111          46.000  
  22761427.314   119612111.205       -2167.508          38.000  
  21394189.910   112427234.835       -1090.069          45.000  
  21647227.857   113756938.398        -493.494          48.000  
  26366814.079   138558581.418        2286.739          29.000  
  24701577.003   129807668.474       -3608.618          41.000  
  25412884.437   133545640.8772      -3511.041          26.000  
  25742284.135   135276620.146        3275.537          35.000  
  24473048.394   128606735.272        2903.892          41.000  
 23  8  9 17 40  4.0030000  0 10G 5G13G 7G20G30G18G11G 9G15G14
  21864443.386   114898417.287        1083.704          45.000  
  22707300.664   119327654.122        2231.450          45.000  
  22761839.906   119614279.030       -2167.945          38.000  
  21394397.306   112428325.454       -1091.048          45.000  
  21647321.739   113757432.497        -494.415          48.000  
  26366377.718   138556295.031        2286.191          29.000  
  24702263.443   129811277.460       -3609.295          40.000  
  25413551.419                       -3510.309          26.000  
  25741660.813   135273344.870        3275.669          35.000  
  24472496.112   128603831.966        2903.241          41.000  
 23  8  9 17 40  5.0030000  0 10G 5G13G 7G20G30G18G11G 9G15G14
  21864237.159   114897333.804        1083.417          45.000  
  22706875.734   119325422.569        2231.433          45.000  
  22762252.325   119616447.009       -2167.515          38.000  
  21394604.719   112429416.509       -1091.315          45.000  
  21647415.691   113757926.928        -494.543          48.000  
  26365944.778   138554008.850        2286.233          28.000  
  24702950.301   129814886.440       -3608.759          40.000  
  25414220.565                       -3511.431          26.000  
  25741037.526   135270069.479        3275.607          35.000  
  24471943.725   128600928.648        2903.537          41.000  
 23  8  9 17 40  6.0030000  0 10G 5G13G 7G20G30G18G11G 9G15G14
  21864031.247   114896250.999        1082.379          45.000  
  22706450.752   119323191.394        2230.776          45.000  
  22762664.866   119618615.480       -2168.481          38.000  
  21394812.377   112430508.311       -1092.348          45.000  
  21647510.045   113758422.008        -495.435          48.000  
  26365509.204   138551723.247        2285.230          28.000  
  24703636.897   129818495.749       -3609.540          40.000  
  25414888.298                       -3511.935          26.000  
  25740413.960   135266794.206        3275.011          34.000  
  24471391.321   128598025.676        2902.621          40.000  
 23  8  9 17 40  7.0030000  0 10G 5G13G 7G20G30G18G11G 9G15G14
  21863825.107   114895168.652        1081.989          45.000  
  22706025.786   119320960.327        2231.020          45.000  
  22763077.371   119620784.175       -2168.504          38.000  
  21395020.104   112431600.611       -1092.556          45.000  
  21647604.084   113758917.492        -495.654          48.000  
  26365073.262   138549437.915        2285.286          28.000  
  24704323.668   129822105.118       -3609.436          40.000  
  25415559.101                       -3511.569          26.000  
  25739790.499   135263518.853        3274.636          34.000  
  24470838.882   128595122.785        2902.935          41.000  
 23  8  9 17 40  8.0030000  0 10G 5G13G 7G20G30G18G11G 9G15G14
  21863619.212   114894086.779        1081.311          45.000  
  22705601.100   119318729.431        2230.592          45.000  
  22763489.894   119622953.126       -2169.455          38.000  
  21395227.954   112432693.454       -1093.386          45.000  
  21647698.088   113759413.410        -496.417          48.000  
  26364637.443   138547152.883        2285.001          28.000  
  24705010.299   129825714.599       -3609.833          40.000  
  25416226.625                       -3511.806          26.000  
  25739167.072   135260243.378        3275.075          34.000  
  24470286.356   128592219.993        2902.347          41.000  
 23  8  9 17 40  9.0030000  0 10G 5G13G 7G20G30G18G11G 9G15G14
  21863413.370   114893005.667        1080.823          45.000  
  22705176.764   119316498.978        2230.393          45.000  
  22763902.557   119625122.588       -2169.752          38.000  
  21395435.751   112433787.113       -1094.083          45.000  
  21647792.337   113759910.034        -496.906          47.000  
  26364203.177   138544868.538        2283.998          27.000  
  24705696.843   129829324.454       -3610.083          39.000  
  25416895.212                       -3511.354          25.000  
  25738543.681   135256968.142        3275.232          34.000  
  24469734.039   128589317.585        2902.312          41.000  
 23  8  9 17 40 10.0030000  0 10G 5G13G 7G20G30G18G11G 9G15G14
  21863208.033   114891925.106        1080.646          46.000  
  22704752.147   119314268.773        2230.391          45.000  
  22764315.482   119627292.409       -2169.735          38.000  
  21395644.037   112434881.404       -1094.440          45.000  
  21647886.987   113760407.183        -497.180          47.000  
  26363770.569   138542584.611        2283.601          27.000  
  24706383.666   129832934.511       -3610.071          39.000  
  25417561.235                       -3511.404          26.000  
  25737919.993   135253692.908        3275.613          33.000  
  24469181.443   128586415.351        2902.622          41.000  
 23  8  9 17 40 11.0030000  0 10G 5G13G 7G20G30G18G11G 9G15G14
  21863002.242   114890844.910        1079.791          45.000  
  22704327.758   119312038.610        2229.788          45.000  
  22764728.546   119629462.353       -2170.229          38.000  
  21395852.358   112435976.100       -1095.192          45.000  
  21647981.532   113760904.649        -497.864          47.000  
  26363337.856   138540300.807        2283.087          27.000  
  24707070.140   129836544.526       -3610.095          39.000  
  25418228.444                       -3510.886          26.000  
  25737296.653   135250417.496        3275.221          33.000  
  24468629.143   128583513.118        2902.152          41.000  
 23  8  9 17 40 12.0030000  0 10G 5G13G 7G20G30G18G11G 9G15G14
  21862796.853   114889765.439        1079.236          46.000  
  22703903.264   119309808.819        2229.717          45.000  
  22765141.732   119631632.774       -2170.423          39.000  
  21396060.294   112437071.548       -1095.643          45.000  
  21648076.217   113761402.766        -498.181          47.000  
  26362903.223   138538017.537        2283.733          28.000  
  24707757.417   129840154.893       -3610.431          40.000  
  25418896.159                       -3511.837          26.000  
  25736673.524   135247142.246        3275.046          33.000  
  24468077.018   128580611.240        2901.909          41.000  
 23  8  9 17 40 13.0030000  0 10G 5G13G 7G20G30G18G11G 9G15G14
  21862591.674   114888686.610        1078.528          45.000  
  22703478.822   119307579.354        2229.315          45.000  
  22765555.058   119633803.605       -2170.719          38.000  
  21396268.790   112438167.702       -1096.511          45.000  
  21648170.902   113761901.485        -499.023          47.000  
  26362468.294   138535734.851        2282.573          28.000  
  24708444.223   129843765.522       -3611.047          39.000  
  25419565.741                       -3511.514          26.000  
  25736049.853   135243867.106        3274.947          33.000  
  24467525.086   128577709.635        2901.291          41.000  
 23  8  9 17 40 14.0030000  0 10G 5G13G 7G20G30G18G11G 9G15G14
  21862386.459   114887608.311        1078.088          45.000  
  22703054.328   119305350.120        2229.023          45.000  
  22765968.227   119635974.770       -2171.310          38.000  
  21396477.337   112439264.447       -1096.975          45.000  
  21648265.796   113762400.702        -499.524          47.000  
  26362033.085   138533452.560        2282.406          28.000  
  24709130.906   129847376.276       -3610.907          39.000  
  25420236.056                       -3511.864          26.000  
  25735426.182   135240591.891        3275.371          33.000  
  24466973.153   128574808.189        2901.285          41.000  
 23  8  9 17 40 15.0030000  0  9G 5G13G 7G20G30G18G11G15G14
  21862181.053   114886530.519        1077.533          45.000  
  22702630.183   119303121.058        2229.272          45.000  
  22766381.518   119638146.184       -2171.403          38.000  
  21396685.815   112440361.759       -1097.682          45.000  
  21648360.778   113762900.368        -499.756          47.000  
  26361599.203   138531170.583        2281.873          28.000  
  24709817.834   129850987.178       -3610.834          39.000  
  25734802.598   135237316.656        3275.614          33.000  
  24466420.923   128571906.841        2901.781          41.000  
 23  8  9 17 40 16.0030000  0  9G 5G13G 7G20G30G18G11G15G14
  21861975.768   114885453.333        1076.605          45.000  
  22702206.318   119300892.331        2228.334          45.000  
  22766794.878   119640318.029       -2172.283          38.000  
  21396894.572   112441459.752       -1098.673          44.000  
  21648456.038   113763400.629        -500.836          47.000  
  26361165.111   138528889.085        2281.434          28.000  
  24710505.076   129854598.338       -3611.432          40.000  
  25734179.312   135234041.503        3274.802          33.000  
  24465868.903   128569005.788        2900.619          41.000  
 23  8  9 17 40 17.0030000  0  9G 5G13G 7G20G30G18G11G15G14
  21861770.728   114884376.926        1075.891          45.000  
  22701782.295   119298664.057        2228.070          45.000  
  22767208.518   119642490.407       -2172.533          38.000  
  21397103.242   112442558.578       -1099.332          44.000  
  21648551.491   113763901.612        -501.349          47.000  
  26360732.032   138526608.268        2280.159          29.000  
  24711192.283   129858209.891       -3611.816          40.000  
  25733556.077   135230766.565        3275.143          33.000  
  24465317.040   128566105.125        2900.314          41.000  
 23  8  9 17 40 18.0030000  0  9G 5G13G 7G20G30G18G11G15G14
  21861565.932   114883301.095        1075.262          45.000  
  22701358.621   119296436.022        2227.722          45.000  
  22767621.949   119644663.140       -2173.097          39.000  
  21397312.225   112443658.026       -1099.961          44.000  
  21648646.734   113764403.121        -501.929          47.000  
  26360299.284   138524327.774        2280.243          29.000  
  24711879.909   129861821.630       -3611.975          41.000  
  25732932.563   135227491.709        3274.185          34.000  
  24464765.037   128563204.655        2900.280          41.000  
 23  8  9 17 40 19.0030000  0  9G 5G13G 7G20G30G18G11G15G14
  21861361.329   114882225.844        1074.927          45.000  
  22700934.668   119294208.248        2227.603          45.000  
  22768035.205   119646836.200       -2173.031          38.000  
  21397521.453   112444758.110       -1100.588          44.000  
  21648742.396   113764905.173        -502.429          47.000  
  26359864.110   138522047.745        2280.089          29.000  
  24712567.360   129865433.556       -3612.042          41.000  
  25732309.085   135224216.824        3274.771          33.000  
  24464212.982   128560304.411        2900.152          41.000  
 23  8  9 17 40 20.0030000  0  9G 5G13G 7G20G30G18G11G15G14
  21861156.324   114881151.295        1074.371          45.000  
  22700510.837   119291980.835        2227.335          45.000  
  22768448.915   119649009.753       -2173.588          38.000  
  21397731.083   112445858.938       -1101.242          44.000  
  21648837.849   113765407.848        -502.954          47.000  
  26359438.360   138519768.322        2278.318          30.000  
  24713254.846   129869045.812       -3612.243          41.000  
  25731685.710   135220942.049        3275.110          33.000  
  24463661.311   128557404.478        2899.845          41.000  
 23  8  9 17 40 21.0030000  0  9G 5G13G 7G20G30G18G11G15G14
  21860951.737   114880077.331        1073.645          45.000  
  22700087.024   119289753.713        2227.163          45.000  
  22768862.729   119651183.663       -2174.168          38.000  
  21397941.079   112446960.400       -1101.703          44.000  
  21648933.127   113765911.066        -503.442          47.000  
  26359006.729   138517489.291        2279.210          30.000  
  24713942.420   129872658.258       -3612.384          41.000  
  25731062.354   135217667.350        3275.681          33.000  
  24463109.221   128554504.768        2899.478          41.000  
 23  8  9 17 40 22.0030000  0  9G 5G13G 7G20G30G18G11G15G14
  21860747.290   114879003.688        1073.035          45.000  
  22699663.123   119287526.590        2226.891          45.000  
  22769276.369   119653357.663       -2174.224          38.000  
  21398150.761   112448062.265       -1102.396          44.000  
  21649028.720   113766414.583        -503.949          47.000  
  26358570.770   138515210.464        2278.520          30.000  
  24714629.731   129876270.673       -3612.744          41.000  
  25730438.840   135214392.502        3274.287          33.000  
  24462557.549   128551605.018        2899.497          41.000  
 23  8  9 17 40 23.0030000  0  9G 5G13G 7G20G30G18G11G15G14
  21860542.756   114877930.760        1072.595          45.000  
  22699239.414   119285299.870        2226.442          45.000  
  22769690.271   119655532.161       -2174.796          38.000  
  21398360.809   112449164.895       -1102.985          45.000  
  21649124.835   113766918.759        -504.431          47.000  
  26358139.279   138512932.172        2278.245          29.000  
  24715317.235   129879883.421       -3612.835          41.000  
  25729815.815   135211117.781        3274.086          34.000  
  24462005.599   128548705.624        2899.201          41.000  
 23  8  9 17 40 24.0030000  0  9G 5G13G 7G20G30G18G11G15G14
  21860338.432   114876858.334        1072.253          44.000  
  22698815.723   119283073.311        2226.765          45.000  
  22770104.173   119657706.927       -2174.448          38.000  
  21398571.032   112450268.067       -1103.229          45.000  
  21649220.707   113767423.386        -504.736          47.000  
  26357705.676   138510654.253        2277.820          29.000  
  24716004.704   129883496.263       -3612.555          41.000  
  25729192.633   135207842.956        3274.820          34.000  
  24461453.771   128545806.329        2899.667          41.000  
 23  8  9 17 40 25.0030000  0  9G 5G13G 7G20G30G18G11G15G14
  21860134.404   114875786.461        1071.838          44.000  
  22698391.944   119280846.988        2226.433          45.000  
  22770518.057   119659882.019       -2175.204          38.000  
  21398781.412   112451371.854       -1103.771          45.000  
  21649316.840   113767928.515        -505.151          47.000  
  26357267.326   138508376.712        2277.169          29.000  
  24716692.452   129887109.286       -3612.488          41.000  
  25728569.346   135204568.185        3274.446          34.000  
  24460902.152   128542907.240        2899.307          41.000  
 23  8  9 17 40 26.0030000  0  9G 5G13G 7G20G30G18G11G15G14
  21859930.306   114874715.022        1070.953          44.000  
  22697968.236   119278620.773        2225.971          44.000  
  22770932.185   119662057.323       -2175.664          39.000  
  21398991.722   112452476.126       -1104.745          45.000  
  21649412.921   113768434.035        -506.073          47.000  
  26356836.166   138506099.437        2277.009          29.000  
  24717379.694   129890722.381       -3613.556          40.000  
  25727946.338   135201293.246        3274.747          34.000  
  24460350.690   128540008.191        2898.851          41.000  
 23  8  9 17 40 27.0030000  0  9G 5G13G 7G20G30G18G11G15G14
  21859726.435   114873644.348        1070.270          44.000  
  22697544.160   119276395.011        2225.670          44.000  
  22771346.436   119664233.169       -2176.424          39.000  
  21399202.276   112453581.229       -1105.495          45.000  
  21649509.438   113768940.274        -506.647          47.000  
  26356408.287   138503822.827        2276.565          29.000  
  24718067.407   129894335.850       -3613.837          41.000  
  25727323.051   135198018.527        3274.837          34.000  
  24459799.368   128537109.586        2898.252          41.000  
 23  8  9 17 40 28.0030000  0  9G 5G13G 7G20G30G18G11G15G14
  21859522.896   114872574.258        1069.543          44.000  
  22697120.487   119274169.506        2225.369          44.000  
  22771760.390   119666409.345       -2176.846          38.000  
  21399412.952   112454686.948       -1106.166          45.000  
  21649606.008   113769447.030        -507.141          47.000  
  26355972.625   138501546.627        2275.617          29.000  
  24718754.754   129897949.492       -3613.757          41.000  
  25726699.660   135194743.827        3275.186          34.000  
  24459247.836   128534211.139        2898.032          40.000  
 23  8  9 17 40 29.0030000  0  9G 5G13G 7G20G30G18G11G15G14
  21859319.583   114871504.918        1069.049          45.000  
  22696696.917   119271944.449        2225.035          45.000  
  22772174.763   119668586.083       -2177.119          39.000  
  21399623.891   112455793.505       -1106.862          45.000  
  21649702.647   113769954.520        -507.764          47.000  
  26355539.510   138499271.003        2276.492          30.000  
  24719442.676   129901563.554       -3614.050          41.000  
  25726076.635   135191469.401        3274.502          34.000  
  24458696.671   128531313.115        2898.091          40.000  
 23  8  9 17 40 30.0030000  0  9G 5G13G 7G20G30G18G11G15G14
  21859116.184   114870435.919        1068.848          45.000  
  22696273.331   119269719.405        2225.050          45.000  
  22772589.433   119670762.909       -2176.891          39.000  
  21399834.724   112456900.433       -1107.204          45.000  
  21649799.391   113770462.285        -508.008          47.000  
  26355104.162   138496995.679        2274.480          30.000  
  24720130.756   129905177.543       -3613.995          42.000  
  25725453.679   135188194.752        3274.004          35.000  
  24458145.349   128528415.046        2898.027          40.000  
 23  8  9 17 40 31.0030000  0  9G 5G13G 7G20G30G18G11G15G14
  21858913.011   114869367.494        1068.030          46.000  
  22695850.285   119267494.592        2224.669          45.000  
  22773004.015   119672940.087       -2177.810          39.000  
  21400045.645   112458007.988       -1107.997          45.000  
  21649896.187   113770970.576        -508.838          47.000  
  26354670.175   138494720.711        2274.478          30.000  
  24720818.695   129908791.729       -3614.496          42.000  
  25724830.427   135184920.032        3275.312          35.000  
  24457594.219   128525517.154        2897.864          40.000  
 23  8  9 17 40 32.0030000  0  9G 5G13G 7G20G30G18G11G15G14
  21858709.977   114868299.663        1067.761          46.000  
  22695427.065   119265270.077        2224.606          45.000  
  22773418.458   119675117.603       -2177.565          39.000  
  21400256.548   112459116.189       -1108.239          45.000  
  21649993.141   113771479.420        -508.960          47.000  
  26354233.292   138492446.153        2274.379          30.000  
  24721506.356   129912406.146       -3614.581          41.000  
  25724207.769   135181645.431        3274.924          35.000  
  24457043.001   128522619.520        2897.618          41.000  
 23  8  9 17 40 33.0030000  0  9G 5G13G 7G20G30G18G11G15G14
  21858507.101   114867232.446        1066.980          46.000  
  22695003.967   119263045.857        2224.034          45.000  
  22773832.918   119677295.521       -2177.857          39.000  
  21400467.766   112460225.052       -1109.094          45.000  
  21650090.234   113771988.819        -509.631          47.000  
  26353801.521   138490172.063        2273.792          29.000  
  24722194.471   129916020.761       -3614.673          41.000  
  25723584.918   135178370.903        3274.636          36.000  
  24456492.098   128519722.109        2897.507          41.000  
 23  8  9 17 40 34.0030000  0  9G 5G13G 7G20G30G18G11G15G14
  21858304.347   114866165.709        1066.632          46.000  
  22694580.730   119260821.783        2223.901          45.000  
  22774247.395   119679473.701       -2178.478          39.000  
  21400678.652   112461334.475       -1109.773          45.000  
  21650187.362   113772498.667        -510.083          47.000  
  26353370.972   138487898.355        2273.625          30.000  
  24722882.358   129919635.501       -3614.856          41.000  
  25722962.277   135175096.280        3274.334          35.000  
  24455940.479   128516824.804        2897.464          41.000  
 23  8  9 17 40 35.0030000  0  9G 5G13G 7G20G30G18G11G15G14
  21858101.611   114865099.618        1065.814          45.000  
  22694157.841   119258598.024        2223.519          45.000  
  22774662.204   119681652.253       -2178.778          39.000  
  21400890.061   112462444.558       -1110.174          45.000  
  21650284.298   113773009.096        -510.822          47.000  
  26352941.400   138485625.085        2272.880          31.000  
  24723569.827   129923250.468       -3615.002          41.000  
  25722339.217   135171821.746        3274.218          35.000  
  24455388.878   128513927.773        2896.836          40.000  
 23  8  9 17 40 36.0030000  0  9G 5G13G 7G20G30G18G11G15G14
  21857898.996   114864033.862        1065.424          45.000  
  22693734.883   119256374.298        2223.667          45.000  
  22775077.118   119683830.956       -2179.198          39.000  
  21401101.139   112463555.080       -1111.105          45.000  
  21650381.548   113773519.833        -511.133          47.000  
  26352507.866   138483352.032        2273.300          31.000  
  24724257.191   129926865.427       -3615.112          40.000  
  25721716.192   135168547.000        3274.946          35.000  
  24454837.521   128511030.725        2896.980          40.000  
 23  8  9 17 40 37.0030000  0  9G 5G13G 7G20G30G18G11G15G14
  21857696.347   114862968.645        1065.076          45.000  
  22693311.628   119254150.812        2223.385          45.000  
  22775491.823   119686009.972       -2179.321          39.000  
  21401312.304   112464666.163       -1111.346          45.000  
  21650479.199   113774031.060        -511.456          47.000  
  26352076.148   138481079.415        2273.001          31.000  
  24724944.765   129930480.546       -3615.497          40.000  
  25721092.870   135165272.282        3274.986          35.000  
  24454286.356   128508133.850        2896.888          40.000  
 23  8  9 17 40 38.0030000  0  9G 5G13G 7G20G30G18G11G15G14
  21857494.029   114861904.151        1063.892          45.000  
  22692888.355   119251927.687        2222.664          45.000  
  22775906.632   119688189.433       -2179.631          39.000  
  21401523.678   112465778.016       -1112.509          45.000  
  21650577.095   113774542.929        -512.408          47.000  
  26351639.840   138478807.295        2271.963          30.000  
  24725632.513   129934095.962       -3615.692          40.000  
  25720470.298   135161997.663        3274.723          36.000  
  24453734.859   128505237.314        2896.048          40.000  
 23  8  9 17 40 39.0030000  0  9G 5G13G 7G20G30G18G11G15G14
  21857291.903   114860840.327        1063.519          46.000  
  22692465.292   119249704.945        2222.663          44.000  
  22776321.179   119690369.395       -2180.263          39.000  
  21401735.280   112466890.622       -1112.994          45.000  
  21650674.624   113775055.458        -512.805          47.000  
  26351206.115   138476535.806        2271.510          30.000  
  24726320.435   129937711.715       -3615.802          40.000  
  25719847.483   135158723.225        3274.638          36.000  
  24453183.362   128502341.101        2895.997          40.000  
 23  8  9 17 40 40.0030000  0  9G 5G13G 7G20G30G18G11G15G14
  21857089.672   114859777.146        1062.891          46.000  
  22692042.229   119247482.526        2222.411          44.000  
  22776735.901   119692549.753       -2180.610          39.000  
  21401947.213   112468003.923       -1113.662          45.000  
  21650772.241   113775568.584        -513.440          48.000  
  26350771.866   138474264.723        2271.795          29.000  
  24727008.689   129941327.731       -3616.309          40.000  
  25719224.440   135155448.868        3274.237          36.000  
  24452632.127   128499445.148        2895.848          40.000  
 23  8  9 17 40 41.0030000  0  9G 5G13G 7G20G30G18G11G15G14
  21856887.669   114858714.552        1062.305          46.000  
  22691619.340   119245260.370        2221.957          44.000  
  22777150.431   119694730.432       -2180.567          38.000  
  21402159.041   112469117.843       -1114.100          45.000  
  21650870.049   113776082.230        -513.885          48.000  
  26350339.415   138471994.127        2270.444          30.000  
  24727696.542   129944943.918       -3616.174          40.000  
  25718601.485   135152174.507        3274.664          36.000  
  24452080.945   128496549.410        2895.647          40.000  
 23  8  9 17 40 42.0030000  0  9G 5G13G 7G20G30G18G11G15G14
  21856685.630   114857652.471        1061.768          46.000  
  22691196.539   119243038.423        2221.602          44.000  
  22777565.886   119696911.458       -2181.125          38.000  
  21402370.921   112470232.366       -1115.185          45.000  
  21650967.980   113776596.363        -514.532          48.000  
  26349903.613   138469723.913        2269.633          29.000  
  24728384.621   129948560.256       -3616.278          40.000  
  25717978.372   135148900.154        3274.785          36.000  
  24451529.605   128493653.832        2895.197          39.000  
 23  8  9 17 40 43.0030000  0  9G 5G13G 7G20G30G18G11G15G14
  21856483.818   114856590.961        1061.188          46.000  
  22690773.354   119240816.725        2221.309          45.000  
  22777981.026   119699092.792       -2181.287          38.000  
  21402582.994   112471347.548       -1115.727          45.000  
  21651065.910   113777111.009        -514.966          48.000  
  26349474.443   138467454.129        2269.875          29.000  
  24729073.155   129952176.806       -3616.864          40.000  
  25717355.120   135145625.822        3274.585          36.000  
  24450978.545   128490758.495        2895.201          39.000  
 23  8  9 17 40 44.0030000  0  9G 5G13G 7G20G30G18G11G15G14
  21856282.199   114855529.896        1060.651          46.000  
  22690350.518   119238595.099        2221.625          45.000  
  22778396.237   119701274.335       -2181.634          38.000  
  21402795.171   112472463.135       -1115.938          44.000  
  21651164.260   113777626.017        -515.259          48.000  
  26349039.950   138465184.566        2269.661          28.000  
  24729761.426   129955793.346       -3616.486          40.000  
  25716732.095   135142351.380        3273.863          37.000  
  24450427.205   128487863.182        2894.979          39.000  
 23  8  9 17 40 45.0030000  0  9G 5G13G 7G20G30G18G11G15G14
  21856080.596   114854469.589        1059.998          46.000  
  22689927.524   119236373.951        2221.084          45.000  
  22778811.849   119703456.432       -2182.161          38.000  
  21403007.436   112473579.586       -1116.889          44.000  
  21651262.155   113778141.780        -516.107          48.000  
  26348602.089   138462915.647        2268.812          28.000  
  24730450.029   129959410.310       -3617.224          40.000  
  25716109.070   135139077.123        3274.168          37.000  
  24449876.459   128484968.258        2894.635          40.000  
 23  8  9 17 40 46.0030000  0  9G 5G13G 7G20G30G18G11G15G14
  21855879.413   114853410.006        1059.442          47.000  
  22689504.706   119234153.202        2220.658          45.000  
  22779227.373   119705639.018       -2182.566          38.000  
  21403219.770   112474696.792       -1117.286          44.000  
  21651360.330   113778658.206        -516.559          48.000  
  26348171.016   138460647.353        2267.833          27.000  
  24731138.597   129963027.584       -3617.120          41.000  
  25715486.394   135135803.026        3274.310          37.000  
  24449325.451   128482073.673        2894.694          40.000  
 23  8  9 17 40 47.0030000  0  9G 5G13G 7G20G30G18G11G15G14
  21855677.793   114852351.034        1058.844          46.000  
  22689081.642   119231932.738        2220.644          44.000  
  22779642.409   119707821.985       -2182.920          38.000  
  21403432.401   112475814.670       -1117.987          44.000  
  21651458.872   113779175.188        -517.004          48.000  
  26347735.424   138458379.463        2267.538          28.000  
  24731827.130   129966645.115       -3617.584          41.000  
  25714863.561   135132529.011        3274.566          36.000  
  24448774.530   128479179.344        2894.335          39.000  
 23  8  9 17 40 48.0030000  0  9G 5G13G 7G20G30G18G11G15G14
  21855476.330   114851292.584        1058.264          46.000  
  22688658.771   119229712.472        2220.281          44.000  
  22780057.881   119710005.223       -2183.434          38.000  
  21403644.979   112476933.116       -1118.833          44.000  
  21651557.204   113779692.638        -517.719          48.000  
  26347303.182   138456111.946        2267.186          27.000  
  24732515.664   129970262.744       -3617.877          41.000  
  25714240.675   135129254.975        3274.084          37.000  
  24448223.801   128476285.148        2894.084          39.000  
 23  8  9 17 40 49.0030000  0  9G 5G13G 7G20G30G18G11G15G14
  21855274.867   114850234.650        1057.520          46.000  
  22688235.778   119227492.396        2219.775          43.000  
  22780473.668   119712188.756       -2184.078          38.000  
  21403858.169   112478052.117       -1119.585          44.000  
  21651655.640   113780210.546        -518.292          48.000  
  26346872.842   138453844.792        2266.552          27.000  
  24733204.337   129973880.520       -3618.030          41.000  
  25713617.999   135125980.897        3273.772          36.000  
  24447673.334   128473391.088        2893.698          38.000  
 23  8  9 17 40 50.0030000  0  9G 5G13G 7G20G30G18G11G15G14
  21855073.596   114849177.395        1056.885          45.000  
  22687813.169   119225272.670        2219.565          43.000  
  22780888.931   119714372.730       -2184.350          39.000  
  21404071.410   112479171.849       -1120.044          44.000  
  21651754.269   113780729.081        -518.842          48.000  
  26346445.259   138451578.199        2265.974          27.000  
  24733892.835   129977498.577       -3618.225          41.000  
  25712995.218   135122706.910        3274.141          37.000  
  24447122.308   128470497.331        2893.684          38.000  
 23  8  9 17 40 51.0030000  0  9G 5G13G 7G20G30G18G11G15G14
  21854872.361   114848120.886        1056.384          45.000  
  22687390.489   119223053.381        2219.420          43.000  
  22781304.525   119716557.217       -2184.670          39.000  
  21404284.757   112480292.394       -1120.806          44.000  
  21651852.863   113781248.318        -519.147          48.000  
  26346017.886   138449312.122        2266.234          27.000  
  24734581.682   129981117.006       -3618.408          40.000  
  25712372.647   135119433.189        3273.503          37.000  
  24446571.789   128467604.008        2893.182          38.000  
 23  8  9 17 40 52.0030000  0  9G 5G13G 7G20G30G18G11G15G14
  21854671.212   114847064.652        1055.695          45.000  
  22686967.898   119220834.052        2218.859          43.000  
  22781720.032   119718741.747       -2184.884          39.000  
  21404498.295   112481413.254       -1121.427          45.000  
  21651951.491   113781767.787        -520.074          48.000  
  26345588.663   138447046.232        2265.692          28.000  
  24735270.390   129984735.321       -3618.512          40.000  
  25711750.006   135116159.119        3273.795          37.000  
  24446021.060   128464710.544        2893.100          38.000  
 23  8  9 17 40 53.0030000  0  9G 5G13G 7G20G30G18G11G15G14
  21854470.273   114846008.902        1055.231          45.000  
  22686545.550   119218614.865        2219.010          43.000  
  22782135.801   119720926.550       -2185.315          39.000  
  21404711.955   112482534.666       -1122.100          45.000  
  21652050.207   113782287.689        -520.361          48.000  
  26345162.145   138444780.669        2265.286          28.000  
  24735958.888   129988353.740       -3618.762          41.000  
  25711127.469   135112885.036        3273.706          37.000  
  24445470.488   128461817.212        2893.026          38.000  
 23  8  9 17 40 54.0030000  0  9G 5G13G 7G20G30G18G11G15G14
  21854269.525   114844953.803        1054.810          46.000  
  22686123.290   119216396.037        2218.638          43.000  
  22782551.814   119723111.775       -2185.266          39.000  
  21404925.651   112483656.772       -1122.302          45.000  
  21652149.080   113782808.179        -520.691          48.000  
  26344731.421   138442515.579        2265.091          29.000  
  24736647.369   129991972.417       -3618.872          41.000  
  25710504.723   135109611.017        3274.034          38.000  
  24444920.161   128458924.190        2892.661          38.000  
 23  8  9 17 40 55.0030000  0  9G 5G13G 7G20G30G18G11G15G14
  21854068.603   114843899.031        1054.565          46.000  
  22685701.465   119214177.215        2218.953          44.000  
  22782967.793   119725297.117       -2185.799          39.000  
  21405139.206   112484779.263       -1122.829          45.000  
  21652248.232   113783328.969        -521.039          48.000  
  26344303.193   138440250.775        2264.763          30.000  
  24737336.286   129995591.051       -3618.793          41.000  
  25709882.239   135106336.792        3274.524          39.000  
  24444369.362   128456031.097        2893.028          39.000  
 23  8  9 17 40 56.0030000  0  9G 5G13G 7G20G30G18G11G15G14
  21853868.223   114842844.924        1053.979          46.000  
  22685279.502   119211958.746        2218.486          44.000  
  22783384.172   119727482.874       -2185.744          39.000  
  21405353.059   112485902.486       -1123.399          45.000  
  21652347.629   113783850.388        -521.539          48.000  
  26343876.936   138437986.464        2263.816          31.000  
  24738025.203   129999209.989       -3618.896          41.000  
  25709259.685   135103062.719        3273.878          39.000  
  24443819.000   128453138.318        2892.812          39.000  
 23  8  9 17 40 57.0030000  0  9G 5G13G 7G20G30G18G11G15G14
  21853667.685   114841791.546        1053.192          46.000  
  22684857.922   119209740.670        2218.177          45.000  
  22783799.976   119729669.121       -2186.240          39.000  
  21405566.911   112487026.481       -1124.314          45.000  
  21652446.868   113784372.466        -522.253          48.000  
  26343449.284   138435722.719        2262.666          31.000  
  24738713.719   130002829.263       -3619.537          40.000  
  25708636.817   135099788.796        3274.089          39.000  
  24443268.515   128450245.906        2892.221          39.000  
 23  8  9 17 40 58.0030000  0  9G 5G13G 7G20G30G18G11G15G14
  21853467.496   114840738.720        1052.209          46.000  
  22684435.888   119207522.842        2217.462          45.000  
  22784215.954   119731855.709       -2187.033          39.000  
  21405781.060   112488151.103       -1125.317          45.000  
  21652546.352   113784895.067        -523.315          48.000  
  26343020.393   138433459.292        2263.271          31.000  
  24739402.532   130006448.682       -3619.928          40.000  
  25708014.246   135096514.883        3273.688          39.000  
  24442718.153   128447353.670        2891.749          39.000  
 23  8  9 17 40 59.0030000  0  9G 5G13G 7G20G30G18G11G15G14
  21853267.220   114839686.575        1051.501          46.000  
  22684013.785   119205305.374        2217.082          44.000  
  22784632.282   119734042.752       -2187.640          39.000  
  21405995.070   112489276.461       -1125.875          45.000  
  21652645.993   113785418.298        -523.737          48.000  
  26342591.327   138431196.455        2262.094          31.000  
  24740091.344   130010068.425       -3620.172          40.000  
  25707391.657   135093241.130        3273.526          39.000  
  24442167.651   128444461.751        2891.593          39.000  
 23  8  9 17 41  0.0030000  0  9G 5G13G 7G20G30G18G11G15G14
  21853067.066   114838635.103        1051.599          46.000  
  22683592.205   119203088.262        2217.290          44.000  
  22785048.661   119736230.227       -2187.293          39.000  
  21406209.079   112490402.523       -1125.915          45.000  
  21652745.686   113785942.139        -523.859          48.000  
  26342155.787   138428934.164        2262.794          32.000  
  24740780.209   130013688.448       -3619.909          40.000  
  25706768.527   135089967.426        3274.438          38.000  
  24441617.637   128441570.150        2891.667          39.000  
 23  8  9 17 41  1.0030000  0  9G 5G13G 7G20G30G18G11G15G14
  21852867.139   114837584.101        1050.592          46.000  
  22683170.660   119200871.273        2216.626          44.000  
  22785464.866   119738417.905       -2188.170          39.000  
  21406423.525   112491529.116       -1126.978          44.000  
  21652845.675   113786466.404        -524.829          48.000  
  26341724.103   138426672.147        2262.125          31.000  
  24741468.952   130017308.504       -3620.251          40.000  
  25706145.781   135086693.696        3273.663          38.000  
  24441067.711   128438678.618        2891.283          38.000  
 23  8  9 17 41  2.0030000  0  9G 5G13G 7G20G30G18G11G15G14
  21852667.264   114836533.672        1050.012          47.000  
  22682749.098   119198654.574        2216.531          45.000  
  22785881.473   119740605.985       -2188.546          39.000  
  21406638.215   112492656.356       -1127.516          45.000  
  21652945.159   113786991.189        -525.128          48.000  
  26341291.844   138424410.649        2261.097          32.000  
  24742158.026   130020928.798       -3620.544          41.000  
  25705522.616   135083419.985        3273.851          40.000  
  24440517.541   128435787.314        2891.444          39.000  
 23  8  9 17 41  3.0030000  0  9G 5G13G 7G20G30G18G11G15G14
  21852467.773   114835483.764        1049.573          46.000  
  22682326.942   119196438.043        2216.271          44.000  
  22786298.167   119742794.304       -2188.612          38.000  
  21406852.888   112493784.170       -1128.245          45.000  
  21653044.905   113787516.447        -525.494          48.000  
  26340861.574   138422149.487        2260.578          32.000  
  24742847.117   130024549.196       -3620.398          41.000  
  25704899.504   135080146.259        3273.336          39.000  
  24439967.492   128432896.204        2891.119          39.000  
 23  8  9 17 41  4.0030000  0  9G 5G13G 7G20G30G18G11G15G14
  21852268.212   114834434.515        1048.804          46.000  
  22681905.171   119194221.855        2216.136          44.000  
  22786714.773   119744983.070       -2188.969          38.000  
  21407067.543   112494912.671       -1128.797          45.000  
  21653144.894   113788042.323        -526.294          48.000  
  26340432.019   138419888.815        2259.603          32.000  
  24743535.965   130028169.885       -3620.453          41.000  
  25704276.706   135076872.636        3272.812          39.000  
  24439417.200   128430005.331        2889.957          39.000  
 23  8  9 17 41  5.0030000  0  9G 5G13G 7G20G30G18G11G15G14
  21852068.843   114833385.849        1048.535          46.000  
  22681483.643   119192005.956        2215.872          44.000  
  22787131.798   119747172.180       -2188.960          40.000  
  21407282.372   112496041.809       -1129.207          45.000  
  21653244.971   113788568.716        -526.489          48.000  
  26340002.151   138417628.538        2260.258          33.000  
  24744225.231   130031790.763       -3620.490          41.000  
  25703653.506   135073598.978        3274.250          39.000  
  24438867.047   128427114.662        2890.676          39.000  
 23  8  9 17 41  6.0030000  0  9G 5G13G 7G20G30G18G11G15G14
  21851869.649   114832337.783        1047.809          46.000  
  22681062.308   119189790.322        2215.491          45.000  
  22787548.230   119749361.644       -2189.487          39.000  
  21407497.115   112497171.596       -1130.167          45.000  
  21653345.432   113789095.675        -527.179          48.000  
  26339573.172   138415368.829        2258.346          33.000  
  24744914.078   130035411.866       -3621.246          41.000  
  25703030.306   135070325.436        3273.466          39.000  
  24438316.963   128424224.215        2890.405          39.000  
 23  8  9 17 41  7.0030000  0  9G 5G13G 7G20G30G18G11G15G14
  21851670.228   114831290.390        1046.869          46.000  
  22680641.024   119187575.030        2214.962          45.000  
  22787964.924   119751551.545       -2189.874          38.000  
  21407711.962   112498302.116       -1131.158          44.000  
  21653445.858   113789623.255        -528.058          48.000  
  26339143.198   138413109.512        2259.534          32.000  
  24745602.995   130039033.245       -3621.887          40.000  
  25702407.595   135067052.002        3273.335          39.000  
  24437766.653   128421334.096        2890.001          39.000  
 23  8  9 17 41  8.0030000  0  9G 5G13G 7G20G30G18G11G15G14
  21851471.034   114830243.439        1046.545          47.000  
  22680219.986   119185359.843        2214.957          45.000  
  22788381.932   119753741.687       -2190.734          38.000  
  21407926.983   112499433.107       -1131.406          44.000  
  21653546.389   113790151.199        -528.314          48.000  
  26338713.277   138410850.573        2258.308          32.000  
  24746292.349   130042654.650       -3621.503          40.000  
  25701784.553   135063778.430        3273.424          39.000  
  24437216.657   128418444.046        2889.908          39.000  
 23  8  9 17 41  9.0030000  0  9G 5G13G 7G20G30G18G11G15G14
  21851271.875   114829197.066        1045.905          47.000  
  22679798.685   119183144.924        2214.630          45.000  
  22788798.626   119755932.138       -2191.058          38.000  
  21408142.249   112500564.732       -1132.243          44.000  
  21653647.251   113790679.674        -528.918          48.000  
  26338283.374   138408592.047        2257.683          32.000  
  24746981.318   130046276.251       -3621.783          40.000  
  25701161.371   135060504.876        3273.563          39.000  
  24436666.539   128415554.200        2889.734          40.000  
 23  8  9 17 41 10.0030000  0  9G 5G13G 7G20G30G18G11G15G14
  21851072.994   114828151.406        1045.428          47.000  
  22679377.419   119180930.391        2214.600          45.000  
  22789215.372   119758123.060       -2191.232          38.000  
  21408357.637   112501697.114       -1132.704          44.000  
  21653748.183   113791208.797        -529.254          48.000  
  26337853.488   138406334.018        2257.792          31.000  
  24747670.462   130049898.195       -3622.046          40.000  
  25700538.572   135057231.499        3273.043          39.000  
  24436116.474   128412664.686        2889.632          39.000  
 23  8  9 17 41 11.0030000  0  9G 5G13G 7G20G30G18G11G15G14
  21850874.167   114827106.237        1045.148          47.000  
  22678956.241   119178716.062        2214.225          45.000  
  22789632.397   119760314.268       -2191.208          40.000  
  21408573.025   112502830.062       -1133.223          44.000  
  21653849.150   113791738.383        -529.578          48.000  
  26337423.375   138404076.358        2257.995          31.000  
  24748360.077   130053520.242       -3622.131          41.000  
  25699915.652   135053958.060        3273.683          39.000  
  24435566.530   128409775.332        2889.279          39.000  
 23  8  9 17 41 12.0030000  0  9G 5G13G 7G20G30G18G11G15G14
  21850675.356   114826061.692        1043.915          47.000  
  22678535.289   119176501.980        2213.543          45.000  
  22790049.300   119762505.832       -2192.078          40.000  
  21408788.588   112503963.636       -1134.196          45.000  
  21653950.065   113792268.538        -530.695          48.000  
  26336994.134   138401819.162        2257.567          31.000  
  24749049.693   130057142.486       -3622.625          41.000  
  25699292.766   135050684.677        3273.052          39.000  
  24435016.482   128406886.170        2889.018          39.000  
 23  8  9 17 41 13.0030000  0  9G 5G13G 7G20G30G18G11G15G14
  21850476.825   114825017.903        1043.683          47.000  
  22678114.617   119174288.370        2213.396          45.000  
  22790466.465   119764697.940       -2192.253          39.000  
  21409004.342   112505098.061       -1134.552          44.000  
  21654051.119   113792799.403        -530.896          48.000  
  26336564.493   138399562.663        2256.494          32.000  
  24749739.133   130060765.137       -3622.778          41.000  
  25698669.986   135047411.503        3273.567          39.000  
  24434466.870   128403997.453        2888.466          39.000  
 23  8  9 17 41 14.0030000  0  9G 5G13G 7G20G30G18G11G15G14
  21850278.294   114823974.435        1043.134          47.000  
  22677693.246   119172074.728        2213.480          45.000  
  22790883.560   119766890.110       -2192.100          39.000  
  21409220.202   112506232.840       -1135.004          44.000  
  21654152.400   113793330.523        -531.561          48.000  
  26336135.200   138397306.259        2256.289          32.000  
  24750428.714   130064387.685       -3622.638          41.000  
  25698047.327   135044138.107        3273.276          39.000  
  24433917.205   128401108.658        2888.589          40.000  
 23  8  9 17 41 15.0030000  0  9G 5G13G 7G20G30G18G11G15G14
  21850079.658   114822931.654        1042.322          47.000  
  22677272.173   119169861.470        2212.997          45.000  
  22791300.708   119769082.748       -2192.779          40.000  
  21409436.323   112507368.358       -1135.890          44.000  
  21654253.751   113793862.278        -532.281          48.000  
  26335706.169   138395050.432        2255.375          31.000  
  24751118.154   130068010.526       -3622.906          41.000  
  25697424.773   135040864.826        3273.139          39.000  
  24433367.663   128398220.187        2888.040          39.000  
 23  8  9 17 41 16.0030000  0  9G 5G13G 7G20G30G18G11G15G14
  21849881.214   114821889.607        1041.785          47.000  
  22676851.413   119167648.625        2212.769          45.000  
  22791718.274   119771275.906       -2193.511          40.000  
  21409652.217   112508504.676       -1136.734          43.000  
  21654354.980   113794394.713        -532.690          48.000  
  26335277.993   138392795.151        2254.883          31.000  
  24751807.298   130071633.740       -3623.266          41.000  
  25696801.853   135037591.748        3272.923          40.000  
  24432818.190   128395332.085        2888.116          40.000  
 23  8  9 17 41 17.0030000  0  9G 5G13G 7G20G30G18G11G15G14
  21849682.631   114820847.916        1041.656          46.000  
  22676430.741   119165435.821        2212.862          45.000  
  22792135.770   119773469.184       -2193.474          40.000  
  21409867.762   112509641.394       -1136.719          43.000  
  21654456.156   113794927.468        -532.825          48.000  
  26334845.123   138390540.129        2255.235          31.000  
  24752496.913   130075256.904       -3622.925          41.000  
  25696178.758   135034318.485        3273.336          40.000  
  24432269.050   128392443.982        2888.411          40.000  
 23  8  9 17 41 18.0030000  0  9G 5G13G 7G20G30G18G11G15G14
  21849484.484   114819806.726        1040.796          46.000  
  22676009.859   119163223.181        2212.504          46.000  
  22792553.110   119775662.707       -2193.747          39.000  
  21410083.830   112510778.659       -1137.729          43.000  
  21654557.542   113795460.650        -533.533          48.000  
  26334413.073   138388285.439        2253.898          31.000  
  24753186.424   130078880.179       -3623.383          41.000  
  25695556.396   135031045.130        3273.373          40.000  
  24431719.926   128389556.018        2887.674          40.000  
 23  8  9 17 41 19.0030000  0  9G 5G13G 7G20G30G18G11G15G14
  21849286.302   114818766.240        1040.430          46.000  
  22675588.925   119161010.939        2212.449          46.000  
  22792970.571   119777856.704       -2193.768          40.000  
  21410300.126   112511916.687       -1137.980          43.000  
  21654659.224   113795994.510        -533.716          48.000  
  26333989.765   138386031.322        2254.576          31.000  
  24753876.004   130082503.793       -3623.419          41.000  
  25694933.475   135027771.951        3273.736          39.000  
  24431170.558   128386668.369        2888.109          41.000  
 23  8  9 17 41 20.0030000  0  9G 5G13G 7G20G30G18G11G15G14
  21849088.032   114817726.257        1039.557          46.000  
  22675168.008   119158798.874        2211.730          46.000  
  22793388.085   119780050.978       -2194.624          40.000  
  21410516.910   112513055.264       -1139.034          43.000  
  21654760.872   113796528.813        -534.845          48.000  
  26333558.029   138383777.522        2253.824          31.000  
  24754565.410   130086127.488       -3623.700          41.000  
  25694310.590   135024498.730        3273.024          39.000  
  24430621.173   128383780.864        2887.426          41.000  
 23  8  9 17 41 21.0030000  0  9G 5G13G 7G20G30G18G11G15G14
  21848890.304   114816687.010        1038.934          46.000  
  22674747.091   119156587.232        2211.417          45.000  
  22793805.931   119782245.764       -2195.172          40.000  
  21410733.572   112514194.635       -1139.820          43.000  
  21654862.554   113797063.797        -535.260          48.000  
  26333128.719   138381524.339        2252.635          30.000  
  24755254.833   130089751.561       -3624.188          41.000  
  25693687.582   135021225.721        3272.607          39.000  
  24430071.875   128380893.740        2886.987          41.000  
 23  8  9 17 41 22.0030000  0  9G 5G13G 7G20G30G18G11G15G14
  21848692.593   114815648.267        1038.489          46.000  
  22674326.140   119154375.744        2211.351          45.000  
  22794223.567   119784440.789       -2195.207          40.000  
  21410950.478   112515334.548       -1140.112          43.000  
  21654964.010   113797599.230        -535.828          48.000  
  26332702.183   138379271.489        2252.781          31.000  
  24755944.169   130093375.710       -3624.414          41.000  
  25693064.417   135017952.636        3272.304          39.000  
  24429522.525   128378006.741        2886.871          41.000  
 23  8  9 17 41 23.0030000  0  9G 5G13G 7G20G30G18G11G15G14
  21848494.917   114814609.972        1037.744          46.000  
  22673904.944   119152164.396        2210.721          46.000  
  22794641.308   119786636.018       -2195.707          40.000  
  21411167.698   112516474.949       -1141.082          44.000  
  21655065.745   113798135.041        -536.462          48.000  
  26332270.221   138377018.998        2251.340          31.000  
  24756633.749   130096999.916       -3624.719          41.000  
  25692441.375   135014679.420        3272.425          39.000  
  24428973.349   128375119.809        2886.482          41.000  
 23  8  9 17 41 24.0030000  0  9G 5G13G 7G20G30G18G11G15G14
  21848297.485   114813572.289        1037.225          46.000  
  22673483.957   119149953.339        2210.729          46.000  
  22795058.769   119788831.636       -2195.944          40.000  
  21411384.814   112517616.010       -1141.419          44.000  
  21655167.741   113798671.424        -536.816          48.000  
  26331841.155   138374766.904        2251.607          30.000  
  24757323.172   130100624.351       -3624.615          41.000  
  25691818.507   135011406.285        3272.854          39.000  
  24428424.191   128372233.126        2886.275          41.000  
 23  8  9 17 41 25.0030000  0  9G 5G13G 7G20G30G18G11G15G14
  21848100.245   114812535.049        1037.378          46.000  
  22673063.110   119147742.395        2211.175          45.000  
  22795476.667   119791027.464       -2195.513          40.000  
  21411602.436   112518757.583       -1141.596          44.000  
  21655269.772   113799208.191        -536.798          48.000  
  26331406.819   138372515.122        2251.998          30.000  
  24758012.805   130104248.833       -3624.030          41.000  
  25691195.272   135008133.054        3273.504          39.000  
  24427874.788   128369346.518        2886.644          41.000  
 23  8  9 17 41 26.0030000  0  9G 5G13G 7G20G30G18G11G15G14
  21847902.953   114811498.289        1036.237          46.000  
  22672642.194   119145531.618        2210.446          45.000  
  22795894.512   119793223.527       -2196.229          40.000  
  21411820.144   112519899.664       -1142.588          44.000  
  21655371.786   113799745.372        -537.561          47.000  
  26330972.064   138370263.698        2250.990          29.000  
  24758702.734   130107873.399       -3624.811          41.000  
  25690572.282   135004859.729        3273.095          38.000  
  24427325.473   128366460.027        2886.044          41.000  
 23  8  9 17 41 27.0030000  0  9G 5G13G 7G20G30G18G11G15G14
  21847705.975   114810462.351        1035.571          47.000  
  22672221.504   119143321.313        2210.079          45.000  
  22796312.829   119795420.162       -2196.898          40.000  
  21412037.644   112521042.615       -1143.280          44.000  
  21655474.237   113800283.331        -538.318          47.000  
  26330547.082   138368012.919        2250.087          29.000  
  24759392.873   130111498.407       -3625.024          41.000  
  25689949.361   135001586.679        3272.875          39.000  
  24426776.192   128363573.989        2885.803          39.000  
 23  8  9 17 41 28.0030000  0  9G 5G13G 7G20G30G18G11G15G14
  21847508.822   114809426.806        1035.669          46.000  
  22671801.215   119141111.122        2210.290          45.000  
  22796730.709   119797616.996       -2196.882          40.000  
  21412255.266   112522186.046       -1143.659          45.000  
  21655576.477   113800821.660        -538.324          47.000  
  26330123.757   138365762.457        2249.904          28.000  
  24760083.081   130115123.420       -3625.043          42.000  
  25689326.424   134998313.471        3273.452          39.000  
  24426226.755   128360687.993        2885.862          39.000  
 23  8  9 17 41 29.0030000  0  9G 5G13G 7G20G30G18G11G15G14
  21847311.740   114808392.077        1034.546          46.000  
  22671380.805   119138901.402        2209.759          45.000  
  22797148.747   119799814.420       -2197.786          40.000  
  21412473.219   112523330.318       -1144.496          45.000  
  21655679.032   113801360.729        -539.270          47.000  
  26329694.534   138363512.471        2250.259          28.000  
  24760773.447   130118748.872       -3625.684          42.000  
  25688703.538   134995040.496        3272.990          39.000  
  24425677.736   128357802.428        2885.542          40.000  
 23  8  9 17 41 30.0030000  0  9G 5G13G 7G20G30G18G11G15G14
  21847115.093   114807358.025        1033.759          46.000  
  22670960.569   119136692.044        2209.197          45.000  
  22797567.151   119802012.260       -2198.135          40.000  
  21412691.120   112524475.330       -1145.487          45.000  
  21655781.640   113801900.432        -540.002          47.000  
  26329265.119   138361263.137        2249.680          28.000  
  24761463.760   130122374.566       -3625.482          42.000  
  25688080.775   134991767.677        3272.875          39.000  
  24425128.839   128354917.135        2885.382          40.000  
 23  8  9 17 41 31.0030000  0  9G 5G13G 7G20G30G18G11G15G14
  21846918.673   114806324.376        1033.435          46.000  
  22670540.106   119134482.780        2209.154          46.000  
  22797985.380   119804210.280       -2197.998          40.000  
  21412909.457   112525620.805       -1145.792          44.000  
  21655884.160   113802440.502        -540.308          47.000  
  26328833.034   138359014.128        2248.715          28.000  
  24762154.056   130126000.322       -3625.781          42.000  
  25687458.151   134988494.732        3272.856          38.000  
  24424579.803   128352031.935        2885.230          40.000  
 23  8  9 17 41 32.0030000  0  9G 5G13G 7G20G30G18G11G15G14
  21846722.446   114805291.386        1032.819          46.000  
  22670119.852   119132273.856        2208.879          46.000  
  22798403.714   119806408.732       -2198.514          40.000  
  21413127.934   112526766.993       -1146.521          44.000  
  21655987.221   113802981.182        -540.948          47.000  
  26328407.179   138356765.579        2248.021          28.000  
  24762843.933   130129626.344       -3626.031          42.000  
  25686835.143   134985221.859        3272.877          38.000  
  24424030.592   128349147.037        2884.786          40.000  
 23  8  9 17 41 33.0030000  0  9G 5G13G 7G20G30G18G11G15G14
  21846525.660   114804258.909        1032.025          46.000  
  22669699.825   119130065.108        2208.508          46.000  
  22798822.013   119808607.439       -2199.173          40.000  
  21413346.201   112527913.720       -1147.146          44.000  
  21656090.072   113803522.295        -541.498          47.000  
  26327981.428   138354517.395        2247.958          28.000  
  24763533.932   130133252.469       -3626.593          42.000  
  25686212.013   134981948.931        3273.105          38.000  
  24423481.783   128346262.245        2884.635          41.000  
 23  8  9 17 41 34.0030000  0  9G 5G13G 7G20G30G18G11G15G14
  21846328.734   114803226.825        1031.787          46.000  
  22669279.345   119127856.434        2208.664          46.000  
  22799240.539   119810806.295       -2198.716          40.000  
  21413564.451   112529060.894       -1147.382          44.000  
  21656192.714   113804063.759        -541.559          47.000  
  26327556.585   138352269.437        2247.672          28.000  
  24764224.001   130136878.582       -3626.349          42.000  
  25685589.494   134978675.873        3273.479          38.000  
  24422932.764   128343377.500        2884.669          41.000  
 23  8  9 17 41 35.0030000  0  9G 5G13G 7G20G30G18G11G15G14
  21846132.157   114802195.315        1030.920          46.000  
  22668858.969   119125648.004        2208.200          46.000  
  22799659.170   119813005.517       -2199.768          40.000  
  21413782.770   112530208.695       -1148.337          44.000  
  21656296.037   113804605.725        -542.499          47.000  
  26327130.940   138350021.854        2247.024          28.000  
  24764913.459   130140504.876       -3626.666          41.000  
  25684966.783   134975402.847        3273.034          38.000  
  24422383.868   128340492.953        2884.157          40.000  
 23  8  9 17 41 36.0030000  0  9G 5G13G 7G20G30G18G11G15G14
  21845935.615   114801164.396        1030.481          46.000  
  22668438.244   119123439.833        2207.868          45.000  
  22800077.679   119815205.035       -2199.701          41.000  
  21414001.544   112531357.110       -1148.732          44.000  
  21656399.360   113805148.214        -542.712          47.000  
  26326703.968   138347774.749        2247.194          27.000  
  24765603.528   130144131.358       -3626.678          42.000  
  25684344.020   134972129.843        3272.921          37.000  
  24421834.709   128337608.598        2884.246          41.000  
 23  8  9 17 41 37.0030000  0  8G 5G13G 7G20G30G11G15G14
  21845739.475   114800134.159        1029.834          46.000  
  22668018.235   119121232.040        2207.409          45.000  
  22800496.484   119817405.046       -2200.417          41.000  
  21414220.457   112532506.268       -1149.703          44.000  
  21656502.648   113805691.360        -543.585          47.000  
  24766293.649   130147758.126       -3626.776          41.000  
  25683721.204   134968856.974        3272.771          38.000  
  24421285.813   128334724.577        2883.959          41.000  
 23  8  9 17 41 38.0030000  0  8G 5G13G 7G20G30G11G15G14
  21845543.247   114799104.513        1029.309          46.000  
  22667598.051   119119024.489        2207.500          45.000  
  22800915.150   119819605.366       -2200.360          41.000  
  21414439.352   112533656.067       -1150.217          44.000  
  21656606.110   113806235.035        -544.061          47.000  
  24766983.753   130151385.104       -3627.197          41.000  
  25683098.493   134965584.136        3272.625          38.000  
  24420736.811   128331840.787        2883.707          41.000  
 23  8  9 17 41 39.0030000  0  9G 5G13G 7G20G30G18G11G15G14
  21845347.194   114798075.335        1029.065          46.000  
  22667177.937   119116817.110        2207.528          45.000  
  22801334.077   119821805.953       -2200.417          41.000  
  21414658.335   112534806.379       -1150.334          44.000  
  21656709.398   113806779.124        -544.202          47.000  
  26325426.507   138341049.3971       2244.917          28.000  
  24767673.874   130155012.141       -3626.709          41.000  
  25682475.992   134962311.212        3273.043          38.000  
  24420187.897   128328957.098        2883.822          41.000  
 23  8  9 17 41 40.0030000  0  9G 5G13G 7G20G30G18G11G15G14
  21845151.246   114797046.835        1028.290          46.000  
  22666757.928   119114610.089        2206.718          45.000  
  22801752.917   119824006.983       -2200.987          41.000  
  21414877.615   112535957.438       -1151.491          44.000  
  21656813.192   113807323.843        -545.026          47.000  
  26324997.162   138338804.151        2244.665          29.000  
  24768364.100   130158639.491       -3627.673          41.000  
  25681853.420   134959038.413        3272.695          38.000  
  24419639.105   128326073.738        2883.103          41.000  
 23  8  9 17 41 41.0030000  0  9G 5G13G 7G20G30G18G11G15G14
  21844955.419   114796018.959        1027.716          45.000  
  22666337.866   119112403.360        2206.483          45.000  
  22802171.687   119826208.399       -2201.562          41.000  
  21415096.824   112537109.148       -1152.059          44.000  
  21656916.794   113807869.114        -545.355          47.000  
  26324568.166   138336559.349        2244.345          29.000  
  24769054.343   130162267.047       -3627.789          41.000  
  25681230.936   134955765.689        3272.624          38.000  
  24419090.523   128323190.612        2882.870          41.000  
 23  8  9 17 41 42.0030000  0  9G 5G13G 7G20G30G18G11G15G14
  21844759.750   114794991.535        1027.216          45.000  
  22665917.962   119110196.755        2206.414          45.000  
  22802590.458   119828410.023       -2201.947          41.000  
  21415316.208   112538261.362       -1152.633          44.000  
  21657020.919   113808414.795        -545.935          47.000  
  26324141.805   138334314.850        2244.400          28.000  
  24769744.743   130165894.652       -3627.801          41.000  
  25680608.365   134952492.832        3272.893          38.000  
  24418541.644   128320307.562        2882.982          41.000  
 23  8  9 17 41 43.0030000  0  9G 5G13G 7G20G30G18G11G15G14
  21844563.993   114793964.793        1026.300          45.000  
  22665498.005   119107990.520        2205.782          45.000  
  22803009.682   119830612.091       -2202.620          41.000  
  21415535.558   112539414.308       -1153.500          44.000  
  21657124.853   113808961.107        -546.820          47.000  
  26323715.984   138332070.926        2243.644          28.000  
  24770434.969   130169522.557       -3628.400          41.000  
  25679985.654   134949220.173        3272.175          37.000  
  24417992.765   128317424.841        2882.587          40.000  
 23  8  9 17 41 44.0030000  0  9G 5G13G 7G20G30G18G11G15G14
  21844368.725   114792938.568        1026.385          45.000  
  22665077.995   119105784.487        2206.177          45.000  
  22803428.749   119832814.455       -2202.423          41.000  
  21415754.942   112540567.839       -1153.624          44.000  
  21657229.031   113809507.885        -546.808          47.000  
  26323291.770   138329827.381        2243.611          28.000  
  24771125.579   130173150.592       -3627.875          41.000  
  25679362.419   134945947.453        3272.281          37.000  
  24417444.252   128314542.287        2882.667          40.000  
 23  8  9 17 41 45.0030000  0  9G 5G13G 7G20G30G18G11G15G14
  21844173.492   114791912.972        1024.915          45.000  
  22664658.387   119103578.767        2205.219          45.000  
  22803847.676   119835017.188       -2202.988          41.000  
  21415974.657   112541722.039       -1154.867          44.000  
  21657333.139   113810055.244        -547.931          47.000  
  26322865.845   138327584.357        2241.932          28.000  
  24771816.102   130176778.866       -3628.674          41.000  
  25678739.603   134942674.774        3272.322          37.000  
  24416895.669   128311659.992        2882.007          40.000  
 23  8  9 17 41 46.0030000  0  9G 5G13G 7G20G30G18G11G15G14
  21843978.329   114790887.930        1024.768          45.000  
  22664238.500   119101373.292        2205.260          45.000  
  22804266.848   119837220.277       -2203.133          41.000  
  21416194.164   112542876.862       -1155.262          44.000  
  21657437.247   113810603.122        -548.212          47.000  
  26322437.773   138325341.670        2242.153          28.000  
  24772507.165   130180407.318       -3628.583          41.000  
  25678117.067   134939402.129        3272.736          38.000  
  24416347.349   128308777.886        2882.175          41.000  
 23  8  9 17 41 47.0030000  0  9G 5G13G 7G20G30G18G11G15G14
  21843783.707   114789863.484        1024.426          45.000  
  22663818.910   119099168.065        2205.428          45.000  
  22804686.124   119839423.708       -2203.329          41.000  
  21416413.653   112544032.301       -1155.351          44.000  
  21657541.616   113811151.509        -548.462          47.000  
  26322007.905   138323099.468        2242.511          27.000  
  24773197.723   130184035.937       -3628.284          41.000  
  25677494.461   134936129.551        3272.501          38.000  
  24415798.749   128305896.013        2881.815          40.000  
 23  8  9 17 41 48.0030000  0  9G 5G13G 7G20G30G18G11G15G14
  21843589.015   114788839.639        1023.523          46.000  
  22663398.953   119096963.120        2204.802          45.000  
  22805105.348   119841627.485       -2203.901          41.000  
  21416633.682   112545188.393       -1156.471          44.000  
  21657645.742   113811700.431        -549.042          47.000  
  26321579.886   138320857.737        2241.454          27.000  
  24773888.420   130187664.780       -3629.242          41.000  
  25676871.907   134932856.961        3272.723          38.000  
  24415250.445   128303014.350        2881.525          40.000  
 23  8  9 17 41 49.0030000  0  8G 5G13G 7G20G30G11G15G14
  21843394.393   114787816.480        1023.315          46.000  
  22662979.031   119094758.568        2204.476          45.000  
  22805524.659   119843831.736       -2203.784          41.000  
  21416853.764   112546345.234       -1156.856          45.000  
  21657750.181   113812249.995        -549.005          47.000  
  24774579.291   130191293.904       -3629.071          41.000  
  25676248.881   134929584.557        3272.756          38.000  
  24414702.195   128300133.041        2881.350          40.000  
 23  8  9 17 41 50.0030000  0  8G 5G13G 7G20G30G11G15G14
  21843200.049   114786793.678        1022.632          46.000  
  22662558.847   119092553.983        2204.689          45.000  
  22805944.198   119846036.057       -2204.112          41.000  
  21417074.021   112547502.435       -1157.110          45.000  
  21657854.760   113812799.855        -549.854          47.000  
  24775270.407   130194922.980       -3629.065          41.000  
  25675625.542   134926311.926        3272.700          38.000  
  24414153.752   128297251.668        2881.580          40.000  
 23  8  9 17 41 51.0030000  0  8G 5G13G 7G20G30G11G15G14
  21843006.038   114785771.560        1022.107          46.000  
  22662139.204   119090349.820        2204.015          45.000  
  22806363.352   119848240.887       -2205.146          40.000  
  21417294.295   112548660.426       -1158.333          45.000  
  21657959.776   113813350.385        -550.653          47.000  
  24775960.877   130198552.382       -3629.657          41.000  
  25675002.465   134923039.458        3272.406          38.000  
  24413605.466   128294370.668        2880.815          40.000  
 23  8  9 17 41 52.0030000  0  8G 5G13G 7G20G30G11G15G14
  21842811.992   114784750.274        1021.008          46.000  
  22661719.736   119088146.102        2203.557          44.000  
  22806782.785   119850446.239       -2205.073          40.000  
  21417515.040   112549819.224       -1158.782          44.000  
  21658064.599   113813901.620        -551.282          47.000  
  24776651.749   130202182.150       -3629.816          41.000  
  25674379.248   134919767.207        3272.418          38.000  
  24413057.180   128291490.071        2880.910          40.000  
 23  8  9 17 41 53.0030000  0  9G 5G13G 7G20G30G18G11G15G14
  21842618.067   114783729.291        1020.508          46.000  
  22661300.268   119085942.387        2203.294          44.000  
  22807202.254   119852651.686       -2205.866          41.000  
  21417735.367   112550978.423       -1159.819          44.000  
  21658169.475   113814453.161        -551.990          47.000  
  26319446.248   138309622.5961       2238.587          27.000  
  24777342.307   130205811.843       -3629.889          40.000  
  25673756.275   134916494.726        3272.256          38.000  
  24412509.103   128288609.431        2880.239          40.000  
 23  8  9 17 41 54.0030000  0  9G 5G13G 7G20G30G18G11G15G14
  21842424.038   114782709.076        1019.733          46.000  
  22660881.096   119083739.127        2202.870          44.000  
  22807621.931   119854857.651       -2206.053          41.000  
  21417956.077   112552138.433       -1160.526          44.000  
  21658274.787   113815005.396        -552.704          47.000  
  26319020.532   138307383.540        2238.959          28.000  
  24778032.847   130209441.953       -3630.408          40.000  
  25673132.953   134913222.474        3272.156          37.000  
  24411961.079   128285729.209        2879.977          40.000  
 23  8  9 17 41 55.0030000  0  9G 5G13G 7G20G30G18G11G15G14
  21842230.411   114781689.395        1019.336          46.000  
  22660461.924   119081536.089        2202.645          44.000  
  22808041.609   119857063.959       -2206.429          41.000  
  21418176.578   112553299.027       -1161.026          44.000  
  21658379.715   113815558.120        -553.107          47.000  
  26318595.515   138305144.965        2238.454          28.000  
  24778723.631   130213072.180       -3630.402          41.000  
  25672509.771   134909950.213        3272.309          37.000  
  24411413.282   128282849.153        2879.689          40.000  
 23  8  9 17 41 56.0030000  0  9G 5G13G 7G20G30G18G11G15G14
  21842036.870   114780670.196        1018.988          46.000  
  22660042.526   119079333.198        2202.651          44.000  
  22808461.374   119859270.495       -2207.042          41.000  
  21418397.481   112554460.154       -1161.395          44.000  
  21658485.150   113816111.272        -553.516          47.000  
  26318168.194   138302906.708        2237.860          27.000  
  24779414.468   130216702.480       -3630.225          40.000  
  25671887.008   134906677.848        3272.398          36.000  
  24410865.066   128279969.216        2879.901          40.000  
 23  8  9 17 41 57.0030000  0  9G 5G13G 7G20G30G18G11G15G14
  21841843.347   114779651.725        1018.134          46.000  
  22659623.302   119077130.721        2202.310          44.000  
  22808881.645   119861477.530       -2207.299          41.000  
  21418618.732   112555622.059       -1162.275          45.000  
  21658590.444   113816665.089        -554.199          47.000  
  26317740.105   138300669.040        2236.745          26.000  
  24780104.973   130220333.144       -3631.012          40.000  
  25671263.895   134903405.705        3271.841          36.000  
  24410317.234   128277089.684        2879.037          40.000  
 23  8  9 17 41 58.0030000  0  8G 5G13G 7G20G30G11G15G14
  21841650.016   114778633.671        1017.779          47.000  
  22659204.392   119074928.362        2202.527          44.000  
  22809301.742   119863684.746       -2207.231          41.000  
  21418840.123   112556784.447       -1162.872          45.000  
  21658696.001   113817219.281        -554.169          47.000  
  24780795.251   130223963.817       -3630.609          40.000  
  25670640.818   134900133.442        3272.463          36.000  
  24409769.175   128274210.177        2879.496          40.000  
 23  8  9 17 41 59.0030000  0  8G 5G13G 7G20G30G11G15G14
  21841456.598   114777616.278        1016.998          47.000  
  22658785.255   119072726.325        2201.364          44.000  
  22809721.541   119865892.365       -2207.992          41.000  
  21419061.479   112557947.523       -1163.762          45.000  
  21658801.766   113817774.091        -555.444          47.000  
  24781485.739   130227594.736       -3630.945          40.000  
  25670017.810   134896861.224        3272.272          36.000  
  24409221.116   128271330.948        2879.108          40.000  
 23  8  9 17 42  0.0030000  0  8G 5G13G 7G20G30G11G15G14
  21841262.761   114776599.368        1016.888          47.000  
  22658366.136   119070524.446        2201.877          44.000  
  22810141.621   119868100.224       -2207.850          42.000  
  21419282.922   112559111.117       -1163.956          45.000  
  21658907.393   113818329.307        -555.396          47.000  
  24782176.715   130231225.764       -3630.878          41.000  
  25669394.959   134893588.968        3272.332          37.000  
  24408673.127   128268451.827        2879.599          41.000  
 23  8  9 17 42  1.0030000  0  8G 5G13G 7G20G30G11G15G14
  21841069.081   114775582.839        1016.394          47.000  
  22657947.156   119068322.627        2201.953          44.000  
  22810561.839   119870308.245       -2207.976          42.000  
  21419504.749   112560275.161       -1164.116          45.000  
  21659013.280   113818884.857        -555.591          47.000  
  24782867.691   130234856.782       -3631.067          41.000  
  25668772.091   134890316.553        3272.626          36.000  
  24408125.207   128265572.746        2879.409          41.000  
 23  8  9 17 42  2.0030000  0  8G 5G13G 7G20G30G11G15G14
  21840875.733   114774567.012        1015.015          47.000  
  22657528.246   119066121.176        2200.771          44.000  
  22810981.988   119872516.702       -2209.185          42.000  
  21419726.838   112561439.950       -1165.611          45.000  
  21659119.308   113819441.046        -556.824          47.000  
  24783558.720   130238488.087       -3631.805          41.000  
  25668149.153   134887044.261        3272.159          36.000  
  24407577.393   128262694.022        2878.170          40.000  
 23  8  9 17 42  3.0030000  0  8G 5G13G 7G20G30G11G15G14
  21840682.716   114773552.088        1014.587          46.000  
  22657109.388   119063920.307        2200.632          44.000  
  22811402.521   119874725.816       -2209.454          42.000  
  21419948.962   112562605.664       -1165.991          45.000  
  21659225.545   113819998.073        -557.306          47.000  
  24784249.836   130242119.855       -3631.873          41.000  
  25667526.477   134883772.334        3271.528          35.000  
  24407029.665   128259815.762        2878.242          41.000  
 23  8  9 17 42  4.0030000  0  8G 5G13G 7G20G30G11G15G14
  21840489.455   114772537.367        1014.288          46.000  
  22656690.548   119061719.304        2200.861          45.000  
  22811823.071   119876934.872       -2209.294          42.000  
  21420170.859   112563771.636       -1166.534          45.000  
  21659331.625   113820555.241        -557.715          47.000  
  24784941.178   130245751.475       -3631.756          41.000  
  25666903.627   134880500.006        3272.375          35.000  
  24406481.798   128256937.378        2877.745          41.000  
 23  8  9 17 42  5.0030000  0  8G 5G13G 7G20G30G11G15G14
  21840296.630   114771523.339        1013.745          46.000  
  22656271.883   119059518.699        2200.477          45.000  
  22812243.709   119879144.427       -2209.787          42.000  
  21420392.791   112564938.362       -1167.004          45.000  
  21659437.949   113821113.056        -558.044          47.000  
  24785631.963   130249383.378       -3631.897          41.000  
  25666280.811   134877227.860        3272.296          35.000  
  24405934.298   128254059.324        2877.849          41.000  
 23  8  9 17 42  6.0030000  0  8G 5G13G 7G20G30G11G15G14
  21840103.596   114770510.045        1012.903          46.000  
  22655853.339   119057318.496        2200.001          45.000  
  22812664.329   119881354.449       -2210.295          42.000  
  21420615.368   112566105.851       -1168.015          45.000  
  21659544.378   113821671.543        -558.759          48.000  
  24786323.201   130253015.602       -3632.355          42.000  
  25665657.838   134873955.891        3271.823          35.000  
  24405386.780   128251181.624        2877.804          41.000  
 23  8  9 17 42  7.0030000  0  8G 5G13G 7G20G30G11G15G14
  21839910.736   114769497.198        1012.604          46.000  
  22655435.075   119055118.422        2199.918          45.000  
  22813084.949   119883564.710       -2210.008          42.000  
  21420837.387   112567273.849       -1168.258          45.000  
  21659650.754   113822230.422        -559.039          47.000  
  24787014.317   130256647.887       -3632.227          42.000  
  25665035.214   134870683.830        3272.163          35.000  
  24404839.331   128248304.024        2877.494          41.000  
 23  8  9 17 42  8.0030000  0  8G 5G13G 7G20G30G11G15G14
  21839717.963   114768485.068        1011.621          46.000  
  22655016.636   119052918.718        2199.435          45.000  
  22813505.569   119885775.407       -2210.785          42.000  
  21421059.878   112568442.595       -1169.192          45.000  
  21659756.991   113822789.961        -560.077          48.000  
  24787705.624   130260280.468       -3632.904          41.000  
  25664412.207   134867411.913        3271.621          34.000  
  24404291.918   128245426.760        2876.902          41.000  
 23  8  9 17 42  9.0030000  0  8G 5G13G 7G20G30G11G15G14
  21839525.226   114767473.488        1011.597          46.000  
  22654598.040   119050719.253        2199.692          45.000  
  22813926.276   119887986.395       -2210.962          42.000  
  21421282.368   112569611.939       -1169.169          45.000  
  21659863.752   113823349.986        -559.814          48.000  
  24788396.775   130263913.236       -3632.489          42.000  
  25663789.600   134864139.996        3272.280          35.000  
  24403744.330   128242549.674        2877.221          41.000  
 23  8  9 17 42 10.0030000  0  8G 5G13G 7G20G30G11G15G14
  21839332.488   114766462.345        1010.596          46.000  
  22654179.514   119048519.907        2199.070          45.000  
  22814346.914   119890197.611       -2211.523          42.000  
  21421504.911   112570781.778       -1170.333          45.000  
  21659970.303   113823910.404        -560.907          48.000  
  24789088.205   130267546.021       -3632.935          42.000  
  25663166.540   134860867.972        3272.017          35.000  
  24403197.266   128239672.677        2876.503          41.000  
 23  8  9 17 42 11.0030000  0  9G 5G13G 7G20G30G18G11G15G14
  21839140.221   114765452.003        1010.138          46.000  
  22653760.918   119046321.022        2198.817          45.000  
  22814767.900   119892409.389       -2211.711          42.000  
  21421727.750   112571952.461       -1170.794          45.000  
  21660077.011   113824471.535        -561.011          48.000  
  26311805.949                        2232.948          27.000  
  24789779.757   130271179.204       -3633.093          42.000  
  25662544.196   134857596.193        3271.741          35.000  
  24402649.818   128236796.128        2876.756          42.000  
 23  8  9 17 42 12.0030000  0  9G 5G13G 7G20G30G18G11G15G14
  21838948.444   114764442.147        1009.717          46.000  
  22653342.759   119044122.329        2198.716          45.000  
  22815188.695   119894621.416       -2212.004          42.000  
  21421950.624   112573123.679       -1171.318          46.000  
  21660184.190   113825033.135        -561.694          47.000  
  26311381.822                        2231.366          28.000  
  24790471.379   130274812.485       -3633.179          42.000  
  25661921.851   134854324.323        3272.111          37.000  
  24402102.614   128233919.658        2876.373          41.000  
 23  8  9 17 42 13.0030000  0  9G 5G13G 7G20G30G18G11G15G14
  21838756.229   114763433.018        1008.777          46.000  
  22652924.460   119041924.025        2198.177          45.000  
  22815609.751   119896833.945       -2212.882          42.000  
  21422173.551   112574295.659       -1172.315          45.000  
  21660291.387   113825595.405        -562.598          48.000  
  26310955.635   138265004.8653       2230.326          29.000  
  24791163.298   130278446.092       -3633.868          42.000  
  25661299.280   134851052.655        3271.656          36.000  
  24401555.183   128231043.563        2875.940          42.000  
 23  8  9 17 42 14.0030000  0  9G 5G13G 7G20G30G18G11G15G14
  21838564.137   114762424.543        1008.105          46.000  
  22652506.300   119039726.045        2197.675          45.000  
  22816031.052   119899046.843       -2213.089          42.000  
  21422396.704   112575468.329       -1172.933          45.000  
  21660398.967   113826158.236        -563.080          48.000  
  26310528.419   138262774.6512       2230.997          29.000  
  24791854.885   130282079.928       -3634.186          41.000  
  25660676.429   134847781.038        3271.890          36.000  
  24401007.997   128228167.734        2875.698          42.000  
 23  8  9 17 42 15.0030000  0  9G 5G13G 7G20G30G18G11G15G14
  21838372.115   114761416.656        1007.776          46.000  
  22652088.350   119037528.361        2197.465          46.000  
  22816452.614   119901260.126       -2213.240          42.000  
  21422619.840   112576641.658       -1173.437          45.000  
  21660506.408   113826721.644        -563.690          48.000  
  26310104.186   138260544.9492       2229.904          29.000  
  24792546.594   130285713.986       -3634.137          41.000  
  25660053.614   134844509.527        3271.697          36.000  
  24400461.002   128225292.177        2875.555          42.000  
 23  8  9 17 42 16.0030000  0  9G 5G13G 7G20G30G18G11G15G14
  21838180.337   114760409.507        1006.763          46.000  
  22651670.644   119035331.040        2196.982          46.000  
  22816873.862   119903473.869       -2213.945          42.000  
  21422843.081   112577815.756       -1174.526          45.000  
  21660613.814   113827285.694        -564.514          48.000  
  26309676.307   138258315.8122       2228.691          29.000  
  24793238.303   130289348.358       -3634.869          42.000  
  25659431.199   134841238.162        3271.162          37.000  
  24399913.903   128222416.960        2874.937          42.000  
 23  8  9 17 42 17.0030000  0  9G 5G13G 7G20G30G18G11G15G14
  21837988.594   114759403.134        1006.030          46.000  
  22651252.834   119033134.191        2196.776          46.000  
  22817295.285   119905688.167       -2214.372          42.000  
  21423066.391   112578990.687       -1175.363          45.000  
  21660721.465   113827850.477        -565.149          48.000  
  26309247.503   138256087.2822       2228.493          29.000  
  24793930.187   130292983.090       -3634.814          42.000  
  25658808.610   134837967.017        3271.365          36.000  
  24399366.751   128219542.157        2874.446          42.000  
 23  8  9 17 42 18.0030000  0  9G 5G13G 7G20G30G18G11G15G14
  21837797.078   114758397.228        1005.493          46.000  
  22650834.779   119030937.498        2196.388          46.000  
  22817716.760   119907902.690       -2215.008          42.000  
  21423289.841   112580166.107       -1175.789          45.000  
  21660829.080   113828415.654        -565.601          48.000  
  26308830.041   138253859.0752       2228.237          29.000  
  24794621.826   130296617.899       -3635.113          42.000  
  25658185.969   134834695.793        3271.132          36.000  
  24398819.687   128216667.455        2874.281          42.000  
 23  8  9 17 42 19.0030000  0  9G 5G13G 7G20G30G18G11G15G14
  21837605.981   114757392.155        1004.822          46.000  
  22650416.898   119028741.297        2196.069          46.000  
  22818138.480   119910117.788       -2215.483          42.000  
  21423513.396   112581342.428       -1176.693          45.000  
  21660936.609   113828981.629        -566.174          48.000  
  26308400.923   138251631.5782       2227.519          29.000  
  24795313.483   130300253.160       -3635.394          42.000  
  25657563.712   134831424.864        3270.933          36.000  
  24398272.553   128213793.221        2874.072          42.000  
 23  8  9 17 42 20.0030000  0  9G 5G13G 7G20G30G18G11G15G14
  21837414.883   114756387.564        1004.272          46.000  
  22649999.158   119026545.270        2195.889          46.000  
  22818559.832   119912333.135       -2215.697          42.000  
  21423737.544   112582519.271       -1177.144          45.000  
  21661044.590   113829548.022        -566.650          48.000  
  26307975.626   138249404.4192       2226.724          29.000  
  24796005.751   130303888.481       -3635.187          42.000  
  25656941.524   134828153.832        3271.386          37.000  
  24397725.488   128210919.090        2873.916          42.000  
 23  8  9 17 42 21.0030000  0  9G 5G13G 7G20G30G18G11G15G14
  21837223.856   114755383.467        1003.741          46.000  
  22649581.103   119024349.414        2195.720          46.000  
  22818981.587   119914548.731       -2216.027          42.000  
  21423961.779   112583696.664       -1177.857          45.000  
  21661152.398   113830114.841        -567.249          48.000  
  26307556.106   138247177.5382       2226.317          29.000  
  24796697.809   130307523.897       -3635.455          43.000  
  25656319.215   134824882.771        3271.323          37.000  
  24397178.302   128208045.132        2873.916          42.000  
 23  8  9 17 42 22.0030000  0  9G 5G13G 7G20G30G18G11G15G14
  21837032.602   114754380.281        1003.082          46.000  
  22649163.292   119022154.132        2195.302          46.000  
  22819403.359   119916764.967       -2216.304          42.000  
  21424185.648   112584874.990       -1178.646          45.000  
  21661260.519   113830682.524        -567.822          48.000  
  26307133.967   138244951.4892       2225.808          29.000  
  24797390.216   130311159.813       -3635.834          43.000  
  25655697.306   134821612.074        3270.894          37.000  
  24396631.482   128205171.696        2873.454          40.000  
 23  8  9 17 42 23.0030000  0  9G 5G13G 7G20G30G18G11G15G14
  21836841.574   114753377.299        1002.539          46.000  
  22648745.551   119019958.733        2195.155          45.000  
  22819824.869   119918981.183       -2216.327          42.000  
  21424410.372   112586053.578       -1179.119          45.000  
  21661368.449   113831250.357        -568.121          48.000  
  26306711.637   138242725.4262       2225.640          29.000  
  24798082.396   130314795.551       -3635.943          43.000  
  25655074.770   134818340.991        3270.985          37.000  
  24396084.906   128202298.117        2873.260          40.000  
 23  8  9 17 42 24.0030000  0  9G 5G13G 7G20G30G18G11G15G14
  21836650.808   114752375.262        1001.373          46.000  
  22648327.793   119017763.980        2194.286          45.000  
  22820246.745   119921198.162       -2217.664          42.000  
  21424634.956   112587233.164       -1179.981          45.000  
  21661476.536   113831819.089        -569.409          48.000  
  26306289.115   138240500.2772       2224.430          29.000  
  24798774.629   130318431.829       -3636.511          43.000  
  25654452.268   134815070.343        3270.396          37.000  
  24395538.313   128199425.114        2872.291          40.000  
 23  8  9 17 42 25.0030000  0  9G 5G13G 7G20G30G18G11G15G14
  21836460.322   114751374.184        1001.001          46.000  
  22647910.419   119015569.869        2194.228          46.000  
  22820668.796   119923415.809       -2217.309          42.000  
  21424859.802   112588413.776       -1180.683          45.000  
  21661584.832   113832388.728        -569.702          48.000  
  26305864.761   138238275.922        2224.152          30.000  
  24799467.001   130322068.686       -3636.816          43.000  
  25653830.168   134811800.084        3270.682          38.000  
  24394991.458   128196552.673        2872.324          41.000  
 23  8  9 17 42 26.0030000  0  9G 5G13G 7G20G30G18G11G15G14
  21836269.678   114750373.587        1000.275          45.000  
  22647493.149   119013375.901        2193.834          46.000  
  22821090.690   119925633.695       -2217.997          42.000  
  21425084.875   112589594.892       -1181.516          45.000  
  21661692.988   113832958.774        -570.551          47.000  
  26305440.005   138236051.914        2222.930          30.000  
  24800159.443   130325705.606       -3636.823          43.000  
  25653207.911   134808529.753        3270.596          37.000  
  24394445.022   128193680.363        2872.061          41.000  
 23  8  9 17 42 27.0030000  0  9G 5G13G 7G20G30G18G11G15G14
  21836079.663   114749373.791         999.268          45.000  
  22647075.670   119011182.399        2193.127          46.000  
  22821512.863   119927852.133       -2218.620          42.000  
  21425310.035   112590776.836       -1182.542          45.000  
  21661801.511   113833529.549        -571.179          47.000  
  26305013.871   138233828.511        2222.819          30.000  
  24800852.217   130329342.900       -3637.537          43.000  
  25652585.793   134805259.676        3269.896          37.000  
  24393898.272   128190808.490        2871.419          41.000  
 23  8  9 17 42 28.0030000  0  9G 5G13G 7G20G30G18G11G15G14
  21835889.577   114748374.574         998.950          45.000  
  22646659.099   119008989.158        2192.921          46.000  
  22821935.228   119930070.911       -2218.703          43.000  
  21425535.440   112591959.412       -1182.775          45.000  
  21661909.790   113834100.848        -571.552          47.000  
  26304597.125   138231605.509        2223.473          31.000  
  24801544.607   130332980.383       -3637.445          43.000  
  25651963.850   134801989.610        3270.478          37.000  
  24393351.661   128187936.826        2871.569          41.000  
 23  8  9 17 42 29.0030000  0 10G 5G13G 7G20G30G18G 9G11G15G14
  21835699.283   114747375.692         998.584          45.000  
  22646242.004   119006795.927        2192.949          47.000  
  22822357.576   119932289.798       -2219.152          43.000  
  21425760.984   112593142.380       -1183.346          46.000  
  21662018.435   113834672.441        -572.113          47.000  
  26304173.765   138229382.752        2222.667          30.000  
  25510621.291                       -3525.000          25.000  
  24802236.927   130336617.823       -3637.628          43.000  
  25651341.697   134798719.344        3270.334          38.000  
  24392804.963   128185065.160        2871.414          41.000  
 23  8  9 17 42 30.0030000  0 10G 5G13G 7G20G30G18G 9G11G15G14
  21835509.302   114746377.820         997.351          45.000  
  22645825.065   119004603.376        2192.213          47.000  
  22822780.011   119934509.418       -2219.819          43.000  
  21425986.493   112594326.390       -1184.407          45.000  
  21662127.411   113835244.954        -572.833          47.000  
  26303748.398   138227160.854        2221.041          30.000  
  25511278.292                       -3525.000          25.000  
  24802929.421   130340255.830       -3637.970          44.000  
  25650720.208   134795449.511        3269.923          38.000  
  24392258.562   128182194.099        2870.910          41.000  
 23  8  9 17 42 31.0030000  0  9G 5G13G 7G20G30G18G11G15G14
  21835319.409   114745380.535         996.899          45.000  
  22645408.319   119002411.085        2192.133          47.000  
  22823202.568   119936729.412       -2220.267          43.000  
  21426211.967   112595511.031       -1184.834          45.000  
  21662236.353   113835818.005        -573.346          47.000  
  26303323.503   138224939.333        2220.750          30.000  
  24803622.038   130343894.046       -3638.464          44.000  
  25650098.229   134792179.733        3269.772          38.000  
  24391712.161   128179323.296        2870.400          41.000  
 23  8  9 17 42 32.0030000  0 10G 5G13G 7G20G30G18G 9G11G15G14
  21835129.341   114744383.734         996.271          45.000  
  22644990.945   119000218.982        2191.695          47.000  
  22823625.072   119938949.641       -2220.618          43.000  
  21426437.633   112596696.224       -1185.572          45.000  
  21662345.051   113836391.521        -573.999          47.000  
  26302906.827   138222718.182        2221.291          30.000  
  25512617.003                       -3523.030          26.000  
  24804314.724   130347532.338       -3638.458          44.000  
  25649476.705   134788909.882        3269.546          38.000  
  24391165.917   128176452.588        2870.426          41.000  
 23  8  9 17 42 33.0030000  0 10G 5G13G 7G20G30G18G 9G11G15G14
  21834939.780   114743387.666         995.569          45.000  
  22644574.199   118998027.274        2191.354          47.000  
  22824047.472   119941170.357       -2221.152          43.000  
  21426663.422   112597882.176       -1186.588          46.000  
  21662453.957   113836965.666        -574.573          47.000  
  26302476.452   138220497.633        2220.998          30.000  
  25513285.818                       -3522.633          26.000  
  24805007.428   130351170.960       -3638.898          43.000  
  25648854.832   134785640.195        3269.444          39.000  
  24390619.725   128173582.262        2869.797          41.000  
 23  8  9 17 42 34.0030000  0 10G 5G13G 7G20G30G18G 9G11G15G14
  21834750.235   114742392.398         994.830          45.000  
  22644157.488   118995836.025        2191.125          47.000  
  22824470.343   119943391.610       -2221.384          43.000  
  21426889.420   112599068.964       -1187.276          46.000  
  21662563.021   113837540.559        -575.342          47.000  
  26302057.228   138218277.786        2218.906          30.000  
  25513959.675                       -3524.327          26.000  
  24805700.149   130354809.971       -3639.233          43.000  
  25648232.941   134782370.762        3269.514          39.000  
  24390073.655   128170712.345        2869.745          41.000  
 23  8  9 17 42 35.0030000  0 10G 5G13G 7G20G30G18G 9G11G15G14
  21834560.848   114741397.705         994.110          45.000  
  22643740.846   118993645.033        2190.576          47.000  
  22824893.180   119945613.214       -2222.202          43.000  
  21427115.540   112600256.375       -1187.979          46.000  
  21662671.998   113838115.965        -575.958          46.000  
  26301634.182   138216058.296        2218.635          30.000  
  25514633.166                       -3524.270          26.000  
  24806392.609   130358449.137       -3639.447          43.000  
  25647610.701   134779101.351        3268.951          39.000  
  24389527.743   128167842.638        2869.543          41.000  
 23  8  9 17 42 36.0030000  0 10G 5G13G 7G20G30G18G 9G11G15G14
  21834371.531   114740403.723         993.707          45.000  
  22643324.030   118991454.400        2190.663          47.000  
  22825315.876   119947835.239       -2222.070          43.000  
  21427341.450   112601444.522       -1188.522          45.000  
  21662781.446   113838691.999        -576.398          46.000  
  26301211.224   138213839.345        2218.701          30.000  
  25515307.879                       -3522.772          26.000  
  24807085.191   130362088.614       -3639.612          43.000  
  25646988.636   134775832.049        3269.604          39.000  
  24388981.847   128164973.274        2869.440          42.000  
 23  8  9 17 42 37.0030000  0 10G 5G13G 7G20G30G18G 9G11G15G14
  21834182.388   114739410.054         993.292          45.000  
  22642907.215   118989263.775        2190.476          47.000  
  22825738.870   119950057.356       -2222.221          43.000  
  21427567.553   112602633.036       -1188.748          45.000  
  21662890.806   113839268.297        -576.489          46.000  
  26300789.173   138211620.615        2218.991          30.000  
  25515978.386                       -3523.268          26.000  
  24807777.668   130365727.989       -3639.496          43.000  
  25646366.745   134772562.569        3269.588          39.000  
  24388435.917   128162103.862        2869.458          42.000  
 23  8  9 17 42 38.0030000  0 10G 5G13G 7G20G30G18G 9G11G15G14
  21833993.472   114738417.188         992.584          45.000  
  22642490.399   118987073.635        2189.903          47.000  
  22826162.247   119952280.042       -2223.015          43.000  
  21427793.620   112603822.416       -1189.901          45.000  
  21663000.585   113839845.352        -577.448          46.000  
  26300369.600   138209402.551        2217.731          29.000  
  25516649.923                       -3523.537          26.000  
  24808470.232   130369367.778       -3639.740          43.000  
  25645744.801   134769293.311        3269.031          39.000  
  24387889.952   128159234.909        2868.571          42.000  
 23  8  9 17 42 39.0030000  0 10G 5G13G 7G20G30G18G 9G11G15G14
  21833804.782   114737425.119         991.772          45.000  
  22642073.530   118984883.986        2189.423          47.000  
  22826585.449   119954503.290       -2223.482          43.000  
  21428020.037   112605012.638       -1190.682          45.000  
  21663110.312   113840423.154        -578.088          46.000  
  26299943.692   138207185.083        2217.137          28.000  
  25517321.948                       -3524.891          26.000  
  24809162.534   130373007.978       -3640.454          43.000  
  25645122.876   134766024.315        3268.769          39.000  
  24387344.284   128156366.392        2868.162          42.000  
 23  8  9 17 42 40.0030000  0 10G 5G13G 7G20G30G18G 9G11G15G14
  21833615.727   114736433.590         991.248          45.000  
  22641656.976   118982694.540        2189.257          47.000  
  22827008.460   119956726.825       -2223.628          43.000  
  21428246.523   112606203.452       -1191.199          45.000  
  21663220.336   113841001.438        -578.461          46.000  
  26299518.274   138204968.102        2216.404          28.000  
  25517992.054                       -3524.054          27.000  
  24809855.064   130376648.298       -3640.375          43.000  
  25644501.037   134762755.275        3269.166          39.000  
  24386798.494   128153498.044        2868.058          42.000  
 23  8  9 17 42 41.0030000  0 10G 5G13G 7G20G30G18G 9G11G15G14
  21833427.544   114735442.625         990.723          45.000  
  22641240.597   118980505.338        2188.917          47.000  
  22827431.733   119958950.691       -2224.409          43.000  
  21428473.324   112607394.856       -1191.785          45.000  
  21663330.412   113841580.223        -579.095          46.000  
  26299095.210   138202751.489        2216.128          28.000  
  25518661.933   134101477.1863      -3524.271          27.000  
  24810547.942   130380288.787       -3640.710          43.000  
  25643878.867   134759486.269        3269.041          39.000  
  24386252.913   128150629.896        2868.025          42.000  
 23  8  9 17 42 42.0030000  0 10G 5G13G 7G20G30G18G 9G11G15G14
  21833238.907   114734452.332         989.972          45.000  
  22640824.357   118978316.474        2188.751          47.000  
  22827855.214   119961174.980       -2224.441          43.000  
  21428700.159   112608586.990       -1192.415          45.000  
  21663440.628   113842159.622        -579.626          46.000  
  26298671.554   138200535.405        2215.479          28.000  
  25519330.608   134105001.5402      -3524.282          27.000  
  24811240.419   130383929.535       -3640.668          43.000  
  25643256.749   134756217.383        3268.783          39.000  
  24385707.140   128147762.045        2867.827          42.000  
 23  8  9 17 42 43.0030000  0 10G 5G13G 7G20G30G18G 9G11G15G14
  21833050.881   114733462.714         989.264          45.000  
  22640407.802   118976127.968        2188.207          47.000  
  22828278.801   119963399.689       -2224.841          43.000  
  21428927.221   112609779.837       -1193.350          46.000  
  21663550.878   113842739.636        -580.280          46.000  
  26298250.411   138198319.835        2215.148          28.000  
  25520000.330   134108526.0532      -3524.978          27.000  
  24811932.878   130387570.560       -3641.144          42.000  
  25642634.771   134752948.603        3268.793          39.000  
  24385161.559   128144894.531        2867.111          42.000  
 23  8  9 17 42 44.0030000  0 10G 5G13G 7G20G30G18G 9G11G15G14
  21832862.785   114732473.613         988.733          45.000  
  22639991.370   118973939.669        2188.200          47.000  
  22828702.231   119965624.702       -2225.175          43.000  
  21429154.528   112610973.275       -1193.862          46.000  
  21663661.320   113843320.137        -580.786          46.000  
  26297827.714   138196104.718        2214.831          28.000  
  25520669.546   134112050.4952      -3523.974          27.000  
  24812625.652   130391211.710       -3641.131          42.000  
  25642012.654   134749679.810        3268.780          39.000  
  24384616.135   128142027.181        2867.063          42.000  
 23  8  9 17 42 45.0030000  0 10G 5G13G 7G20G30G18G 9G11G15G14
  21832675.177   114731485.278         987.933          46.000  
  22639574.729   118971751.819        2187.689          47.000  
  22829126.009   119967850.228       -2225.533          43.000  
  21429381.782   112612167.510       -1194.589          46.000  
  21663772.164   113843901.325        -581.439          46.000  
  26297407.443   138193890.172        2214.271          27.000  
  25521340.297   134115575.2252      -3524.088          26.000  
  24813318.112   130394853.216       -3641.650          42.000  
  25641390.571   134746411.237        3268.450          39.000  
  24384070.711   128139160.235        2866.788          42.000  
 23  8  9 17 42 46.0030000  0 10G 5G13G 7G20G30G18G 9G11G15G14
  21832487.553   114730497.605         987.372          46.000  
  22639158.175   118969564.294        2187.497          47.000  
  22829549.526   119970076.180       -2226.026          43.000  
  21429609.088   112613362.458       -1195.301          46.000  
  21663883.165   113844483.121        -582.037          46.000  
  26296985.340   138191676.157        2213.554          27.000  
  25522010.455   134119100.2072      -3525.249          26.000  
  24814011.199   130398494.993       -3641.870          42.000  
  25640768.680   134743142.766        3268.377          39.000  
  24383525.496   128136293.583        2866.541          41.000  
 23  8  9 17 42 47.0030000  0 10G 5G13G 7G20G30G18G 9G11G15G14
  21832300.190   114729510.653         986.438          46.000  
  22638742.022   118967377.183        2186.736          47.000  
  22829973.060   119972302.609       -2226.941          42.000  
  21429836.535   112614558.162       -1196.119          45.000  
  21663994.253   113845065.589        -582.867          46.000  
  26296563.760   138189462.687        2212.946          27.000  
  25522677.839   134122625.3252      -3525.621          26.000  
  24814703.886   130402137.079       -3642.413          42.000  
  25640146.667   134739874.451        3268.024          39.000  
  24382980.211   128133427.265        2866.045          41.000  
 23  8  9 17 42 48.0030000  0 10G 5G13G 7G20G30G18G 9G11G15G14
  21832112.425   114728524.134         986.169          46.000  
  22638325.782   118965190.154        2186.920          47.000  
  22830396.507   119974529.207       -2226.777          42.000  
  21430064.365   112615754.334       -1196.573          45.000  
  21664105.219   113845648.398        -583.118          47.000  
  26296138.934   138187249.498        2213.290          27.000  
  25523347.299   134126150.3382      -3525.855          25.000  
  24815396.433   130405779.178       -3642.352          42.000  
  25639525.143   134736605.995        3268.704          39.000  
  24382434.787   128130561.018        2865.987          42.000  
 23  8  9 17 42 49.0030000  0 10G 5G13G 7G20G30G18G 9G11G15G14
  21831925.289   114727538.243         985.577          46.000  
  22637909.734   118963003.430        2186.636          47.000  
  22830820.303   119976756.173       -2227.131          42.000  
  21430292.264   112616951.173       -1197.000          45.000  
  21664216.360   113846231.784        -583.649          47.000  
  26295715.156   138185036.911        2211.957          26.000  
  25524016.777   134129674.8811      -3524.935          25.000  
  24816089.084   130409421.488       -3642.426          42.000  
  25638903.199   134733337.637        3268.351          39.000  
  24381889.747   128127695.028        2866.036          42.000  
 23  8  9 17 42 50.0030000  0 10G 5G13G 7G20G30G18G 9G11G15G14
  21831738.240   114726553.014         984.900          46.000  
  22637493.686   118960817.025        2186.219          47.000  
  22831243.802   119978983.563       -2227.895          42.000  
  21430520.112   112618148.705       -1197.858          45.000  
  21664327.709   113846815.754        -584.314          47.000  
  26295293.174   138182824.671        2211.886          26.000  
  25524687.650   134133200.093       -3525.181          25.000  
  24816781.875   130413064.057       -3642.944          42.000  
  25638281.134   134730069.363        3267.978          39.000  
  24381344.393   128124829.332        2865.705          42.000  
 23  8  9 17 42 51.0030000  0 10G 5G13G 7G20G30G18G 9G11G15G14
  21831551.209   114725568.341         984.357          46.000  
  22637077.690   118958630.862        2185.976          47.000  
  22831667.633   119981211.239       -2227.903          42.000  
  21430748.099   112619346.837       -1198.444          45.000  
  21664439.234   113847400.216        -584.729          47.000  
  26294874.683   138180612.942        2211.599          27.000  
  25525358.088   134136725.332       -3524.557          25.000  
  24817475.050   130416706.765       -3643.134          42.000  
  25637659.208   134726801.113        3268.144          39.000  
  24380799.109   128121963.830        2865.479          42.000  
 23  8  9 17 42 52.0030000  0 10G 5G13G 7G20G30G18G 9G11G15G14
  21831364.195   114724584.383         983.533          46.000  
  22636661.694   118956445.073        2185.573          47.000  
  22832091.394   119983439.380       -2228.270          42.000  
  21430975.964   112620545.715       -1199.382          45.000  
  21664550.810   113847985.330        -585.449          47.000  
  26294456.105   138178401.740        2210.784          27.000  
  25526029.712   134140250.890       -3525.753          25.000  
  24818167.963   130420349.763       -3643.250          42.000  
  25637037.213   134723532.968        3268.361          39.000  
  24380253.598   128119098.677        2865.019          41.000  
 23  8  9 17 42 53.0030000  0 10G 5G13G 7G20G30G18G 9G11G15G14
  21831177.373   114723601.037         982.910          47.000  
  22636245.716   118954259.556        2185.281          46.000  
  22832515.382   119985667.881       -2228.846          43.000  
  21431203.916   112621745.216       -1199.787          46.000  
  21664662.317   113848570.969        -586.102          47.000  
  26294035.799   138176190.916        2210.365          27.000  
  25526699.451   134143776.431       -3526.296          25.000  
  24818861.051   130423992.945       -3643.164          42.000  
  25636415.357   134720264.887        3268.414          39.000  
  24379708.540   128116233.767        2864.678          42.000  
 23  8  9 17 42 54.0030000  0 10G 5G13G 7G20G30G18G 9G11G15G14
  21830990.725   114722618.399         982.043          47.000  
  22635829.947   118952074.446        2184.583          47.000  
  22832939.458   119987896.851       -2229.415          43.000  
  21431432.357   112622945.505       -1200.912          46.000  
  21664774.051   113849157.265        -586.865          46.000  
  26293615.807   138173980.702        2209.754          27.000  
  25527370.150   134147302.123       -3525.746          25.000  
  24819554.348   130427636.477       -3644.104          41.000  
  25635793.396   134716996.985        3267.319          39.000  
  24379163.500   128113369.173        2864.052          41.000  
 23  8  9 17 42 55.0030000  0 10G 5G13G 7G20G30G18G 9G11G15G14
  21830804.008   114721636.369         981.842          46.000  
  22635414.056   118949889.605        2184.786          47.000  
  22833363.882   119990126.185       -2229.378          43.000  
  21431660.763   112624146.441       -1201.278          45.000  
  21664885.837   113849744.130        -587.073          47.000  
  26293197.630   138171771.042        2209.115          27.000  
  25528041.774   134150827.977       -3525.713          25.000  
  24820247.628   130431280.194       -3644.098          41.000  
  25635171.540   134713729.124        3267.975          40.000  
  24378618.530   128110504.837        2864.299          42.000  
 23  8  9 17 42 56.0030000  0 10G 5G13G 7G20G30G18G 9G11G15G14
  21830617.343   114720655.005         981.390          46.000  
  22634998.113   118947705.105        2184.808          47.000  
  22833787.905   119992355.948       -2229.513          43.000  
  21431889.256   112625348.086       -1201.561          45.000  
  21664997.623   113850331.594        -587.408          47.000  
  26292780.395   138169561.844        2209.185          27.000  
  25528714.916   134154353.923       -3525.167          25.000  
  24820940.890   130434924.163       -3643.683          41.000  
  25634549.824   134710461.367        3268.057          39.000  
  24378073.367   128107640.819        2864.433          42.000  
 23  8  9 17 42 57.0030000  0 10G 5G13G 7G20G30G18G 9G11G15G14
  21830430.835   114719674.236         980.371          46.000  
  22634582.222   118945520.898        2183.956          46.000  
  22834212.207   119994586.059       -2230.280          43.000  
  21432117.767   112626550.390       -1202.798          45.000  
  21665109.741   113850919.601        -588.470          47.000  
  26292357.873   138167353.102        2208.435          27.000  
  25529383.748   134157879.981       -3525.166          24.000  
  24821634.013   130438568.323       -3644.415          41.000  
  25633927.880   134707193.681        3267.759          39.000  
  24377528.240   128104777.046        2863.456          42.000  
 23  8  9 17 42 58.0030000  0 10G 5G13G 7G20G30G18G 9G11G15G14
  21830244.606   114718694.119         979.907          46.000  
  22634166.488   118943337.026        2183.787          46.000  
  22834636.456   119996816.607       -2230.750          43.000  
  21432346.644   112627753.379       -1203.230          45.000  
  21665221.806   113851508.205        -588.824          47.000  
  26291935.491   138165144.879        2208.302          26.000  
  25530055.861                       -3526.467          24.000  
  24822327.589   130442212.751       -3644.708          41.000  
  25633306.042   134703926.133        3267.307          39.000  
  24376983.392   128101913.562        2863.217          41.000  
 23  8  9 17 42 59.0030000  0 10G 5G13G 7G20G30G18G 9G11G15G14
  21830058.133   114717714.389         979.199          46.000  
  22633750.457   118941153.233        2183.565          46.000  
  22835061.003   119999047.309       -2231.354          43.000  
  21432575.399   112628956.842       -1203.792          45.000  
  21665334.063   113852097.159        -589.337          47.000  
  26291516.197   138162936.919        2207.849          26.000  
  25530726.717                       -3526.172          24.000  
  24823021.009   130445857.183       -3644.934          41.000  
  25632684.064   134700658.389        3267.532          40.000  
  24376438.422   128099050.126        2863.132          41.000  
 23  8  9 17 43  0.0030000  0 10G 5G13G 7G20G30G18G 9G11G15G14
  21829871.957   114716735.431         978.558          46.000  
  22633334.688   118938969.871        2183.039          46.000  
  22835485.636   120001278.492       -2231.452          43.000  
  21432803.944   112630161.102       -1204.732          45.000  
  21665446.268   113852686.801        -590.106          47.000  
  26291098.020   138160729.580        2207.446          26.000  
  25531394.100                       -3526.241          23.000  
  24823714.410   130449501.933       -3645.142          41.000  
  25632061.929   134697390.860        3267.203          40.000  
  24375893.469   128096187.067        2862.928          41.000  
 23  8  9 17 43  1.0030000  0 10G 5G13G 7G20G30G18G 9G11G15G14
  21829685.850   114715757.146         977.789          46.000  
  22632919.007   118936786.833        2182.821          46.000  
  22835910.357   120003510.096       -2231.669          43.000  
  21433033.397   112631366.060       -1205.392          45.000  
  21665558.752   113853277.045        -590.613          47.000  
  26290679.215   138158522.809        2206.206          27.000  
  25532061.973                       -3524.806          23.000  
  24824407.987   130453146.966       -3645.374          41.000  
  25631440.352   134694123.430        3267.157          40.000  
  24375348.865   128093324.316        2862.515          41.000  
 23  8  9 17 43  2.0030000  0 10G 5G13G 7G20G30G18G 9G11G15G14
  21829499.360   114714779.390         977.545          46.000  
  22632503.185   118934604.024        2182.746          45.000  
  22836335.218   120005741.998       -2231.863          43.000  
  21433262.431   112632571.596       -1205.787          45.000  
  21665671.551   113853867.781        -591.052          48.000  
  26290263.743   138156316.304        2206.512          27.000  
  25532730.909                       -3529.173          22.000  
  24825101.633   130456792.115       -3645.300          41.000  
  25630818.723   134690855.980        3267.573          40.000  
  24374804.104   128090461.744        2862.683          41.000  
 23  8  9 17 43  3.0030000  0 10G 5G13G 7G20G30G18G 9G11G15G14
  21829313.341   114713802.292         976.807          46.000  
  22632087.923   118932421.546        2182.362          45.000  
  22836760.497   120007974.300       -2232.485          43.000  
  21433491.849   112633777.819       -1206.438          45.000  
  21665783.738   113854459.091        -591.595          48.000  
  26289846.578   138154110.403        2205.143          28.000  
  25533398.171                       -3532.546          22.000  
  24825795.314   130460437.492       -3645.343          41.000  
  25630197.268   134687588.648        3266.894          40.000  
  24374259.814   128087599.475        2862.117          41.000  
 23  8  9 17 43  4.0030000  0 10G 5G13G 7G20G30G18G 9G11G15G14
  21829127.531   114712825.709         976.416          46.000  
  22631672.660   118930239.248        2182.283          45.000  
  22837184.956   120010206.888       -2232.628          43.000  
  21433721.232   112634984.621       -1206.945          45.000  
  21665896.589   113855050.853        -591.895          48.000  
  26289431.105   138151904.871        2205.323          29.000  
  25534067.788                       -3524.362          21.000  
  24826488.908   130464082.994       -3645.441          41.000  
  25629575.691   134684321.247        3267.703          40.000  
  24373715.332   128084737.344        2862.079          41.000  
 23  8  9 17 43  5.0030000  0 10G 5G13G 7G20G30G18G 9G11G15G14
  21828941.843   114711849.764         975.684          46.000  
  22631257.502   118928057.264        2181.833          45.000  
  22837609.939   120012439.844       -2233.182          43.000  
  21433951.017   112636192.099       -1207.876          45.000  
  21666009.160   113855643.196        -592.596          48.000  
  26289012.649   138149699.757        2205.180          29.000  
  25534739.342                       -3528.085          21.000  
  24827182.746   130467728.716       -3645.612          41.000  
  25628953.870   134681053.944        3267.211          40.000  
  24373170.572   128081875.476        2861.798          41.000  
