     2.11           OBSERVATION DATA    G (GPS)             RINEX VERSION / TYPE
teqc  2019Feb25                         20231105 17:58:01UTCPGM / RUN BY / DATE
Linux 2.6.32-573.12.1.x86_64|x86_64|gcc|Linux 64|=+         COMMENT
teqc  2019Feb25                         20231105 17:58:01UTCCOMMENT
     2.11           OBSERVATION DATA    M (MIXED)           COMMENT
teqc  2019Feb25     IGN-RGP             20231105 13:02:14UTCCOMMENT
teqc  2019Feb25     Administrateur RGP  20231105 13:02:14UTCCOMMENT
teqc  2019Feb25     IGN-RGP             20231105 13:02:12UTCCOMMENT
teqc  2019Feb25     IGN-RGP             20231105 13:02:11UTCCOMMENT
BIT 2 OF LLI FLAGS DATA COLLECTED UNDER A/S CONDITION       COMMENT
IGNF                                                        MARKER NAME
10001M009                                                   MARKER NUMBER
Automatic           IGN                                     OBSERVER / AGENCY
1834194             LEICA GR50          4.51                REC # / TYPE / VERS
5000113963          TRM57971.00     NONE                    ANT # / TYPE
  4201694.1440   177888.8370  4779371.7670                  APPROX POSITION XYZ
        0.0000        0.0000        0.0000                  ANTENNA: DELTA H/E/N
     1     1                                                WAVELENGTH FACT L1/2
    21    L1    L2    C1    P1    P2    D1    D2    S1    S2# / TYPES OF OBSERV
          L5    C5    D5    S5    L7    C7    D7    S7    L8# / TYPES OF OBSERV
          C8    D8    S8                                    # / TYPES OF OBSERV
    30.0000                                                 INTERVAL
DefaultJobName                                              COMMENT
DefaultUserDiscription                                      COMMENT
Project creator:                                            COMMENT
 SNR is mapped to RINEX snr flag value [0-9]                COMMENT
  L1 & L2: min(max(int(snr_dBHz/6), 0), 9)                  COMMENT
    18                                                      LEAP SECONDS
Forced Modulo Decimation to 30 seconds                      COMMENT
teqc_2019 edited: all GLONASS satellites excluded           COMMENT
teqc_2019 edited: all SBAS satellites excluded              COMMENT
teqc_2019 edited: all Galileo satellites excluded           COMMENT
  2023    11     5    12     0    0.0000000     GPS         TIME OF FIRST OBS
                                                            END OF HEADER
 23 11  5 12  0  0.0000000  0 12G05G07G09G11G13G14G15G18G20G22G27G30
 108757684.655 8  84746229.22948  20695905.640                    20695907.920
       836.038         651.457          50.900          51.000



 116318928.956 8  90638163.81848  22134749.540                    22134753.000
     -2182.262       -1700.468          49.100          49.050



 131595593.155 6 102541960.42446  25041855.680                    25041873.100
     -3294.396       -2567.069          38.750          38.850    98269376.328 7
  25041876.520       -2460.087          42.350


 129547828.525 7 100946319.86446  24652172.100                    24652181.620
     -3511.690       -2736.398          42.350          40.500    96740233.785 7
  24652191.240       -2622.360          46.150


 111009199.373 8  86500711.31247  21124340.760                    21124344.460
      2182.520        1700.666          49.650          45.550



 119501986.456 7  93118514.96547  22740443.020                    22740449.520
      2860.792        2229.193          47.100          43.700    89238613.280 8
  22740453.400        2136.227          48.200


 127808138.389 6  99590793.11646  24321083.820                    24321095.000
      3569.610        2781.518          39.300          39.000



 130577438.344 6 101748682.06246  24848067.120                    24848076.720
      1994.335        1554.016          41.500          39.000    97509160.061 7
  24848084.300        1489.107          44.500


 108881638.897 8  84842802.04948  20719503.200                    20719505.200
     -1691.697       -1318.208          50.150          48.000



 124086153.443 7  96690594.03746  23612786.900                    23612795.900
      3313.753        2582.150          43.850          38.900



 133301223.719 6 103871120.48446  25366380.240                    25366390.620
       398.236         310.323          38.550          38.650    99543188.312 6
  25366393.100         297.161          40.800


 108580761.946 8  84608455.39748  20662213.880                    20662218.860
      -588.050        -458.223          52.000          52.000    81083119.914 9
  20662220.740        -439.137          56.350


 23 11  5 12  0 30.0000000  0 12G05G07G09G11G13G14G15G18G20G22G27G30
 108732886.957 8  84726906.33348  20691186.740                    20691188.900
       816.770         636.443          50.700          50.600



 116384523.525 8  90689276.33548  22147231.860                    22147235.620
     -2191.109       -1707.362          49.000          49.150



 131694449.518 6 102618991.03746  25060667.480                    25060685.500
     -3296.656       -2568.834          37.550          36.850    98343197.260 6
  25060688.600       -2461.424          41.800


 129653196.676 7 101028424.54946  24672223.280                    24672232.920
     -3513.165       -2737.542          42.550          39.100    96818917.366 7
  24672242.300       -2623.501          45.800


 110943859.260 8  86449796.96847  21111906.880                    21111910.360
      2173.156        1693.369          49.950          45.400



 119416319.239 7  93051761.44947  22724141.000                    22724147.200
      2850.423        2221.113          47.500          43.950    89174641.203 8
  22724151.000        2128.322          48.600


 127701078.192 6  99507369.63546  24300711.000                    24300721.680
      3567.646        2779.986          41.850          38.700



 130517853.541 6 101702252.33746  24836728.600                    24836737.980
      1977.834        1541.173          40.900          38.700    97464664.908 7
  24836745.720        1476.972          44.000


 108932655.478 8  84882555.14748  20729211.380                    20729213.460
     -1709.680       -1332.221          50.000          48.000



 123986819.859 7  96613191.40946  23593884.360                    23593893.160
      3308.212        2577.833          44.000          40.050



 133289564.127 6 103862035.34846  25364161.420                    25364171.380
       379.178         295.469          38.800          38.550    99534481.806 6
  25364173.880         282.802          40.100


 108598630.310 8  84622378.74248  20665614.240                    20665619.120
      -603.394        -470.179          52.050          52.050    81096463.105 9
  20665620.980        -450.615          56.500


 23 11  5 12  1  0.0000000  0 12G05G07G09G11G13G14G15G18G20G22G27G30
 108708670.090 8  84708036.03548  20686578.360                    20686580.540
       797.707         621.589          50.400          50.500



 116450385.105 8  90740596.91848  22159764.980                    22159769.000
     -2200.012       -1714.300          49.000          49.150



 131793356.165 6 102696060.88546  25079489.120                    25079507.280
     -3297.636       -2569.594          37.250          37.600    98417055.793 7
  25079510.220       -2462.646          42.750


 129758603.110 7 101110559.06046  24692281.640                    24692291.200
     -3514.171       -2738.328          42.650          39.750    96897629.518 7
  24692300.480       -2624.190          46.150


 110878799.753 8  86399101.28147  21099526.460                    21099529.800
      2163.883        1686.144          50.400          44.800



 119330965.326 7  92985252.05247  22707898.660                    22707904.420
      2839.918        2212.928          47.250          43.100    89110903.053 8
  22707908.620        2120.690          48.250


 127594072.425 7  99423988.54346  24280348.600                    24280358.880
      3565.963        2778.676          42.050          41.550



 130458755.325 6 101656201.54046  24825482.540                    24825492.100
      1961.781        1528.653          41.650          38.300    97420532.860 7
  24825499.500        1464.877          45.050


 108984207.667 8  84922725.59848  20739021.420                    20739023.720
     -1727.268       -1345.925          49.850          48.100



 123887651.577 7  96535917.61146  23575013.280                    23575022.020
      3303.012        2573.782          44.650          38.900



 133278469.757 6 103853390.42546  25362050.280                    25362060.000
       360.628         281.011          39.550          39.900    99526197.121 6
  25362062.340         269.091          38.300


 108616956.889 8  84636659.13348  20669101.760                    20669106.500
      -618.460        -481.919          51.850          51.900    81110148.465 9
  20669108.500        -461.883          56.350


 23 11  5 12  1 30.0000000  0 12G05G07G09G11G13G14G15G18G20G22G27G30
 108685031.443 8  84689616.31448  20682080.020                    20682082.280
       777.722         606.018          50.400          50.350



 116516508.069 8  90792121.17748  22172347.880                    22172352.120
     -2209.124       -1721.400          48.900          48.950



 131892308.674 6 102773166.40946  25098319.480                    25098337.380
     -3299.592       -2571.120          38.550          38.200    98490948.522 7
  25098340.640       -2464.172          43.350


 129864041.072 6 101192718.15246  24712346.000                    24712355.560
     -3515.422       -2739.304          41.800          38.500    96976365.201 7
  24712364.740       -2625.271          46.000


 110814018.041 8  86348622.05347  21087198.900                    21087202.320
      2154.150        1678.560          50.150          44.650



 119245923.757 7  92918986.03447  22691715.700                    22691721.380
      2828.811        2204.273          46.900          44.350    89047398.136 8
  22691725.620        2112.487          48.550


 127487118.346 7  99340647.72646  24259995.960                    24260005.980
      3563.445        2776.712          43.000          41.300



 130400142.890 6 101610529.53746  24814328.740                    24814338.560
      1945.028        1515.604          40.750          39.600    97376763.797 7
  24814345.960        1452.557          44.950


 109036290.261 8  84963309.35648  20748932.400                    20748934.960
     -1745.506       -1360.137          49.450          48.850



 123788647.597 7  96458771.84746  23556173.320                    23556182.220
      3296.852        2568.982          44.850          39.300



 133267937.499 6 103845183.40146  25360046.020                    25360055.280
       341.034         265.737          37.950          37.350    99518331.996 6
  25360058.340         254.774          41.000


 108635736.848 8  84651292.81148  20672675.580                    20672680.060
      -634.080        -494.090          51.850          51.900    81124172.388 9
  20672682.300        -473.498          56.200


 23 11  5 12  2  0.0000000  0 12G05G07G09G11G13G14G15G18G20G22G27G30
 108661981.901 8  84671655.62248  20677693.900                    20677696.180
       758.858         591.318          50.500          50.600



 116582900.381 8  90843855.31048  22184982.100                    22184986.400
     -2217.204       -1727.696          49.200          49.250



 131991315.863 6 102850314.56646  25117160.300                    25117178.060
     -3300.687       -2571.973          38.500          38.350    98564882.095 7
  25117181.340       -2464.886          44.250


 129969517.238 6 101274907.00246  24732417.760                    24732427.380
     -3516.111       -2739.838          41.250          40.500    97055129.439 7
  24732436.240       -2625.754          46.800


 110749524.840 8  86298367.65247  21074926.160                    21074929.860
      2145.291        1671.657          50.350          44.350



 119161206.942 7  92852973.04547  22675594.560                    22675600.180
      2818.688        2196.383          47.100          43.850    88984135.730 8
  22675604.720        2104.915          48.800


 127380226.691 7  99257355.57546  24239655.220                    24239665.040
      3562.348        2775.858          43.500          41.200



 130342027.080 6 101565244.35146  24803269.780                    24803279.920
      1929.133        1503.228          40.600          38.150    97333365.488 7
  24803287.280        1440.561          45.400


 109088911.634 8  85004312.94248  20758945.940                    20758948.680
     -1762.662       -1373.505          49.450          48.750



 123689820.415 7  96381763.87246  23537366.980                    23537375.800
      3291.598        2564.891          44.750          39.400



 133257977.893 5 103837422.53245  25358150.860                    25358159.760
       322.153         251.017          34.250          32.650    99510894.483 6
  25358162.940         241.156          39.050


 108654978.718 8  84666286.41848  20676337.240                    20676341.560
      -648.711        -505.490          51.700          51.700    81138541.248 9
  20676343.860        -484.490          56.200


 23 11  5 12  2 30.0000000  0 12G05G07G09G11G13G14G15G18G20G22G27G30
 108639514.296 8  84654148.38348  20673418.600                    20673420.900
       739.142         575.954          50.950          50.850



 116649552.279 8  90895791.70848  22197665.620                    22197669.960
     -2226.219       -1734.721          48.750          48.700



 132090368.830 6 102927498.35946  25136009.780                    25136027.280
     -3302.648       -2573.504          37.900          38.550    98638849.829 7
  25136030.980       -2466.129          45.000


 130075020.546 6 101357116.98146  24752494.520                    24752504.520
     -3517.386       -2740.833          40.000          38.700    97133913.908 7
  24752513.040       -2626.526          45.700


 110685312.663 8  86248332.22847  21062706.980                    21062710.680
      2135.614        1664.116          50.550          44.150



 119076809.432 7  92787208.87747  22659534.140                    22659539.900
      2807.739        2187.852          47.100          44.000    88921111.748 8
  22659544.640        2096.798          49.000


 127273390.451 7  99174106.57646  24219325.000                    24219334.660
      3560.209        2774.190          43.950          40.700



 130284401.972 6 101520341.52646  24792304.300                    24792314.360
      1912.715        1490.426          41.700          40.200    97290333.624 7
  24792321.680        1428.240          45.400


 109142062.093 8  85045728.78748  20769060.140                    20769063.040
     -1780.566       -1387.457          49.850          48.300



 123591164.801 7  96304889.61246  23518593.200                    23518602.240
      3285.664        2560.266          44.800          38.600



 133248583.367 5 103830102.04046  25356363.080                    25356372.160
       303.753         236.686          34.650          36.150    99503879.001 6
  25356375.440         226.696          41.900


 108674673.166 8  84681632.68448  20680084.960                    20680089.280
      -664.136        -517.511          51.750          51.850    81153248.079 9
  20680091.420        -495.896          56.000


 23 11  5 12  3  0.0000000  0 12G05G07G09G11G13G14G15G18G20G22G27G30
 108617635.561 8  84637100.00448  20669255.280                    20669257.680
       719.253         560.456          51.050          51.150



 116716467.413 8  90947933.22348  22210399.180                    22210403.600
     -2235.188       -1741.710          48.700          48.850



 132189472.414 6 103004721.62446  25154868.820                    25154886.160
     -3304.798       -2575.178          36.900          37.000    98712855.358 7
  25154890.100       -2467.592          45.100


 130180553.414 6 101439349.95646  24772576.880                    24772587.360
     -3518.477       -2741.683          40.200          40.150    97212720.468 7
  24772595.700       -2627.424          45.700


 110621387.858 8  86198520.72947  21050542.480                    21050545.980
      2125.698        1656.391          50.150          45.000



 118992739.517 7  92721699.94847  22643536.060                    22643541.960
      2796.618        2179.186          47.000          44.050    88858332.393 8
  22643546.920        2088.373          49.150


 127166616.875 7  99090906.44146  24199006.720                    24199016.300
      3557.858        2772.358          43.850          39.600



 130227274.891 6 101475826.84646  24781433.460                    24781443.620
      1895.540        1477.041          41.000          40.100    97247673.689 7
  24781451.100        1415.540          46.350


 109195745.423 8  85087559.86748  20779275.860                    20779278.760
     -1798.523       -1401.450          49.950          48.700



 123492689.381 7  96228155.79446  23499853.600                    23499862.840
      3279.110        2555.162          43.600          38.800



 133239760.204 6 103823226.78945  25354684.280                    25354693.340
       284.318         221.544          36.600          35.800    99497290.178 6
  25354696.900         212.118          40.650


 108694824.654 8  84697335.08048  20683919.600                    20683924.120
      -679.597        -529.559          51.100          51.150    81168296.199 9
  20683926.040        -507.462          55.900


 23 11  5 12  3 30.0000000  0 12G05G07G09G11G13G14G15G18G20G22G27G30
 108596339.745 8  84620505.85148  20665202.880                    20665205.340
       699.931         545.399          51.250          51.050



 116783637.263 8  91000273.20948  22223181.260                    22223185.760
     -2243.439       -1748.140          48.850          48.850



 132288618.727 6 103081978.13346  25173736.120                    25173753.140
     -3305.757       -2575.929          36.850          36.350    98786892.797 7
  25173757.320       -2468.438          46.300


 130286105.770 6 101521598.17546  24792663.020                    24792673.640
     -3518.819       -2741.949          41.250          39.500    97291541.591 7
  24792682.160       -2627.669          45.400


 110557744.349 8  86148928.43947  21038431.460                    21038434.880
      2116.491        1649.216          49.400          45.300



 118908992.839 7  92656442.89547  22627599.460                    22627605.580
      2785.830        2170.779          47.300          43.900    88795794.411 8
  22627611.080        2080.399          49.250


 127059899.580 7  99007750.12046  24178699.020                    24178708.500
      3556.028        2770.932          43.650          39.700



 130170640.470 6 101431696.04446  24770656.380                    24770666.480
      1879.502        1464.545          41.250          40.150    97205381.637 7
  24770674.360        1403.492          45.850


 109249953.334 8  85129799.70448  20789591.380                    20789594.220
     -1815.878       -1414.973          49.900          48.450



 123394389.988 7  96151559.14346  23481147.340                    23481157.040
      3273.752        2550.986          42.900          40.500



 133231501.372 6 103816791.07546  25353112.840                    25353121.900
       265.389         206.789          38.050          38.550    99491122.560 7
  25353125.800         198.502          42.750


 108715424.913 8  84713387.17148  20687839.700                    20687844.460
      -694.496        -541.167          51.300          51.400    81183679.435 9
  20687846.200        -518.459          55.950


 23 11  5 12  4  0.0000000  0 12G05G07G09G11G13G14G15G18G20G22G27G30
 108575632.635 8  84604370.43148  20661262.440                    20661264.940
       680.183         530.013          50.900          50.900



 116851064.846 8  91052814.02948  22236012.520                    22236016.880
     -2251.938       -1754.762          49.200          49.050



 132387811.833 6 103159271.14146  25192612.200                    25192629.100
     -3307.553       -2577.324          36.800          36.500    98860965.188 7
  25192633.460       -2469.727          46.250


 130391679.395 6 101603862.94346  24812753.120                    24812764.420
     -3519.582       -2742.540          41.350          38.950    97370378.558 7
  24812773.200       -2628.254          46.550


 110494387.818 8  86099559.74547  21026375.020                    21026378.480
      2107.012        1641.828          49.350          45.550



 118825576.891 7  92591443.55647  22611725.780                    22611732.220
      2774.771        2162.162          47.250          44.400    88733503.389 8
  22611737.760        2072.154          49.650


 126953244.670 7  98924642.43346  24158403.340                    24158412.940
      3553.939        2769.306          43.750          39.250



 130114505.579 6 101387954.44446  24759974.140                    24759984.520
      1862.707        1451.456          40.500          38.550    97163462.552 7
  24759992.780        1390.994          46.050


 109304689.271 8  85172450.98748  20800007.400                    20800010.160
     -1833.509       -1428.711          50.000          48.700



 123296274.101 7  96075105.51746  23462475.920                    23462486.040
      3267.031        2545.749          42.600          40.100



 133223812.380 6 103810799.24546  25351649.780                    25351659.200
       246.310         191.916          37.550          37.600    99485380.312 6
  25351662.900         184.195          41.750


 108736477.589 8  84729791.79248  20691845.920                    20691850.920
      -709.417        -552.794          51.600          51.600    81199400.534 9
  20691852.640        -529.795          56.100


 23 11  5 12  4 30.0000000  0 13G05G07G08G09G11G13G14G15G18G20G22G27
                                G30
 108555516.462 8  84588695.48648  20657434.440                    20657436.920
       660.354         514.561          50.850          50.900



 116918749.785 8  91105555.37848  22248892.700                    22248897.040
     -2260.804       -1761.671          48.900          48.750



 133982148.085 6 104401733.07246  25495957.320                    25495973.940
      1754.223        1366.919          37.350          37.600   100051673.509 6
  25495977.300        1309.740          40.200


 132487052.500 6 103236601.18046  25211497.520                    25211514.220
     -3309.394       -2578.763          36.250          36.300    98935073.082 7
  25211518.800       -2471.169          46.050


 130497272.975 6 101686143.25446  24832846.980                    24832858.680
     -3520.335       -2743.132          38.250          37.000    97449230.459 7
  24832867.540       -2629.020          45.350


 110431320.695 8  86050416.56047  21014373.760                    21014377.060
      2097.085        1634.093          49.750          44.600



 118742496.039 7  92526705.30547  22595915.860                    22595922.520
      2763.340        2153.254          46.700          44.750    88671462.615 8
  22595928.680        2063.445          49.550


 126846655.186 7  98841585.72946  24138120.080                    24138129.880
      3551.515        2767.417          43.350          38.500



 130058873.330 6 101344604.47846  24749387.740                    24749397.980
      1845.714        1438.211          41.350          39.700    97121918.782 7
  24749406.820        1378.201          45.950


 109359953.218 8  85215513.70548  20810523.900                    20810526.540
     -1851.281       -1442.561          49.850          48.650



 123198346.399 7  95998798.53846  23443840.500                    23443850.700
      3260.640        2540.769          42.800          39.400



 133216695.662 6 103805253.43546  25350295.740                    25350305.220
       227.250         177.061          38.150          38.500    99480065.539 6
  25350308.960         169.755          41.400


 108757983.128 8  84746549.30648  20695938.360                    20695943.400
      -724.781        -564.766          51.600          51.450    81215459.798 9
  20695945.240        -541.301          56.150


 23 11  5 12  5  0.0000000  0 13G05G07G08G09G11G13G14G15G18G20G22G27
                                G30
 108535990.290 8  84573480.27548  20653718.700                    20653721.180
       641.381         499.776          50.600          50.700



 116986688.249 8  91158494.28248  22261821.060                    22261825.460
     -2268.528       -1767.690          48.950          49.100



 133929713.168 5 104360874.65645  25485979.100                    25485996.440
      1741.294        1356.853          35.750          34.650   100012517.433 6
  25485998.460        1300.503          39.700


 132586337.788 6 103313966.04146  25230391.200                    25230407.800
     -3310.021       -2579.250          36.300          36.600    99009214.334 7
  25230412.480       -2471.743          45.150


 130602881.152 6 101768434.92746  24852943.600                    24852956.000
     -3520.337       -2743.132          36.900          37.350    97528093.208 7
  24852964.720       -2628.746          45.950


 110368541.295 8  86001497.56647  21002427.300                    21002430.380
      2088.142        1627.124          50.350          44.550



 118659750.647 7  92462228.45847  22580169.800                    22580176.840
      2752.860        2145.087          46.400          44.900    88609672.297 8
  22580182.780        2055.659          50.200


 126740129.939 7  98758579.06746  24117849.000                    24117859.040
      3549.921        2766.175          44.400          38.600



 130003743.507 6 101301646.02546  24738896.860                    24738907.440
      1829.495        1425.579          41.600          39.250    97080750.258 7
  24738916.140        1366.167          46.250


 109415741.426 8  85258984.94248  20821140.120                    20821142.780
     -1868.050       -1455.626          49.850          48.450



 123100607.380 7  95922638.63446  23425241.020                    23425251.180
      3254.885        2536.287          42.400          40.200



 133210149.393 5 103800152.27345  25349050.320                    25349059.800
       209.038         162.878          35.950          35.250    99475176.906 6
  25349063.400         156.057          41.400


 108779938.033 8  84763656.96948  20700116.360                    20700121.260
      -739.003        -575.848          51.800          51.900    81231854.630 9
  20700123.280        -551.876          56.400


 23 11  5 12  5 30.0000000  0 13G05G07G08G09G11G13G14G15G18G20G22G27
                                G30
 108517054.444 8  84558725.05948  20650115.340                    20650117.820
       621.215         484.063          51.000          50.700



 117054877.009 8  91211628.21448  22274797.020                    22274801.420
     -2277.284       -1774.513          48.600          48.700



 133877680.100 5 104320329.29245  25476077.740                    25476094.900
      1727.471        1346.078          35.000          33.900    99973661.423 6
  25476097.400        1290.055          39.650


 132685665.394 6 103391363.88746  25249292.880                    25249309.320
     -3311.676       -2580.536          37.750          38.050    99083387.205 7
  25249314.240       -2473.058          45.050


 130708499.446 6 101850734.45846  24873042.320                    24873055.540
     -3520.595       -2743.331          38.150          38.050    97606963.549 7
  24873063.500       -2629.188          45.000


 110306048.868 8  85952802.20147  20990535.420                    20990538.460
      2078.200        1619.378          50.550          45.100



 118577341.896 7  92398013.94747  22564487.780                    22564494.940
      2741.202        2136.005          46.600          45.600    88548133.420 8
  22564501.320        2047.005          50.000


 126633668.404 7  98675622.07246  24097589.960                    24097600.280
      3547.359        2764.179          44.400          38.700



 129949116.386 6 101259079.31846  24728501.780                    24728512.580
      1812.463        1412.308          41.800          39.400    97039957.169 7
  24728521.040        1353.318          46.150


 109472050.611 8  85302862.13448  20831855.480                    20831858.140
     -1885.710       -1469.387          50.100          48.600



 123003058.406 7  95846626.80546  23406677.760                    23406687.740
      3248.147        2531.035          43.850          38.650



 133204172.408 6 103795494.67346  25347913.140                    25347922.800
       189.791         147.887          38.750          38.650    99470713.274 7
  25347926.160         141.673          42.550


 108802339.566 8  84781112.65448  20704379.240                    20704384.080
      -754.168        -587.665          51.600          51.650    81248582.991 9
  20704386.180        -563.229          56.300


 23 11  5 12  6  0.0000000  0 13G05G07G08G09G11G13G14G15G18G20G22G27
                                G30
 108498713.656 8  84544433.51948  20646625.200                    20646627.660
       601.110         468.397          51.350          51.400



 117123318.460 8  91264959.06548  22287821.040                    22287825.440
     -2285.919       -1781.240          48.800          48.850



 133826060.079 6 104280075.86946  25466254.140                    25466271.120
      1713.535        1335.217          36.750          36.900    99935110.147 6
  25466274.060        1279.661          39.650


 132785038.593 6 103468797.25746  25268203.180                    25268219.800
     -3313.638       -2582.066          38.050          37.950    99157594.128 7
  25268224.800       -2474.412          44.300


 130814128.985 6 101933042.75446  24893143.240                    24893156.660
     -3521.211       -2743.812          36.650          36.700    97685842.222 7
  24893164.400       -2629.648          45.900


 110243848.603 8  85904334.48647  20978699.160                    20978702.340
      2068.124        1611.525          51.050          45.250



 118495276.621 7  92334067.06847  22548871.160                    22548878.620
      2729.403        2126.811          46.050          44.950    88486850.998 8
  22548884.740        2038.215          50.100


 126527275.944 7  98592718.88746  24077344.200                    24077354.500
      3545.078        2762.397          45.450          38.350



 129894997.879 6 101216909.09046  24718203.360                    24718214.460
      1795.187        1398.849          41.300          39.650    96999544.021 7
  24718222.780        1340.501          46.000


 109528883.386 8  85347147.31947  20842670.420                    20842673.100
     -1903.447       -1483.208          50.050          47.700



 122905706.535 7  95770768.55046  23388152.160                    23388161.920
      3241.500        2525.855          43.700          39.650



 133198769.369 6 103791284.42346  25346885.040                    25346894.840
       170.418         132.785          37.500          36.800    99466678.432 7
  25346898.060         127.066          45.650


 108825190.662 8  84798918.64348  20708727.720                    20708732.500
      -769.513        -599.621          51.650          51.600    81265647.044 9
  20708734.580        -574.605          56.250


 23 11  5 12  6 30.0000000  0 13G05G07G08G09G11G13G14G15G18G20G22G27
                                G30
 108480968.444 8  84530606.07348  20643248.380                    20643250.740
       581.758         453.317          50.900          50.850



 117192010.667 8  91318485.30548  22300892.800                    22300897.280
     -2293.624       -1787.244          48.600          48.550



 133774845.733 6 104240168.51146  25456507.940                    25456525.620
      1700.771        1325.273          38.250          39.550    99896865.597 6
  25456528.580        1269.854          40.100


 132884456.617 6 103546265.58046  25287121.880                    25287138.720
     -3314.403       -2582.661          38.950          38.300    99231834.568 7
  25287143.780       -2475.084          44.300


 130919766.670 5 102015357.45845  24913245.720                    24913259.440
     -3521.646       -2744.156          33.300          34.850    97764727.014 7
  24913266.840       -2629.409          45.950


 110181941.476 8  85856095.20447  20966918.680                    20966922.120
      2058.829        1604.284          51.000          45.450



 118413557.385 7  92270389.81347  22533320.460                    22533327.620
      2718.406        2118.241          46.500          45.050    88425826.996 8
  22533334.060        2029.931          50.100


 126420953.870 7  98509870.58146  24057111.680                    24057121.900
      3543.065        2760.835          45.350          38.850



 129841389.126 6 101175135.82746  24708002.140                    24708013.440
      1778.918        1386.159          41.950          39.750    96959511.301 7
  24708021.460        1328.171          46.500


 109586237.978 8  85391839.12348  20853584.660                    20853587.460
     -1920.371       -1496.396          49.450          48.650



 122808554.506 7  95695066.05546  23369664.520                    23369673.880
      3235.326        2521.047          43.650          38.600



 133193940.210 6 103787521.22445  25345966.260                    25345976.080
       151.068         117.713          36.100          35.850    99463071.937 6
  25345979.240         113.176          41.400


 108848489.983 8  84817073.90548  20713161.460                    20713166.200
      -783.937        -610.862          51.750          51.700    81283045.829 9
  20713168.340        -585.371          56.350


 23 11  5 12  7  0.0000000  0 13G05G07G08G09G11G13G14G15G18G20G22G27
                                G30
 108463816.466 8  84517240.88548  20639984.380                    20639986.700
       562.028         437.943          50.250          50.250



 117260948.624 8  91372203.02848  22314011.300                    22314016.060
     -2301.842       -1793.647          48.600          48.600



 133724041.077 6 104200580.40646  25446840.320                    25446857.900
      1686.729        1314.333          37.500          37.750    99858926.964 6
  25446861.000        1259.572          39.900


 132983915.229 6 103623765.54546  25306048.440                    25306065.280
     -3315.580       -2583.576          39.400          38.950    99306105.301 7
  25306070.600       -2476.035          44.000


 131025406.139 6 102097673.49846  24933348.700                    24933362.240
     -3520.763       -2743.464          39.300          38.700    97843613.157 7
  24933369.860       -2629.336          47.200


 110120324.488 8  85808081.98547  20955193.420                    20955196.940
      2049.249        1596.818          51.350          45.900



 118332183.421 7  92206981.62347  22517835.420                    22517842.620
      2706.867        2109.250          46.150          45.400    88365060.822 8
  22517848.780        2021.343          49.750


 126314699.935 7  98427075.36046  24036892.140                    24036902.200
      3540.860        2759.116          46.150          37.450



 129788289.544 6 101133759.68746  24697897.780                    24697908.960
      1761.675        1372.740          41.250          40.000    96919859.208 7
  24697917.240        1315.495          46.500


 109644109.471 8  85436933.69948  20864597.300                    20864600.120
     -1937.439       -1509.695          49.650          48.300



 122711601.776 7  95619518.79146  23351214.980                    23351223.740
      3228.509        2515.731          43.050          41.000



 133189682.144 5 103784203.00345  25345156.060                    25345165.980
       132.829         103.493          35.900          35.550    99459892.026 7
  25345169.280          99.107          42.350


 108872232.927 8  84835574.83348  20717679.640                    20717684.280
      -798.680        -622.350          51.550          51.550    81300775.877 9
  20717686.580        -596.354          56.200


 23 11  5 12  7 30.0000000  0 13G05G07G08G09G11G13G14G15G18G20G22G27
                                G30
 108447259.386 8  84504339.25248  20636833.660                    20636835.860
       542.035         422.364          50.400          50.450



 117330131.242 8  91426111.39448  22327176.440                    22327181.420
     -2310.046       -1800.041          48.600          48.400



 133673648.301 5 104161313.33446  25437250.760                    25437268.040
      1673.484        1304.014          35.750          36.050    99821296.041 6
  25437271.500        1249.282          37.700


 133083414.572 6 103701297.24046  25324982.520                    25324999.520
     -3317.096       -2584.763          38.750          38.950    99380406.453 7
  25325005.100       -2477.067          44.350


 131131045.213 6 102179989.22146  24953451.560                    24953465.200
     -3520.877       -2743.556          40.500          38.650    97922498.938 7
  24953472.840       -2629.367          46.150


 110058999.330 8  85760296.17047  20943523.760                    20943527.160
      2039.433        1589.169          51.700          45.700



 118251158.168 7  92143845.14747  22502416.760                    22502423.400
      2695.050        2100.043          46.350          44.650    88304555.043 8
  22502429.860        2012.649          50.050


 126208516.105 7  98344334.78546  24016685.960                    24016695.800
      3538.371        2757.176          45.250          38.200



 129735700.586 6 101092781.33146  24687890.300                    24687901.640
      1744.564        1359.400          41.850          40.800    96880588.299 7
  24687909.800        1302.803          46.700


 109702496.762 8  85482430.19347  20875708.040                    20875710.980
     -1954.713       -1523.155          49.400          47.850



 122614851.999 7  95544129.72746  23332803.760                    23332812.760
      3221.815        2510.517          43.650          39.800



 133185996.333 5 103781330.73246  25344454.800                    25344464.760
       113.623          88.522          35.850          36.250    99457139.358 6
  25344467.860          84.738          41.750


 108896418.960 8  84854421.03348  20722282.120                    20722286.660
      -813.405        -633.824          51.350          51.450    81318836.803 9
  20722289.160        -607.385          56.400


 23 11  5 12  8  0.0000000  0 13G05G07G08G09G11G13G14G15G18G20G22G27
                                G30
 108431299.507 8  84491902.96848  20633796.500                    20633798.720
       521.698         406.518          49.950          49.850



 117399558.490 8  91480210.38048  22340388.180                    22340393.160
     -2318.582       -1806.692          48.950          48.850



 133623672.222 6 104122370.86646  25427740.560                    25427758.080
      1658.761        1292.541          37.650          37.650    99783976.170 6
  25427761.180        1238.635          36.550


 133182955.304 6 103778861.25146  25343924.700                    25343941.560
     -3318.859       -2586.133          39.350          40.150    99454738.573 7
  25343947.180       -2478.453          43.600


 131236682.364 6 102262303.47946  24973554.080                    24973567.660
     -3521.759       -2744.240          41.850          39.900    98001383.337 7
  24973575.160       -2629.699          46.500


 109997968.470 8  85712739.67647  20931910.040                    20931913.280
      2029.056        1581.083          51.450          45.950



 118170485.722 7  92080983.58447  22487065.300                    22487071.800
      2682.760        2090.466          46.600          43.650    88244312.732 8
  22487078.000        2003.441          49.700


 126102405.173 7  98261651.03046  23996493.600                    23996503.480
      3535.461        2754.905          46.150          38.300



 129683625.641 7 101052203.48746  24677980.720                    24677991.700
      1727.073        1345.764          43.300          37.550    96841701.183 7
  24678000.220        1289.594          46.350


 109761399.882 8  85528328.63047  20886917.000                    20886919.940
     -1972.363       -1536.910          49.350          47.900



 122518309.364 7  95468902.05846  23314432.200                    23314440.920
      3214.249        2504.622          43.750          40.700



 133182884.049 6 103778905.14946  25343862.720                    25343872.600
        94.126          73.317          36.050          36.850    99454814.779 6
  25343876.000          70.269          40.400


 108921048.350 8  84873612.70248  20726968.940                    20726973.400
      -828.775        -645.801          51.400          51.250    81337228.797 9
  20726976.120        -618.833          56.300


 23 11  5 12  8 30.0000000  0 13G05G07G08G09G11G13G14G15G18G20G22G27
                                G30
 108415939.417 8  84479934.05448  20630873.500                    20630875.840
       502.088         391.237          49.950          50.000



 117469229.065 8  91534498.97348  22353646.220                    22353651.220
     -2326.154       -1812.594          48.700          48.800



 133574114.994 6 104083754.86946  25418310.320                    25418327.820
      1645.002        1281.820          36.800          37.050    99746969.137 6
  25418330.720        1228.526          38.250


 133282537.304 6 103856457.43846  25362874.640                    25362891.500
     -3319.743       -2586.818          38.300          38.550    99529101.572 7
  25362897.340       -2479.146          43.150


 131342315.228 6 102344614.39046  24993655.820                    24993668.960
     -3520.856       -2743.539          41.750          39.350    98080264.514 7
  24993676.720       -2629.143          44.100


 109937233.337 8  85665413.62147  20920352.480                    20920355.760
      2019.798        1573.870          50.900          46.500



 118090169.387 7  92018399.50947  22471781.580                    22471787.480
      2671.267        2081.508          46.350          44.600    88184336.352 8
  22471794.020        1994.882          50.050


 125996368.886 7  98179025.44246  23976315.560                    23976325.520
      3533.487        2753.370          44.950          38.700



 129632066.901 6 101012027.77846  24668169.440                    24668180.100
      1710.072        1332.522          41.900          38.100    96803199.452 7
  24668188.700        1277.094          46.100


 109820817.877 8  85574628.26647  20898223.940                    20898226.780
     -1989.034       -1549.900          49.550          47.700



 122421977.580 7  95393838.65046  23296100.580                    23296109.160
      3207.882        2499.660          43.800          38.650



 133180346.765 5 103776927.86546  25343380.120                    25343390.200
        75.111          58.531          35.150          36.000    99452919.839 6
  25343393.740          56.179          41.400


 108946120.447 8  84893149.33548  20731740.040                    20731744.420
      -843.034        -656.911          51.000          51.100    81355951.395 9
  20731747.360        -629.453          56.300


 23 11  5 12  9  0.0000000  0 13G05G07G08G09G11G13G14G15G18G20G22G27
                                G30
 108401178.101 8  84468431.71648  20628064.480                    20628066.900
       481.979         375.567          50.000          50.100



 117539140.215 8  91588975.02248  22366950.060                    22366955.120
     -2334.344       -1818.976          48.550          48.400



 133524978.074 6 104045466.40746  25408959.840                    25408977.300
      1630.662        1270.646          36.850          36.950    99710276.004 6
  25408980.460        1217.817          40.800


 133382158.743 6 103934084.31446  25381832.180                    25381849.060
     -3321.325       -2588.054          39.850          39.200    99603493.952 7
  25381854.700       -2480.324          43.800


 131447939.840 6 102426918.84946  25013756.040                    25013768.760
     -3520.720       -2743.431          40.700          38.050    98159139.579 7
  25013776.580       -2629.106          44.400


 109876793.655 8  85618317.79047  20908851.140                    20908854.580
      2009.665        1565.974          50.700          46.750



 118010210.696 7  91956094.12547  22456565.840                    22456571.800
      2659.137        2072.057          46.600          44.150    88124627.036 8
  22456578.120        1985.815          50.250


 125890407.462 7  98096458.18346  23956151.600                    23956161.620
      3530.759        2751.244          44.600          39.200



 129581025.070 7 100972254.87146  24658456.640                    24658466.720
      1692.896        1319.143          42.500          40.700    96765083.750 7
  24658475.520        1264.074          46.200


 109880747.899 8  85621326.87447  20909628.280                    20909631.100
     -2006.244       -1563.310          49.550          47.650



 122325858.289 7  95318940.82246  23277809.500                    23277817.940
      3200.372        2493.808          43.850          41.150



 133178383.823 6 103775398.29846  25343006.680                    25343017.020
        56.433          43.975          37.400          37.600    99451453.958 7
  25343020.660          41.820          42.600


 108971632.885 8  84913029.10048  20736595.060                    20736599.260
      -857.787        -668.407          51.300          51.250    81375002.824 9
  20736602.320        -640.548          56.600


 23 11  5 12  9 30.0000000  0 13G05G07G08G09G11G13G14G15G18G20G22G27
                                G30
 108387016.519 8  84457396.71148  20625369.580                    20625372.120
       462.063         360.049          50.150          50.200



 117609290.747 8  91643637.60348  22380299.400                    22380304.600
     -2342.265       -1825.147          48.800          48.950



 133476264.368 5 104007507.67745  25399689.960                    25399707.020
      1617.077        1260.058          35.650          35.850    99673898.976 6
  25399710.820        1207.353          40.250


 133481819.159 6 104011741.64446  25400796.980                    25400813.900
     -3322.393       -2588.880          38.750          38.500    99677915.494 7
  25400819.620       -2481.159          43.850


 131553553.735 6 102509214.94245  25033853.980                    25033866.140
     -3520.771       -2743.467          39.050          35.550    98238006.555 7
  25033874.360       -2628.746          43.500


 109816650.707 8  85571453.18847  20897406.280                    20897409.940
      1999.834        1558.314          50.900          46.850



 117930612.758 7  91894069.84647  22441418.840                    22441424.420
      2647.122        2062.695          47.050          44.600    88065187.121 8
  22441430.960        1976.865          50.300


 125784522.833 7  98013950.77446  23936002.220                    23936012.620
      3528.061        2749.141          44.350          39.200



 129530502.315 7 100932886.43646  24648842.600                    24648852.760
      1675.281        1305.411          42.600          38.350    96727355.640 7
  24648861.060        1251.166          46.200


 109941188.631 8  85668423.44047  20921129.820                    20921132.600
     -2023.257       -1576.567          49.650          47.550



 122229954.882 7  95244211.18946  23259559.480                    23259567.560
      3193.175        2488.197          44.400          37.650



 133176995.637 6 103774316.58246  25342742.440                    25342753.140
        37.034          28.862          38.200          38.550    99450417.304 7
  25342756.640          27.328          45.100


 108997584.917 8  84933251.39948  20741533.700                    20741537.820
      -872.498        -679.871          51.900          51.700    81394382.508 9
  20741540.900        -651.459          56.650


 23 11  5 12 10  0.0000000  0 13G05G07G08G09G11G13G14G15G18G20G22G27
                                G30
 108373454.447 8  84446828.86248  20622788.720                    20622791.440
       442.004         344.419          50.050          50.050



 117679678.185 8  91698484.76848  22393693.760                    22393699.280
     -2350.152       -1831.293          48.400          48.350



 133427974.586 6 103969879.32846  25390500.560                    25390517.720
      1602.323        1248.563          37.800          37.500    99637838.474 6
  25390521.780        1196.687          39.900


 133581516.648 6 104089427.80946  25419769.020                    25419785.920
     -3323.623       -2589.842          39.950          39.850    99752364.719 7
  25419791.460       -2482.028          43.400


 131659152.530 6 102591499.25945  25053949.240                    25053960.620
     -3519.521       -2742.501          39.700          33.700    98316862.325 7
  25053969.560       -2628.357          44.550


 109756803.970 8  85524819.39947  20886017.760                    20886021.660
      1989.854        1550.537          50.650          46.700



 117851376.894 7  91832327.70947  22426340.600                    22426346.620
      2635.058        2053.295          47.200          44.600    88006017.573 8
  22426352.760        1967.870          50.200


 125678714.777 7  97931503.02846  23915867.560                    23915878.140
      3525.612        2747.235          44.500          38.600



 129480499.058 7 100893922.93646  24639327.380                    24639337.800
      1658.178        1292.085          42.400          37.850    96690015.634 7
  24639345.320        1238.175          45.700


 110002137.087 8  85715915.63347  20932727.940                    20932730.740
     -2040.112       -1589.701          49.600          47.450



 122134269.015 7  95169651.05246  23241350.840                    23241358.580
      3185.918        2482.544          44.350          38.950



 133176181.083 5 103773681.77045  25342587.760                    25342598.280
        17.710          13.800          35.350          35.750    99449808.907 7
  25342601.500          13.081          44.000


 109023973.910 8  84953814.19248  20746555.520                    20746559.620
      -886.960        -691.140          52.100          52.100    81414088.500 9
  20746562.600        -662.302          56.550


 23 11  5 12 10 30.0000000  0 13G05G07G08G09G11G13G14G15G18G20G22G27
                                G30
 108360495.340 8  84436730.84148  20620322.720                    20620325.500
       422.458         329.188          50.050          50.100



 117750302.398 7  91753516.42947  22407133.120                    22407138.880
     -2357.427       -1836.963          47.950          47.750



 133380113.533 6 103932585.07946  25381393.120                    25381410.100
      1588.826        1238.047          37.800          37.900    99602098.181 6
  25381414.080        1186.392          40.350


 133681252.821 6 104167144.17246  25438748.360                    25438765.320
     -3324.590       -2590.594          38.750          38.900    99826842.841 7
  25438770.620       -2482.690          42.700


 131764735.888 6 102673771.56546  25074041.460                    25074052.220
     -3518.878       -2741.997          41.550          37.850    98395706.487 7
  25074062.000       -2627.552          45.250


 109697256.753 8  85478419.00547  20874686.180                    20874690.180
      1980.517        1543.261          50.650          46.500



 117772507.968 7  91770871.47747  22411332.400                    22411338.000
      2623.480        2044.273          46.900          44.300    87947122.053 8
  22411344.360        1958.999          50.300


 125572986.850 7  97849117.72546  23895748.220                    23895758.900
      3523.411        2745.520          43.400          38.250



 129431019.123 7 100855367.15146  24629911.640                    24629922.200
      1640.840        1278.574          42.100          39.200    96653066.297 7
  24629928.920        1225.530          45.600


 110063594.173 8  85763804.15847  20944422.880                    20944425.680
     -2056.426       -1602.414          49.700          47.250



 122038806.036 7  95095264.57546  23223184.540                    23223192.260
      3178.872        2477.054          43.700          40.550



 133175943.038 5 103773496.30145  25342542.580                    25342552.600
        -1.834          -1.434          35.000          33.800    99449631.201 6
  25342556.160          -0.877          40.650


 109050800.966 8  84974718.33448  20751660.700                    20751664.720
      -900.998        -702.078          51.850          51.850    81434121.628 9
  20751667.720        -672.802          56.550


 23 11  5 12 11  0.0000000  0 13G05G07G08G09G11G13G14G15G18G20G22G27
                                G30
 108348137.465 8  84427101.30748  20617971.200                    20617973.940
       401.960         313.215          50.350          50.350



 117821159.003 8  91808729.16748  22420616.720                    22420622.400
     -2365.777       -1843.470          48.250          48.200



 133332680.369 6 103895624.27546  25372366.700                    25372384.080
      1573.646        1226.220          37.850          37.950    99566677.387 7
  25372387.980        1175.443          43.150


 133781024.327 6 104244888.04346  25457734.440                    25457751.540
     -3326.122       -2591.789          40.150          40.600    99901347.374 7
  25457756.580       -2483.854          42.550


 131870298.140 6 102756027.44546  25094129.840                    25094140.440
     -3518.600       -2741.782          40.350          36.050    98474534.894 7
  25094150.620       -2627.369          44.950


 109638007.203 8  85432250.57447  20863411.320                    20863415.240
      1969.970        1535.043          51.250          46.000



 117694006.197 7  91709701.35147  22396394.040                    22396400.080
      2610.647        2034.274          47.050          44.750    87888500.684 8
  22396405.840        1949.537          50.100


 125467338.059 7  97766794.09046  23875643.840                    23875654.480
      3520.391        2743.166          43.050          38.100



 129382061.329 6 100817218.21646  24620595.020                    24620605.360
      1623.151        1264.795          41.900          38.600    96616506.909 7
  24620612.440        1212.188          45.550


 110125554.943 8  85812085.15947  20956213.700                    20956216.580
     -2073.579       -1615.779          49.750          47.650



 121943565.917 7  95021051.72146  23205060.760                    23205068.260
      3171.042        2470.948          44.700          40.400



 133176286.097 6 103773734.31546  25342607.200                    25342616.680
       -20.867         -16.255          37.150          38.250    99449882.345 7
  25342619.840         -15.458          42.800


 109078062.138 8  84995960.74648  20756848.400                    20756852.280
      -915.997        -713.767          52.000          52.050    81454478.922 9
  20756855.560        -683.991          56.550


 23 11  5 12 11 30.0000000  0 13G05G07G08G09G11G13G14G15G18G20G22G27
                                G30
 108336384.898 8  84417943.44748  20615734.860                    20615737.620
       381.574         297.330          50.200          50.150



 117892250.011 8  91864124.56748  22434145.080                    22434150.440
     -2373.596       -1849.562          48.450          48.350



 133285681.155 6 103859001.57646  25363422.960                    25363440.460
      1559.400        1215.116          38.900          38.700    99531580.673 7
  25363444.140        1164.437          43.250


 133880834.012 6 104322661.71946  25476727.520                    25476744.980
     -3327.619       -2592.953          38.050          37.400    99975880.431 7
  25476749.680       -2484.878          43.100


 131975839.870 6 102838267.29046  25114214.320                    25114224.660
     -3517.892       -2741.230          40.500          38.700    98553347.994 7
  25114235.320       -2626.794          45.400


 109579059.741 8  85386317.53047  20852193.980                    20852197.760
      1959.780        1527.104          51.400          46.400



 117615877.551 7  91648821.94447  22381526.620                    22381532.440
      2597.941        2024.371          47.250          45.400    87830157.954 8
  22381538.220        1940.108          50.400


 125361772.870 7  97684535.59546  23855555.300                    23855566.100
      3517.468        2740.887          42.100          40.500



 129333630.930 7 100779480.22746  24611378.800                    24611388.840
      1605.602        1251.117          42.250          37.500    96580341.374 7
  24611396.560        1198.985          46.200


 110188021.163 8  85860760.01747  20968100.800                    20968103.720
     -2090.672       -1629.099          49.800          47.800



 121848555.136 7  94947017.56746  23186980.600                    23186988.040
      3162.932        2464.628          45.000          39.650



 133177199.199 6 103774445.89946  25342779.480                    25342789.920
       -39.820         -31.021          36.850          36.300    99450564.240 7
  25342793.660         -29.815          43.900


 109105759.615 8  85017543.13448  20762119.040                    20762122.940
      -930.602        -725.146          51.800          51.800    81475162.024 9
  20762126.480        -694.865          56.800


 23 11  5 12 12  0.0000000  0 13G05G07G08G09G11G13G14G15G18G20G22G27
                                G30
 108325235.626 8  84409255.68648  20613613.260                    20613616.160
       361.894         281.995          50.450          50.450



 117963571.363 8  91919699.45848  22447717.280                    22447722.140
     -2380.749       -1855.136          48.450          48.450



 133239115.971 6 103822717.11146  25354561.960                    25354579.160
      1545.328        1204.155          37.850          38.700    99496808.084 7
  25354582.720        1153.774          42.900


 133980678.656 6 104400462.61646  25495727.460                    25495744.940
     -3328.348       -2593.519          39.450          39.600   100050439.624 7
  25495749.680       -2485.591          42.450


 132081355.580 6 102920486.86746  25134293.560                    25134303.800
     -3516.348       -2740.021          39.450          36.400    98632141.653 7
  25134315.240       -2626.039          44.750


 109520412.760 8  85340618.62447  20841033.860                    20841037.440
      1950.099        1519.560          51.350          46.300



 117538122.080 7  91588233.35447  22366730.160                    22366736.520
      2585.933        2015.015          47.000          44.800    87772093.897 8
  22366741.600        1930.977          50.000


 125256290.038 7  97602341.28546  23835482.620                    23835493.560
      3514.832        2738.832          42.700          40.600



 129285726.754 6 100742152.29646  24602262.740                    24602272.820
      1588.358        1237.683          41.250          37.500    96544568.733 7
  24602280.780        1186.097          46.000


 110250988.782 8  85909825.57947  20980083.360                    20980086.420
     -2106.957       -1641.788          49.500          47.800



 121753774.299 7  94873162.57246  23168944.240                    23168951.760
      3155.753        2459.035          44.400          40.800



 133178687.107 6 103775605.29446  25343062.500                    25343073.060
       -58.801         -45.823          36.700          36.850    99451675.390 7
  25343076.820         -43.892          42.450


 109133889.543 8  85039462.49348  20767471.920                    20767476.020
      -944.479        -735.959          51.700          51.600    81496168.067 9
  20767479.540        -705.367          56.300


 23 11  5 12 12 30.0000000  0 13G05G07G08G09G11G13G14G15G18G20G22G27
                                G30
 108314692.125 8  84401039.95648  20611606.880                    20611609.920
       341.702         266.262          49.750          49.650



 118035123.366 8  91975454.08148  22461333.440                    22461338.020
     -2388.477       -1861.156          48.050          48.050



 133192988.144 6 103786773.39146  25345784.120                    25345800.980
      1530.896        1192.909          38.200          38.850    99462362.062 7
  25345804.780        1142.889          43.450


 134080558.916 6 104478291.30646  25514734.100                    25514751.680
     -3329.494       -2594.414          39.150          39.200   100125025.436 7
  25514756.420       -2486.385          43.200


 132186844.001 6 103002685.11246  25154367.520                    25154378.340
     -3515.683       -2739.508          37.900          37.400    98710914.850 7
  25154390.020       -2625.146          43.650


 109462068.429 8  85295155.55247  20829931.280                    20829934.800
      1940.036        1511.719          51.050          46.900



 117460743.840 7  91527938.66847  22352005.460                    22352011.820
      2573.192        2005.088          46.650          45.550    87714311.523 8
  22352016.700        1921.618          49.800


 125150892.485 7  97520213.42447  23815426.140                    23815437.440
      3512.005        2736.631          42.850          42.100



 129238352.042 7 100705236.94246  24593247.700                    24593257.680
      1570.583        1223.832          42.050          39.250    96509191.520 7
  24593266.160        1172.844          46.350


 110314457.469 8  85959281.58448  20992161.240                    20992164.420
     -2123.679       -1654.818          49.250          48.450



 121659227.301 7  94799489.77746  23150952.460                    23150960.020
      3147.981        2452.978          44.950          39.500



 133180751.463 6 103777213.87146  25343455.460                    25343466.100
       -78.252         -60.978          37.500          36.600    99453216.927 7
  25343469.840         -58.283          44.700


 109162452.151 8  85061719.00748  20772907.200                    20772911.500
      -958.948        -747.235          51.250          51.250    81517497.213 9
  20772914.680        -716.141          56.100


 23 11  5 12 13  0.0000000  0 13G05G07G08G09G11G13G14G15G18G20G22G27
                                G30
 108304751.061 8  84393293.64648  20609715.120                    20609718.160
       320.711         249.904          49.900          49.950



 118106899.252 8  92031383.16347  22474992.180                    22474996.560
     -2396.761       -1867.612          48.100          47.650



 133147295.553 6 103751168.82446  25337089.160                    25337105.860
      1514.888        1180.433          38.950          38.250    99428241.005 7
  25337109.720        1131.649          44.200


 134180469.900 6 104556143.93846  25533746.560                    25533764.420
     -3331.860       -2596.259          39.950          39.850   100199634.181 7
  25533768.840       -2487.689          43.500


 132292297.996 6 103084856.54046  25174435.020                    25174446.380
     -3515.079       -2739.040          40.200          38.850    98789662.429 7
  25174458.260       -2624.859          43.150


 109404023.402 8  85249925.70847  20818885.680                    20818889.240
      1929.297        1503.349          51.550          46.650



 117383741.262 7  91467936.71647  22337352.260                    22337358.960
      2559.917        1994.743          46.800          44.950    87656809.655 8
  22337363.300        1911.673          49.700


 125045577.286 7  97438149.71946  23795385.200                    23795396.780
      3508.780        2734.116          43.400          41.150



 129191503.924 6 100668731.86946  24584332.880                    24584342.900
      1552.104        1209.433          41.950          40.400    96474207.510 7
  24584351.700        1159.204          46.900


 110378421.453 8  86009123.53947  21004333.300                    21004336.680
     -2140.893       -1668.231          49.450          47.850



 121564913.096 7  94725998.37946  23133005.020                    23133012.580
      3139.386        2446.280          44.900          39.500



 133183393.180 6 103779311.30445  25343957.200                    25343968.160
       -98.063         -76.417          37.250          35.550    99455185.739 7
  25343971.600         -73.179          43.300


 109191441.870 8  85084308.33948  20778423.780                    20778428.220
      -973.898        -758.885          51.750          51.900    81539145.312 9
  20778431.060        -727.234          56.150


 23 11  5 12 13 30.0000000  0 13G05G07G08G09G11G13G14G15G18G20G22G27
                                G30
 108295420.623 8  84386023.15248  20607939.620                    20607942.500
       300.836         234.417          50.000          50.150



 118178905.233 8  92087491.54948  22488694.620                    22488699.120
     -2404.021       -1873.270          48.250          48.200



 133102047.785 6 103715910.89046  25328478.580                    25328495.320
      1501.027        1169.634          37.750          37.650    99394452.187 7
  25328499.140        1120.875          43.050


 134280418.428 6 104634025.84746  25552766.140                    25552784.000
     -3332.042       -2596.396          39.300          39.300   100274270.997 7
  25552788.560       -2488.262          42.850


 132397722.155 6 103167004.77946  25194497.020                    25194508.660
     -3513.549       -2737.842          40.550          36.600    98868387.672 7
  25194520.620       -2623.693          43.950


 109346286.240 8  85204935.75547  20807898.620                    20807902.180
      1919.564        1495.767          51.300          46.650



 117307124.450 7  91408235.33147  22322772.500                    22322779.180
      2547.590        1985.136          47.300          45.800    87599595.853 8
  22322783.360        1902.455          49.400


 124940353.265 7  97356157.07147  23775361.600                    23775373.420
      3506.338        2732.215          43.200          42.500



 129145191.743 6 100632644.51546  24575520.000                    24575530.540
      1534.803        1195.951          41.200          39.050    96439623.786 7
  24575539.040        1146.242          46.400


 110442886.082 8  86059355.59747  21016600.600                    21016604.140
     -2157.007       -1680.789          49.350          47.800



 121470841.913 7  94652696.34746  23115103.800                    23115111.520
      3131.894        2440.443          45.950          40.150



 133186610.160 6 103781818.05846  25344569.680                    25344580.260
      -116.651         -90.901          36.800          36.650    99457587.967 7
  25344583.660         -87.142          44.550


 109220864.942 8  85107235.34548  20784022.840                    20784027.400
      -987.763        -769.687          51.700          51.600    81561117.016 9
  20784030.120        -737.604          56.300


 23 11  5 12 14  0.0000000  0 13G05G07G08G09G11G13G14G15G18G20G22G27
                                G30
 108286694.255 8  84379223.36148  20606279.040                    20606281.780
       280.643         218.682          50.550          50.550



 118251132.616 8  92143772.43948  22502439.080                    22502444.000
     -2411.365       -1878.992          48.300          48.550



 133057239.929 6 103680995.76646  25319951.700                    25319968.640
      1485.971        1157.903          39.050          38.700    99360991.875 7
  25319972.360        1109.786          42.800


 134380396.739 6 104711930.96746  25571791.380                    25571809.400
     -3333.449       -2597.494          40.850          40.600   100348930.056 7
  25571813.760       -2489.169          42.800


 132503106.783 6 103249122.18846  25214551.360                    25214563.740
     -3512.228       -2736.818          41.100          36.750    98947083.418 7
  25214574.940       -2622.853          43.950


 109288850.355 8  85160180.56347  20796968.860                    20796972.340
      1909.390        1487.838          51.250          46.800



 117230888.962 7  91348831.10447  22308265.380                    22308272.160
      2534.536        1974.965          47.600          45.100    87542666.800 8
  22308276.120        1892.768          49.700


 124835214.795 7  97274231.09147  23755354.240                    23755366.360
      3503.090        2729.684          43.550          42.300



 129099409.614 6 100596970.14146  24566807.800                    24566818.640
      1516.941        1182.033          40.900          39.400    96405435.872 7
  24566827.220        1132.805          46.600


 110507842.679 8  86109971.01547  21028961.440                    21028965.100
     -2173.531       -1693.665          49.150          47.950



 121377009.736 7  94579580.54346  23097248.120                    23097255.620
      3123.629        2434.004          45.550          39.300



 133190399.761 6 103784770.63946  25345290.800                    25345301.180
      -135.782        -105.819          38.000          36.800    99460417.518 7
  25345304.860        -101.580          45.250


 109250713.034 8  85130493.53248  20789702.780                    20789707.400
     -1002.178        -780.920          51.950          52.000    81583406.093 9
  20789710.240        -748.393          56.600


 23 11  5 12 14 30.0000000  0 13G05G07G08G09G11G13G14G15G18G20G22G27
                                G30
 108278578.363 8  84372899.26848  20604734.660                    20604737.140
       260.490         202.979          50.700          50.600



 118323585.101 8  92200228.73648  22516226.380                    22516231.360
     -2418.686       -1884.695          48.400          48.000



 133012880.041 6 103646429.74446  25311510.380                    25311527.300
      1471.146        1146.353          40.350          39.800    99327866.095 7
  25311530.920        1098.717          44.050


 134480409.602 6 104789863.03146  25590823.320                    25590841.160
     -3334.171       -2598.057          39.800          39.700   100423614.941 7
  25590845.680       -2489.816          42.500


 132608454.348 6 103331210.69246  25234598.580                    25234611.700
     -3510.812       -2735.716          39.050          37.350    99025751.454 7
  25234622.140       -2621.688          45.600


 109231722.513 8  85115665.39147  20786097.720                    20786101.320
      1899.235        1479.926          51.500          46.700



 117155042.707 7  91289730.16147  22293832.360                    22293838.920
      2521.729        1964.985          47.600          45.200    87486028.411 8
  22293843.020        1883.164          49.950


 124730168.670 7  97192377.06247  23735364.480                    23735376.740
      3500.145        2727.389          43.400          42.250



 129054164.557 7 100561714.26746  24558197.880                    24558209.260
      1499.630        1168.545          42.850          38.350    96371649.000 7
  24558217.280        1119.737          46.300


 110573294.514 8  86160972.33047  21041416.560                    21041420.300
     -2189.873       -1706.397          49.200          47.550



 121283424.993 7  94506657.53846  23079439.540                    23079446.700
      3115.446        2427.627          46.700          40.550



 133194768.109 6 103788174.41446  25346122.240                    25346133.060
      -155.182        -120.920          38.850          36.850    99463679.425 7
  25346136.280        -115.804          43.650


 109280990.146 8  85154086.01448  20795464.340                    20795469.080
     -1016.299        -791.924          51.800          51.900    81606015.534 9
  20795472.000        -758.907          56.750


 23 11  5 12 15  0.0000000  0 13G05G07G08G09G11G13G14G15G18G20G22G27
                                G30
 108271073.441 8  84367051.24548  20603306.540                    20603308.780
       240.367         187.298          50.600          50.500



 118396260.738 7  92256858.92948  22530056.300                    22530061.320
     -2425.774       -1890.221          47.900          48.000



 132968969.832 6 103612214.11546  25303154.520                    25303171.360
      1456.733        1135.122          39.300          39.850    99295076.180 7
  25303175.080        1087.718          43.750


 134580456.336 6 104867821.48646  25609861.640                    25609879.540
     -3335.024       -2598.724          39.350          38.000   100498325.114 6
  25609883.840       -2490.391          41.100


 132713761.683 6 103413267.86846  25254638.220                    25254651.820
     -3509.259       -2734.505          39.000          37.850    99104389.449 7
  25254661.980       -2620.430          44.700


 109174903.225 8  85071390.66447  20775285.240                    20775289.060
      1889.160        1472.074          50.850          47.100



 117079587.999 7  91230934.31747  22279473.800                    22279480.140
      2508.775        1954.891          47.700          44.150    87429682.404 8
  22279484.660        1873.621          50.100


 124625215.961 7  97110595.84146  23715392.480                    23715404.620
      3497.431        2725.274          42.850          41.000



 129009457.535 7 100526877.59346  24549690.420                    24549701.940
      1481.687        1154.562          42.000          38.500    96338263.851 7
  24549709.640        1106.493          46.650


 110639240.217 8  86212358.47147  21053965.600                    21053969.460
     -2205.952       -1718.928          49.250          47.600



 121190090.064 7  94433929.19646  23061678.420                    23061685.600
      3107.234        2421.229          46.150          39.650



 133199714.740 5 103792028.72845  25347063.720                    25347074.280
      -174.130        -135.692          34.550          33.850    99467373.118 7
  25347077.700        -130.060          43.250


 109311694.678 8  85178011.53948  20801307.240                    20801312.180
     -1030.271        -802.812          52.000          51.900    81628944.138 9
  20801315.000        -769.249          56.700


 23 11  5 12 15 30.0000000  0 13G05G07G08G09G11G13G14G15G18G20G22G27
                                G30
 108264173.220 8  84361674.42848  20601993.500                    20601995.720
       219.477         171.021          50.650          50.550



 118469151.275 7  92313656.60147  22543927.120                    22543932.020
     -2433.707       -1896.401          47.850          47.750



 132925504.241 6 103578344.94446  25294883.240                    25294899.900
      1441.038        1122.890          38.450          38.450    99262618.256 7
  25294903.840        1076.084          43.050


 134680529.405 6 104945800.45946  25628904.820                    25628922.820
     -3336.663       -2599.999          37.700          37.350   100573054.998 6
  25628927.020       -2491.806          39.200


 132819019.218 6 103495286.18446  25274668.360                    25274682.440
     -3508.377       -2733.816          38.900          38.800    99182990.234 7
  25274692.260       -2619.824          44.250


 109118386.466 8  85027351.66747  20764530.320                    20764534.200
      1878.243        1463.566          51.000          47.200



 117004520.597 7  91172440.26947  22265188.900                    22265194.920
      2495.336        1944.419          47.250          44.700    87373625.626 8
  22265200.060        1863.331          50.250


 124520351.195 7  97028883.14046  23695437.160                    23695449.100
      3493.636        2722.316          42.300          41.500



 128965283.488 7 100492456.25346  24541284.480                    24541295.560
      1462.944        1139.955          42.100          39.050    96305276.721 7
  24541303.360        1092.549          46.500


 110705670.095 8  86264121.89147  21066606.880                    21066610.780
     -2222.861       -1732.104          49.500          47.150



 121097000.876 7  94361392.31846  23043964.200                    23043971.000
      3098.441        2414.376          46.650          39.700



 133205233.079 5 103796328.76345  25348113.800                    25348124.320
      -194.455        -151.533          34.100          34.650    99471493.961 7
  25348127.940        -144.797          43.150


 109342818.526 8  85202263.81748  20807230.080                    20807235.020
     -1044.867        -814.185          52.250          52.200    81652185.902 9
  20807237.700        -780.316          56.550


 23 11  5 12 16  0.0000000  0 13G05G07G08G09G11G13G14G15G18G20G22G27
                                G30
 108257887.459 8  84356776.41248  20600797.440                    20600799.820
       199.001         155.065          50.200          50.150



 118542264.321 8  92370627.63548  22557840.140                    22557845.160
     -2441.175       -1902.218          48.300          48.400



 132882495.104 6 103544831.49946  25286698.580                    25286715.440
      1426.147        1111.290          37.100          36.100    99230501.246 7
  25286719.320        1064.604          42.400


 134780637.755 6 105023806.95946  25647954.820                    25647972.660
     -3338.112       -2601.123          38.800          39.650   100647811.174 7
  25647977.100       -2492.644          42.800


 132924233.557 6 103577270.90246  25294690.380                    25294704.480
     -3507.178       -2732.881          39.700          39.000    99261558.810 7
  25294714.220       -2618.663          43.350


 109062182.370 8  84983556.28347  20753835.020                    20753838.720
      1867.780        1455.414          51.200          46.600



 116929852.495 7  91114257.36247  22250980.000                    22250985.580
      2481.872        1933.926          47.250          44.000    87317867.009 8
  22250991.580        1853.374          50.300


 124415585.205 7  96947247.38646  23675500.760                    23675512.420
      3490.159        2719.606          43.600          41.500



 128921652.992 7 100458458.40346  24532982.060                    24532992.620
      1444.937        1125.926          42.250          37.600    96272695.451 7
  24533000.500        1079.027          46.050


 110772592.126 8  86316268.80847  21079341.740                    21079345.720
     -2239.286       -1744.901          48.850          47.350



 121004170.065 7  94289056.77746  23026299.000                    23026305.640
      3089.603        2407.488          46.300          39.400



 133211331.786 5 103801080.95845  25349274.340                    25349285.040
      -213.812        -166.612          35.700          35.450    99476048.166 7
  25349288.720        -159.357          44.800


 109374369.770 8  85226849.12248  20813234.280                    20813239.120
     -1059.212        -825.362          51.750          51.800    81675746.798 9
  20813241.660        -790.960          56.200


 23 11  5 12 16 30.0000000  0 13G05G07G08G09G11G13G14G15G18G20G22G27
                                G30
 108252208.392 8  84352351.14348  20599716.780                    20599719.400
       178.727         139.268          51.050          50.850



 118615589.426 8  92427763.89648  22571793.480                    22571798.640
     -2448.104       -1907.620          48.250          48.000



 132839935.594 6 103511668.37646  25278599.600                    25278616.600
      1410.571        1099.152          38.100          38.500    99198719.905 7
  25278620.360        1053.526          42.900


 134880771.736 6 105101833.41146  25667009.900                    25667027.640
     -3338.391       -2601.343          36.950          37.150   100722586.482 6
  25667032.080       -2493.027          40.900


 133029393.207 6 103659212.97946  25314701.840                    25314715.780
     -3504.837       -2731.060          40.850          36.950    99340086.563 7
  25314725.580       -2617.202          42.300


 109006283.175 8  84939998.48247  20743197.820                    20743201.340
      1857.879        1447.698          51.450          46.800



 116855577.540 8  91056380.80947  22236845.880                    22236851.180
      2468.975        1923.877          48.200          44.350    87262401.981 8
  22236857.880        1843.626          50.550


 124310910.616 7  96865682.85146  23655582.000                    23655592.960
      3487.372        2717.435          44.800          40.550



 128878558.768 7 100424878.37146  24524781.500                    24524792.040
      1427.204        1112.104          42.650          37.400    96240514.580 7
  24524799.640        1065.742          45.950


 110839995.962 8  86368791.15047  21092168.400                    21092172.260
     -2255.180       -1757.286          49.550          47.050



 120911591.653 7  94216917.91046  23008681.800                    23008688.360
      3081.455        2401.139          47.000          39.200



 133218002.544 6 103806279.03946  25350543.940                    25350554.460
      -231.890        -180.697          37.700          38.100    99481029.697 7
  25350558.200        -173.464          43.650


 109406338.350 8  85251759.63048  20819317.800                    20819322.580
     -1072.924        -836.047          51.900          51.800    81699619.352 9
  20819325.040        -801.207          56.100


 23 11  5 12 17  0.0000000  0 13G05G07G08G09G11G13G14G15G18G20G22G27
                                G30
 108247143.408 8  84348404.38548  20598753.060                    20598755.760
       158.508         123.513          50.700          50.750



 118689132.200 7  92485069.77047  22585788.320                    22585793.420
     -2455.058       -1913.038          47.300          47.050



 132797835.051 6 103478862.85246  25270588.020                    25270605.360
      1395.791        1087.631          37.500          37.600    99167281.325 7
  25270608.680        1042.031          43.400


 134980938.161 6 105179885.15246  25686070.920                    25686088.440
     -3339.607       -2602.300          37.900          37.700   100797386.115 6
  25686093.100       -2493.976          40.250


 133134502.527 6 103741115.93345  25334703.940                    25334717.360
     -3503.103       -2729.702          41.750          34.950    99418576.794 6
  25334727.260       -2615.789          41.800


 108950697.078 8  84896684.65047  20732620.240                    20732623.680
      1847.457        1439.577          51.450          46.800



 116781705.388 8  90998818.12447  22222788.500                    22222793.440
      2455.507        1913.383          48.300          44.050    87207237.741 8
  22222800.780        1833.699          50.750


 124206336.248 7  96784196.41446  23635682.280                    23635692.660
      3483.815        2714.664          45.600          40.300



 128836009.711 6 100391723.26046  24516684.780                    24516695.200
      1409.015        1097.934          41.850          38.050    96208740.876 7
  24516702.560        1052.286          46.550


 110907886.393 8  86421692.66847  21105087.660                    21105091.500
     -2271.195       -1769.767          49.700          47.000



 120819275.570 7  94144983.46646  22991114.440                    22991120.860
      3072.674        2394.298          46.250          40.100



 133225252.628 6 103811928.66446  25351923.740                    25351933.820
      -251.609        -196.061          39.250          36.200    99486443.866 7
  25351937.640        -187.690          44.500


 109438730.105 8  85276999.87848  20825481.720                    20825486.480
     -1086.967        -846.990          51.400          51.400    81723807.904 9
  20825489.000        -811.676          56.100


 23 11  5 12 17 30.0000000  0 13G05G07G08G09G11G13G14G15G18G20G22G27
                                G30
 108242690.540 8  84344934.59448  20597905.760                    20597908.460
       138.425         107.862          51.100          51.250



 118762888.533 8  92542542.04648  22599823.920                    22599829.040
     -2461.994       -1918.443          48.450          48.450



 132756192.975 6 103446414.55746  25262663.700                    25262681.200
      1381.032        1076.131          37.150          36.600    99136185.049 7
  25262684.300        1030.803          42.450


 135081133.802 6 105257959.66146  25705137.580                    25705155.360
     -3340.401       -2602.907          37.050          37.100   100872207.506 6
  25705159.700       -2494.479          38.500


 133239556.141 6 103822975.41945  25354695.520                    25354708.760
     -3500.449       -2727.640          39.400          33.350    99497025.403 7
  25354718.320       -2614.068          42.550


 108895422.245 8  84853613.36447  20722101.840                    20722105.180
      1837.441        1431.773          51.300          47.300



 116708235.899 8  90941569.20247  22208807.760                    22208812.580
      2442.491        1903.241          48.150          45.050    87152374.204 8
  22208820.160        1823.786          50.600


 124101860.696 7  96702786.99846  23615801.240                    23615811.360
      3481.144        2712.583          45.200          41.350



 128794004.281 6 100358991.70646  24508691.360                    24508701.760
      1391.182        1084.034          41.350          39.700    96177373.161 7
  24508709.360        1038.859          46.300


 110976258.879 8  86474969.81547  21118098.680                    21118102.340
     -2287.011       -1782.090          49.750          47.050



 120727222.146 7  94073253.66346  22973597.000                    22973603.640
      3064.188        2387.684          45.650          41.350



 133233078.907 6 103818027.14145  25353412.980                    25353422.620
      -270.198        -210.536          38.800          33.600    99492288.350 7
  25353426.600        -201.888          42.200


 109471540.941 8  85302566.68848  20831725.320                    20831730.120
     -1100.586        -857.602          50.950          50.750    81748309.412 9
  20831732.700        -821.907          55.750


 23 11  5 12 18  0.0000000  0 13G05G07G08G09G11G13G14G15G18G20G22G27
                                G30
 108238848.292 8  84341940.60848  20597174.660                    20597177.320
       117.771          91.769          50.800          50.650



 118836855.080 8  92600178.14148  22613899.620                    22613904.320
     -2469.067       -1923.953          48.950          48.850



 132715009.646 6 103414323.67446  25254826.740                    25254844.280
      1365.084        1063.700          38.200          38.500    99105431.260 7
  25254847.280        1019.294          42.250


                                  25724209.140                    25724226.760
     -3340.518       -2603.029          33.000          34.400   100947048.814 6
  25724231.580       -2495.161          39.550


 133344549.624 6 103904788.11745  25374675.580                    25374689.220
     -3498.744       -2726.308          41.200          35.600    99575429.121 7
  25374697.720       -2612.893          42.500


 108840457.675 8  84810783.85347  20711642.360                    20711645.560
      1826.849        1423.520          50.900          46.650



 116635169.962 8  90884634.72847  22194903.820                    22194908.660
      2428.689        1892.486          48.450          44.900    87097811.998 8
  22194916.240        1813.550          50.650


 123997483.629 7  96621454.34146  23595938.860                    23595948.760
      3477.360        2709.635          45.000          41.850



 128752542.245 6 100326683.60846  24500801.200                    24500811.840
      1372.729        1069.657          41.200          38.700    96146411.214 7
  24500819.620        1025.111          46.300


 111045109.749 8  86528619.72347  21131200.800                    21131204.240
     -2303.256       -1794.748          49.850          47.100



 120635432.694 7  94001729.55546  22956129.740                    22956136.500
      3055.035        2380.551          45.600          40.850



 133241479.365 6 103824573.06746  25355011.580                    25355021.320
      -289.523        -225.606          36.950          36.250    99498561.565 6
  25355024.920        -216.367          41.200


 109504767.902 8  85328457.75748  20838048.180                    20838053.000
     -1114.670        -868.577          51.550          51.650    81773121.665 9
  20838055.520        -832.351          55.450


 23 11  5 12 18 30.0000000  0 13G05G07G08G09G11G13G14G15G18G20G22G27
                                G30
 108235621.750 8  84339426.39548  20596560.740                    20596563.300
        97.251          75.779          50.550          50.550



 118911034.317 8  92657979.94848  22628015.700                    22628020.360
     -2476.113       -1929.445          48.500          48.350



 132674290.938 6 103382594.75746  25247078.380                    25247095.740
      1349.642        1051.663          38.600          39.400    99075024.381 7
  25247099.000        1007.843          42.950


 135281882.842 6 105414526.90346  25743286.760                    25743304.540
     -3342.255       -2604.354          38.100          38.050   101021912.785 6
  25743309.140       -2495.840          41.400


 133449484.326 6 103986554.98846  25394644.320                    25394658.260
     -3496.848       -2724.827          38.850          36.550    99653788.929 7
  25394666.720       -2611.211          44.100


 108785808.711 8  84768200.27247  20701242.840                    20701245.980
      1816.357        1415.344          50.500          46.650



 116562514.278 8  90828019.93647  22181078.000                    22181082.980
      2414.986        1881.809          48.600          45.900    87043556.158 8
  22181090.380        1803.347          50.600


 123893210.569 7  96540202.74547  23576096.200                    23576106.000
      3474.138        2707.126          44.650          43.100



 128711629.169 6 100294803.32146  24493015.780                    24493026.640
      1354.551        1055.498          41.300          40.650    96115859.256 7
  24493034.160        1011.434          46.050


 111114441.574 8  86582644.39547  21144394.380                    21144397.620
     -2319.151       -1807.136          49.800          46.750



 120543914.318 7  93930416.68046  22938714.080                    22938720.900
      3045.916        2373.443          45.050          40.850



 133250458.776 5 103831570.26245  25356720.200                    25356730.040
      -308.683        -240.528          35.900          35.050    99505267.335 6
  25356733.260        -230.883          40.900


 109538413.831 8  85354675.28448  20844450.840                    20844455.740
     -1128.474        -879.333          51.200          51.250    81798246.782 9
  20844458.060        -842.784          55.250


 23 11  5 12 19  0.0000000  0 12G05G07G08G11G13G14G15G18G20G22G27G30
 108233001.989 8  84337384.99448  20596062.220                    20596064.760
        77.080          60.061          50.650          50.700



 118985415.243 8  92715938.94948  22642170.060                    22642174.620
     -2482.903       -1934.736          48.350          48.200



 132634029.710 6 103351222.28346  25239417.100                    25239434.340
      1334.192        1039.627          38.500          37.550    99044959.084 7
  25239437.780         996.332          43.000


 133554347.952 6 104068266.45046  25414599.520                    25414613.520
     -3494.164       -2722.741          40.200          38.150    99732095.649 7
  25414622.660       -2609.462          44.250


 108731466.692 8  84725855.86147  20690901.820                    20690905.040
      1806.148        1407.389          51.000          47.250



 116490261.799 8  90771719.33447  22167328.860                    22167334.160
      2401.609        1871.384          48.600          46.900    86989601.420 8
  22167341.220        1793.311          50.800


 123789033.721 7  96459026.11047  23556271.820                    23556281.620
      3470.780        2704.509          44.500          43.150



 128671256.755 6 100263344.31646  24485333.160                    24485344.300
      1336.529        1041.452          41.300          40.550    96085711.034 7
  24485351.720         998.150          46.500


 111184242.796 8  86637034.82947  21157677.260                    21157680.300
     -2334.652       -1819.214          50.100          46.700



 120452660.146 7  93859309.65246  22921348.740                    22921355.500
      3037.266        2366.704          44.550          40.350



 133260007.002 6 103839010.67646  25358536.880                    25358546.480
      -327.288        -255.016          38.700          37.000    99512397.706 7
  25358550.320        -245.032          43.900


 109572467.772 8  85381210.75548  20850931.200                    20850936.200
     -1142.030        -889.896          51.600          51.450    81823676.591 9
  20850938.280        -852.820          55.550


 23 11  5 12 19 30.0000000  0 12G05G07G08G11G13G14G15G18G20G22G27G30
 108231000.349 8  84335825.25648  20595681.320                    20595683.840
        56.395          43.943          50.600          50.550



 119060007.218 8  92774062.36948  22656364.520                    22656369.400
     -2489.850       -1940.146          48.800          48.650



 132594239.369 6 103320216.72546  25231845.080                    25231862.440
      1318.730        1027.577          38.450          38.050    99015245.401 7
  25231866.020         984.605          43.600


 133659148.694 6 104149928.94046  25434542.740                    25434556.760
     -3492.272       -2721.264          40.100          38.100    99810355.460 7
  25434566.400       -2607.781          43.300


 108677443.595 8  84683759.96647  20680621.640                    20680624.880
      1795.508        1399.098          51.350          47.150



 116418426.108 8  90715743.50247  22153658.960                    22153664.640
      2387.632        1860.494          48.100          47.150    86935957.910 8
  22153671.200        1782.955          50.750


 123684965.453 7  96377934.10447  23536468.060                    23536478.040
      3467.090        2701.633          44.700          43.100



 128631437.176 6 100232316.05246  24477755.840                    24477766.860
      1317.919        1026.951          41.550          40.700    96055975.618 7
  24477774.280         984.314          46.300


 111254522.371 8  86691797.99747  21171051.080                    21171054.060
     -2350.555       -1831.605          49.950          46.300



 120361683.997 7  93788419.28046  22904036.280                    22904042.820
      3027.851        2359.369          44.650          40.750



 133270134.934 6 103846902.89546  25360464.000                    25360474.040
      -347.249        -270.570          37.400          37.100    99519961.163 7
  25360477.340        -259.408          44.600


 109606939.381 8  85408071.67948  20857491.040                    20857496.200
     -1155.852        -900.666          51.800          51.800    81849418.296 9
  20857498.100        -863.195          55.600


 23 11  5 12 20  0.0000000  0 12G05G07G08G11G13G14G15G18G20G22G27G30
 108229615.526 8  84334746.14648  20595417.760                    20595420.300
        35.707          27.822          50.200          50.000



 119134806.778 8  92832347.53648  22670598.460                    22670603.620
     -2496.783       -1945.552          48.300          48.100



 132554919.662 6 103289577.93346  25224362.820                    25224380.080
      1302.831        1015.190          38.000          38.000    98985883.199 7
  25224383.920         972.797          44.350


 133763882.113 6 104231538.96846  25454473.040                    25454487.460
     -3490.088       -2719.562          40.400          36.700    99888565.006 6
  25454496.920       -2606.344          41.900


 108623738.260 8  84641911.68247  20670401.960                    20670405.040
      1784.795        1390.751          51.750          46.450



 116347007.706 8  90660092.83647  22140068.440                    22140074.480
      2373.553        1849.522          48.300          46.000    86882626.032 8
  22140080.660        1772.471          50.600


 123581005.297 7  96296926.34247  23516684.960                    23516695.000
      3463.327        2698.701          44.300          43.750



 128592170.137 7 100201718.40446  24470283.760                    24470294.500
      1299.548        1012.637          42.200          40.200    96026652.887 7
  24470301.980         970.556          46.000


 111325276.511 8  86746930.95747  21184515.160                    21184518.180
     -2366.507       -1844.036          49.450          46.600



 120270986.990 7  93717746.39246  22886777.100                    22886783.480
      3018.533        2352.106          44.200          39.750



 133280840.288 5 103855245.19045  25362500.600                    25362511.200
      -365.808        -285.033          35.600          35.350    99527955.952 7
  25362514.200        -273.561          42.300


 109641825.415 8  85435255.52848  20864129.760                    20864134.960
     -1169.869        -911.589          51.450          51.550    81875469.465 9
  20864136.860        -873.549          55.550


 23 11  5 12 20 30.0000000  0 12G05G07G08G11G13G14G15G18G20G22G27G30
 108228844.397 8  84334145.24048  20595271.060                    20595273.600
        15.568          12.130          50.200          50.100



 119209808.807 7  92890790.49147  22684871.020                    22684876.240
     -2503.290       -1950.622          47.300          47.150



 132516069.143 6 103259304.76846  25216969.860                    25216986.840
      1287.569        1003.300          37.550          38.100    98956871.426 7
  25216990.960         961.266          43.650


 133868542.069 6 104313091.83546  25474389.480                    25474404.060
     -3487.644       -2717.656          40.200          38.700    99966719.658 7
  25474413.760       -2604.147          44.300


 108570348.182 8  84600309.05747  20660242.200                    20660245.240
      1774.466        1382.701          51.200          47.300



 116276005.566 7  90604766.52447  22126557.120                    22126563.400
      2359.882        1838.869          47.800          46.850    86829604.987 8
  22126569.200        1762.250          50.700


 123477151.108 7  96216001.16447  23496922.120                    23496932.180
      3460.061        2696.157          44.150          43.750



 128553453.075 7 100171549.29146  24462916.440                    24462926.720
      1281.652         998.688          42.050          40.050    95997740.853 7
  24462934.160         957.097          45.700


 111396499.488 8  86802429.24247  21198068.440                    21198071.620
     -2381.877       -1856.014          49.200          47.350



 120180568.545 7  93647290.57946  22869570.940                    22869577.120
      3009.526        2345.090          44.750          40.750



 133292118.971 5 103864033.94845  25364646.420                    25364657.380
      -385.957        -300.747          35.450          34.450    99536378.565 7
  25364660.120        -287.855          42.950


 109677120.984 8  85462758.49548  20870846.320                    20870851.520
     -1183.290        -922.047          51.200          51.350    81901826.451 9
  20870853.580        -883.568          55.750


 23 11  5 12 21  0.0000000  0 12G05G07G08G11G13G14G15G18G20G22G27G30
 108228686.184 8  84334021.92448  20595241.000                    20595243.640
        -5.409          -4.216          50.550          50.250



 119285010.669 8  92949389.14248  22699181.620                    22699186.860
     -2510.421       -1956.179          48.800          49.000



 132477689.054 6 103229398.14646  25209666.380                    25209683.120
      1271.258         990.588          36.800          36.300    98928210.892 7
  25209687.420         949.258          44.600


 133973124.443 6 104394584.16846  25494291.060                    25494306.060
     -3484.731       -2715.383          37.850          37.650   100044816.450 6
  25494315.520       -2602.392          41.900


 108517273.141 8  84558951.91247  20650142.300                    20650145.420
      1763.593        1374.229          51.050          47.000



 116205421.196 8  90549765.75147  22113125.320                    22113131.700
      2345.500        1827.664          48.300          46.450    86776895.916 8
  22113137.200        1751.542          50.900


 123373403.628 7  96135159.13947  23477179.480                    23477189.600
      3456.185        2693.137          44.050          43.050



 128515286.472 7 100141809.17246  24455653.900                    24455663.740
      1262.712         983.936          43.100          39.400    95969239.937 7
  24455671.400         942.944          46.100


 111468188.285 8  86858290.50947  21211710.360                    21211713.760
     -2397.681       -1868.326          49.300          46.550



 120090430.252 7  93577053.04046  22852418.020                    22852423.880
      2999.760        2337.479          45.100          39.400



 133303970.121 6 103873268.94646  25366901.160                    25366912.200
      -404.591        -315.255          37.000          36.250    99545228.831 7
  25366914.780        -302.242          44.950


 109712823.684 8  85490578.69348  20877640.280                    20877645.540
     -1197.135        -932.836          50.850          50.900    81928487.457 9
  20877647.800        -893.958          55.850


 23 11  5 12 21 30.0000000  0 12G05G07G08G11G13G14G15G18G20G22G27G30
 108229147.492 8  84334381.35248  20595328.820                    20595331.660
       -25.745         -20.062          50.600          50.700



 119360417.020 7  93008147.12947  22713531.060                    22713536.280
     -2517.010       -1961.313          47.750          47.850



 132439786.741 6 103199863.85546  25202453.780                    25202470.300
      1255.313         978.165          37.350          36.950    98899907.183 7
  25202474.800         937.395          44.400


 134077633.188 6 104476019.11446  25514178.500                    25514194.120
     -3482.167       -2713.394          38.800          37.750   100122858.249 6
  25514203.680       -2600.349          40.750


 108464520.115 8  84517845.69447  20640103.660                    20640106.800
      1752.990        1365.968          51.000          47.050



 116135263.151 8  90495097.16747  22099774.720                    22099781.000
      2331.466        1816.728          48.300          46.150    86724505.204 8
  22099786.340        1740.980          50.850


 123269770.025 7  96054405.83047  23457458.440                    23457468.580
      3452.450        2690.226          44.750          43.200



 128477677.518 7 100112503.55946  24448497.260                    24448506.640
      1244.319         969.601          42.650          40.050    95941155.403 7
  24448514.620         929.161          46.000


 111540347.222 8  86914518.11747  21225441.760                    21225445.380
     -2413.165       -1880.393          49.500          46.200



 120000580.987 7  93507040.72246  22835320.260                    22835326.100
      2989.995        2329.869          45.650          39.750



 133316399.526 6 103882954.48746  25369266.240                    25369277.040
      -423.944        -330.340          39.800          36.650    99554510.896 7
  25369279.820        -316.639          42.650


 109748938.233 8  85518719.82248  20884512.560                    20884517.960
     -1210.656        -943.372          50.650          50.650    81955456.013 9
  20884520.320        -904.088          55.850


 23 11  5 12 22  0.0000000  0 12G05G07G08G11G13G14G15G18G20G22G27G30
 108230221.432 8  84335218.15248  20595533.160                    20595536.280
       -46.335         -36.106          50.400          50.400



 119436018.672 8  93067057.30448  22727917.640                    22727923.000
     -2523.467       -1966.344          48.000          48.150



 132402357.275 6 103170698.04646  25195331.220                    25195347.800
      1239.490         965.838          37.550          37.500    98871956.647 7
  25195352.160         925.545          45.300


 134182057.903 6 104557388.68845  25534050.060                    25534066.220
     -3479.425       -2711.262          39.000          34.400   100200837.289 7
  25534075.820       -2598.542          44.250


 108412082.799 8  84476985.47047  20630125.120                    20630128.200
      1742.435        1357.742          50.900          46.900



 116065526.319 8  90440756.80747  22086504.240                    22086510.380
      2317.273        1805.668          48.900          45.900    86672429.031 8
  22086515.760        1730.374          51.300


 123166244.389 7  95973736.65847  23437757.960                    23437768.060
      3448.687        2687.294          45.200          42.050



 128440619.673 7 100083627.32446  24441445.300                    24441454.800
      1226.001         955.327          42.300          38.150    95913482.334 7
  24441462.740         915.365          46.300


 111612966.415 8  86971104.36047  21239260.860                    21239264.620
     -2428.492       -1892.336          49.550          45.800



 119911016.417 7  93437250.24646  22818276.680                    22818282.560
      2980.621        2322.564          45.050          39.450



 133329399.104 6 103893084.32245  25371740.020                    25371750.500
      -443.014        -345.193          40.800          33.950    99564218.738 6
  25371753.160        -330.772          41.750


 109785455.697 8  85547174.90548  20891461.560                    20891467.000
     -1224.116        -953.859          50.850          50.750    81982725.450 9
  20891469.360        -914.149          55.850


 23 11  5 12 22 30.0000000  0 12G05G07G08G11G13G14G15G18G20G22G27G30
 108231915.981 8  84336538.55348  20595855.580                    20595858.920
       -66.684         -51.962          50.600          50.700



 119511821.962 7  93126124.60248  22742342.640                    22742348.040
     -2530.010       -1971.441          47.950          48.050



 132365410.376 6 103141908.29846  25188300.600                    25188317.540
      1223.600         953.456          38.600          38.800    98844366.460 7
  25188321.500         913.722          45.000


 134286403.847 6 104638696.81246  25553906.600                    25553923.240
     -3477.352       -2709.638          37.350          36.600   100278757.445 7
  25553932.600       -2596.277          43.800


 108359969.692 8  84436377.88547  20620208.280                    20620211.420
      1731.742        1349.410          51.100          46.800



 115996221.198 8  90386752.84347  22073315.840                    22073321.800
      2303.007        1794.551          48.900          45.350    86620675.231 8
  22073327.200        1719.775          50.900


 123062836.489 7  95893159.23246  23418079.940                    23418089.960
      3444.896        2684.340          45.200          41.400



 128404122.608 6 100055188.11446  24434499.760                    24434509.640
      1207.365         940.809          41.500          40.850    95886228.107 7
  24434517.600         901.494          46.350


 111686052.037 8  87028054.05447  21253168.760                    21253172.540
     -2443.798       -1904.264          49.600          46.000



 119821747.406 7  93367690.06446  22801289.280                    22801294.940
      2970.732        2314.859          46.050          40.000



 133342976.405 6 103903664.19044  25374323.500                    25374333.660
      -461.429        -359.558          38.300          29.750    99574357.828 6
  25374336.140        -344.931          39.850


 109822382.750 8  85575949.14448  20898488.460                    20898493.980
     -1237.714        -964.456          50.850          50.900    82010300.739 9
  20898496.140        -924.227          55.350


 23 11  5 12 23  0.0000000  0 12G05G07G08G11G13G14G15G18G20G22G27G30
 108234224.592 8  84338337.43848  20596294.820                    20596298.200
       -87.129         -67.894          50.250          50.050



 119587818.559 7  93185342.49247  22756804.360                    22756810.020
     -2536.451       -1976.463          47.750          47.750



 132328941.221 6 103113490.86346  25181360.860                    25181377.960
      1207.313         940.769          36.800          36.300    98817133.100 7
  25181381.880         901.822          44.650


 134390661.197 6 104719935.91545  25573746.340                    25573762.820
     -3473.510       -2706.639          38.150          33.400   100356611.534 7
  25573772.320       -2594.078          43.250


 108308174.930 8  84396018.35847  20610352.020                    20610355.240
      1721.188        1341.187          50.900          46.900



 115927343.086 8  90333081.61347  22060208.660                    22060214.500
      2288.828        1783.502          48.600          45.300    86569240.314 8
  22060220.140        1709.110          50.850


 122959540.430 7  95812668.94846  23398423.220                    23398433.180
      3441.345        2681.574          45.000          41.200



 128368180.188 6 100027181.12446  24427659.820                    24427670.360
      1188.878         926.400          41.800          40.550    95859388.097 7
  24427677.920         887.669          46.400


 111759594.887 8  87085360.04647  21267163.700                    21267167.400
     -2458.997       -1916.105          49.550          46.050



 119732769.655 7  93298356.84846  22784357.400                    22784363.340
      2961.059        2307.322          46.700          39.150



 133357124.146 6 103914688.55946  25377015.540                    25377025.500
      -480.667        -374.544          37.300          36.050    99584922.815 7
  25377028.420        -359.242          42.900


 109859710.833 8  85605035.87048  20905591.760                    20905597.340
     -1250.884        -974.717          50.700          50.800    82038175.508 9
  20905599.240        -934.192          55.150


 23 11  5 12 23 30.0000000  0 12G05G07G08G11G13G14G15G18G20G22G27G30
 108237152.668 8  84340619.02548  20596851.940                    20596855.200
      -107.902         -84.081          50.300          50.550



 119664012.077 7  93244713.83847  22771303.640                    22771309.380
     -2542.974       -1981.546          46.400          46.300



 132292956.888 5 103085451.22445  25174512.960                    25174530.540
      1191.228         928.231          35.600          35.850    98790261.778 7
  25174534.080         889.877          43.300


 134494832.795 6 104801108.11545  25593569.880                    25593586.320
     -3471.117       -2704.784          38.250          35.600   100434401.480 6
  25593595.860       -2591.769          41.800


 108256704.651 8  84355911.68047  20600557.440                    20600560.820
      1710.232        1332.649          50.950          46.900



 115858899.756 7  90279749.16947  22047184.100                    22047190.000
      2274.214        1772.116          47.600          46.400    86518130.047 8
  22047195.740        1698.389          50.900


 122856363.145 7  95732271.19046  23378789.080                    23378798.980
      3437.164        2678.314          45.200          40.600



 128332798.952 7  99999611.40146  24420926.740                    24420937.840
      1170.177         911.826          42.800          41.100    95832967.122 7
  24420945.020         873.940          46.600


 111833598.304 8  87143024.90747  21281246.340                    21281249.940
     -2474.285       -1928.020          50.100          45.950



 119644091.357 7  93229256.94946  22767482.520                    22767488.460
      2950.930        2299.427          46.250          40.250



 133371847.575 5 103926161.45245  25379817.040                    25379827.260
      -500.082        -389.672          34.950          33.300    99595917.674 6
  25379830.300        -373.362          41.500


 109897443.930 8  85634438.19748  20912772.260                    20912777.860
     -1264.469        -985.303          51.450          51.450    82066352.708 9
  20912779.600        -944.092          55.150


 23 11  5 12 24  0.0000000  0 12G05G07G08G11G13G14G15G18G20G22G27G30
 108240698.703 8  84343382.14348  20597526.780                    20597529.760
      -128.451        -100.094          50.200          50.050



 119740398.540 7  93304235.52547  22785839.700                    22785845.680
     -2549.336       -1986.504          47.250          47.050



 132257456.682 5 103057788.80045  25167757.100                    25167775.000
      1175.798         916.214          34.100          33.800    98763752.026 7
  25167778.120         877.781          43.150


 134598913.970 6 104882209.92645  25613376.320                    25613392.840
     -3467.655       -2702.086          39.200          33.750   100512123.944 7
  25613402.140       -2589.530          44.150


 108205557.671 8  84316056.91647  20590824.400                    20590827.940
      1699.567        1324.339          50.600          47.600



 115790891.604 7  90226755.81847  22034242.400                    22034248.200
      2259.885        1760.950          47.050          46.700    86467344.765 8
  22034254.360        1687.526          51.200


 122753304.301 7  95651965.69846  23359177.520                    23359187.100
      3433.303        2675.304          44.900          39.550



 128297977.668 7  99972477.99847  24414300.280                    24414311.880
      1151.275         897.100          42.850          42.050    95806964.307 7
  24414318.680         859.880          47.050


 111908058.289 8  87201045.53947  21295415.820                    21295419.340
     -2489.487       -1939.865          49.600          46.550



 119555713.311 7  93160391.02546  22750664.700                    22750670.820
      2941.015        2291.703          45.600          41.500



 133387143.838 6 103938080.67545  25382727.780                    25382737.960
      -519.634        -404.904          36.900          35.950    99607340.267 7
  25382741.040        -387.732          44.050


 109935578.568 8  85664153.40648  20920029.200                    20920034.860
     -1277.799        -995.690          51.450          51.400    82094829.762 9
  20920036.560        -954.095          55.400


 23 11  5 12 24 30.0000000  0 12G05G07G08G11G13G14G15G18G20G22G27G30
 108244856.779 8  84346622.16148  20598318.180                    20598320.820
      -149.159        -116.229          50.950          50.950



 119816970.642 7  93363901.84847  22800411.060                    22800417.080
     -2555.737       -1991.491          46.750          46.900



 132222436.655 5 103030500.54245  25161092.840                    25161110.400
      1159.226         903.299          35.650          35.650    98737600.805 7
  25161113.680         865.395          42.800


 134702895.969 6 104963234.44546  25633163.920                    25633180.260
     -3464.807       -2699.866          40.850          38.800   100589772.304 7
  25633189.760       -2587.251          45.100


 108154728.577 8  84276449.85647  20581151.940                    20581155.620
      1688.570        1315.771          50.950          46.900



 115723314.623 7  90174098.45347  22021382.760                    22021388.700
      2245.104        1749.432          47.250          45.600    86416881.452 8
  22021395.020        1676.467          51.200


 122650358.928 7  95571748.64346  23339587.500                    23339597.040
      3429.518        2672.354          44.350          40.000



 128263711.358 7  99945777.05146  24407779.660                    24407791.540
      1132.722         882.644          43.400          40.850    95781375.907 7
  24407798.020         845.749          47.100


 111982965.945 8  87259415.00447  21309670.440                    21309673.980
     -2504.727       -1951.739          49.650          45.650



 119467632.069 7  93091756.38446  22733903.300                    22733909.620
      2930.650        2283.626          46.350          41.200



 133403006.081 6 103950440.76245  25385746.280                    25385756.640
      -538.405        -419.537          36.600          35.650    99619185.335 7
  25385759.540        -402.067          43.750


 109974106.999 8  85694175.46948  20927361.120                    20927366.700
     -1291.124       -1006.073          51.700          52.000    82123600.896 9
  20927368.540        -964.171          55.250


 23 11  5 12 25  0.0000000  0 12G05G07G08G11G13G14G15G18G20G22G27G30
 108249636.478 8  84350346.55048  20599227.940                    20599230.360
      -169.553        -132.121          50.750          50.700



 119893736.618 7  93423719.24447  22815019.160                    22815025.600
     -2561.860       -1996.264          45.650          45.700



 132187908.684 6 103003595.67846  25154522.200                    25154539.560
      1142.202         890.031          37.050          37.200    98711816.964 7
  25154543.000         853.487          42.900


 134806785.471 6 105044186.84546  25652933.860                    25652949.940
     -3461.418       -2697.225          38.500          37.800   100667351.601 7
  25652959.560       -2584.722          43.900


 108104228.299 8  84237099.01847  20571542.100                    20571545.740
      1678.001        1307.534          51.000          47.200



 115656180.941 7  90121786.49647  22008607.560                    22008613.620
      2230.536        1738.080          47.000          46.450    86366749.172 8
  22008620.180        1665.602          51.450


 122547538.502 7  95491628.93946  23320021.260                    23320031.000
      3425.391        2669.138          44.300          40.900



 128230010.820 7  99919516.93746  24401366.740                    24401378.600
      1113.968         868.028          42.950          41.350    95756209.971 7
  24401385.100         831.852          47.150


 112058329.018 8  87318139.33247  21324011.640                    21324015.300
     -2519.513       -1963.262          49.200          46.000



 119379859.805 7  93023362.48347  22717200.520                    22717207.300
      2920.831        2275.975          45.400          43.400



 133419444.160 6 103963249.77145  25388874.580                    25388884.660
      -557.245        -434.219          39.550          35.250    99631460.736 7
  25388887.620        -416.396          42.500


 110013037.494 8  85724510.83048  20934769.560                    20934774.900
     -1304.241       -1016.295          51.550          51.650    82152672.262 9
  20934777.040        -973.958          55.050


 23 11  5 12 25 30.0000000  0 12G05G07G08G11G13G14G15G18G20G22G27G30
 108255034.563 8  84354552.80448  20600255.220                    20600257.700
      -191.100        -148.910          50.750          50.750



 119970691.134 7  93483683.55847  22829663.160                    22829669.880
     -2568.983       -2001.812          45.800          45.200



 132153870.274 6 102977072.35446  25148044.700                    25148062.160
      1125.704         877.174          37.300          37.150    98686398.820 7
  25148065.420         840.632          42.800


 134910576.663 5 105125062.61945  25672685.040                    25672700.980
     -3459.212       -2695.508          35.000          31.350   100744857.435 7
  25672710.480       -2582.867          42.200


 108054053.853 8  84198002.06647  20561994.400                    20561997.820
      1666.332        1298.440          51.800          47.350



 115589489.427 7  90069819.08847  21995916.560                    21995922.760
      2214.939        1725.926          47.600          46.150    86316947.074 8
  21995929.400        1654.023          51.950


 122444840.710 7  95411604.82146  23300478.460                    23300488.360
      3420.452        2665.292          43.850          41.550



 128196873.444 7  99893695.67146  24395060.840                    24395072.500
      1094.583         852.923          42.600          40.150    95731464.598 7
  24395079.360         817.365          47.750


 112134142.027 8  87377214.26947  21338438.360                    21338442.060
     -2535.320       -1975.579          48.950          45.550



 119292396.188 7  92955209.08347  22700556.560                    22700563.640
      2909.562        2267.192          45.600          42.200



 133436453.604 6 103976503.95546  25392111.320                    25392121.440
      -577.335        -449.870          39.200          36.600    99644162.683 7
  25392124.660        -431.252          43.150


 110052365.218 8  85755155.71748  20942253.520                    20942258.700
     -1318.238       -1027.202          51.350          51.350    82182040.258 9
  20942260.960        -984.370          55.100


 23 11  5 12 26  0.0000000  0 12G05G07G08G11G13G14G15G18G20G22G27G30
 108261052.486 8  84359242.05348  20601400.360                    20601403.060
      -210.979        -164.400          50.400          50.400



 120047833.412 7  93543794.18147  22844342.900                    22844350.140
     -2574.634       -2006.216          45.600          45.750



 132120324.632 6 102950932.98146  25141661.340                    25141678.100
      1110.031         864.961          37.700          38.100    98661348.618 7
  25141681.760         828.784          42.700


 135014268.510 6 105205860.93746  25692416.840                    25692433.420
     -3454.622       -2691.925          38.650          37.550   100822289.045 7
  25692442.840       -2579.849          45.050


 108004207.335 8  84159160.63447  20552509.100                    20552512.340
      1656.090        1290.461          51.850          47.200



 115523243.523 7  90018198.91947  21983310.380                    21983316.860
      2200.625        1714.773          47.950          46.300    86267477.749 8
  21983323.480        1643.370          51.850


 122342268.346 7  95331678.40746  23280959.540                    23280969.440
      3416.733        2662.395          44.500          40.950



 128164301.649 7  99868315.14546  24388862.640                    24388873.940
      1076.218         838.616          43.250          41.700    95707141.622 7
  24388881.400         803.625          47.950


 112210403.856 8  87436638.92947  21352950.500                    21352954.260
     -2549.629       -1986.729          49.350          45.650



 119205244.890 7  92887299.05047  22683971.960                    22683979.340
      2899.618        2259.445          45.100          42.250



 133454035.053 6 103990203.88046  25395456.880                    25395466.840
      -595.936        -464.372          38.250          36.400    99657291.762 6
  25395470.120        -444.895          41.850


 110092089.776 8  85786109.84248  20949812.920                    20949818.020
     -1330.817       -1037.004          51.400          51.550    82211704.612 9
  20949820.280        -993.786          54.700


 23 11  5 12 26 30.0000000  0 12G05G07G08G11G13G14G15G18G20G22G27G30
 108267685.722 8  84364410.77248  20602662.480                    20602665.400
      -231.594        -180.464          50.050          49.900



 120125157.925 7  93604046.81547  22859057.380                    22859064.860
     -2580.772       -2010.999          45.650          45.550



 132087268.669 6 102925175.09846  25135371.240                    25135387.580
      1093.477         852.059          36.600          36.650    98636663.975 6
  25135391.340         816.566          41.400


 135117853.076 5 105286575.63745  25712128.820                    25712145.180
     -3450.884       -2689.024          33.000          32.350   100899640.522 7
  25712154.840       -2577.187          42.800


 107954685.189 8  84120571.95347  20543085.380                    20543088.480
      1645.124        1281.915          51.450          47.150



 115457441.059 7  89966924.27447  21970788.700                    21970795.220
      2185.637        1703.094          47.650          46.250    86218339.556 8
  21970801.840        1632.253          52.050


 122239818.547 7  95251847.49246  23261464.000                    23261473.820
      3412.823        2659.347          44.650          41.500



 128132291.515 7  99843372.25346  24382771.260                    24382782.040
      1057.418         823.964          43.350          41.900    95683238.019 7
  24382790.180         789.672          47.650


 112287107.928 8  87496408.18847  21367546.760                    21367550.360
     -2564.380       -1998.223          48.850          45.350



 119118404.386 7  92819631.17447  22667446.660                    22667454.160
      2889.163        2251.298          45.050          42.050



 133472183.402 6 104004345.41545  25398910.300                    25398919.980
      -614.645        -478.950          37.200          34.450    99670844.085 6
  25398923.500        -458.919          38.200


 110132205.172 8  85817368.49848  20957446.700                    20957451.760
     -1344.077       -1047.336          51.450          51.650    82241660.804 9
  20957453.980       -1003.541          54.700


 23 11  5 12 27  0.0000000  0 12G05G07G08G11G13G14G15G18G20G22G27G30
 108274936.531 8  84370060.70948  20604042.220                    20604045.240
      -251.657        -196.098          50.300          50.000



 120202665.339 7  93664441.96747  22873806.820                    22873814.420
     -2586.045       -2015.106          46.800          46.650



 132054706.118 6 102899801.66946  25129175.000                    25129191.340
      1077.842         839.876          36.850          36.400    98612347.761 7
  25129195.240         804.642          42.050


 135221330.266 6 105367206.65245  25731820.340                    25731836.960
     -3446.909       -2685.926          36.400          30.350   100976911.775 6
  25731846.340       -2574.044          41.700


 107905489.860 8  84082237.93847  20533723.860                    20533726.780
      1634.664        1273.765          51.800          47.000



 115392086.193 8  89915998.43147  21958352.200                    21958358.860
      2171.354        1691.965          48.200          46.350    86169535.629 8
  21958365.300        1621.528          52.000


 122137494.564 7  95172114.61646  23241992.480                    23242001.900
      3408.955        2656.333          44.950          40.750



 128100846.092 7  99818869.38846  24376787.380                    24376797.900
      1039.153         809.732          43.350          41.150    95659756.121 7
  24376806.700         776.045          47.900


 112364254.053 8  87556521.90947  21382227.240                    21382230.740
     -2578.616       -2009.315          49.350          44.850



 119031879.194 7  92752208.99646  22650981.480                    22650988.820
      2879.303        2243.613          46.100          41.400



 133490899.886 6 104018929.59145  25402472.100                    25402481.420
      -632.801        -493.085          37.900          32.200    99684820.553 6
  25402484.960        -472.616          40.200


 110172711.831 8  85848932.03748  20965154.940                    20965160.060
     -1356.467       -1056.991          51.400          51.600    82271909.183 9
  20965162.180       -1012.869          54.750


 23 11  5 12 27 30.0000000  0 12G05G07G08G11G13G14G15G18G20G22G27G30
 108282808.072 8  84376194.33948  20605540.300                    20605543.120
      -272.573        -212.396          50.650          50.650



 120280357.205 7  93724980.86247  22888591.520                    22888598.920
     -2592.562       -2020.186          46.550          46.650



 132022642.887 6 102874817.17246  25123073.740                    25123090.120
      1060.301         826.202          36.900          36.650    98588404.254 7
  25123094.120         791.793          42.750


 135324701.291 6 105447754.91946  25751491.940                    25751507.940
     -3443.682       -2683.409          38.200          37.200   101054103.795 7
  25751517.420       -2571.757          44.250


 107856626.349 8  84044162.48947  20524425.340                    20524428.400
      1623.300        1264.910          50.800          47.800



 115327185.181 8  89865426.24047  21946002.120                    21946008.540
      2155.905        1679.927          48.250          46.300    86121070.630 8
  21946015.060        1609.817          51.900


 122035301.981 7  95092484.13846  23222545.880                    23222555.120
      3404.139        2652.580          45.450          40.600



 128069970.310 7  99794810.43946  24370911.840                    24370922.280
      1019.730         794.601          43.100          41.100    95636699.648 7
  24370931.200         761.445          47.150


 112441843.519 8  87616981.05347  21396992.100                    21396995.360
     -2593.703       -2021.073          49.200          45.200



 118945676.002 7  92685037.73146  22634577.640                    22634584.780
      2868.303        2235.042          46.250          41.300



 133510188.486 6 104033959.75645  25406142.680                    25406152.100
      -652.211        -508.200          38.200          33.650    99699224.432 7
  25406155.820        -487.257          43.000


 110213612.235 8  85880802.38548  20972938.100                    20972943.400
     -1369.872       -1067.436          51.200          51.100    82302451.587 9
  20972945.400       -1023.005          54.850


 23 11  5 12 28  0.0000000  0 12G05G07G08G11G13G14G15G18G20G22G27G30
 108291295.559 8  84382807.91448  20607155.600                    20607158.300
      -293.321        -228.563          51.100          51.200



 120358226.846 7  93785658.29547  22903410.160                    22903417.380
     -2598.700       -2024.969          47.650          47.000



 131991075.164 6 102850218.75346  25117066.840                    25117083.400
      1043.679         813.251          37.500          37.100    98564830.719 6
  25117087.260         779.625          41.800


 135427958.119 6 105528214.19845  25771141.400                    25771157.700
     -3439.826       -2680.406          39.350          35.550   101131210.451 6
  25771166.800       -2568.834          41.850


 107808090.520 8  84006342.37747  20515189.140                    20515192.400
      1612.178        1256.243          51.350          47.200



 115262734.922 8  89815205.29447  21933737.760                    21933744.040
      2140.674        1668.059          48.950          46.050    86072942.222 8
  21933750.520        1598.582          51.800


 121933237.011 7  95012953.11646  23203123.480                    23203132.740
      3399.933        2649.302          45.600          40.400



 128039659.733 7  99771191.88846  24365143.920                    24365154.300
      1000.896         779.919          43.850          40.600    95614065.230 7
  24365162.820         747.360          47.200


 112519869.017 8  87677779.99647  21411840.020                    21411843.200
     -2608.182       -2032.355          49.150          45.050



 118859792.414 7  92618115.50146  22618234.700                    22618241.520
      2857.389        2226.539          46.900          41.650



 133530043.255 6 104049431.41146  25409921.020                    25409930.300
      -671.311        -523.082          40.300          36.700    99714051.573 7
  25409933.940        -501.236          44.700


 110254899.545 8  85912974.21748  20980794.880                    20980800.320
     -1382.547       -1077.312          51.800          51.700    82333282.904 9
  20980802.200       -1032.559          54.850


 23 11  5 12 28 30.0000000  0 12G05G07G08G11G13G14G15G18G20G22G27G30
 108300402.951 8  84389904.52748  20608888.840                    20608891.460
      -314.024        -244.696          50.600          50.650



 120436276.107 8  93846475.69748  22918262.900                    22918269.720
     -2604.663       -2029.613          48.050          48.300



 131960007.334 6 102826009.83146  25111155.260                    25111171.760
      1026.720         800.032          37.750          37.300    98541630.461 7
  25111175.140         766.868          42.600


 135531101.435 5 105608585.10545  25790769.560                    25790785.760
     -3436.038       -2677.443          34.050          32.300   101208232.449 6
  25790794.660       -2566.350          39.600


 107759885.686 8  83968780.18148  20506015.960                    20506019.320
      1601.124        1247.630          50.600          48.400



 115198740.618 8  89765339.62947  21921560.180                    21921566.120
      2125.295        1656.075          48.650          46.500    86025154.295 8
  21921572.620        1587.071          52.000


 121831304.294 7  94933525.17046  23183726.240                    23183735.700
      3395.225        2645.635          44.700          41.900



 128009917.901 7  99748016.43846  24359484.320                    24359495.020
       981.676         764.940          42.750          41.900    95591855.416 7
  24359502.420         733.063          46.950


 112598331.084 8  87738919.10047  21426771.120                    21426774.280
     -2622.866       -2043.798          49.200          45.800



 118774233.728 7  92551446.43047  22601953.680                    22601960.000
      2846.317        2217.910          46.900          42.400



 133550465.632 6 104065345.21746  25413807.180                    25413816.420
      -690.559        -538.087          40.550          39.800    99729302.338 7
  25413819.760        -515.612          45.400


 110296575.237 8  85945448.68248  20988725.560                    20988731.160
     -1395.684       -1087.549          51.050          50.950    82364404.237 9
  20988732.840       -1042.354          55.200


 23 11  5 12 29  0.0000000  0 12G05G07G08G11G13G14G15G18G20G22G27G30
 108310130.583 8  84397484.45048  20610739.940                    20610742.720
      -334.217        -260.431          50.750          50.750



 120514504.719 7  93907432.85847  22933149.660                    22933156.140
     -2610.091       -2033.844          47.900          47.950



 131929442.581 6 102802192.80346  25105339.500                    25105355.600
      1011.189         787.932          38.850          39.250    98518805.766 6
  25105358.580         754.834          41.800


                                  25810378.400
     -3432.097                          34.250                   101285169.021 6
  25810401.040       -2562.755          41.750


 107712014.746 8  83931478.16048  20496906.240                    20496909.840
      1590.446        1239.309          50.300          48.300



 115135206.173 8  89715832.28547  21909470.100                    21909475.540
      2110.569        1644.600          49.000          45.750    85977709.769 8
  21909482.320        1575.984          52.000


 121729506.580 7  94854202.40547  23164354.580                    23164364.320
      3391.422        2642.672          43.900          42.200



 127980747.541 7  99725286.33246  24353933.380                    24353944.260
       963.099         750.467          43.500          41.950    95570072.416 7
  24353950.740         719.178          46.700


 112677229.212 8  87800397.99547  21441785.220                    21441788.440
     -2636.812       -2054.663          49.600          45.350



 118689004.641 7  92485034.21646  22585735.200                    22585741.340
      2835.840        2209.746          47.800          41.700



 133571456.955 5 104081702.43045  25417801.540                    25417810.660
      -708.852        -552.341          35.750          33.300    99744978.059 6
  25417813.900        -529.348          40.800


 110338639.468 8  85978225.89448  20996730.200                    20996735.860
     -1408.212       -1097.312          51.050          51.100    82395815.703 9
  20996737.480       -1051.628          55.250


 23 11  5 12 29 30.0000000  0 12G05G07G08G11G13G14G15G18G20G22G27G30
 108320480.723 8  84405549.43848  20612709.400                    20612712.480
      -355.587        -277.083          50.600          50.700



 120592913.001 7  93968530.00247  22948070.480                    22948076.540
     -2616.861       -2039.120          47.250          47.250



 131899385.181 6 102778771.09946  25099620.060                    25099636.120
       993.344         774.022          39.650          39.650    98496359.899 6
  25099638.580         741.700          41.100


                                  25829959.700                    25829978.220
     -3428.903       -2671.910          37.400          35.250   101362019.735 7
  25829985.460       -2560.407          45.800


 107664480.196 8  83894438.26847  20487860.600                    20487864.480
      1578.635        1230.105          51.300          47.600



 115072135.600 8  89666686.40147  21897468.160                    21897473.420
      2094.394        1631.995          49.200          45.450    85930611.626 8
  21897480.140        1563.958          51.600


 121627847.490 7  94774987.67747  23145009.300                    23145019.120
      3386.341        2638.714          44.000          42.550



 127952151.382 7  99703003.63246  24348491.800                    24348502.600
       943.178         734.943          44.000          41.650    95548718.169 7
  24348508.580         704.501          46.200


 112756562.874 8  87862216.26547  21456882.180                    21456885.560
     -2651.984       -2066.487          49.800          45.800



 118604109.412 7  92418882.13846  22569580.260                    22569586.200
      2824.027        2200.543          47.200          41.900



 133593018.260 5 104098503.93945  25421904.100                    25421913.460
      -728.701        -567.812          30.200          30.850    99761079.558 6
  25421916.340        -543.969          38.200


 110381092.556 8  86011306.10648  21004808.860                    21004814.400
     -1421.761       -1107.869          52.050          52.200    82427517.546 9
  21004816.100       -1061.674          54.750


 23 11  5 12 30  0.0000000  0 12G05G07G08G11G13G14G15G18G20G22G27G30
 108331442.314 8  84414090.88948  20614795.260                    20614798.600
      -375.569        -292.653          50.650          50.550



 120671488.415 7  94029757.37047  22963022.920                    22963028.980
     -2621.940       -2043.078          47.750          47.800



 131869825.709 6 102755737.48246  25093995.260                    25094011.280
       977.061         761.338          38.600          38.350    98474285.933 6
  25094013.140         729.652          40.000


                                  25849521.100
     -3424.217                          36.250                   101438774.792 6
  25849545.700       -2556.666          39.250


 107617272.024 8  83857652.69948  20478877.180                    20478881.200
      1568.248        1222.013          51.050          48.300



 115009520.073 8  89617895.09847  21885552.740                    21885557.740
      2079.509        1620.397          49.050          45.250    85883853.290 8
  21885564.700        1553.003          51.750


 121526317.483 7  94695873.51946  23125688.600                    23125698.660
      3382.136        2635.437          44.700          41.350



 127924119.100 7  99681160.34646  24343157.380                    24343168.040
       925.153         720.901          43.600          41.100    95527785.014 7
  24343173.780         690.884          46.400


 112836318.853 8  87924363.61447  21472059.520                    21472063.020
     -2665.405       -2076.943          49.700          45.450



 118519539.882 8  92352983.86346  22553487.260                    22553493.140
      2813.617        2192.432          48.000          41.550



                                  25426112.840
      -746.627                          30.200                    99777597.481 5
  25426124.900        -557.701          32.850


 110423921.928 8  86044679.53648  21012959.220                    21012964.500
     -1433.951       -1117.368          52.400          52.450    82459500.387 9
  21012966.180       -1070.706          54.750


 23 11  5 12 30 30.0000000  0 12G05G07G08G11G13G14G15G18G20G22G27G30
 108343029.964 8  84423120.16748  20617000.360                    20617003.800
      -395.888        -308.486          50.800          51.050



 120750244.207 7  94091125.31347  22978009.700                    22978015.720
     -2627.440       -2047.362          47.400          47.250



 131840779.972 6 102733104.24746  25088468.020                    25088484.380
       960.341         748.313          38.550          38.200    98452595.680 6
  25088486.280         716.929          40.950


 135942810.891 6 105929544.62845  25869058.120                    25869075.720
     -3419.700       -2664.726          39.200          35.550   101515443.413 7
  25869084.040       -2553.724          43.350


 107570405.797 8  83821133.57648  20469958.920                    20469962.980
      1557.109        1213.332          50.900          48.550



 114947376.546 8  89569471.59547  21873727.100                    21873732.160
      2064.214        1608.479          48.800          45.400    85837447.441 8
  21873739.040        1541.388          51.850


 121424933.035 7  94616872.79247  23106395.700                    23106405.840
      3377.905        2632.139          44.650          43.200



 127896666.243 7  99659768.53846  24337932.980                    24337943.760
       906.269         706.185          42.150          41.200    95507284.545 7
  24337949.780         676.595          46.850


 112916509.498 8  87986849.65647  21487319.420                    21487323.220
     -2679.522       -2087.944          49.700          45.550



 118435313.742 7  92287353.14947  22537459.500                    22537465.300
      2802.585        2183.833          47.700          42.200



 133637814.527 5                  25430430.660
      -765.505                          31.700                    99794521.614 5
  25430442.580        -571.468          35.200


 110467140.853 8  86078356.51448  21021183.760                    21021188.800
     -1446.378       -1127.051          51.900          51.950    82491774.148 9
  21021190.420       -1080.265          54.750


 23 11  5 12 31  0.0000000  0 12G05G07G08G11G13G14G15G18G20G22G27G30
 108355227.332 8  84432624.55348  20619321.580                    20619324.920
      -417.096        -325.012          51.200          51.250



 120829162.945 7  94152620.18147  22993027.300                    22993033.640
     -2633.606       -2052.170          47.150          46.800



 131812233.453 6 102710860.09846  25083035.940                    25083051.860
       942.784         734.637          37.850          38.250    98431278.337 6
  25083054.760         703.988          41.800


 136045354.971 5 106009434.44245  25888570.480                    25888587.300
     -3415.887       -2661.747          34.300          32.350   101592011.083 6
  25888596.840       -2550.940          36.300


 107523865.823 8  83784868.67647  20461102.860                    20461106.660
      1545.591        1204.355          51.850          47.800



 114885690.980 8  89521404.94247  21861988.600                    21861993.720
      2048.114        1595.934          48.800          45.750    85791383.567 8
  21862000.620        1529.428          51.750


 121323679.847 7  94537974.35747  23087127.760                    23087138.020
      3372.896        2628.237          44.050          43.400



 127869777.353 6  99638816.19446  24332815.600                    24332826.620
       886.377         690.685          40.650          40.550    95487205.219 7
  24332833.520         662.048          47.200


 112997116.461 8  88049660.10647  21502658.560                    21502662.560
     -2694.053       -2099.267          49.600          46.100



 118351417.805 7  92221979.73147  22521494.660                    22521500.520
      2790.725        2174.593          47.800          42.350



 133661061.729 5 104151505.95845  25434854.140                    25434863.080
      -784.317        -611.126          34.050          34.050    99811882.137 7
  25434865.940        -585.854          42.600


 110510731.609 8  86112323.23248  21029478.940                    21029483.860
     -1459.441       -1137.230          51.750          51.650    82524325.573 9
  21029485.540       -1090.006          54.850


 23 11  5 12 31 30.0000000  0 11G05G07G08G13G14G15G18G20G22G27G30
 108368049.958 8  84442616.13748  20621761.780                    20621764.920
      -437.783        -341.132          50.950          50.950



 120908258.289 7  94214252.68247  23008078.620                    23008085.340
     -2639.280       -2056.590          47.950          47.750



 131784203.640 6 102689018.74746  25077702.300                    25077717.980
       925.578         721.235          38.950          38.550    98410347.065 7
  25077721.660         691.290          42.950


 107477668.804 8  83748871.01247  20452312.060                    20452315.420
      1534.376        1195.619          51.650          47.950



 114824481.217 8  89473709.05247  21850340.720                    21850346.040
      2032.463        1583.738          48.900          46.050    85745675.000 8
  21850352.640        1517.703          51.550


 121222574.770 7  94459191.36247  23067887.840                    23067898.400
      3367.650        2624.149          43.550          43.600



 127843468.883 6  99618316.14846  24327808.760                    24327820.000
       867.505         675.980          40.250          40.150    95467559.370 7
  24327827.560         647.679          47.050


 113078153.007 8  88112805.29747  21518079.400                    21518083.500
     -2708.348       -2110.406          49.750          45.450



 118267869.854 8  92156877.52547  22505596.040                    22505601.780
      2779.124        2165.553          48.200          42.700



 133684878.819 5 104170065.34845  25439385.700                    25439396.060
      -804.134        -626.586          33.050          32.350    99829668.369 6
  25439397.560        -599.969          41.550


 110554708.381 8  86146590.75748  21037847.420                    21037852.380
     -1472.391       -1147.321          51.200          50.950    82557165.249 9
  21037854.080       -1099.417          54.500


 23 11  5 12 32  0.0000000  0 11G05G07G08G13G14G15G18G20G22G27G30
 108381484.690 8  84453084.68848  20624318.340                    20624321.440
      -458.495        -357.271          50.250          50.250



 120987515.898 8  94276011.62448  23023161.000                    23023168.020
     -2645.022       -2061.063          48.600          48.650



 131756679.275 6 102667571.26346  25072464.620                    25072480.540
       908.600         708.003          38.550          38.400    98389793.274 7
  25072484.540         678.495          42.900


 107431802.873 8  83713131.31347  20443584.140                    20443587.100
      1522.877        1186.658          51.400          47.900



 114763736.399 8  89426375.44647  21838781.420                    21838786.780
      2016.601        1571.377          48.950          46.250    85700313.634 8
  21838793.120        1505.831          51.550


 121121606.476 7  94380514.94247  23048673.920                    23048684.700
      3362.590        2620.205          43.300          43.800



 127817728.571 6  99598258.83846  24322910.340                    24322921.600
       847.969         660.757          41.300          40.050    95448337.789 7
  24322929.780         633.303          47.600


 113159603.732 8  88176273.22247  21533579.100                    21533583.260
     -2722.288       -2121.270          48.950          45.900



 118184659.696 7  92092038.52547  22489761.660                    22489767.380
      2767.493        2156.490          47.750          43.000



 133709252.377 5 104189058.28045  25444023.080                    25444032.380
      -821.702        -640.259          32.450          32.150    99847870.135 6
  25444035.220        -614.082          41.900


 110599056.619 8  86181147.72948  21046286.540                    21046291.640
     -1485.037       -1157.175          50.800          50.800    82590282.327 9
  21046293.280       -1108.887          54.800


 23 11  5 12 32 30.0000000  0 11G05G07G08G13G14G15G18G20G22G27G30
 108395542.480 8  84464038.74248  20626993.360                    20626996.580
      -479.150        -373.365          49.850          50.200



 121066945.531 8  94337904.61948  23038276.200                    23038283.240
     -2650.459       -2065.300          48.750          48.750



 131729672.741 6 102646527.37146  25067325.340                    25067341.460
       891.503         694.683          38.450          38.150    98369626.246 7
  25067345.840         665.771          42.950


 107386279.804 8  83677658.78447  20434921.380                    20434924.220
      1511.702        1177.949          51.350          47.350



 114703469.884 8  89379414.53647  21827313.120                    21827318.520
      2000.765        1559.038          49.000          46.350    85655309.420 8
  21827324.620        1494.143          51.100


 121020787.398 7  94301954.77947  23029488.620                    23029499.340
      3357.957        2616.594          44.900          44.150



 127792568.149 7  99578653.31146  24318122.700                    24318133.840
       828.919         645.910          42.150          40.750    95429549.178 7
  24318142.240         618.966          47.200


 113241477.557 8  88240070.84647  21549159.300                    21549163.360
     -2736.148       -2132.069          49.300          45.400



 118101801.029 8  92027473.40246  22473994.160                    22473999.840
      2756.021        2147.552          48.000          41.750



 133734191.838 5 104208491.98045  25448768.220                    25448777.820
      -839.608        -654.254          30.600          30.950    99866494.266 6
  25448780.200        -627.992          40.700


 110643785.933 8  86216001.64848  21054798.260                    21054803.480
     -1497.216       -1166.664          51.400          51.700    82623683.990 9
  21054805.240       -1118.202          54.600


 23 11  5 12 33  0.0000000  0 11G05G07G08G13G14G15G18G20G22G27G30
 108410218.283 8  84475474.36448  20629785.960                    20629789.380
      -499.385        -389.133          49.300          49.400



 121146540.374 7  94399926.37648  23053422.820                    23053429.800
     -2655.736       -2069.412          47.850          48.000



 131703180.242 6 102625883.97346  25062284.120                    25062300.440
       874.855         681.710          38.550          38.500    98349843.057 7
  25062304.700         653.118          42.600


 107341095.364 8  83642450.12547  20426322.960                    20426325.840
      1500.411        1169.151          51.200          47.400



 114643678.616 8  89332823.94347  21815935.300                    21815940.700
      1985.244        1546.944          49.550          46.300    85610660.106 8
  21815946.420        1482.414          51.600


 120920114.282 7  94223508.31847  23010331.400                    23010341.760
      3353.314        2612.978          46.850          43.750



 127767983.144 7  99559496.15946  24313444.720                    24313455.580
       809.967         631.141          42.900          40.750    95411190.224 7
  24313464.100         604.827          47.700


 113323767.012 8  88304192.31547  21564818.560                    21564822.600
     -2749.832       -2142.731          49.700          44.950



 118019291.502 8  91963180.33846  22458293.000                    22458298.800
      2744.536        2138.601          48.650          41.750



 133759675.136 5 104228357.84244  25453620.080                    25453629.820
      -858.439        -668.896          30.200          28.350    99885536.154 6
  25453632.160        -641.604          39.700


 110688889.771 8  86251147.40348  21063381.240                    21063386.640
     -1509.643       -1176.348          52.100          52.100    82657365.307 9
  21063388.640       -1127.343          55.150


 23 11  5 12 33 30.0000000  0 10G05G07G08G13G14G15G18G20G22G30
 108425504.945 8  84487385.97248  20632694.840                    20632698.360
      -519.523        -404.826          49.600          49.800



 121226292.008 7  94462070.30447  23068599.140                    23068606.280
     -2660.952       -2073.476          46.700          46.650



 131677196.183 6 102605636.76546  25057339.180                    25057355.860
       858.180         668.714          37.200          36.400    98330439.527 7
  25057360.200         640.498          42.800


 107296243.747 8  83607500.79147  20417787.820                    20417790.660
      1489.679        1160.788          50.700          47.550



 114584357.784 8  89286599.92047  21804646.940                    21804652.320
      1969.593        1534.748          49.500          46.200    85566362.088 8
  21804658.040        1470.814          51.550


 120819581.597 7  94145171.26347  22991200.860                    22991211.000
      3349.077        2609.674          47.150          43.500



 127743967.340 7  99540782.50146  24308875.060                    24308885.620
       791.078         616.422          43.950          41.000    95393256.289 7
  24308894.480         590.762          47.800


 113406462.481 8  88368630.15847  21580555.080                    21580559.080
     -2763.218       -2153.163          48.900          45.200



 117937126.781 7  91899155.96247  22442657.440                    22442663.540
      2733.189        2129.761          47.900          42.350



 110734359.551 8  86286578.30948  21072033.880                    21072039.380
     -1521.618       -1185.680          51.000          51.050    82691319.902 9
  21072041.560       -1136.307          54.850


 23 11  5 12 34  0.0000000  0 10G05G07G08G13G14G15G18G20G22G30
 108441416.042 8  84499784.16248  20635722.640                    20635726.120
      -540.921        -421.500          49.600          49.500



 121306212.805 7  94524346.05547  23083807.700                    23083815.080
     -2666.898       -2078.108          47.300          47.400



 131651736.057 6 102585797.88046  25052493.920                    25052511.000
       840.195         654.704          37.300          37.500    98311427.264 6
  25052515.120         627.223          41.000


 107251739.138 8  83572821.87947  20409318.680                    20409321.720
      1477.419        1151.234          50.600          47.850



 114525523.240 8  89240754.82147  21793451.120                    21793456.440
      1952.958        1521.786          49.100          46.600    85522427.213 8
  21793462.180        1458.323          51.900


 120719205.046 7  94066955.84747  22972100.020                    22972110.040
      3343.091        2605.008          47.000          43.950



 127720535.071 7  99522523.51246  24304416.440                    24304426.760
       771.099         600.855          44.600          41.300    95375758.078 8
  24304435.820         575.897          48.250


 113489575.656 8  88433393.48247  21596371.080                    21596375.060
     -2777.522       -2164.310          48.650          45.550



 117855323.636 7  91835413.33147  22427090.740                    22427096.880
      2720.563        2119.924          47.700          42.550



 110780207.600 8  86322303.96348  21080758.460                    21080764.120
     -1534.675       -1195.854          51.000          50.850    82725556.967 9
  21080766.280       -1146.020          54.950


 23 11  5 12 34 30.0000000  0 10G05G07G08G13G14G15G18G20G22G30
 108457945.690 8  84512664.33048  20638868.200                    20638871.500
      -561.396        -437.454          49.850          50.000



 121386296.007 7  94586748.38247  23099047.180                    23099054.700
     -2672.282       -2082.304          47.050          46.700



 131626795.897 6 102566364.11046  25047747.780                    25047764.820
       822.553         640.953          38.650          37.950    98292803.250 6
  25047768.980         614.063          41.750


 107207577.299 8  83538410.04247  20400914.780                    20400918.120
      1466.261        1142.541          50.500          47.800



 114467171.618 8  89195286.02947  21782347.180                    21782352.400
      1936.868        1509.248          49.200          46.250    85478852.965 8
  21782358.480        1446.200          52.150


 120618980.799 7  93988859.10547  22953028.120                    22953038.020
      3338.160        2601.166          46.750          44.300



 127697681.505 7  99504715.44146  24300067.800                    24300078.000
       752.139         586.078          44.000          39.350    95358691.994 8
  24300087.120         561.415          48.300


 113573098.638 8  88498476.12447  21612265.000                    21612269.100
     -2791.015       -2174.823          48.250          45.650



 117773878.863 7  91771949.93747  22411592.100                    22411598.740
      2708.670        2110.654          47.850          42.200



 110826426.935 8  86358318.92448  21089553.740                    21089559.540
     -1547.061       -1205.506          51.350          51.400    82760071.286 9
  21089561.540       -1155.372          54.950


 23 11  5 12 35  0.0000000  0 10G05G07G08G13G14G15G18G20G22G30
 108475090.968 8  84526024.20948  20642130.900                    20642134.100
      -581.769        -453.328          50.200          50.150



 121466537.342 7  94649273.91447  23114316.780                    23114324.460
     -2677.307       -2086.219          46.950          46.650



 131602374.184 6 102547334.23246  25043100.520                    25043117.200
       805.636         627.767          37.850          37.950    98274566.288 6
  25043121.400         601.314          41.750


 107163756.078 8  83504263.63648  20392575.780                    20392579.360
      1454.971        1133.743          50.900          48.000



 114409302.366 8  89150193.11547  21771335.060                    21771340.040
      1920.938        1496.834          49.550          45.750    85435638.915 8
  21771346.480        1434.452          52.550


 120518907.706 7  93910880.14547  22933984.840                    22933994.740
      3333.353        2597.420          46.650          45.000



 127675404.785 7  99487356.92846  24295828.640                    24295839.060
       733.001         571.168          43.150          40.950    95342056.737 7
  24295848.000         547.281          47.950


 113657026.502 8  88563874.26547  21628235.900                    21628240.120
     -2804.360       -2185.222          48.050          44.900



 117692792.459 8  91708765.78447  22396161.740                    22396168.460
      2696.912        2101.491          48.350          42.350



 110873013.294 8  86394619.87948  21098418.920                    21098424.660
     -1558.912       -1214.740          51.800          51.850    82794859.679 9
  21098426.640       -1164.127          54.950


 23 11  5 12 35 30.0000000  0 10G05G07G08G13G14G15G18G20G22G30
 108492854.883 8  84539866.13848  20645511.320                    20645514.560
      -602.669        -469.614          49.850          49.850



 121546938.308 7  94711923.84147  23129616.760                    23129624.560
     -2682.767       -2090.474          46.600          46.900



 131578475.507 6 102528711.89345  25038552.540                    25038569.340
       787.441         613.593          36.350          35.950    98256719.876 6
  25038573.660         588.266          40.650


 107120280.174 8  83470386.29248  20384302.680                    20384306.180
      1443.255        1124.614          50.550          48.100



 114351920.744 8  89105480.16547  21760415.700                    21760420.520
      1904.317        1483.884          49.350          45.900    85392789.003 8
  21760427.420        1422.145          52.600


 120418990.574 7  93833022.71947  22914971.080                    22914980.900
      3327.825        2593.113          45.650          44.250



 127653708.677 7  99470450.83446  24291699.880                    24291710.360
       713.150         555.699          43.550          39.750    95325855.033 7
  24291719.240         532.715          47.650


 113741360.082 7  88629588.53847  21644284.040                    21644288.540
     -2818.144       -2195.963          47.550          45.250



 117612070.640 7  91645865.75147  22380800.700                    22380807.900
      2684.324        2091.685          47.750          43.400



 110919968.500 8  86431208.25548  21107354.400                    21107359.880
     -1571.492       -1224.543          51.000          51.200    82829923.510 9
  21107361.960       -1173.461          54.950


 23 11  5 12 36  0.0000000  0 10G05G07G08G13G14G15G18G20G22G30
 108511236.687 8  84554189.55248  20649009.380                    20649012.700
      -622.991        -485.450          50.200          50.000



 121627497.978 7  94774697.42147  23144946.860                    23144954.900
     -2687.950       -2094.514          46.050          45.800



 131555101.709 5 102510498.59046  25034104.380                    25034121.140
       770.665         600.521          35.700          36.500    98239265.421 6
  25034125.560         575.360          40.600


 107077150.130 8  83436778.44547  20376095.380                    20376098.720
      1431.886        1115.754          50.650          47.950



 114295028.911 8  89061148.87747  21749589.500                    21749594.220
      1888.157        1471.291          49.250          45.550    85350304.857 8
  21749601.480        1410.043          52.900


 120319231.033 7  93755288.09847  22895987.100                    22895996.860
      3322.859        2589.244          45.100          43.500



 127632593.564 7  99453997.41446  24287681.700                    24287692.180
       694.121         540.869          43.200          39.950    95310087.164 7
  24287700.860         518.377          47.250


 113826096.809 7  88695616.97247  21660408.940                    21660413.480
     -2831.108       -2206.064          47.350          45.450



 117531715.798 7  91583251.63347  22365509.580                    22365516.720
      2672.374        2082.371          47.050          43.150



 110967290.961 8  86468082.79248  21116359.700                    21116365.100
     -1583.299       -1233.743          50.850          50.750    82865261.584 9
  21116367.280       -1182.484          55.250


 23 11  5 12 36 30.0000000  0 10G05G07G08G13G14G15G18G20G22G30
 108530234.402 8  84568992.89548  20652624.660                    20652628.000
      -643.432        -501.378          50.550          50.350



 121708212.359 7  94837591.55847  23160306.360                    23160314.520
     -2693.059       -2098.494          45.450          45.100



 131532251.259 6 102492693.04346  25029756.120                    25029772.920
       752.997         586.750          37.900          37.050    98222201.786 6
  25029776.940         562.306          40.350


 107034364.745 8  83403439.16047  20367953.720                    20367956.880
      1420.482        1106.868          50.950          47.850



 114238626.620 8  89017199.04847  21738856.420                    21738861.200
      1871.980        1458.687          49.250          45.800    85308186.280 8
  21738868.580        1397.926          52.450


 120219628.988 7  93677676.19847  22877033.060                    22877042.600
      3317.479        2585.052          45.400          42.300



 127612058.128 7  99437995.76246  24283773.820                    24283784.460
       674.781         525.806          43.300          40.000    95294752.227 7
  24283792.720         504.045          46.400


 113911232.196 8  88761956.01747  21676609.760                    21676614.620
     -2844.365       -2216.395          48.100          44.600



 117451728.527 7  91520923.94947  22350288.360                    22350295.660
      2660.161        2072.855          47.350          42.600



 111014977.058 8  86505240.66248  21125434.080                    21125439.600
     -1595.521       -1243.268          50.900          50.850    82900871.177 9
  21125442.000       -1191.377          55.150


 23 11  5 12 37  0.0000000  0 10G05G07G08G13G14G15G18G20G22G30
 108549849.836 8  84584277.57348  20656357.520                    20656360.820
      -664.451        -517.757          50.500          50.400



 121789082.704 7  94900607.18447  23175695.560                    23175704.020
     -2698.470       -2102.712          45.600          45.550



 131509928.215 6 102475298.39646  25025508.360                    25025524.340
       735.042         572.757          40.150          40.050    98205531.898 6
  25025528.920         548.983          41.350


 106991927.133 8  83370370.87647  20359878.340                    20359881.180
      1408.560        1097.578          51.750          47.550



 114182718.469 8  88973634.25547  21728217.340                    21728222.280
      1855.063        1445.504          49.000          46.100    85266436.690 8
  21728229.760        1385.290          52.700


 120120188.430 7  93600190.13347  22858110.060                    22858119.160
      3311.687        2580.537          46.100          43.050



 127592104.997 7  99422447.82346  24279976.860                    24279987.760
       655.205         510.549          44.000          40.200    95279852.117 7
  24279995.320         489.235          46.550


 113996766.419 8  88828605.85947  21692886.600                    21692891.400
     -2858.032       -2227.045          48.400          44.300



 117372113.868 7  91458886.60346  22335137.980                    22335145.120
      2647.460        2062.957          47.100          41.950



 111063027.733 8  86542682.62448  21134577.880                    21134583.520
     -1608.104       -1253.073          51.250          50.900    82936753.027 9
  21134586.180       -1200.813          55.450


 23 11  5 12 37 30.0000000  0 10G05G07G08G13G14G15G18G20G22G30
 108570073.446 8  84600036.15048  20660206.140                    20660209.260
      -684.947        -533.729          50.600          50.650



 121870097.873 7  94963735.68247  23191112.440                    23191120.820
     -2703.525       -2106.649          45.650          45.650



 131488124.610 6 102458308.52746  25021359.520                    25021375.420
       717.422         559.029          40.150          40.300    98189249.926 6
  25021379.560         535.691          41.100


 106949829.057 8  83337567.15847  20351867.500                    20351870.100
      1396.957        1088.538          51.450          47.900



 114127296.999 8  88930448.69647  21717670.880                    21717676.160
      1838.486        1432.587          48.650          46.100    85225050.523 8
  21717683.260        1372.900          52.550


 120020901.571 7  93522823.82347  22839216.480                    22839225.060
      3306.374        2576.398          46.050          43.800



 127572725.296 7  99407346.67546  24276289.240                    24276300.360
       635.809         495.433          44.100          39.850    95265380.180 7
  24276306.920         474.835          45.800


 114082687.634 8  88895557.24647  21709237.140                    21709242.140
     -2871.094       -2237.224          48.550          44.650



 117292865.016 7  91397134.29947  22320057.360                    22320064.280
      2634.683        2053.001          46.600          42.050



 111111431.941 8  86580400.07848  21143789.060                    21143794.660
     -1620.069       -1262.396          51.700          51.650    82972898.891 9
  21143797.480       -1209.756          55.400


 23 11  5 12 38  0.0000000  0 10G05G07G08G13G14G15G18G20G22G30
 108590918.653 8  84616279.09348  20664173.000                    20664176.020
      -704.433        -548.911          50.350          50.250



 121951270.593 7  95026986.92547  23206559.260                    23206567.680
     -2707.736       -2109.932          46.350          46.350



 131466855.871 6 102441735.41846  25017312.240                    25017328.320
       700.785         546.064          38.900          38.650    98173367.330 6
  25017332.140         523.328          41.650


 106908085.082 8  83305039.37247  20343923.840                    20343926.380
      1386.263        1080.204          50.700          47.850



 114072378.066 8  88887654.71847  21707220.120                    21707225.700
      1822.813        1420.373          48.650          47.050    85184039.622 8
  21707232.500        1361.354          52.700


 119921784.014 7  93445589.43747  22820355.100                    22820363.280
      3301.860        2572.880          46.000          44.400



 127553933.447 7  99392703.61446  24272713.460                    24272724.700
       617.239         480.963          44.400          41.600    95251347.239 7
  24272730.280         461.029          46.000


 114169007.356 8  88962819.16047  21725663.520                    21725668.500
     -2883.076       -2246.560          48.550          45.400



 117213998.335 7  91335679.77447  22305049.580                    22305056.160
      2623.260        2044.100          46.950          42.550



 111160202.068 8  86618402.67448  21153069.900                    21153075.420
     -1631.007       -1270.917          51.350          51.350    83009318.022 9
  21153078.220       -1217.942          55.550


 23 11  5 12 38 30.0000000  0 11G05G07G08G13G14G15G18G20G22G27G30
 108612379.337 8  84633001.63148  20668256.880                    20668259.900
      -725.388        -565.239          50.300          50.100



 122032593.720 7  95090355.36847  23222034.700                    23222042.920
     -2712.984       -2114.022          45.400          45.350



 131446117.223 6 102425575.27746  25013365.820                    25013381.900
       682.946         532.160          39.100          38.900    98157880.509 7
  25013385.940         509.915          42.400


 106866690.686 8  83272783.99848  20336046.600                    20336049.180
      1374.360        1070.932          50.250          48.300



 114017958.222 8  88845249.63247  21696864.260                    21696870.260
      1805.919        1407.209          48.600          46.950    85143401.425 8
  21696876.540        1348.582          52.450


 119822832.032 7  93368484.10747  22801525.220                    22801533.240
      3295.962        2568.286          46.250          43.750



 127535724.373 7  99378514.62846  24269248.480                    24269259.780
       597.548         465.618          42.750          41.650    95237749.450 7
  24269264.640         446.313          45.850


 114255717.498 8  89030385.28247  21742164.220                    21742169.340
     -2896.525       -2257.039          48.900          45.200



 117135511.290 7  91274521.07947  22290113.940                    22290120.260
      2610.065        2033.818          47.700          42.950




                                                                 100122403.015 5
  25513996.640        -792.959          30.700


 111209331.281 8  86656685.08048  21162418.980                    21162424.460
     -1643.236       -1280.447          51.350          51.400    83046005.302 9
  21162427.280       -1227.138          55.350


 23 11  5 12 39  0.0000000  0 11G05G07G08G13G14G15G18G20G22G27G30
 108634449.848 8  84650199.35948  20672456.720                    20672459.820
      -746.226        -581.477          50.450          50.550



 122114060.269 7  95153835.56547  23237537.420                    23237545.680
     -2718.129       -2118.030          46.050          46.200



 131425905.038 6 102409825.32346  25009519.920                    25009535.120
       664.762         517.987          39.350          39.650    98142786.799 7
  25009540.100         496.270          42.100


 106825640.906 8  83240797.14548  20328235.000                    20328237.760
      1362.250        1061.494          50.550          48.400



 113964033.825 8  88803230.61047  21686602.720                    21686608.980
      1788.835        1393.897          48.700          46.250    85103133.195 8
  21686614.880        1335.794          52.600


 119724041.685 7  93291504.72947  22782726.040                    22782733.880
      3289.732        2563.432          46.900          42.750



 127518092.886 7  99364775.69446  24265893.200                    24265904.660
       577.802         450.231          43.500          40.000    95224582.965 7
  24265909.280         431.472          46.050


 114342810.179 8  89098249.49547  21758737.620                    21758742.780
     -2909.714       -2267.316          48.600          44.150



 117057400.661 7  91213655.68547  22275250.080                    22275256.280
      2597.123        2023.733          47.050          43.600




                                                                 100146411.730 4
  25520114.640        -807.503          29.900


 111258812.338 8  86695241.64948  21171834.940                    21171840.460
     -1655.488       -1289.994          51.200          51.050    83082955.318 9
  21171843.200       -1236.314          55.400


 23 11  5 12 39 30.0000000  0 12G05G07G08G13G14G15G18G20G22G24G27G30
 108657135.158 8  84667876.15548  20676773.620                    20676776.820
      -766.513        -597.285          51.000          51.000



 122195674.820 7  95217431.08747  23253068.380                    23253076.520
     -2723.124       -2121.923          45.700          45.750



 131406225.450 6 102394490.38346  25005775.080                    25005790.180
       647.354         504.426          39.200          39.700    98128090.796 7
  25005795.680         483.140          42.300


 106784942.706 8  83209084.24848  20320490.380                    20320493.300
      1350.583        1052.402          50.800          48.100



 113910612.433 8  88761603.54047  21676436.900                    21676443.300
      1772.150        1380.896          48.950          46.650    85063240.585 8
  21676449.000        1323.334          52.600


 119625420.308 7  93214657.02846  22763958.900                    22763966.680
      3284.541        2559.385          47.600          41.650



 127501045.180 7  99351491.68946  24262649.120                    24262660.620
       558.604         435.273          43.500          40.000    95211852.457 7
  24262665.380         416.977          46.200


 114430288.429 8  89166414.14247  21775384.300                    21775389.620
     -2922.518       -2277.294          48.900          44.200



 116979674.745 7  91153090.07147  22260459.440                    22260465.440
      2584.292        2013.734          47.750          42.900



 134557557.852 6 104850087.05245  25605452.040                    25605468.080
      3789.605        2952.938          37.950          35.300   100481361.069 7
  25605473.540        2829.771          42.650



                                                                 100170830.549 5
  25526337.020        -821.043          32.400


 111308649.381 8  86734075.60848  21181318.580                    21181324.220
     -1667.287       -1299.187          51.050          51.250    83120171.174 9
  21181326.840       -1245.063          55.300


 23 11  5 12 40  0.0000000  0 11G05G07G08G13G14G15G18G20G22G24G30
 108680435.597 8  84686032.26748  20681207.680                    20681210.920
      -786.621        -612.954          51.050          51.050



 122277436.858 7  95281141.53747  23268627.460                    23268635.460
     -2727.220       -2125.114          46.650          46.850



 131387081.259 6 102379572.60646  25002132.080                    25002147.820
       629.575         490.569          39.200          38.850    98113794.526 6
  25002152.820         470.207          40.900


 106744597.991 8  83177646.80748  20312813.140                    20312816.140
      1339.377        1043.671          50.950          48.400



 113857697.152 8  88720370.85047  21666367.440                    21666373.840
      1755.776        1368.138          49.000          46.800    85023725.923 8
  21666379.460        1311.093          52.550


 119526970.850 7  93137943.27946  22745224.340                    22745232.040
      3278.848        2554.950          46.750          41.150



 127484582.670 7  99338663.68446  24259516.380                    24259527.780
       539.592         420.457          43.350          39.800    95199558.921 7
  24259533.200         402.793          46.650


 114518151.145 8  89234878.37347  21792104.100                    21792109.540
     -2934.792       -2286.858          48.800          44.500



 116902337.166 7  91092827.06547  22245742.600                    22245748.660
      2571.923        2004.098          47.500          43.400



 134443895.834 5 104761519.21445  25583822.820                    25583838.420
      3788.547        2952.113          30.700          30.350   100396483.473 7
  25583844.200        2828.850          45.300


 111358841.978 8  86773186.63248  21190869.860                    21190875.680
     -1678.595       -1307.999          50.600          50.550    83157652.556 9
  21190878.240       -1253.553          55.300


 23 11  5 12 40 30.0000000  0 11G05G07G08G13G14G15G18G20G22G24G30
 108704345.149 8  84704663.00748  20685757.700                    20685761.000
      -807.488        -629.214          51.450          51.250



 122359339.418 7  95344961.50147  23284213.320                    23284221.120
     -2732.983       -2129.604          46.550          46.550



 131368467.949 6 102365068.53446  24998590.240                    24998606.240
       611.390         476.400          38.000          38.250    98099894.761 6
  24998610.700         456.450          40.550


 106704601.755 8  83146480.92848  20305202.220                    20305205.180
      1327.105        1034.108          51.300          48.550



 113805284.099 8  88679529.50447  21656393.640                    21656399.880
      1738.369        1354.572          49.500          47.150    84984586.292 8
  21656405.580        1298.149          52.350


 119428689.135 7  93061360.23746  22726521.620                    22726529.400
      3273.141        2550.502          46.100          41.050



 127468699.904 7  99326287.42446  24256493.960                    24256505.120
       519.407         404.729          43.200          39.700    95187698.305 7
  24256511.500         387.879          46.500


 114606389.928 8  89303635.62947  21808895.460                    21808901.060
     -2947.904       -2297.077          48.100          44.800



 116825384.904 7  91032864.29947  22231099.080                    22231105.100
      2558.242        1993.438          47.550          43.700



 134330277.011 5 104672984.78945  25562201.860                    25562218.220
      3786.155        2950.231          35.000          34.400   100311637.968 6
  25562223.060        2827.191          40.750


 111409382.820 8  86812569.02148  21200487.460                    21200493.320
     -1690.704       -1317.435          50.400          50.550    83195394.002 9
  21200495.880       -1262.641          55.000


 23 11  5 12 41  0.0000000  0 11G05G07G08G13G14G15G18G20G22G24G30
 108728870.977 8  84723773.96448  20690424.980                    20690428.360
      -827.660        -644.933          51.650          51.550



 122441388.557 7  95408895.69647  23299826.960                    23299834.660
     -2737.330       -2132.991          45.850          45.950



 131350394.398 6 102350985.07846  24995150.520                    24995167.440
       593.620         462.557          37.900          38.800    98086398.056 6
  24995171.420         443.392          41.000


 106664962.337 8  83115593.08848  20297659.180                    20297662.020
      1315.560        1025.112          51.350          48.250



 113753382.804 8  88639086.92847  21646517.320                    21646523.380
      1721.644        1341.539          49.700          46.650    84945828.825 8
  21646529.140        1285.729          52.300


 119330584.820 7  92984915.45547  22707852.800                    22707860.700
      3267.243        2545.908          45.350          42.200



 127453404.737 7  99314369.01846  24253583.480                    24253594.020
       500.212         389.772          42.700          38.150    95176276.468 7
  24253601.640         373.665          46.300


 114695009.671 7  89372689.75547  21825759.360                    21825765.100
     -2960.251       -2306.696          47.900          44.850



 116748827.913 8  90973209.54347  22216530.720                    22216536.800
      2545.458        1983.475          48.050          43.100



 134216710.852 6 104584491.51645  25540590.800                    25540607.860
      3785.102        2949.420          36.350          30.350   100226831.829 6
  25540611.780        2826.322          38.100


 111460278.078 8  86852227.58148  21210172.540                    21210178.320
     -1702.328       -1326.492          50.700          50.800    83233400.091 9
  21210180.940       -1271.073          54.800


 23 11  5 12 41 30.0000000  0 11G05G07G08G13G14G15G18G20G22G24G30
 108754008.776 8  84743361.78648  20695208.660                    20695212.100
      -848.355        -661.060          51.350          51.200



 122523578.864 7  95472939.90347  23315467.380                    23315475.160
     -2742.466       -2136.992          45.350          44.900



 131332857.541 6 102337319.95146  24991813.260                    24991830.440
       575.550         448.478          37.700          37.350    98073302.304 6
  24991834.020         429.771          41.600


 106625677.090 8  83084981.23248  20290183.500                    20290186.380
      1303.418        1015.650          50.900          49.550



 113701991.237 8  88599041.53547  21636738.000                    21636743.800
      1704.296        1328.022          49.300          47.050    84907451.984 8
  21636749.760        1272.844          52.550


 119232655.526 7  92908607.05847  22689217.340                    22689225.540
      3261.213        2541.210          44.900          44.050



 127438693.509 7  99302905.61746  24250784.100                    24250794.200
       480.404         374.338          42.650          39.050    95165290.680 7
  24250802.640         358.918          46.200


 114784004.291 8  89442035.98547  21842694.640                    21842700.440
     -2972.996       -2316.627          48.400          45.050



 116672664.924 7  90913861.81147  22202037.380                    22202043.420
      2532.034        1973.016          47.950          42.600



 134103194.416 6 104496036.94846  25518989.460                    25519006.380
      3782.669        2947.524          36.600          36.600   100142062.850 6
  25519010.380        2825.100          41.200


 111511522.159 8  86892157.94048  21219924.040                    21219929.760
     -1713.962       -1335.559          50.650          50.700    83271666.676 9
  21219932.300       -1279.883          54.650


 23 11  5 12 42  0.0000000  0 11G05G07G08G13G14G15G18G20G22G24G30
 108779756.361 8  84763424.76548  20700108.280                    20700111.820
      -868.804        -676.992          51.200          51.050



 122605908.105 7  95537092.38247  23331134.180                    23331141.940
     -2746.815       -2140.382          44.650          43.950



 131315858.160 6 102324073.64846  24988578.460                    24988595.700
       557.324         434.277          36.900          37.400    98060607.920 7
  24988599.380         416.219          42.550


 106586745.682 8  83054645.10348  20282775.060                    20282778.180
      1291.466        1006.338          50.850          49.050



 113651110.260 8  88559394.00447  21627055.780                    21627061.460
      1687.181        1314.687          49.150          47.000    84869456.438 8
  21627067.540        1259.879          52.700


 119134902.037 7  92832435.65147  22670615.380                    22670623.840
      3255.183        2536.512          44.950          44.300



 127424565.641 6  99291896.78646  24248095.780                    24248105.580
       460.815         359.072          41.900          40.000    95154740.526 7
  24248114.540         344.126          46.300


 114873370.084 8  89511671.43247  21859700.600                    21859706.540
     -2985.513       -2326.382          48.000          45.350



 116596897.376 8  90854822.20247  22187619.400                    22187625.220
      2518.442        1962.423          48.200          42.650



 133989727.872 6 104407621.17846  25497397.520                    25497414.460
      3780.815        2946.076          37.900          36.550   100057331.036 6
  25497418.560        2823.561          40.000


 111563112.642 8  86932358.21248  21229741.360                    21229747.220
     -1725.860       -1344.830          50.650          50.550    83310191.917 9
  21229749.420       -1288.741          54.350


 23 11  5 12 42 30.0000000  0 11G05G07G08G13G14G15G18G20G22G24G30
 108806109.552 8  84783959.64548  20705123.120                    20705126.660
      -888.475        -692.320          50.700          50.600



 122688371.070 7  95601349.02747  23346826.360                    23346834.340
     -2750.856       -2143.531          44.700          44.650



 131299392.878 6 102311243.56446  24985445.280                    24985462.840
       539.837         420.654          38.050          37.400    98048312.449 6
  24985466.780         403.354          41.700


 106548165.014 8  83024582.28448  20275433.340                    20275436.700
      1280.301         997.639          51.000          48.950



 113600737.787 8  88520142.71047  21617470.240                    21617475.840
      1670.732        1301.869          48.700          47.350    84831840.612 8
  21617482.100        1247.618          52.900


 119037322.111 7  92756399.51147  22652046.500                    22652055.080
      3249.978        2532.455          45.650          44.400



 127411017.434 6  99281339.63046  24245517.740                    24245527.960
       442.270         344.622          41.650          39.600    95144623.231 7
  24245536.600         330.171          46.550


 114963100.942 8  89581591.35647  21876776.140                    21876781.980
     -2996.730       -2335.123          48.100          45.100



 116521524.008 8  90796089.74847  22173276.440                    22173281.900
      2505.974        1952.707          48.750          42.650



 133876308.788 5 104319242.44046  25475814.980                    25475831.860
      3779.972        2945.425          35.650          36.750    99972634.696 6
  25475835.380        2822.707          41.600


 111615043.969 8  86972824.07948  21239623.680                    21239629.520
     -1736.712       -1353.286          50.950          50.800    83348971.674 9
  21239631.460       -1296.787          54.300


 23 11  5 12 43  0.0000000  0 11G05G07G08G13G14G15G18G20G22G24G30
 108833074.799 8  84804971.45148  20710254.400                    20710257.900
      -909.271        -708.524          50.750          50.750



 122770972.954 7  95665713.91147  23362545.020                    23362553.440
     -2755.821       -2147.400          45.700          45.900



 131283470.066 6 102298836.20646  24982415.400                    24982433.340
       521.618         406.458          38.550          38.600    98036422.086 7
  24982436.940         389.404          42.700


 106509943.058 8  82994798.97448  20268159.840                    20268163.260
      1267.839         987.928          51.250          49.150



 113550882.529 8  88481294.43947  21607983.020                    21607988.700
      1652.989        1288.043          48.750          47.650    84794611.013 8
  21607994.980        1234.305          52.700


 118939924.519 7  92680505.45347  22633512.380                    22633520.900
      3243.153        2527.139          46.250          44.550



 127398056.094 7  99271239.80446  24243051.340                    24243062.500
       421.814         328.684          42.050          40.900    95134944.199 7
  24243070.440         315.161          46.400


 115053200.947 8  89651798.90347  21893921.860                    21893927.780
     -3009.643       -2345.184          48.700          44.550



 116446554.048 8  90737671.64347  22159010.160                    22159015.560
      2492.044        1941.854          49.000          42.350



 133762945.140 5 104230907.01345  25454242.640                    25454259.700
      3778.099        2943.974          34.100          33.600    99887979.851 7
  25454263.520        2820.762          44.050


 111667321.530 8  87013559.73848  21249571.920                    21249577.840
     -1748.601       -1362.550          50.900          50.850    83388010.003 9
  21249579.620       -1305.821          54.100


 23 11  5 12 43 30.0000000  0 11G05G07G08G13G14G15G18G20G22G24G30
 108860653.885 8  84826461.56648  20715502.500                    20715505.860
      -929.426        -724.231          50.200          50.100



 122853715.316 7  95730188.23947  23378290.540                    23378299.240
     -2760.370       -2150.946          46.350          46.200



 131268093.317 6 102286854.38846  24979489.240                    24979507.240
       503.776         392.557          36.700          37.200    98024939.517 6
  24979511.080         376.057          41.300


 106472083.149 8  82965297.79248  20260955.240                    20260958.720
      1256.062         978.750          50.750          49.550



 113501548.887 8  88442852.62747  21598595.040                    21598600.780
      1635.816        1274.662          48.900          47.500    84757770.936 8
  21598607.120        1221.578          52.700


 118842713.662 7  92604756.89947  22615013.840                    22615022.240
      3237.388        2522.646          47.400          43.950



 127385684.240 6  99261599.23346  24240696.960                    24240708.620
       402.784         313.854          41.350          40.200    95125705.320 7
  24240716.740         300.601          47.000


 115143670.280 7  89722294.27047  21911137.900                    21911143.640
     -3021.842       -2354.689          47.850          44.350



 116371992.546 8  90679571.81247  22144821.540                    22144826.660
      2478.677        1931.438          48.850          42.300



 133649640.892 6 104142617.73846  25432681.920                    25432698.840
      3775.576        2941.996          37.250          37.650    99803369.282 7
  25432702.740        2819.624          42.850


 111719946.404 8  87054566.02748  21259586.340                    21259592.360
     -1759.750       -1371.237          51.000          51.050    83427307.674 9
  21259593.900       -1314.153          54.250


 23 11  5 12 44  0.0000000  0 11G05G07G08G13G14G15G18G20G22G24G30
 108888836.325 8  84848421.82748  20720865.420                    20720868.700
      -949.615        -739.963          50.600          50.750



 122936587.260 7  95794763.56047  23394060.780                    23394069.600
     -2764.591       -2154.235          46.400          46.200



 131253253.643 6 102275291.11046  24976665.420                    24976683.320
       485.530         378.337          39.200          39.250    98013858.060 6
  24976687.080         362.521          41.650


 106434576.232 8  82936071.64148  20253817.820                    20253821.300
      1244.074         969.408          51.100          49.000



 113452729.108 8  88404811.23147  21589304.860                    21589310.600
      1618.376        1261.072          49.100          47.100    84721314.592 8
  21589316.940        1208.610          52.350


 118745681.639 8  92529147.69747  22596549.280                    22596557.540
      3230.955        2517.634          48.000          44.100



 127373892.540 6  99252410.76246  24238452.800                    24238465.060
       382.897         298.355          40.150          39.400    95116899.666 7
  24238473.200         286.115          46.700


 115234497.007 8  89793068.10947  21928421.900                    21928427.560
     -3033.597       -2363.848          48.100          44.300



 116297832.695 8  90621784.96647  22130709.320                    22130714.580
      2464.931        1920.727          49.100          42.750



 133536387.489 5 104054368.24345  25411130.540                    25411147.220
      3774.384        2941.071          35.250          34.650    99718796.812 7
  25411151.820        2818.157          42.200


 111772907.505 8  87095834.31348  21269664.720                    21269670.820
     -1771.174       -1380.139          51.250          51.000    83466856.423 9
  21269672.320       -1322.604          54.050


 23 11  5 12 44 30.0000000  0 11G05G07G08G13G14G15G18G20G22G24G30
 108917629.676 8  84870858.12048  20726344.620                    20726347.820
      -969.900        -755.770          50.350          50.300



 123019595.312 7  95859444.92547  23409856.920                    23409865.720
     -2769.117       -2157.761          46.650          46.700



 131238960.601 6 102264153.83846  24973945.720                    24973963.540
       467.385         364.198          39.150          39.100    98003184.889 7
  24973967.140         348.860          42.700


 106397431.915 8  82907128.04448  20246749.560                    20246752.980
      1232.089         960.070          51.000          49.750



 113404433.167 8  88367178.02047  21580114.440                    21580120.140
      1601.147        1247.648          48.550          47.550    84685249.433 8
  21580126.400        1195.548          51.950


 118648838.429 7  92453685.62147  22578120.600                    22578128.760
      3225.143        2513.104          47.800          43.850



 127362689.248 6  99243680.83246  24236320.740                    24236333.280
       363.438         283.194          40.650          40.650    95108533.450 7
  24236341.340         271.465          46.150


 115325686.592 7  89864124.69747  21945774.860                    21945780.360
     -3045.553       -2373.164          47.500          44.750



 116224085.172 8  90564319.40547  22116675.500                    22116680.660
      2451.428        1910.204          48.950          43.000



 133423194.485 6 103966165.75546  25389590.740                    25389607.660
      3772.329        2939.477          36.400          36.200    99634269.385 6
  25389612.560        2816.810          41.300


 111826211.395 8  87137369.70748  21279808.300                    21279814.460
     -1782.398       -1388.885          50.950          50.850    83506661.154 9
  21279816.060       -1331.129          54.000


 23 11  5 12 45  0.0000000  0 11G05G07G08G13G14G15G18G20G22G24G30
 108947029.098 8  84893766.67748  20731939.220                    20731942.380
      -989.992        -771.426          50.700          50.450



 123102734.474 7  95924228.43047  23425678.020                    23425686.740
     -2773.589       -2161.246          46.350          46.550



 131225211.258 6 102253440.16346  24971329.360                    24971347.180
       449.228         350.052          38.650          38.900    97992917.642 7
  24971350.660         335.441          42.800


 106360646.877 8  82878464.40648  20239749.620                    20239753.100
      1220.267         950.857          51.350          49.000



 113356658.880 8  88329951.29947  21571023.280                    21571028.940
      1583.754        1234.095          48.400          47.600    84649573.814 8
  21571035.080        1182.695          51.900


 118552181.850 8  92378368.96647  22559727.400                    22559735.460
      3218.826        2508.182          48.100          43.350



 127352070.642 6  99235406.45646  24234300.440                    24234312.240
       344.444         268.393          41.850          40.850    95100603.842 7
  24234320.460         257.034          46.100


 115417232.407 7  89935458.84747  21963195.600                    21963200.940
     -3057.346       -2382.354          47.300          43.850



 116150748.254 8  90507173.81447  22102719.840                    22102725.340
      2437.735        1899.535          49.000          42.300



 133310058.916 5 103878008.13845  25368061.720                    25368078.520
      3769.994        2937.659          33.700          31.600    99549784.966 6
  25368084.200        2815.437          41.550


 111879852.677 8  87179168.00448  21290016.000                    21290022.260
     -1793.587       -1397.604          51.000          51.100    83546717.836 9
  21290023.900       -1339.426          54.100


 23 11  5 12 45 30.0000000  0 11G05G07G08G13G14G15G18G20G22G24G30
 108977032.962 8  84917146.23548  20737648.880                    20737652.000
     -1010.064        -787.065          50.750          50.800



 123186001.877 7  95989111.82247  23441523.520                    23441532.160
     -2777.595       -2164.368          46.550          46.450



 131212005.096 6 102243149.71746  24968816.260                    24968833.580
       431.733         336.416          39.750          39.850    97983056.010 7
  24968837.700         322.057          43.200


 106324220.677 8  82850080.37248  20232817.980                    20232821.280
      1208.306         941.537          50.700          49.100



 113309406.597 8  88293131.33847  21562031.400                    21562037.140
      1566.436        1220.600          48.650          47.500    84614288.006 8
  21562043.120        1169.799          51.650


 118455712.599 8  92303198.29347  22541369.800                    22541377.800
      3212.560        2503.300          48.000          44.100



 127342035.511 7  99227586.76146  24232391.280                    24232402.180
       324.915         253.177          43.150          39.850    95093109.946 7
  24232410.420         242.558          45.800


 115509130.825 7  90007067.75647  21980683.400                    21980688.740
     -3068.956       -2391.402          47.200          44.250



 116077823.010 8  90450348.98147  22088842.580                    22088848.160
      2424.129        1888.935          48.600          44.100



 133196981.123 5 103789895.44345  25346543.840                    25346561.100
      3768.176        2936.241          35.200          35.800    99465343.606 7
  25346566.420        2814.189          42.250


 111933828.426 8  87221226.92148  21300287.280                    21300293.560
     -1804.642       -1406.218          51.200          51.100    83587024.280 8
  21300295.280       -1347.597          53.900


 23 11  5 12 46  0.0000000  0 11G05G07G08G13G14G15G18G20G22G24G30
 109007645.512 8  84941000.09048  20743474.440                    20743477.560
     -1030.125        -802.697          51.400          51.650



 123269401.783 7  96054098.46947  23457394.200                    23457402.640
     -2781.689       -2167.562          46.250          46.050



 131199348.514 6 102233287.48446  24966407.620                    24966424.680
       413.114         321.910          38.400          37.750    97973604.701 7
  24966429.240         308.453          42.250


 106288159.856 8  82821981.04448  20225955.800                    20225959.040
      1196.355         932.226          51.050          49.050



 113262683.672 8  88256723.86847  21553140.300                    21553146.140
      1548.982        1207.000          48.900          47.400    84579397.514 8
  21553152.000        1156.684          51.900


 118359437.780 8  92228179.13647  22523049.220                    22523057.100
      3206.262        2498.392          48.950          42.600



 127332589.393 7  99220226.05946  24230594.200                    24230604.800
       305.428         237.992          43.750          39.250    95086055.895 7
  24230612.420         228.142          45.700


 115601384.796 7  90078953.69947  21998238.860                    21998244.220
     -3080.578       -2400.459          47.950          43.350



 116005317.523 8  90393851.24247  22075045.180                    22075050.940
      2410.118        1878.015          49.150          43.150



 133083967.717 6 103701833.02945  25325037.820                    25325055.540
      3766.194        2934.691          36.700          35.450    99380950.489 7
  25325061.020        2812.551          44.650


 111988142.696 8  87263549.64148  21310623.040                    21310629.220
     -1815.686       -1414.822          51.700          51.600    83627583.538 9
  21310631.120       -1355.881          54.050


 23 11  5 12 46 30.0000000  0 11G05G07G08G13G14G15G18G20G22G24G30
 109038860.138 8  84965323.10048  20749414.520                    20749417.720
     -1050.242        -818.373          51.150          51.350



 123352926.675 7  96119182.53747  23473288.760                    23473296.940
     -2785.963       -2170.890          46.950          46.950



 131187236.254 6 102223849.37746  24964102.680                    24964119.300
       394.579         307.464          39.800          40.200    97964559.826 7
  24964124.160         294.903          42.300


 106252458.850 8  82794162.07048  20219162.180                    20219165.220
      1184.337         922.859          50.950          48.450



 113216485.431 8  88220725.24347  21544349.120                    21544355.040
      1531.468        1193.353          49.100          47.250    84544898.832 8
  21544360.820        1143.531          51.700


 118263352.891 8  92153307.98047  22504764.660                    22504772.560
      3199.829        2493.380          48.450          42.850



 127323726.148 7  99213319.53846  24228908.020                    24228918.440
       285.961         222.824          43.500          38.300    95079437.156 7
  24228925.460         213.391          45.100


 115693985.293 7  90151109.68447  22015860.260                    22015865.540
     -3092.194       -2409.511          47.700          43.050



 115933228.095 8  90337677.71947  22061326.920                    22061332.880
      2396.258        1867.215          49.600          43.600



 132971013.778 6 103613816.95645  25303543.400                    25303560.640
      3764.484        2933.360          37.900          35.550    99296601.752 7
  25303566.740        2811.102          42.650


 112042787.668 8  87306130.06748  21321021.780                    21321027.840
     -1826.856       -1423.527          51.750          51.800    83668389.758 8
  21321029.800       -1364.186          53.700


 23 11  5 12 47  0.0000000  0 11G05G07G08G13G14G15G18G20G22G24G30
 109070679.541 8  84990117.36448  20755469.580                    20755472.960
     -1070.643        -834.271          50.450          50.450



 123436578.619 7  96184365.60547  23489207.500                    23489215.440
     -2790.496       -2174.421          45.950          46.000



 131175672.748 6 102214838.90646  24961902.320                    24961918.180
       376.564         293.429          38.500          38.750    97955924.801 6
  24961922.980         281.017          41.250


 106217121.824 8  82766626.72148  20212437.720                    20212440.440
      1171.814         913.103          50.950          48.600



 113170817.084 8  88185139.52047  21535658.800                    21535664.780
      1513.541        1179.382          49.000          47.700    84510795.843 8
  21535670.560        1130.110          52.250


 118167463.362 7  92078589.02047  22486517.260                    22486525.240
      3193.167        2488.187          47.650          43.500



 127315449.264 6  99206869.99646  24227332.920                    24227344.180
       266.164         207.401          41.100          41.100    95073256.309 7
  24227350.360         198.680          45.350


 115786933.299 7  90223536.44847  22033547.880                    22033553.020
     -3103.841       -2418.586          47.550          43.550



 115861560.633 8  90281833.00347  22047689.000                    22047694.960
      2382.084        1856.172          49.050          43.750



 132858124.068 5 103525850.89345  25282061.020                    25282078.200
      3761.931        2931.372          35.150          34.150    99212300.953 7
  25282084.640        2809.198          43.500


 112097765.143 8  87348969.60048  21331483.760                    21331489.700
     -1837.961       -1432.180          51.300          51.200    83709444.310 8
  21331491.660       -1372.676          53.900


 23 11  5 12 47 30.0000000  0 11G05G07G08G13G14G15G18G20G22G24G30
 109103102.395 8  85015381.86448  20761639.420                    20761643.000
     -1090.330        -849.609          50.400          50.350



 123520356.131 7  96249646.51347  23505150.240                    23505157.660
     -2794.152       -2177.270          47.350          47.600



 131164658.824 6 102206256.63646  24959806.340                    24959822.120
       358.379         279.257          39.200          39.400    97947700.125 6
  24959826.180         267.623          41.400


 106182149.952 8  82739375.92048  20205782.760                    20205785.340
      1159.851         903.780          50.850          48.600



 113125680.263 8  88149967.98547  21527069.600                    21527075.640
      1496.048        1165.752          49.350          47.850    84477089.785 8
  21527081.540        1117.245          52.550


 118071771.079 7  92004023.77547  22468307.420                    22468315.620
      3186.771        2483.204          47.500          43.700



 127307758.625 6  99200877.21146  24225869.000                    24225881.360
       246.814         192.322          40.350          40.500    95067513.211 7
  24225887.420         184.492          45.500


 115880226.277 7  90296232.01447  22051301.160                    22051306.200
     -3115.059       -2427.325          47.700          43.500



 115790317.208 8  90226318.69747  22034131.760                    22034137.700
      2368.112        1845.284          48.800          43.700



 132745302.655 5 103437967.79545  25260591.120                    25260608.820
      3760.282        2930.090          34.950          34.050    99128048.931 7
  25260614.860        2807.890          42.450


 112153073.661 8  87392067.09148  21342008.560                    21342014.540
     -1848.691       -1440.540          50.850          51.150    83750746.045 8
  21342016.500       -1380.512          53.800


 23 11  5 12 48  0.0000000  0 11G05G07G08G13G14G15G18G20G22G24G30
 109136124.723 8  85041113.47948  20767923.420                    20767927.080
     -1111.171        -865.850          50.750          50.800



 123604254.874 7  96315021.86247  23521115.860                    23521123.240
     -2798.987       -2181.040          46.700          46.750



 131154192.252 6 102198100.88846  24957814.540                    24957830.320
       339.518         264.561          38.150          38.200    97939884.186 6
  24957833.740         253.357          41.500


 106147540.922 8  82712407.85048  20199196.880                    20199199.500
      1147.204         893.926          51.550          48.750



 113081073.441 8  88115209.43547  21518581.180                    21518587.380
      1477.488        1151.290          49.600          47.100    84443779.518 8
  21518593.400        1103.404          52.600


 117976274.562 7  91929611.11947  22450134.760                    22450143.280
      3179.336        2477.412          47.600          44.300



 127300651.048 6  99195338.78346  24224516.060                    24224529.320
       226.831         176.752          40.500          40.300    95062205.565 7
  24224535.480         169.243          45.400


 115973858.597 7  90369192.02147  22069119.060                    22069123.980
     -3127.180       -2436.771          47.700          43.050



 115719496.997 8  90171134.18147  22020654.980                    22020660.800
      2353.159        1833.633          48.900          43.600



 132632541.681 6 103350102.22246  25239133.360                    25239151.220
      3757.214        2927.699          37.000          36.250    99043844.421 7
  25239157.200        2805.713          43.050


 112208708.474 8  87435418.83548  21352595.400                    21352601.540
     -1860.442       -1449.698          50.400          50.500    83792291.454 8
  21352603.500       -1389.216          53.750


 23 11  5 12 48 30.0000000  0 11G05G07G08G13G14G15G18G20G22G24G30
 109169749.582 8  85067314.59048  20774322.080                    20774325.780
     -1130.992        -881.295          50.950          51.050



 123688277.665 7  96380493.90547  23537105.100                    23537112.140
     -2802.987       -2184.155          46.750          46.500



 131144277.687 6 102190375.25146  24955927.980                    24955943.860
       320.687         249.889          39.600          39.750    97932480.474 6
  24955946.840         239.865          41.350


 106113299.187 8  82685725.98548  20192681.000                    20192683.520
      1135.119         884.509          50.950          48.900



 113037002.057 8  88080868.10747  21510194.600                    21510200.980
      1459.919        1137.601          49.000          47.850    84410869.088 8
  21510207.120        1090.209          52.600


 117880979.463 7  91855355.39647  22432000.440                    22432009.260
      3172.785        2472.308          47.400          44.850



 127294130.379 6  99190257.70246  24223275.020                    24223288.780
       207.563         161.737          40.850          40.850    95057336.184 7
  24223295.260         154.838          45.400


 116067831.445 8  90442417.37847  22087001.820                    22087006.560
     -3138.327       -2445.458          48.650          42.600



 115649106.596 8  90116284.57947  22007260.060                    22007265.640
      2338.950        1822.561          48.600          43.200



 132519849.452 5 103262290.16145  25217688.800                    25217706.840
      3755.112        2926.065          34.750          33.800    98959691.228 7
  25217712.660        2804.155          43.050


 112264671.835 8  87479026.58148  21363244.740                    21363251.040
     -1871.104       -1458.005          50.100          50.000    83834082.205 8
  21363253.100       -1397.260          53.750


 23 11  5 12 49  0.0000000  0 11G05G07G08G13G14G15G18G20G22G24G30
 109203973.973 8  85093982.87348  20780834.840                    20780838.520
     -1150.561        -896.543          51.100          51.150



 123772420.444 7  96446059.43347  23553117.120                    23553124.220
     -2806.409       -2186.822          46.300          46.050



 131134913.500 6 102183078.55046  24954146.000                    24954162.520
       303.490         236.490          39.950          40.600    97925487.841 6
  24954164.820         226.245          41.650


 106079423.347 8  82659329.24948  20186234.620                    20186237.240
      1123.347         875.336          51.250          48.550



 112993465.530 8  88046943.55348  21501909.800                    21501916.360
      1442.518        1124.041          48.600          48.000    84378358.067 8
  21501922.640        1077.082          52.850


 117785885.589 7  91781256.44847  22413904.480                    22413913.380
      3166.753        2467.605          47.150          45.350



 127288194.357 7  99185632.17946  24222145.620                    24222158.960
       188.258         146.692          42.250          40.500    95052903.397 7
  24222166.240         140.490          45.850


 116162140.367 7  90515904.61447  22104948.520                    22104953.180
     -3149.002       -2453.775          47.750          42.500



 115579146.075 8  90061769.94247  21993946.920                    21993952.300
      2325.040        1811.722          48.650          43.100



 132407224.904 6 103174530.80145  25196257.200                    25196274.960
      3753.235        2924.604          37.150          34.500    98875588.525 7
  25196280.760        2802.726          42.900


 112320959.968 8  87522887.38848  21373955.900                    21373962.400
     -1881.395       -1466.024          49.850          49.800    83876115.465 8
  21373964.560       -1405.016          53.750


 23 11  5 12 49 30.0000000  0 11G05G07G08G13G14G15G18G20G22G24G30
 109238798.331 8  85121118.66048  20787461.760                    20787465.340
     -1170.996        -912.467          51.100          51.250



 123856683.469 7  96511718.64047  23569152.020                    23569159.100
     -2811.079       -2190.460          46.950          46.800



 131126102.222 6 102176212.75446  24952469.140                    24952486.460
       284.566         221.742          39.900          40.650    97918908.159 6
  24952488.060         212.232          41.400


 106045915.538 8  82633219.28948  20179858.220                    20179861.060
      1110.688         865.472          50.750          48.650



 112950466.586 8  88013437.89948  21493727.400                    21493733.920
      1424.086        1109.678          48.700          48.050    84346248.488 8
  21493740.440        1063.409          53.150


 117690995.626 7  91707316.36747  22395847.420                    22395856.180
      3159.328        2461.818          47.400          45.700



 127282843.942 7  99181462.95146  24221127.740                    24221140.480
       168.593         131.372          42.500          40.350    95048907.875 7
  24221148.340         125.703          46.150


 116256783.075 7  90589651.90847  22122958.640                    22122963.380
     -3160.648       -2462.853          47.950          43.300



 115509618.858 8  90007592.95847  21980716.300                    21980721.540
      2310.108        1800.086          48.900          43.250



 132294670.379 6 103086826.06545  25174838.820                    25174856.720
      3750.542        2922.511          36.700          35.550    98791538.204 7
  25174862.360        2800.497          42.850


 112377572.536 8  87567000.98348  21384728.820                    21384735.540
     -1892.784       -1474.899          49.250          49.250    83918390.974 9
  21384737.760       -1413.363          54.050


 23 11  5 12 50  0.0000000  0 11G05G07G08G13G14G15G18G20G22G24G30
 109274218.529 8  85148718.74148  20794202.000                    20794205.540
     -1190.705        -927.824          51.300          51.350



 123941062.791 7  96577468.47447  23585209.120                    23585215.940
     -2814.832       -2193.386          46.050          46.200



 131117841.965 6 102169776.36646  24950897.140                    24950914.900
       266.047         207.313          39.500          38.750    97912739.973 6
  24950916.260         198.731          40.250


 106012774.221 8  82607394.91048  20173551.640                    20173554.580
      1098.536         856.003          50.700          49.150



 112908004.392 8  87980350.49547  21485647.140                    21485653.520
      1406.356        1095.863          49.300          47.950    84314539.730 8
  21485660.300        1050.211          53.150


 117596309.480 7  91633535.08147  22377829.180                    22377837.740
      3152.674        2456.633          47.950          45.550



 127278076.614 7  99177748.08646  24220220.980                    24220232.840
       148.883         116.008          42.350          40.300    95045347.753 7
  24220241.260         111.473          46.200


 116351754.782 8  90663655.61347  22141031.400                    22141036.120
     -3171.312       -2471.159          48.350          43.100



 115440524.989 8  89953753.63947  21967568.140                    21967573.180
      2295.781        1788.923          49.000          43.300



 132182184.897 6 102999175.11346  25153433.940                    25153451.740
      3748.271        2920.731          37.750          37.050    98707539.364 7
  25153457.120        2799.107          42.650


 112434505.556 8  87611364.28548  21395562.860                    21395569.580
     -1903.255       -1483.060          49.600          49.350    83960905.793 9
  21395572.080       -1421.150          54.100


 23 11  5 12 50 30.0000000  0 11G05G07G08G13G14G15G18G20G22G24G30
 109310237.235 8  85176785.19648  20801056.080                    20801059.740
     -1210.537        -943.277          51.250          51.000



 124025560.469 7  96643310.53047  23601288.620                    23601295.480
     -2818.580       -2196.306          46.100          46.150



 131110137.019 6 102163772.70546  24949430.440                    24949448.360
       247.667         192.993          37.800          38.700    97906986.495 6
  24949450.220         184.895          40.850


 105980003.428 8  82581859.25648  20167315.500                    20167318.540
      1086.148         846.350          50.850          49.000



 112866083.770 8  87947685.11047  21477670.000                    21477676.060
      1388.262        1081.764          49.300          47.200    84283235.405 8
  21477683.100        1036.745          53.150


 117501832.030 8  91559916.39947  22359850.740                    22359859.040
      3145.681        2451.183          48.650          45.950



 127273895.358 7  99174489.94646  24219425.520                    24219436.480
       129.682         101.051          42.200          39.300    95042225.367 7
  24219445.180          96.765          45.900


 116447056.135 8  90737916.13747  22159166.820                    22159171.780
     -3182.165       -2479.618          48.150          42.600



 115371869.974 8  89900256.29247  21954503.540                    21954508.680
      2281.178        1777.544          48.950          43.100



 132069772.909 6 102911581.42846  25132043.000                    25132060.580
      3745.762        2918.775          37.250          36.700    98623595.422 7
  25132065.740        2797.333          42.900


 112491760.657 8  87655978.55848  21406458.260                    21406464.880
     -1913.904       -1491.356          50.350          50.200    84003661.128 9
  21406467.840       -1429.160          54.200


 23 11  5 12 51  0.0000000  0 11G05G07G08G13G14G15G18G20G22G24G30
 109346852.426 8  85205316.44348  20808023.720                    20808027.560
     -1230.508        -958.840          50.650          50.600



 124110174.286 7  96709243.06147  23617390.160                    23617397.240
     -2822.437       -2199.312          43.500          43.550



 131102985.975 6 102158200.64746  24948069.280                    24948087.080
       229.090         178.521          36.800          37.000    97901646.643 6
  24948089.820         171.108          40.250


 105947603.086 8  82556612.27048  20161149.840                    20161152.960
      1073.762         836.699          50.100          49.400



 112824705.248 8  87915442.14147  21469795.920                    21469801.740
      1370.210        1067.697          49.000          47.500    84252335.900 8
  21469808.940        1023.185          53.000


 117407563.946 8  91486460.85447  22341912.100                    22341920.140
      3138.637        2445.694          48.050          45.450



 127270299.200 7  99171687.69046  24218741.300                    24218751.500
       110.024          85.734          42.900          39.100    95039539.829 7
  24218760.400          82.164          45.700


 116542683.655 7  90812430.84847  22177364.320                    22177369.280
     -3193.067       -2488.112          47.500          42.300



 115303654.960 8  89847101.79147  21941522.640                    21941527.820
      2266.413        1766.039          48.700          43.550



 131957434.655 6 102824045.19445  25110666.100                    25110683.340
      3743.235        2916.814          37.600          33.550    98539706.579 7
  25110688.020        2795.338          42.400


 112549335.399 8  87700841.89848  21417414.540                    21417421.000
     -1924.481       -1499.599          50.700          50.550    84046655.141 9
  21417424.360       -1437.131          54.450


 23 11  5 12 51 30.0000000  0 11G05G07G08G13G14G15G18G20G22G24G30
 109384062.633 8  85234311.33248  20815104.660                    20815108.620
     -1250.050        -974.067          51.250          51.050



 124194902.804 7  96775264.96047  23633513.260                    23633521.100
     -2825.965       -2202.061          43.450          43.550



 131096390.343 6 102153061.39646  24946813.440                    24946831.780
       210.811         164.274          36.850          36.650    97896721.550 6
  24946834.700         157.420          40.400


 105915573.974 8  82531654.55248  20155054.780                    20155057.840
      1061.652         827.263          50.050          49.250



 112783870.151 8  87883622.63047  21462025.160                    21462030.860
      1352.384        1053.807          48.550          47.750    84221842.210 8
  21462038.040        1009.843          52.750


 117313506.909 8  91413169.74447  22324013.600                    22324021.440
      3132.030        2440.546          48.200          45.550



 127267287.684 7  99169340.99946  24218168.160                    24218178.380
        90.807          70.756          42.350          40.500    95037290.894 7
  24218187.200          67.823          45.950


 116638634.662 7  90887197.61947  22195623.320                    22195628.520
     -3203.345       -2496.120          47.250          42.950



 115235882.245 8  89794291.94847  21928625.920                    21928631.120
      2252.087        1754.874          49.250          43.800



 131845171.256 6 102736567.26646  25089303.240                    25089320.540
      3740.865        2914.963          37.550          37.000    98455873.549 6
  25089324.120        2793.622          41.600


 112607228.007 8  87745952.92348  21428431.340                    21428437.560
     -1934.750       -1507.601          50.450          50.550    84089886.534 9
  21428441.320       -1444.826          54.800


 23 11  5 12 52  0.0000000  0 11G05G07G08G13G14G15G18G20G22G24G30
 109421868.115 8  85263770.07148  20822299.000                    20822302.920
     -1269.905        -989.539          51.700          51.700



 124279745.032 7  96841375.46247  23649658.260                    23649666.780
     -2829.933       -2205.154          43.400          43.750



 131090351.028 6 102148355.57546  24945664.280                    24945682.060
       192.251         149.809          37.750          38.000    97892211.854 6
  24945685.340         143.322          40.650


 105883917.007 8  82506986.81748  20149030.620                    20149033.740
      1049.082         817.468          50.050          49.200



 112743580.325 8  87852227.99947  21454358.120                    21454363.660
      1334.077        1039.542          48.650          47.550    84191755.701 8
  21454370.660         996.179          52.600


 117219663.292 8  91340044.92847  22306155.760                    22306163.420
      3124.743        2434.868          48.200          45.000



 127264860.922 7  99167449.92346  24217706.320                    24217716.780
        71.217          55.492          42.500          41.200    95035478.578 7
  24217725.780          53.271          46.050


 116734906.552 7  90962214.40547  22213943.460                    22213948.740
     -3214.245       -2504.615          47.200          42.550



 115168554.215 8  89741828.61847  21915813.860                    21915819.180
      2236.939        1743.071          49.450          44.350



 131732984.486 6 102649149.02446  25067954.960                    25067972.020
      3738.277        2912.950          36.800          36.800    98372097.754 7
  25067975.320        2791.562          42.750


 112665437.401 8  87791310.79548  21439508.380                    21439514.500
     -1945.608       -1516.062          50.800          50.600    84133354.459 9
  21439518.400       -1452.826          54.950


 23 11  5 12 52 30.0000000  0 11G05G07G08G13G14G15G18G20G22G24G30
 109460263.361 8  85293688.36148  20829605.620                    20829609.460
     -1289.521       -1004.824          51.850          51.750



 124364696.579 7  96907571.15447  23665824.220                    23665833.000
     -2833.541       -2207.964          44.000          43.550



 131084865.291 6 102144081.20246  24944620.500                    24944637.740
       173.362         135.096          37.900          37.550    97888115.566 6
  24944641.360         129.692          40.400


 105852630.023 8  82482607.37448  20143076.900                    20143080.120
      1036.798         807.895          50.150          49.750



 112703834.088 8  87821256.94647  21446794.540                    21446800.040
      1315.991        1025.449          48.700          47.600    84162075.116 8
  21446806.640         982.690          52.200


 117126031.900 7  91267085.47547  22288338.180                    22288345.940
      3117.534        2429.249          47.300          46.100



 127263015.487 7  99166011.82246  24217355.360                    24217366.320
        52.044          40.550          42.800          41.450    95034100.394 7
  24217374.980          38.709          45.950


 116831493.728 7  91037476.89047  22232323.600                    22232328.940
     -3224.761       -2512.809          46.800          43.100



 115101670.276 8  89689711.32647  21903086.320                    21903091.520
      2222.082        1731.496          49.450          44.650



 131620872.393 6 102561788.98446  25046620.840                    25046637.640
      3735.800        2911.015          37.350          36.950    98288377.721 7
  25046641.060        2789.808          42.550


 112723958.714 8  87836911.72348  21450644.740                    21450650.740
     -1955.840       -1524.034          50.400          50.350    84177055.327 9
  21450654.700       -1460.457          54.800


 23 11  5 12 53  0.0000000  0 11G05G07G08G13G14G15G18G20G22G24G30
 109499249.860 8  85324067.36548  20837024.740                    20837028.420
     -1309.464       -1020.364          51.850          51.900



 124449758.593 7  96973852.94447  23682011.440                    23682020.180
     -2837.338       -2210.924          44.600          44.200



 131079936.365 6 102140240.64446  24943682.380                    24943698.960
       155.147         120.896          38.400          37.650    97884435.072 6
  24943703.480         115.649          41.350


 105821716.171 8  82458518.67048  20137194.180                    20137197.360
      1024.288         798.147          50.150          49.650



 112664635.136 8  87790712.34547  21439335.180                    21439340.680
      1297.516        1011.053          48.800          47.050    84132803.215 8
  21439346.800         968.821          52.150


 117032616.823 7  91194294.61747  22270561.640                    22270569.400
      3110.106        2423.464          46.350          44.950



 127261753.425 7  99165028.27446  24217115.400                    24217126.760
        32.326          25.186          43.250          41.900    95033157.805 7
  24217135.080          24.064          45.800


 116928396.243 7  91112985.09447  22250763.600                    22250769.380
     -3235.315       -2521.032          46.100          43.400



 115035234.833 8  89637943.50447  21890444.080                    21890449.280
      2206.999        1719.740          49.950          44.350



 131508838.544 6 102474489.88346  25025301.300                    25025318.400
      3733.337        2909.097          38.400          37.500    98204716.095 6
  25025321.700        2787.595          41.500


 112782792.853 8  87882756.42348  21461840.560                    21461846.600
     -1966.134       -1532.056          49.950          50.000    84220989.818 9
  21461850.440       -1468.414          54.950


 23 11  5 12 53 30.0000000  0 12G05G07G08G13G14G15G18G20G22G23G24G30
 109538831.733 8  85354910.29548  20844557.040                    20844560.700
     -1329.224       -1035.761          51.900          52.100



 124534934.544 7  97040223.51147  23698220.220                    23698229.000
     -2841.145       -2213.889          45.050          45.100



 131075568.676 6 102136837.33746  24942851.160                    24942866.060
       136.272         106.188          39.850          39.750    97881173.620 7
  24942872.040         101.774          42.100


 105791180.752 8  82434724.85348  20131383.380                    20131386.660
      1011.563         788.231          50.050          49.400



 112625989.550 8  87760598.92847  21431981.160                    21431986.800
      1278.964         996.597          49.350          47.150    84103944.523 8
  21431992.400         955.078          52.900


 116939424.668 7  91121677.44547  22252827.580                    22252834.960
      3102.594        2417.608          47.450          43.250



 127261079.167 7  99164502.78046  24216987.340                    24216998.960
        12.552           9.776          43.600          40.850    95032654.182 7
  24217006.740           9.543          45.850


 117025615.616 7  91188740.17347  22269263.920                    22269270.040
     -3245.997       -2529.359          46.550          43.150



 114969254.893 8  89586530.63247  21877888.520                    21877893.900
      2191.724        1707.840          50.550          44.150



                                  25728473.840
      3671.831                          34.100                   100964126.830 6
  25728492.520        2742.388          39.100


 131396888.931 6 102387256.40545  25003997.740                    25004014.920
      3730.217        2906.660          36.950          35.050    98121117.328 7
  25004018.320        2785.536          43.200


 112841942.813 8  87928847.22348  21473096.520                    21473102.580
     -1976.896       -1540.440          50.300          50.350    84265160.138 9
  21473106.120       -1476.278          55.050


 23 11  5 12 54  0.0000000  0 12G05G07G08G13G14G15G18G20G22G23G24G30
 109579002.280 8  85386211.93648  20852201.220                    20852205.000
     -1349.366       -1051.457          50.800          50.950



 124620217.616 7  97106677.58347  23714449.460                    23714458.120
     -2845.316       -2217.139          44.650          45.000



 131071758.323 6 102133868.34346  24942126.320                    24942140.500
       117.265          91.375          39.750          40.700    97878328.380 6
  24942146.460          87.478          41.000


 105761019.623 8  82411222.68548  20125643.840                    20125647.300
       998.394         777.969          49.800          49.550



 112587893.499 8  87730913.72847  21424731.780                    21424737.600
      1260.047         981.856          49.100          47.550    84075496.209 8
  21424742.740         940.932          52.550


 116846452.320 7  91049231.55847  22235135.520                    22235142.220
      3094.795        2411.531          47.400          43.400



 127260987.144 7  99164431.02446  24216969.840                    24216981.780
        -7.067          -5.510          42.900          41.600    95032585.431 7
  24216989.160          -5.412          46.000


 117123143.745 7  91264735.85647  22287822.960                    22287829.440
     -3256.732       -2537.721          45.900          43.300



 114903727.210 8  89535470.15047  21865419.020                    21865424.220
      2176.072        1695.642          49.950          44.250



 135093906.158 6 105268035.57146  25707517.900                    25707529.780
      3667.991        2858.176          37.750          37.100   100881889.042 7
  25707536.900        2739.409          43.750


 131285019.605 6 102300085.53645  24982709.640                    24982727.040
      3727.466        2904.520          37.550          35.300    98037578.567 7
  24982730.680        2783.238          43.200


 112901401.797 8  87975178.82148  21484411.360                    21484417.380
     -1987.634       -1548.809          50.750          50.900    84309561.235 9
  21484420.540       -1484.328          54.700


 23 11  5 12 54 30.0000000  0 12G05G07G08G13G14G15G18G20G22G23G24G30
 109619757.739 8  85417969.35948  20859956.540                    20859960.520
     -1368.215       -1066.145          50.400          50.200



 124705604.619 7  97173212.60547  23730698.080                    23730707.240
     -2847.940       -2219.185          44.350          44.600



 131068502.958 6 102131331.79146  24941506.960                    24941520.520
        99.393          77.450          39.950          40.300    97875897.531 6
  24941526.540          73.960          41.800


 105731231.197 8  82388010.94748  20119975.240                    20119978.900
       986.758         768.903          49.800          49.700



 112550345.950 8  87701655.92747  21417586.740                    21417592.680
      1242.416         968.117          49.300          47.200    84047457.492 8
  21417597.700         927.744          52.550


 116753699.010 8  90976956.36947  22217485.120                    22217491.380
      3088.077        2406.299          48.000          43.200



 127261474.485 7  99164810.70346  24217062.720                    24217074.620
       -26.065         -20.313          43.950          40.650    95032949.267 7
  24217081.780         -19.361          46.150


 117220975.882 7  91340968.42147  22306439.920                    22306446.700
     -3266.080       -2545.005          46.050          43.700



 114838651.830 8  89484762.11847  21853035.540                    21853040.680
      2161.562        1684.336          50.000          43.350



 134983881.804 6 105182302.25845  25686581.240                    25686592.180
      3665.618        2856.315          38.600          35.900   100799727.971 7
  25686600.340        2737.463          42.450


 131173229.537 6 102212976.35946  24961436.520                    24961454.400
      3725.125        2902.688          38.800          36.550    97954098.972 7
  24961458.200        2781.752          44.600


 112961165.812 8  88021748.11248  21495784.280                    21495790.200
     -1997.093       -1556.179          51.300          50.950    84354190.114 9
  21495793.160       -1491.389          54.600


 23 11  5 12 55  0.0000000  0 12G05G07G08G13G14G15G18G20G22G23G24G30
 109661102.682 8  85450186.11448  20867824.020                    20867828.120
     -1388.405       -1081.877          50.300          50.250



 124791099.369 7  97239831.63147  23746967.240                    23746976.980
     -2852.058       -2222.392          44.250          44.700



 131065808.775 6 102129232.45046  24940994.240                    24941007.760
        80.015          62.352          39.850          39.900    97873885.667 6
  24941013.900          59.748          41.600


 105701821.512 8  82365094.32448  20114378.860                    20114382.420
       973.651         758.689          50.700          49.650



 112513353.763 8  87672830.86747  21410547.320                    21410553.340
      1223.365         953.272          49.200          47.850    84019833.478 8
  21410558.420         913.689          52.950


 116661171.980 8  90904857.50247  22199877.820                    22199883.880
      3080.143        2400.115          48.700          43.300



 127262546.263 7  99165645.82646  24217266.780                    24217278.500
       -45.514         -35.469          43.550          39.700    95033749.603 7
  24217285.440         -34.197          46.100


 117319114.814 7  91417440.03047  22325115.180                    22325122.300
     -3276.670       -2553.260          45.950          43.400



 114774036.040 8  89434412.20547  21840739.480                    21840744.420
      2145.821        1672.069          50.050          43.950



 134873967.358 6 105096654.45446  25665665.340                    25665676.460
      3661.769        2853.320          39.650          37.200   100717648.769 7
  25665684.620        2734.398          42.400


 131061525.408 6 102125934.21246  24940179.720                    24940197.520
      3721.223        2899.654          37.800          36.650    97870683.545 7
  24940201.940        2779.313          43.500


 113021238.813 8  88068558.16348  21507215.900                    21507221.800
     -2007.895       -1564.597          51.300          51.400    84399049.720 9
  21507224.720       -1499.354          54.850


 23 11  5 12 55 30.0000000  0 12G05G07G08G13G14G15G18G20G22G23G24G30
 109703032.266 8  85482858.43548  20875802.820                    20875807.060
     -1407.459       -1096.726          50.100          50.150



 124876697.289 7  97306531.03047  23763256.040                    23763266.340
     -2855.205       -2224.845          44.200          44.600



 131063673.564 6 102127568.73646  24940587.900                    24940601.280
        61.867          48.209          39.750          39.800    97872291.274 6
  24940607.680          46.283          41.850


 105672788.038 8  82342470.85348  20108854.020                    20108857.360
       961.586         749.290          50.400          49.550



 112476914.903 8  87644436.97247  21403613.260                    21403619.120
      1205.370         939.249          49.550          46.700    83992622.675 8
  21403624.500         900.142          52.850


 116568869.794 8  90832933.84847  22182313.260                    22182319.420
      3072.939        2394.503          48.800          43.850



 127264198.698 7  99166933.38046  24217581.080                    24217592.860
       -64.892         -50.565          42.650          40.550    95034983.476 7
  24217599.540         -48.351          45.950


 117417554.380 7  91494145.91547  22343847.740                    22343855.000
     -3286.251       -2560.723          46.200          43.700



 114709879.133 8  89384419.85947  21828530.720                    21828535.620
      2130.965        1660.493          49.850          43.500



 134764162.612 6 105011092.34946  25644770.100                    25644780.740
      3658.428        2850.729          41.750          41.200   100635651.757 8
  25644789.800        2731.871          48.400


 130949905.052 6 102038957.35046  24918938.760                    24918956.940
      3719.358        2898.201          39.350          36.950    97787330.719 7
  24918961.440        2777.386          43.850


 113081615.831 8  88115605.09248  21518705.280                    21518711.320
     -2017.560       -1572.128          51.350          51.250    84444136.341 9
  21518714.120       -1506.651          54.450


 23 11  5 12 56  0.0000000  0 12G05G07G08G13G14G15G18G20G22G23G24G30
 109745547.768 8  85515987.31348  20883893.200                    20883897.460
     -1427.007       -1111.956          50.350          50.400



 124962399.232 7  97373311.50147  23779564.740                    23779575.320
     -2858.453       -2227.374          45.400          45.550



 131062098.982 6 102126341.88546  24940288.060                    24940302.160
        42.611          33.206          38.700          38.750    97871115.603 6
  24940308.100          32.080          41.750


 105644133.801 8  82320142.90348  20103401.220                    20103404.460
       948.699         739.247          49.700          49.550



 112441032.757 8  87616476.88347  21396785.120                    21396790.740
      1186.591         924.617          49.450          47.450    83965827.594 8
  21396796.540         886.113          53.200


 116476796.643 8  90761188.69647  22164792.260                    22164798.540
      3065.183        2388.458          48.900          44.200



 127266433.436 7  99168674.67946  24218006.020                    24218017.800
       -84.257         -65.659          42.950          40.050    95036652.205 7
  24218024.840         -62.931          46.400


 117516294.069 7  91571085.65447  22362637.360                    22362644.820
     -3296.381       -2568.616          45.600          43.350



 114646185.087 8  89334788.19647  21816410.020                    21816414.680
      2115.313        1648.297          49.650          43.800



 134654470.725 6 104925618.21146  25623896.540                    25623907.460
      3654.345        2847.547          38.700          38.900   100553739.055 7
  25623916.100        2728.887          46.800


 130838372.035 6 101952048.47445  24897714.580                    24897732.760
      3715.896        2895.494          36.200          35.500    97704043.145 7
  24897737.600        2775.058          43.950


 113142297.452 8  88162889.36148  21530252.600                    21530258.800
     -2028.010       -1580.271          50.950          50.750    84489450.405 9
  21530261.540       -1514.326          54.700


 23 11  5 12 56 30.0000000  0 12G05G07G08G13G14G15G18G20G22G23G24G30
 109788645.501 8  85549569.86248  20892094.520                    20892098.820
     -1446.432       -1127.093          50.500          50.550



 125048202.494 7  97440170.95347  23795892.800                    23795903.360
     -2861.812       -2229.990          45.000          45.200



 131061084.280 6 102125551.26346  24940094.740                    24940109.440
        24.476          19.074          38.350          37.700    97870357.935 7
  24940115.400          18.244          42.500


 105615857.810 8  82298109.69148  20098020.400                    20098023.640
       936.127         729.450          50.100          49.600



 112405706.926 8  87588950.27847  21390062.880                    21390068.180
      1168.033         910.157          49.900          46.950    83939447.941 8
  21390074.380         872.238          53.500


 116384952.549 8  90689622.02947  22147314.840                    22147321.280
      3057.522        2382.491          49.200          44.750



 127269248.380 7  99170868.06046  24218541.540                    24218553.340
      -103.434         -80.600          43.000          38.600    95038754.165 7
  24218560.800         -77.345          46.650


 117615329.435 7  91648255.79247  22381483.340                    22381490.740
     -3306.211       -2576.277          45.950          42.250



 114582954.435 8  89285517.60747  21804377.480                    21804382.240
      2099.860        1636.257          49.550          44.100



 134544893.769 6 104840233.62146  25603044.680                    25603055.660
      3650.465        2844.525          41.100          38.750   100471912.148 7
  25603064.060        2726.074          44.850


 130726925.813 6 101865207.38545  24876506.640                    24876525.500
      3713.020        2893.269          36.650          35.800    97620820.367 7
  24876530.200        2772.917          43.500


 113203280.447 8  88210408.45948  21541857.380                    21541863.500
     -2037.947       -1588.015          51.100          51.250    84534989.514 9
  21541866.360       -1521.802          54.700


 23 11  5 12 57  0.0000000  0 12G05G07G08G13G14G15G18G20G22G23G24G30
 109832325.233 8  85583605.93348  20900406.680                    20900410.880
     -1466.369       -1142.629          50.750          50.650



 125134106.367 7  97507108.78447  23812240.100                    23812250.660
     -2865.882       -2233.162          45.850          45.800



 131060630.499 6 102125197.75446  24940008.260                    24940023.080
         5.079           3.962          39.700          39.350    97870019.187 7
  24940029.380           3.815          42.050


 105587961.691 8  82276372.47948  20092711.960                    20092715.160
       922.828         719.088          50.550          49.600



 112370939.315 8  87561858.65947  21383446.920                    21383451.800
      1148.926         895.268          49.900          46.800    83913485.146 8
  21383458.480         858.009          53.400


 116293340.428 8  90618236.13047  22129881.560                    22129888.240
      3049.293        2376.078          48.800          44.950



 127272643.648 7  99173513.65046  24219187.540                    24219199.500
      -123.615         -96.326          43.200          39.550    95041289.479 7
  24219207.220         -92.174          46.700


 117714658.381 7  91725654.67047  22400385.100                    22400392.860
     -3316.475       -2584.275          46.150          43.200



 114520189.991 8  89236610.30647  21792433.720                    21792438.480
      2083.729        1623.688          49.600          44.000



 134435433.826 6 104754940.11045  25582214.820                    25582226.180
      3646.410        2841.356          36.150          35.750   100390172.551 7
  25582234.300        2722.694          42.650


 130615568.369 6 101778435.36346  24855315.820                    24855334.560
      3709.633        2890.628          36.500          37.000    97537663.870 7
  24855339.400        2770.364          42.900


 113264563.837 8  88258161.63848  21553519.320                    21553525.380
     -2048.358       -1596.127          51.000          51.000    84580752.948 9
  21553528.320       -1529.674          54.400


 23 11  5 12 57 30.0000000  0 12G05G07G08G13G14G15G18G20G22G23G24G30
 109876582.419 8  85618091.97648  20908828.800                    20908832.880
     -1485.196       -1157.298          51.100          51.250



 125220106.142 7  97574121.34347  23828605.660                    23828616.120
     -2868.825       -2235.456          44.800          44.850



 131060734.602 6 102125279.01046  24940028.200                    24940043.360
       -13.274         -10.338          39.600          39.650    97870097.082 6
  24940048.680          -9.903          41.150


 105560442.768 8  82254929.20648  20087475.420                    20087478.440
       910.725         709.657          50.800          49.850



 112336727.675 8  87535200.26347  21376936.700                    21376941.400
      1130.837         881.173          49.700          46.950    83887937.536 8
  21376948.300         844.310          53.700


 116201958.243 8  90547029.40747  22112491.980                    22112498.820
      3041.906        2370.321          48.700          44.350



 127276615.207 7  99176608.26746  24219943.380                    24219955.160
      -142.306        -110.891          43.000          40.400    95044255.159 7
  24219963.520        -106.340          46.950


 117814274.864 7  91803277.62347  22419341.760                    22419349.420
     -3325.692       -2591.457          46.000          42.200



 114457890.082 8  89188064.97747  21780578.300                    21780583.240
      2068.383        1611.729          49.450          44.400



 134326090.385 6 104669737.46545  25561407.460                    25561418.740
      3642.945        2838.654          38.350          35.000   100308520.037 7
  25561426.780        2720.080          42.600


 130504297.446 6 101691730.79145  24834141.520                    24834160.260
      3707.094        2888.647          36.700          34.450    97454572.027 7
  24834164.800        2768.313          43.550


 113326142.593 8  88306144.96748  21565237.380                    21565243.560
     -2057.930       -1603.585          50.350          50.150    84626736.936 9
  21565246.300       -1536.795          54.300


 23 11  5 12 58  0.0000000  0 12G05G07G08G13G14G15G18G20G22G23G24G30
 109921422.738 8  85653032.39448  20917361.860                    20917365.820
     -1503.718       -1171.731          51.600          51.700



 125306208.522 7  97641213.83647  23844990.680                    23845000.960
     -2870.978       -2237.135          45.050          45.400



 131061404.648 6 102125801.23446  24940155.720                    24940171.340
       -31.141         -24.263          40.300          40.150    97870597.561 6
  24940175.620         -23.129          41.100


 105533309.527 8  82233786.46648  20082312.360                    20082315.200
       898.586         700.198          51.350          49.750



 112303081.173 8  87508982.25347  21370533.940                    21370538.580
      1112.820         867.134          49.650          46.600    83862811.943 8
  21370545.680         830.986          53.600


 116110816.012 8  90476009.65847  22095148.040                    22095154.920
      3034.773        2364.764          48.900          44.950



 127281170.573 7  99180157.80746  24220810.280                    24220821.940
      -160.968        -125.432          43.700          39.550    95047656.771 7
  24220830.760        -120.068          46.950


 117914184.014 7  91881128.60447  22438354.080                    22438361.860
     -3334.521       -2598.339          46.650          42.300



 114396065.039 8  89139889.68947  21768813.240                    21768818.620
      2053.475        1600.112          49.350          44.850



 134216873.895 6 104584633.77445  25540624.340                    25540635.440
      3638.798        2835.435          38.100          34.600   100226962.337 7
  25540643.540        2717.281          43.850


 130393122.231 6 101605100.84846  24812985.440                    24813004.320
      3704.833        2886.889          38.200          37.850    97371551.683 7
  24813008.540        2766.560          42.900


 113388023.052 8  88354363.38048  21577012.840                    21577019.240
     -2067.077       -1610.714          50.200          50.300    84672946.214 8
  21577021.580       -1543.552          53.950


 23 11  5 12 58 30.0000000  0 12G05G07G08G13G14G15G18G20G22G23G24G30
 109966838.165 8  85688420.94748  20926004.380                    20926008.100
     -1523.568       -1187.199          51.400          51.400



 125392404.882 7  97708379.56947  23861393.640                    23861403.520
     -2874.729       -2240.059          44.250          43.850



 131062633.695 6 102126759.02646  24940389.620                    24940405.520
       -50.169         -39.090          40.100          40.150    97871515.510 6
  24940409.020         -37.563          40.950


 105506555.669 8  82212939.33648  20077221.400                    20077224.240
       885.336         689.873          50.650          50.000



 112269993.746 8  87483199.87947  21364237.520                    21364242.300
      1093.439         852.032          49.600          47.000    83838103.844 8
  21364249.420         816.597          53.750


 116019908.483 8  90405172.79347  22077848.900                    22077855.840
      3026.155        2358.049          49.050          45.300



 127286301.729 7  99184155.99646  24221786.900                    24221798.120
      -180.797        -140.885          43.400          39.250    95051488.376 7
  24221807.400        -135.008          46.350


 118014375.545 7  91959199.66547  22457420.260                    22457427.920
     -3344.599       -2606.190          46.350          42.350



 114334709.447 8  89092080.20247  21757137.560                    21757143.100
      2037.264        1587.480          49.150          45.100



 134107779.706 6 104499625.52046  25519864.200                    25519875.460
      3634.212        2831.854          40.050          38.750   100145496.146 7
  25519883.400        2713.939          44.800


 130282036.830 6 101518540.85646  24791846.840                    24791865.820
      3701.448        2884.250          38.700          37.250    97288598.363 6
  24791869.060        2764.012          41.950


 113450196.433 8  88402810.02948  21588844.140                    21588850.760
     -2077.405       -1618.762          49.850          49.800    84719374.225 8
  21588852.760       -1551.334          53.950


 23 11  5 12 59  0.0000000  0 12G05G07G08G13G14G15G18G20G22G23G24G30
 110012828.470 8  85724257.45248  20934756.240                    20934759.960
     -1542.802       -1202.187          52.000          52.050



 125478695.457 7  97775618.71747  23877814.320                    23877823.920
     -2878.257       -2242.806          44.600          44.500



 131064423.208 6 102128153.58846  24940730.120                    24940746.500
       -69.630         -54.255          39.600          39.550    97872851.968 6
  24940749.220         -51.554          39.900


 105480183.208 8  82192389.39548  20072202.800                    20072205.760
       872.462         679.841          50.800          50.050



 112237467.841 8  87457855.06747  21358047.980                    21358052.820
      1074.651         837.392          49.850          46.150    83813815.074 8
  21358060.020         802.508          53.800


 115929238.608 8  90334521.09447  22060594.920                    22060601.840
      3018.150        2351.811          49.750          44.500



 127292009.465 7  99188603.55546  24222873.360                    24222884.100
      -199.908        -155.773          44.300          37.400    95055750.613 7
  24222893.360        -149.335          46.400


 118114848.155 7  92037489.71147  22476539.840                    22476547.500
     -3353.974       -2613.496          46.850          42.600



 114273826.782 8  89044639.23147  21745551.920                    21745557.740
      2021.370        1575.096          49.750          44.900



 133998811.054 6 104414715.04446  25499127.960                    25499139.300
      3629.716        2828.350          38.850          37.400   100064123.635 7
  25499146.900        2710.746          44.050


 130171043.689 6 101432052.74746  24770725.620                    24770744.360
      3698.041        2881.594          39.700          38.550    97205713.988 7
  24770747.320        2761.518          42.450


 113512662.433 8  88451484.69748  21600731.140                    21600737.920
     -2087.174       -1626.375          50.200          50.300    84766020.748 9
  21600739.880       -1558.589          54.050


 23 11  5 12 59 30.0000000  0 12G05G07G08G13G14G15G18G20G22G23G24G30
 110059397.273 8  85760544.73248  20943618.100                    20943621.820
     -1562.007       -1217.151          51.700          51.750



 125565083.873 7  97842934.08547  23894253.480                    23894263.240
     -2881.231       -2245.127          42.900          42.600



 131066778.497 6 102129988.94046  24941178.120                    24941195.040
       -88.110         -68.653          38.950          40.150    97874610.860 6
  24941197.680         -65.740          41.000


 105454198.000 8  82172141.21048  20067257.800                    20067261.000
       859.622         669.837          50.550          50.050



 112205509.713 8  87432952.66847  21351966.460                    21351971.300
      1055.646         822.582          49.500          46.850    83789950.283 8
  21351978.660         788.378          53.500


 115838813.907 8  90264060.44047  22043387.440                    22043394.520
      3010.022        2345.476          49.200          44.700



 127298298.345 7  99193503.92646  24224070.340                    24224081.040
      -219.348        -170.922          44.000          39.650    95060446.799 7
  24224089.840        -163.829          46.500


 118215604.390 7  92116000.76447  22495713.440                    22495721.020
     -3363.324       -2620.781          46.950          42.400



 114213424.180 8  88997572.33847  21734057.680                    21734063.520
      2005.211        1562.505          49.950          44.800



 133889975.569 6 104329908.23446  25478417.180                    25478428.780
      3625.416        2825.001          39.750          38.150    99982850.439 7
  25478435.840        2707.415          44.150


 130060149.258 6 101345641.58246  24749623.240                    24749641.720
      3694.723        2879.008          40.000          38.750    97122903.265 6
  24749644.100        2759.018          41.850


 113575424.641 8  88500390.17048  21612674.480                    21612681.260
     -2097.187       -1634.178          50.600          50.700    84812888.458 8
  21612683.400       -1566.000          53.700


                            4  1
RINEX FILE SPLICE; other post-header comments skipped       COMMENT
 23 11  5 13  0  0.0000000  0 12G05G07G08G13G14G15G18G20G22G23G24G30
 110106539.904 8  85797279.16048  20952589.080                    20952592.840
     -1580.809       -1231.802          51.450          51.600



 125651565.304 7  97910321.92246  23910710.300                    23910720.640
     -2884.021       -2247.298          42.400          41.800



 131069696.205 6 102132262.50346  24941733.220                    24941750.500
      -106.088         -82.664          39.500          39.250    97876789.713 6
  24941753.320         -79.549          41.200


 105428596.681 8  82152192.16148  20062385.900                    20062389.240
       847.274         660.215          50.550          50.200



 112174116.425 8  87408490.40747  21345992.440                    21345997.320
      1037.288         808.277          49.250          46.600    83766507.297 8
  21346004.660         774.546          53.850


 115748632.052 8  90193789.02447  22026226.060                    22026233.480
      3002.204        2339.386          48.900          44.750



 127305163.499 7  99198853.33146  24225376.860                    24225387.740
      -238.329        -185.713          44.000          40.700    95065573.293 7
  24225396.100        -177.899          47.150


 118316637.392 7  92194727.48847  22514939.720                    22514947.220
     -3372.031       -2627.566          47.250          42.550



 114153499.457 8  88950877.81147  21722654.400                    21722660.300
      1989.882        1550.560          49.200          45.350



 133781271.895 6 104245204.15646  25457731.600                    25457742.680
      3621.519        2821.965          39.450          38.100    99901675.696 7
  25457750.340        2704.333          45.350


 129949350.703 6 101259305.13446  24728539.300                    24728557.140
      3691.963        2876.857          39.750          38.850    97040164.181 7
  24728559.540        2756.939          43.050


 113638477.365 8  88549522.02848  21624673.120                    21624679.720
     -2106.416       -1641.367          50.400          50.650    84859973.129 9
  21624682.140       -1573.028          54.050


 23 11  5 13  0 30.0000000  0 12G05G07G08G13G14G15G18G20G22G23G24G30
 110154251.998 8  85834457.32548  20961668.320                    20961672.200
     -1599.832       -1246.625          50.950          50.900



 125738136.634 7  97977779.79546  23927184.340                    23927194.960
     -2887.074       -2249.679          42.000          41.900



 131073174.264 6 102134972.69746  24942395.000                    24942412.300
      -125.052         -97.441          39.400          38.800    97879386.976 7
  24942415.440         -93.411          42.050


 105403378.223 8  82132541.43348  20057586.900                    20057590.240
       834.395         650.177          50.550          50.350



 112143287.187 8  87384467.65947  21340125.640                    21340130.700
      1018.407         793.566          48.850          47.200    83743485.496 8
  21340137.980         760.505          53.750


 115658692.824 8  90123706.66247  22009110.880                    22009118.580
      2994.066        2333.044          48.300          45.250



 127312602.404 7  99204649.81346  24226792.360                    24226803.660
      -257.539        -200.685          43.600          40.300    95071128.239 7
  24226811.640        -192.150          47.150


 118417942.555 7  92273666.27147  22534217.780                    22534225.380
     -3381.198       -2634.709          47.000          42.000



 114094052.680 8  88904555.71747  21711342.120                    21711347.720
      1973.547        1537.832          49.600          45.400



 133672700.663 6 104160603.32346  25437071.080                    25437082.240
      3617.527        2818.853          39.350          38.650    99820599.966 7
  25437090.000        2701.006          45.600


 129838647.421 6 101173042.89446  24707473.140                    24707490.480
      3688.626        2874.255          39.100          38.800    96957496.215 7
  24707493.100        2754.698          42.750


 113701817.148 8  88598877.57248  21636726.340                    21636732.720
     -2116.019       -1648.850          49.700          49.600    84907272.151 8
  21636735.460       -1580.082          53.950


 23 11  5 13  1  0.0000000  0 12G05G07G08G13G14G15G18G20G22G23G24G30
 110202535.650 8  85872080.85848  20970856.240                    20970860.360
     -1618.575       -1261.230          50.700          50.650



 125824799.674 7  98045309.14546  23943676.060                    23943686.520
     -2889.854       -2251.844          42.200          41.700



 131077216.760 6 102138122.68846  24943164.140                    24943181.540
      -143.577        -111.880          38.500          38.500    97882405.698 6
  24943185.000        -107.426          41.650


 105378546.591 8  82113192.12248  20052861.620                    20052865.000
       821.630         640.231          50.750          50.400



 112113026.459 8  87360887.90247  21334367.080                    21334372.320
       999.528         778.855          48.900          47.250    83720888.235 8
  21334379.420         746.432          53.650


 115569001.812 8  90053817.69347  21992042.960                    21992050.840
      2985.896        2326.678          48.300          46.100



 127320617.789 7  99210895.47946  24228317.500                    24228329.320
      -276.412        -215.389          42.850          40.250    95077113.659 7
  24228337.040        -206.389          47.400


 118519520.457 7  92352817.59247  22553547.820                    22553555.180
     -3390.253       -2641.766          46.550          42.350



 114035089.235 8  88858610.24747  21700121.800                    21700127.240
      1957.734        1525.510          49.850          44.450



 133564267.486 6 104076109.88346  25416436.860                    25416447.900
      3612.592        2815.004          40.250          39.500    99739627.047 7
  25416455.700        2697.667          44.650


 129728044.041 6 101086858.54246  24686425.940                    24686443.200
      3685.649        2871.936          40.550          40.700    96874902.891 7
  24686445.780        2752.153          42.050


 113765445.924 8  88648458.29948  21648834.500                    21648840.900
     -2125.449       -1656.199          49.300          49.400    84954786.974 8
  21648843.720       -1587.174          53.800


 23 11  5 13  1 30.0000000  0 12G05G07G08G13G14G15G18G20G22G23G24G30
 110251390.522 8  85910149.50548  20980152.880                    20980157.320
     -1637.652       -1276.096          49.650          49.700



 125911554.400 7  98112909.96847  23960185.340                    23960194.980
     -2892.940       -2254.248          43.200          43.600



 131081824.580 6 102141713.28346  24944041.020                    24944058.080
      -163.108        -127.096          39.150          39.250    97885846.616 6
  24944061.620        -121.261          40.350


 105354103.706 8  82094145.72148  20048210.360                    20048213.860
       808.588         630.068          50.400          50.300



 112083336.161 8  87337752.63347  21328717.100                    21328722.660
       980.523         764.045          48.650          47.700    83698716.941 8
  21328729.340         732.206          53.350


 115479561.928 7  89984124.39447  21975022.880                    21975030.880
      2977.319        2319.992          47.750          45.050



 127329209.759 7  99217590.46946  24229952.400                    24229964.440
      -295.509        -230.270          42.350          41.150    95083529.700 7
  24229972.240        -220.713          47.150


 118621369.137 7  92432179.87546  22572929.340                    22572936.800
     -3399.100       -2648.660          46.700          41.950



 113976612.070 8  88813043.71347  21688993.980                    21688999.300
      1941.372        1512.761          49.950          44.400



 133455975.995 6 103991726.87346  25395829.720                    25395840.740
      3607.776        2811.252          39.700          38.450    99658760.017 7
  25395848.360        2694.086          42.200


 129617542.671 6 101000753.66146  24665397.960                    24665415.460
      3682.399        2869.402          38.750          38.200    96792385.727 7
  24665418.120        2749.531          44.050


 113829362.918 8  88698263.62048  21660997.460                    21661004.280
     -2135.025       -1663.660          49.000          49.000    85002517.049 8
  21661006.720       -1594.249          53.550


 23 11  5 13  2  0.0000000  0 12G05G07G08G13G14G15G18G20G22G23G24G30
 110300808.697 8  85948657.07448  20989556.860                    20989561.460
     -1656.776       -1290.998          49.950          50.000



 125998393.278 7  98180576.36447  23976710.680                    23976719.760
     -2896.346       -2256.903          43.400          43.750



 131086991.702 6 102145739.64746  24945024.380                    24945041.220
      -182.107        -141.899          39.750          39.900    97889705.248 6
  24945044.280        -135.722          40.800


 105330044.148 8  82075398.02148  20043631.980                    20043635.520
       795.390         619.785          50.200          50.150



 112054211.120 8  87315057.82747  21323174.740                    21323180.500
       961.145         748.944          49.000          47.900    83676967.744 8
  21323186.720         717.821          53.250


 115390368.477 7  89914623.11347  21958049.800                    21958057.700
      2968.804        2313.357          47.900          45.550



 127338371.372 7  99224729.36646  24231695.820                    24231707.780
      -315.231        -245.633          42.000          40.700    95090371.109 7
  24231715.940        -235.268          46.900


 118723479.729 7  92511746.27346  22592360.680                    22592368.000
     -3408.204       -2655.753          46.850          41.000



 113918616.939 8  88767852.77747  21677957.880                    21677962.940
      1924.871        1499.902          50.450          44.650



 133347822.273 6 103907451.13146  25375248.840                    25375259.720
      3602.791        2807.361          40.150          39.350    99577995.670 7
  25375267.500        2690.335          45.650


 129507138.446 6 100914724.47446  24644388.400                    24644405.860
      3678.238        2866.164          37.250          37.550    96709941.095 7
  24644409.100        2746.786          43.700


 113893560.384 8  88748287.49248  21673213.880                    21673221.160
     -2144.894       -1671.350          49.000          48.800    85050456.572 8
  21673223.180       -1601.586          53.500


 23 11  5 13  2 30.0000000  0 12G05G07G08G13G14G15G18G20G22G23G24G30
 110350796.163 8  85987608.25048  20999069.240                    20999073.940
     -1675.315       -1305.444          50.500          50.550



 126085322.466 7  98248313.14447  23993253.240                    23993261.920
     -2898.719       -2258.751          44.950          44.750



 131092725.324 6 102150207.56846  24946115.420                    24946132.180
      -200.055        -155.879          39.750          40.100    97893987.047 6
  24946134.920        -149.541          40.600


 105306375.406 8  82056954.83248  20039127.860                    20039131.300
       782.938         610.081          50.050          49.800



 112025659.521 8  87292809.84847  21317741.620                    21317747.480
       942.556         734.459          49.350          47.500    83655646.767 8
  21317753.200         703.851          53.100


 115301430.811 7  89845321.14347  21941125.520                    21941133.440
      2960.710        2307.051          47.650          46.600



 127348108.942 7  99232317.04846  24233548.780                    24233560.840
      -333.539        -259.902          42.050          41.100    95097642.642 7
  24233568.980        -249.258          46.550


 118825856.638 7  92591520.17846  22611842.660                    22611850.060
     -3416.548       -2662.254          47.000          41.700



 113861112.865 8  88723044.49847  21667015.220                    21667020.360
      1909.012        1487.544          50.750          43.800



 133239816.916 6 103823291.12146  25354696.180                    25354707.240
      3598.346        2803.910          39.750          39.150    99497342.425 7
  25354714.940        2686.919          45.200


 129396839.684 6 100828777.47546  24623399.020                    24623416.540
      3675.463        2863.998          38.800          38.850    96627575.233 7
  24623419.880        2744.518          43.800


 113958043.899 8  88798534.27348  21685484.800                    21685492.440
     -2153.684       -1678.199          49.200          49.150    85098609.721 8
  21685494.280       -1608.321          53.450


 23 11  5 13  3  0.0000000  0 12G05G07G08G13G14G15G18G20G22G23G24G30
 110401347.302 8  86026998.65848  21008688.920                    21008693.600
     -1694.749       -1320.587          50.550          50.400



 126172337.411 7  98316116.73147  24009812.100                    24009820.720
     -2901.967       -2261.282          45.000          44.900



 131099022.811 6 102155114.89346  24947313.740                    24947330.220
      -219.536        -171.062          39.700          39.300    97898689.930 6
  24947332.420        -163.925          39.350


 105283095.330 8  82038814.49948  20034697.640                    20034701.060
       769.203         599.379          50.050          49.900



 111997679.125 8  87271006.95447  21312417.240                    21312423.060
       922.940         719.175          49.250          47.950    83634752.329 8
  21312428.460         689.240          53.050


 115212747.526 7  89776217.38547  21924249.640                    21924257.620
      2951.591        2299.944          47.400          46.700



 127358418.470 6  99240350.42946  24235510.460                    24235522.680
      -353.455        -275.419          41.650          41.500    95105341.284 7
  24235530.720        -263.924          46.400


 118928494.065 7  92671497.05246  22631374.180                    22631381.720
     -3425.791       -2669.459          46.950          41.150



 113804098.510 8  88678617.80147  21656165.760                    21656170.860
      1892.098        1474.364          50.750          44.300



 133131958.404 6 103739245.53946  25334171.540                    25334182.540
      3592.802        2799.589          39.550          37.850    99416798.711 7
  25334190.080        2682.708          44.350


 129286644.573 6 100742911.20346  24602429.460                    24602447.060
      3670.920        2860.458          38.250          38.650    96545286.711 7
  24602450.520        2741.354          44.250


 114022808.656 8  88849000.18648  21697809.300                    21697817.060
     -2163.754       -1686.046          49.550          49.800    85146972.866 8
  21697818.900       -1615.746          53.350


 23 11  5 13  3 30.0000000  0 12G05G07G08G13G14G15G18G20G22G23G24G30
 110452463.001 8  86066828.98048  21018416.080                    21018420.660
     -1712.862       -1334.700          50.550          50.500



 126259438.686 7  98383987.59947  24026387.280                    24026396.140
     -2904.148       -2262.981          45.300          45.550



 131105885.499 6 102160462.57946  24948619.320                    24948636.040
      -237.574        -185.121          38.300          37.950    97903814.876 6
  24948637.100        -177.817          38.700


 105260206.461 8  82020979.01348  20030341.880                    20030345.400
       756.710         589.645          49.800          49.650



 111970272.641 8  87249651.26247  21307202.080                    21307207.800
       904.346         704.686          49.200          47.650    83614286.467 8
  21307212.960         675.257          52.950


 115124322.516 7  89707314.90647  21907422.840                    21907430.840
      2943.607        2293.725          47.300          45.550



 127369300.939 7  99248830.21946  24237581.280                    24237593.580
      -371.835        -289.742          42.050          41.150    95113467.760 7
  24237601.280        -277.816          46.200


 119031390.676 7  92751675.92746  22650955.040                    22650962.420
     -3433.815       -2675.710          47.350          40.750



 113747577.175 8  88634575.28647  21645410.080                    21645415.220
      1876.192        1461.972          50.200          44.750



 133024251.389 6 103655317.98046  25313675.540                    25313686.680
      3588.001        2795.847          38.500          38.350    99336368.132 7
  25313694.100        2679.290          45.900


 129176556.010 6 100657127.99146  24581480.000                    24581497.840
      3668.380        2858.479          38.550          38.500    96463077.856 7
  24581501.520        2739.174          44.750


 114087854.918 8  88899685.47048  21710187.400                    21710194.960
     -2172.626       -1692.959          49.700          49.650    85195546.240 8
  21710197.020       -1622.365          53.100


 23 11  5 13  4  0.0000000  0 12G05G07G08G13G14G15G18G20G22G23G24G30
 110504137.354 8  86107094.62248  21028249.580                    21028253.980
     -1732.190       -1349.762          50.800          50.850



 126346621.306 7  98451921.83547  24042977.800                    24042986.880
     -2907.829       -2265.850          45.350          45.300



 131113309.203 6 102166247.49346  24950031.820                    24950048.520
      -257.471        -200.619          39.150          37.800    97909358.785 6
  24950049.140        -191.954          39.300


 105237705.300 8  82003445.64348  20026059.940                    20026063.600
       743.105         579.043          49.300          49.350



 111943436.979 8  87228740.35847  21302095.500                    21302101.140
       884.593         689.294          49.200          47.850    83594246.848 8
  21302106.300         660.560          52.850


 115036153.549 8  89638611.93447  21890644.700                    21890652.500
      2934.318        2286.485          48.100          45.650



 127380751.338 7  99257752.54746  24239760.260                    24239772.580
      -391.680        -305.207          42.300          39.950    95122018.298 7
  24239780.000        -292.415          45.950


 119134540.007 7  92832051.68246  22670583.880                    22670591.520
     -3442.973       -2682.849          46.650          41.850



 113691547.301 8  88590915.73447  21634747.760                    21634753.080
      1859.105        1448.657          49.900          45.200



 132916694.294 6 103571507.23146  25293208.140                    25293218.780
      3582.298        2791.397          39.600          37.900    99256049.556 7
  25293226.820        2675.029          43.550


 129066571.268 6 100571425.68146  24560550.540                    24560568.620
      3664.192        2855.220          38.250          37.750    96380946.480 7
  24560571.760        2736.005          44.350


 114153176.990 8  88950585.67548  21722617.940                    21722625.220
     -2182.424       -1700.594          49.800          49.800    85244325.586 8
  21722627.540       -1629.761          52.800


 23 11  5 13  4 30.0000000  0 12G05G07G08G13G14G15G18G20G22G23G24G30
 110556372.517 8  86147797.25848  21038189.820                    21038194.040
     -1750.811       -1364.271          51.050          51.100



 126433887.678 7  98519921.35047  24059584.220                    24059593.520
     -2910.493       -2267.926          44.800          45.200



 131121298.352 6 102172473.06446  24951552.060                    24951568.640
      -276.021        -215.073          40.350          40.750    97915325.028 6
  24951569.100        -205.774          38.950


 105215596.599 8  81986218.08348  20021852.780                    20021856.440
       730.167         568.962          49.700          49.600



 111917176.979 8  87208278.01747  21297098.440                    21297103.920
       865.495         674.411          49.200          47.900    83574637.115 8
  21297109.260         646.301          52.950


 114948246.688 8  89570113.19247  21873916.540                    21873923.980
      2925.619        2279.709          48.300          45.650



 127392772.708 7  99267119.81146  24242047.900                    24242060.280
      -410.395        -319.789          42.550          40.950    95130995.244 7
  24242067.360        -306.574          45.850


 119237942.769 7  92912624.94046  22690261.040                    22690268.600
     -3451.262       -2689.306          47.400          40.550



 113636014.311 8  88547643.36947  21624179.920                    21624185.480
      1842.507        1435.722          49.550          45.600



 132809293.582 6 103487818.34646  25272770.520                    25272781.220
      3577.189        2787.414          39.650          38.400    99175847.670 7
  25272788.920        2671.228          43.200


 128956695.512 6 100485808.27346  24539641.980                    24539659.840
      3660.322        2852.199          37.950          37.950    96298896.463 7
  24539663.240        2733.586          45.050


 114218777.229 8  89001702.62848  21735101.380                    21735108.460
     -2191.606       -1707.748          50.100          49.950    85293312.646 8
  21735110.800       -1636.549          52.500


 23 11  5 13  5  0.0000000  0 12G05G07G08G13G14G15G18G20G22G23G24G30
 110609162.094 8  86188931.90648  21048235.480                    21048239.660
     -1769.008       -1378.451          51.350          51.600



 126521232.035 7  98587981.58547  24076205.320                    24076214.920
     -2913.011       -2269.889          44.400          44.750



 131129848.087 6 102179135.49846  24953178.960                    24953195.180
      -294.693        -229.621          39.950          40.100    97921709.968 6
  24953195.680        -219.957          39.200


 105193876.237 8  81969293.14048  20017719.540                    20017723.120
       717.310         558.942          49.450          49.650



 111891488.678 8  87188261.16247  21292210.160                    21292215.520
       846.683         659.753          49.300          47.800    83555454.304 8
  21292221.120         632.202          53.300


 114860598.992 7  89501816.40647  21857237.680                    21857244.860
      2917.073        2273.048          47.700          46.900



 127405359.282 7  99276927.45146  24244443.180                    24244455.600
      -429.151        -334.406          42.300          40.000    95140394.207 7
  24244462.480        -320.465          46.150


 119341591.284 7  92993389.67946  22709984.900                    22709992.520
     -3459.189       -2695.484          47.000          41.500



 113580975.395 8  88504755.98247  21613706.140                    21613711.860
      1826.320        1423.110          49.300          45.700



 132702047.213 6 103404249.73246  25252362.280                    25252373.040
      3571.624        2783.079          39.800          38.500    99095761.049 7
  25252380.380        2667.478          43.650


 128846924.995 6 100400272.92546  24518753.280                    24518771.060
      3657.044        2849.647          39.700          38.850    96216925.146 7
  24518774.680        2730.958          45.850


 114284649.272 8  89053031.37648  21747636.500                    21747643.440
     -2200.503       -1714.682          50.100          50.000    85342502.680 8
  21747645.700       -1643.142          52.650


 23 11  5 13  5 30.0000000  0 12G05G07G08G13G14G15G18G20G22G23G24G30
 110662510.405 8  86230501.93648  21058387.460                    21058391.600
     -1787.462       -1392.829          51.300          51.350



 126608658.989 7  98656106.17047  24092842.300                    24092852.020
     -2915.566       -2271.879          45.550          45.350



 131138963.532 6 102186238.72746  24954913.320                    24954929.420
      -313.347        -244.156          38.450          37.800    97928517.302 6
  24954930.280        -233.922          39.150


 105172550.788 8  81952675.92848  20013661.500                    20013664.840
       704.348         548.843          49.850          49.650



 111866378.829 8  87168695.04847  21287431.880                    21287437.200
       827.465         644.778          49.350          47.500    83536703.444 8
  21287443.140         617.909          53.600


 114773218.246 7  89433727.61847  21840609.620                    21840616.540
      2908.190        2266.125          47.700          46.650



 127418516.073 6  99287179.43046  24246946.940                    24246959.440
      -447.961        -349.062          41.600          40.900    95150218.995 7
  24246966.300        -334.530          46.300


 119445488.913 7  93074348.52946  22729756.240                    22729763.820
     -3467.210       -2701.734          46.300          40.850



 113526438.149 8  88462259.49847  21603327.900                    21603333.520
      1809.654        1410.122          49.550          45.550



 132594963.290 6 103320807.69146  25231984.780                    25231995.660
      3566.876        2779.381          38.850          37.150    99015795.738 7
  25232002.960        2663.514          43.950


 128737266.969 6 100314825.23646  24497886.220                    24497903.920
      3653.702        2847.047          39.050          38.500    96135037.780 7
  24497907.260        2728.286          44.900


 114350797.352 8  89104575.21848  21760224.140                    21760231.020
     -2209.453       -1721.655          49.850          49.350    85391898.852 8
  21760233.300       -1649.912          52.700


 23 11  5 13  6  0.0000000  0 12G05G07G08G13G14G15G18G20G22G23G24G30
 110716416.170 8  86272506.34448  21068645.420                    21068649.660
     -1805.435       -1406.834          51.350          51.250



 126696168.225 7  98724294.88947  24109495.020                    24109504.860
     -2917.710       -2273.550          44.650          44.550



 131148646.140 6 102193783.92346  24956755.480                    24956771.880
      -331.833        -258.562          38.300          38.500    97935748.199 6
  24956772.860        -247.560          39.750


 105151621.839 8  81936367.68148  20009678.920                    20009682.120
       691.813         539.077          50.350          49.750



 111841849.243 8  87149581.09347  21282764.000                    21282769.240
       808.704         630.160          49.750          47.000    83518385.912 8
  21282775.660         603.809          53.750


 114686107.371 8  89365849.13247  21824032.920                    21824039.540
      2899.844        2259.624          48.350          46.100



 127432243.069 6  99297875.72946  24249559.140                    24249572.000
      -466.332        -363.378          41.850          39.950    95160469.601 7
  24249578.740        -348.271          46.650


 119549633.874 7  93155500.11246  22749574.460                    22749582.220
     -3474.921       -2707.742          45.700          41.350



 113472405.054 8  88420155.86447  21593045.660                    21593051.140
      1793.439        1397.487          50.050          44.950



 132488045.959 6 103237495.58046  25211638.980                    25211650.100
      3561.733        2775.377          38.300          37.200    98935955.024 7
  25211657.240        2659.698          42.900


 128627723.663 6 100229466.97546  24477040.780                    24477058.400
      3650.070        2844.215          39.050          38.850    96053236.149 7
  24477061.980        2725.838          44.900


 114417220.934 8  89156333.73348  21772864.200                    21772871.120
     -2218.009       -1728.322          50.000          49.800    85441500.747 8
  21772873.760       -1656.337          53.050


 23 11  5 13  6 30.0000000  0 12G05G07G08G13G14G15G18G20G22G23G24G30
 110770874.686 8  86314941.46548  21079008.520                    21079012.900
     -1824.682       -1421.833          50.650          50.650



 126783755.252 7  98792544.22547  24126162.280                    24126172.520
     -2920.969       -2276.090          44.100          44.400



 131158892.240 6 102201768.25146  24958704.740                    24958721.400
      -350.825        -273.357          37.600          38.400    97943399.904 6
  24958722.900        -262.278          39.550


 105131086.272 8  81920365.96948  20005771.280                    20005774.420
       677.730         528.104          50.100          49.700



 111817897.022 8  87130917.04147  21278205.980                    21278211.220
       788.453         614.380          49.300          47.100    83500499.525 9
  21278218.040         588.768          54.000


 114599264.693 8  89298179.63547  21807507.220                    21807513.860
      2890.138        2252.061          48.250          45.900



 127446535.549 6  99309012.65746  24252278.820                    24252292.100
      -485.848        -378.586          41.800          41.300    95171142.494 7
  24252298.920        -363.070          47.100


 119654019.433 7  93236839.17546  22769438.520                    22769446.340
     -3483.712       -2714.592          45.750          39.900



 113418874.333 8  88378443.68947  21582859.040                    21582864.300
      1775.648        1383.625          49.700          44.600



 132381293.574 6 103154311.95045  25191324.560                    25191336.040
      3555.433        2770.467          39.950          35.900    98856237.347 7
  25191342.840        2654.958          44.100


 128518292.612 6 100144196.12546  24456217.020                    24456234.260
      3645.505        2840.657          40.500          38.800    95971518.320 7
  24456238.220        2722.255          45.850


 114483914.718 8  89208302.78648  21785555.760                    21785562.620
     -2227.946       -1736.065          49.750          49.950    85491304.401 8
  21785565.840       -1663.826          53.200


 23 11  5 13  7  0.0000000  0 12G05G07G08G13G14G15G18G20G22G23G24G30
 110825884.213 8  86357805.94248  21089476.440                    21089481.000
     -1842.760       -1435.920          50.650          50.750



 126871418.868 7  98860853.27247  24142844.260                    24142854.680
     -2923.422       -2277.998          44.700          44.700



 131169701.921 6 102210191.78346  24960761.460                    24960777.680
      -369.351        -287.795          38.700          39.150    97951472.561 6
  24960779.500        -276.162          40.400


 105110945.242 8  81904671.69348  20001938.660                    20001941.660
       664.884         518.092          50.250          49.750



 111794523.303 8  87112703.78047  21273758.040                    21273763.180
       769.717         599.780          49.300          47.000    83483045.165 8
  21273770.500         574.557          53.950


 114512692.527 8  89230720.94747  21791033.080                    21791039.880
      2881.199        2245.095          48.550          46.200



 127461392.869 7  99320589.73446  24255106.160                    24255119.420
      -504.559        -393.164          42.750          41.250    95182237.174 7
  24255126.540        -376.937          47.000


 119758643.245 7  93318363.88646  22789347.820                    22789355.800
     -3491.425       -2720.602          44.750          40.900



 113365848.124 8  88337124.62947  21572768.440                    21572773.400
      1759.282        1370.871          49.650          44.800



 132274709.337 6 103071259.35746  25171042.340                    25171053.740
      3550.290        2766.460          39.400          37.700    98776645.314 7
  25171060.440        2650.851          43.900


 128408975.313 6 100059013.96346  24435414.660                    24435431.820
      3641.680        2837.678          39.400          38.800    95889885.466 7
  24435435.980        2719.608          44.850


 114550877.517 8  89260481.47348  21798298.480                    21798305.240
     -2236.642       -1742.841          50.150          50.100    85541308.943 8
  21798308.900       -1670.205          52.900


 23 11  5 13  7 30.0000000  0 12G05G07G08G13G14G15G18G20G22G23G24G30
 110881439.828 8  86401095.94848  21100048.340                    21100053.060
     -1861.224       -1450.308          50.450          50.350



 126959155.151 7  98929218.94547  24159540.080                    24159550.620
     -2926.186       -2280.154          43.750          43.350



 131181072.179 6 102219052.07246  24962925.120                    24962940.340
      -388.653        -302.834          37.600          36.050    97959963.713 6
  24962943.100        -290.283          40.850


 105091196.953 8  81889283.44248  19998180.820                    19998183.600
       651.421         507.602          50.550          49.750



 111771726.047 8  87094939.71147  21269419.860                    21269424.900
       749.942         584.371          49.450          46.950    83466021.256 9
  21269432.540         560.044          54.350


 114426389.899 8  89163472.26347  21774610.220                    21774617.200
      2871.930        2237.871          48.550          46.600



 127476811.114 7  99332603.90847  24258040.460                    24258053.380
      -523.373        -407.825          43.350          42.050    95193750.755 7
  24258060.840        -391.048          47.550


 119863499.648 7  93400069.82046  22809301.500                    22809309.620
     -3499.140       -2726.615          44.750          40.950



 113313325.248 8  88296197.77047  21562773.720                    21562778.280
      1742.091        1357.475          49.600          44.400



 132168292.895 6 102988337.46546  25150791.960                    25150803.040
      3544.158        2761.683          38.800          38.050    98697178.483 7
  25150810.000        2646.583          44.200


 128299770.260 6  99973919.28746  24414633.760                    24414650.520
      3637.753        2834.615          40.500          38.200    95808336.415 7
  24414654.960        2716.609          45.100


 114618104.899 8  89312866.34448  21811091.600                    21811098.240
     -2245.578       -1749.805          50.100          49.950    85591511.082 8
  21811101.920       -1676.890          53.050


 23 11  5 13  8  0.0000000  0 12G05G07G08G13G14G15G18G20G22G23G24G30
 110937545.658 8  86444814.69548  21110724.960                    21110729.760
     -1879.705       -1464.708          50.700          50.750



 127046968.798 7  98997644.91247  24176250.640                    24176261.400
     -2928.923       -2282.286          44.500          44.300



 131193008.009 6 102228353.04046  24965196.140                    24965211.140
      -407.604        -317.603          38.200          37.350    97968877.213 6
  24965214.300        -304.549          41.200


 105071847.235 8  81874205.77048  19994498.800                    19994501.360
       637.903         497.068          50.500          49.900



 111749511.352 8  87077629.60247  21265192.580                    21265197.480
       730.224         569.007          49.750          47.050    83449432.405 9
  21265205.240         545.324          54.050


 114340364.425 8  89096439.55147  21758240.040                    21758247.040
      2862.479        2230.508          48.600          45.850



 127492794.730 7  99345058.65646  24261082.240                    24261094.760
      -542.717        -422.896          42.900          41.000    95205686.531 7
  24261102.820        -405.284          47.650


 119968591.143 7  93481958.94246  22829299.900                    22829308.100
     -3507.448       -2733.091          45.200          41.200



 113261312.794 8  88255668.65847  21552876.060                    21552880.400
      1724.899        1344.080          50.350          44.050



 132062052.179 6 102905552.45745  25130575.000                    25130586.080
      3537.805        2756.727          40.950          35.950    98617842.840 7
  25130593.220        2641.964          43.850


 128190683.961 6  99888917.15846  24393875.480                    24393891.560
      3634.007        2831.701          41.050          37.500    95726876.085 7
  24393896.460        2713.481          45.600


 114685600.772 8  89365460.44148  21823935.760                    21823942.320
     -2254.729       -1756.934          50.050          50.100    85641913.734 8
  21823945.840       -1683.724          52.900


