     2.11           OBSERVATION DATA    M (MIXED)           RINEX VERSION / TYPE
teqc  2019Feb25                         20231221 00:03:44UTCPGM / RUN BY / DATE
Linux 2.6.32-573.12.1.x86_64|x86_64|gcc|Linux 64|=+         COMMENT
teqc  2019Feb25                         20231221 00:03:44UTCCOMMENT
teqc  2019Feb25     IGN-RGP             20231220 11:02:18UTCCOMMENT
teqc  2019Feb25     Administrateur RGP  20231220 11:02:18UTCCOMMENT
teqc  2019Feb25     IGN-RGP             20231220 11:02:15UTCCOMMENT
teqc  2019Feb25     IGN-RGP             20231220 11:02:13UTCCOMMENT
BIT 2 OF LLI FLAGS DATA COLLECTED UNDER A/S CONDITION       COMMENT
IGNF                                                        MARKER NAME
10001M009                                                   MARKER NUMBER
Automatic           IGN                                     OBSERVER / AGENCY
1834194             LEICA GR50          4.51                REC # / TYPE / VERS
5000113963          TRM57971.00     NONE                    ANT # / TYPE
  4201694.1440   177888.8370  4779371.7670                  APPROX POSITION XYZ
        0.0000        0.0000        0.0000                  ANTENNA: DELTA H/E/N
     1     1                                                WAVELENGTH FACT L1/2
    21    L1    L2    C1    P1    P2    D1    D2    S1    S2# / TYPES OF OBSERV
          L5    C5    D5    S5    L7    C7    D7    S7    L8# / TYPES OF OBSERV
          C8    D8    S8                                    # / TYPES OF OBSERV
    30.0000                                                 INTERVAL
DefaultJobName                                              COMMENT
DefaultUserDiscription                                      COMMENT
Project creator:                                            COMMENT
 SNR is mapped to RINEX snr flag value [0-9]                COMMENT
  L1 & L2: min(max(int(snr_dBHz/6), 0), 9)                  COMMENT
    18                                                      LEAP SECONDS
Forced Modulo Decimation to 30 seconds                      COMMENT
teqc_2019 edited: all GLONASS satellites excluded           COMMENT
teqc_2019 edited: all SBAS satellites excluded              COMMENT
  2023    12    20    10     0    0.0000000     GPS         TIME OF FIRST OBS
                                                            END OF HEADER
 23 12 20 10  0  0.0000000  0 21G05G07G08G13G14G15G18G20G22G23G24G30
                                E04E05E09E15E21E24E31E34E36
 110279545.966 8  85932099.73848  20985505.080                    20985503.780
     -1590.604       -1239.433          50.200          50.250



 126263990.679 7  98387508.87247  24027252.940                    24027252.720
     -2898.458       -2258.545          43.850          43.750



 130971517.960 6 102055763.58246  24923049.560                    24923057.120
      -215.771        -168.134          39.400          39.350    97803449.219 7
  24923058.020        -161.126          42.600


 105169511.982 8  81950259.08648  20013090.720                    20013089.500
       719.499         560.648          49.450          49.500



 111886419.385 8  87184238.64448  21291264.040                    21291264.400
       889.514         693.130          49.200          48.000    83551588.336 8
  21291268.180         664.133          53.150


 114023258.863 8  88849270.42747  21697910.520                    21697910.500
      2834.057        2208.357          49.600          46.900



 127419466.333 6  99287869.89546  24247127.560                    24247129.700
      -418.682        -326.248          41.850          40.850    95150886.747 7
  24247134.160        -312.494          46.200


 119249675.196 7  92921785.40146  22692473.520                    22692474.500
     -3445.411       -2684.739          46.850          40.800



 113843485.884 8  88709222.50047  21663685.120                    21663684.120
      1934.596        1507.480          50.400          44.350



 133160097.180 6 103761116.48946  25339528.620                    25339528.940
      3591.755        2798.755          39.400          38.300    99437745.602 7
  25339535.280        2682.083          45.100


 128461478.057 6 100099873.15146  24445405.200                    24445411.260
      3654.963        2848.020          38.950          38.500    95929051.250 7
  24445412.320        2729.218          44.400


 113807928.501 8  88681506.35648  21656931.980                    21656933.500
     -2133.935       -1662.808          49.400          49.550    84986443.683 8
  21656934.240       -1593.510          53.600


 132643028.921 8                  25241135.040
     -1997.600                          49.100                    99051610.554 8
  25241139.920       -1491.724          50.100   101635558.007 8  25241136.040
     -1530.573          50.350   100343583.433 8  25241138.880       -1511.171
        53.100
 128673395.026 8                  24485737.260
      2298.090                          48.450                    96087281.360 8
  24485743.920        1716.110          48.650    98593900.228 7  24485739.920
      1760.833          47.500    97340588.947 8  24485742.120        1738.505
        51.050
 122652910.692 8                  23340072.420
       205.430                          52.300                    91591475.663 9
  23340076.420         153.355          54.700    93980808.677 9  23340074.000
       157.394          55.250    92786137.820 9  23340075.240         155.369
        57.850
 147974623.711 6                  28158641.660
      1180.346                          40.800                   110500544.738 6
  28158650.380         881.447          41.900   113383160.113 6  28158646.840
       904.496          41.050   111941851.576 7  28158649.040         892.980
        44.550
 152543270.975 6                  29028033.320
     -2858.852                          36.750                   113912179.606 6
  29028044.520       -2134.595          36.300   116883795.592 5  29028041.060
     -2190.366          35.550   115397978.746 6  29028043.200       -2162.494
        38.950
 143831517.822 7                  27370220.260
      3249.004                          43.600                   107406708.460 7
  27370226.460        2426.240          42.700   110208599.341 7  27370224.960
      2489.525          44.200   108807652.552 7  27370226.420        2457.879
        46.300
 128249217.384 8                  24405004.760
      1748.990                          51.800                    95770573.060 8
  24405010.620        1305.976          51.800    98268933.275 8  24405006.920
      1340.064          51.750    97019753.321 9  24405009.620        1323.030
        54.750
 141640695.945 7                  26953338.940
     -1213.968                          45.550                   105770648.398 7
  26953346.100        -906.655          45.450   108529871.812 7  26953343.500
      -930.261          45.650   107150255.260 8  26953345.200        -918.460
        48.450
 146111265.586 6                  27804063.740
     -2875.789                          41.750                   109109058.981 7
  27804072.940       -2147.514          42.850   111955371.028 7  27804071.200
     -2203.421          43.100   110532209.662 7  27804072.220       -2175.583
        45.900
 23 12 20 10  0 30.0000000  0 21G05G07G08G13G14G15G18G20G22G23G24G30
                                E04E05E09E15E21E24E31E34E36
 110327552.408 8  85969507.29348  20994640.480                    20994639.080
     -1609.563       -1254.207          49.750          49.800



 126350984.423 7  98455296.02747  24043807.440                    24043807.580
     -2900.812       -2260.379          43.900          43.950



 130978276.960 6 102061030.32946  24924335.460                    24924343.060
      -234.212        -182.503          39.900          40.150    97808496.513 7
  24924343.960        -175.243          43.050


 105148123.223 8  81933592.51848  20009020.680                    20009019.240
       706.813         550.764          49.700          49.700



 111860025.194 8  87163671.80648  21286241.420                    21286241.640
       870.392         678.229          49.000          48.000    83531878.461 8
  21286245.480         650.038          53.300


 113938380.061 8  88783131.11547  21681758.740                    21681758.720
      2825.012        2201.308          50.050          47.050



 127432304.886 6  99297873.91346  24249570.580                    24249573.000
      -436.912        -340.452          41.550          40.400    95160473.916 7
  24249577.340        -326.431          46.300


 119353165.746 7  93002427.24946  22712167.200                    22712168.160
     -3453.502       -2691.046          46.050          41.650



 113785694.695 8  88664190.48547  21652687.920                    21652686.860
      1918.514        1494.949          50.200          45.000



 133052423.179 6 103677214.41946  25319039.220                    25319039.900
      3586.650        2794.783          39.000          37.200    99357339.405 7
  25319046.080        2678.565          46.900


 128351894.150 6 100014483.13146  24424551.900                    24424558.300
      3651.270        2845.148          37.600          37.300    95847219.126 7
  24424559.220        2726.554          44.950


 113872087.247 8  88731500.13748  21669141.000                    21669142.980
     -2142.946       -1669.830          49.000          48.950    85034354.390 8
  21669143.400       -1600.340          53.700


 132703041.029 8                  25252554.800
     -2002.899                          48.900                    99096424.677 8
  25252559.480       -1495.742          49.750   101681541.202 8  25252556.560
     -1534.724          50.450   100388982.092 8  25252558.920       -1515.219
        53.100
 128604492.470 8                  24472625.540
      2295.888                          48.400                    96035828.176 8
  24472632.240        1714.381          48.650    98541104.775 7  24472628.200
      1759.085          47.900    97288464.628 8  24472630.240        1736.725
        51.350
 122646868.873 8                  23338922.780
       197.723                          51.850                    91586963.899 9
  23338926.660         147.646          54.850    93976179.215 9  23338924.140
       151.506          55.200    92781567.211 9  23338925.520         149.550
        58.050
 147939420.873 7                  28151943.020
      1166.676                          42.000                   110474256.798 7
  28151951.200         871.303          42.000   113356186.424 6  28151947.940
       893.935          40.950   111915220.762 7  28151950.420         882.733
        44.650

                                                                 113976268.611 5
  29044376.560       -2137.610          33.950   116949556.458 5  29044372.840
     -2193.589          34.100   115462903.670 6  29044375.120       -2165.269
        36.950
 143734077.231 7                  27351677.760
      3247.199                          44.000                   107333944.671 7
  27351684.020        2424.960          42.450   110133937.323 7  27351682.160
      2488.080          44.500   108733939.651 7  27351683.720        2456.471
        46.500
 128196935.472 8                  24395055.620
      1736.920                          51.250                    95731531.493 8
  24395061.500        1297.033          52.000    98228873.225 8  24395057.940
      1330.788          51.800    96980202.511 9  24395060.580        1313.935
        55.000
 141677321.004 7                  26960308.500
     -1227.412                          44.850                   105797998.207 7
  26960315.360        -916.455          45.700   108557935.106 7  26960313.080
      -940.495          45.700   107177961.810 8  26960314.740        -928.448
        48.750
 146197588.508 7                  27820490.940
     -2878.796                          42.800                   109173520.739 7
  27820499.540       -2149.729          42.650   112021514.402 7  27820497.880
     -2205.685          43.500   110597512.227 7  27820499.120       -2177.722
        46.000
 23 12 20 10  1  0.0000000  0 21G05G07G08G13G14G15G18G20G22G23G24G30
                                E04E05E09E15E21E24E31E34E36
 110376125.633 8  86007356.50048  21003883.660                    21003882.240
     -1628.315       -1268.819          49.950          50.000



 126438057.131 7  98523144.71047  24060376.920                    24060377.200
     -2903.643       -2262.585          43.750          43.800



 130985597.075 6 102066734.24146  24925728.520                    24925735.760
      -253.258        -197.347          40.100          40.150    97813962.736 7
  24925736.760        -188.881          42.850


 105127123.481 8  81917229.07548  20005024.700                    20005023.060
       693.627         540.488          49.950          49.850



 111834201.629 8  87143549.61748  21281327.380                    21281327.500
       851.403         663.433          49.100          48.200    83512594.712 8
  21281331.500         635.888          53.250


 113853778.714 8  88717207.99347  21665659.640                    21665659.600
      2815.566        2193.947          49.700          46.750



 127445706.669 6  99308316.77546  24252120.700                    24252123.420
      -455.876        -355.229          41.250          40.200    95170481.641 7
  24252127.760        -340.316          46.200


 119456899.663 7  93083258.73346  22731907.140                    22731908.140
     -3461.529       -2697.300          46.250          41.500



 113728390.741 8  88619538.14947  21641783.320                    21641782.240
      1902.206        1482.242          50.350          44.800



 132944897.631 6 103593428.00746  25298577.800                    25298579.020
      3582.093        2791.229          37.750          37.350    99277044.093 7
  25298584.900        2674.850          43.800


 128242422.839 6  99929180.82246  24403720.220                    24403726.660
      3647.252        2842.017          38.750          38.600    95765471.084 7
  24403727.440        2723.700          44.100


 113936523.202 8  88781709.90948  21681402.780                    21681405.060
     -2152.197       -1677.039          49.300          49.600    85082472.074 8
  21681405.380       -1607.072          53.400


 132763217.168 8                  25264005.900
     -2008.383                          49.200                    99141361.282 8
  25264010.400       -1499.760          49.200   101727650.079 8  25264008.060
     -1538.876          50.300   100434504.835 8  25264010.120       -1519.335
        53.000
 128535663.424 8                  24459527.800
      2293.263                          48.550                    95984429.887 8
  24459534.420        1712.535          48.200    98488365.654 8  24459530.680
      1757.251          48.400    97236395.922 8  24459532.420        1734.913
        51.600
 122641061.825 8                  23337817.740
       189.914                          51.800                    91582627.447 9
  23337821.500         141.839          54.450    93971729.643 9  23337818.960
       145.536          55.000    92777174.199 9  23337820.500         143.670
        57.950
 147904628.720 7                  28145322.380
      1153.008                          42.250                   110448275.528 6
  28145330.140         861.110          40.750   113329527.372 6  28145327.320
       883.604          40.500   111888900.601 7  28145329.840         872.415
        44.100

                                                                 114040450.694 5
  29060731.800       -2140.540          32.850   117015412.872 5  29060728.420
     -2196.384          31.850   115527922.941 5  29060730.500       -2168.423
        35.700
 143636690.898 7                  27333145.340
      3245.729                          43.850                   107261221.373 7
  27333151.620        2423.604          42.300   110059316.898 7  27333150.060
      2486.789          44.250   108660267.787 7  27333151.600        2455.262
        46.500
 128145018.591 8                  24385175.920
      1724.713                          51.700                    95692762.519 8
  24385181.700        1287.935          51.700    98189092.859 8  24385178.440
      1321.569          51.800    96940927.843 9  24385180.980        1304.762
        55.050
 141714347.810 7                  26967354.560
     -1240.738                          45.000                   105825648.030 7
  26967361.200        -926.453          45.350   108586306.221 7  26967359.120
      -950.522          45.250   107205972.285 8  26967360.700        -938.544
        48.650
 146283997.117 7                  27836934.400
     -2881.504                          43.650                   109238046.489 7
  27836942.600       -2151.767          42.600   112087723.484 7  27836940.560
     -2207.915          42.550   110662879.635 7  27836942.280       -2179.786
        45.950
 23 12 20 10  1 30.0000000  0 21G05G07G08G13G14G15G18G20G22G23G24G30
                                E04E05E09E15E21E24E31E34E36
 110425269.351 8  86045650.24348  21013235.320                    21013234.060
     -1647.504       -1283.771          50.000          50.050



 126525212.678 7  98591057.93347  24076962.240                    24076962.680
     -2906.550       -2264.850          44.500          44.250



 130993483.480 6 102072879.35646  24927229.400                    24927236.400
      -272.617        -212.435          38.650          38.800    97819851.793 7
  24927237.480        -203.212          42.700


 105106518.296 8  81901173.09048  20001103.820                    20001102.120
       680.198         530.025          50.050          49.850



 111808954.513 8  87123876.60547  21276522.920                    21276522.960
       831.908         648.242          48.850          47.650    83493741.429 8
  21276527.280         621.257          53.650


 113769461.786 8  88651506.50347  21649614.640                    21649614.520
      2805.763        2186.309          49.300          46.750



 127459675.686 6  99319201.62146  24254778.880                    24254781.940
      -475.116        -370.224          41.850          40.850    95180912.943 7
  24254786.200        -354.718          46.950


 119560879.100 7  93164281.54246  22751693.740                    22751694.780
     -3470.006       -2703.904          45.950          40.550



 113671580.575 8  88575270.59247  21630972.600                    21630971.580
      1885.483        1469.212          50.100          44.950



 132837528.186 6 103509763.28145  25278146.360                    25278147.500
      3576.266        2786.691          39.350          34.600    99196865.296 7
  25278153.180        2670.766          44.100


 128133070.338 6  99843971.11646  24382911.120                    24382917.640
      3642.954        2838.667          40.300          40.000    95683811.797 7
  24382918.120        2720.530          44.550


 114001239.771 8  88832138.34448  21693718.060                    21693720.280
     -2161.912       -1684.609          49.750          49.550    85130799.325 8
  21693720.760       -1614.351          53.400


 132823562.065 8                  25275489.300
     -2014.226                          49.600                    99186423.937 8
  25275493.400       -1504.134          49.350   101773888.290 8  25275491.460
     -1543.410          50.100   100480155.268 8  25275493.380       -1523.815
        52.600
 128466913.466 8                  24446445.100
      2290.248                          48.850                    95933090.676 8
  24446451.640        1710.309          48.350    98435687.153 8  24446448.240
      1755.007          48.950    97184387.067 8  24446449.700        1732.656
        51.450
 122635495.000 8                  23336758.420
       181.600                          52.100                    91578470.387 9
  23336762.060         135.592          54.700    93967464.140 9  23336759.520
       139.129          55.000    92772962.914 9  23336761.180         137.360
        57.700
 147870253.239 6                  28138781.080
      1138.884                          41.950                   110422605.428 6
  28138788.380         850.512          40.800   113303187.641 6  28138786.060
       872.753          41.150   111862895.685 7  28138788.460         861.642
        44.000


                                                 117081464.274 4  29077107.780
     -2199.982          28.800   115593038.909 5  29077110.240       -2171.854
        32.150
 143539365.478 7                  27314624.720
      3243.107                          43.600                   107188543.528 7
  27314630.660        2421.833          42.850   109984743.093 7  27314629.220
      2485.035          44.300   108586641.960 7  27314631.140        2453.504
        46.600
 128093472.734 8                  24375366.800
      1712.025                          51.400                    95654270.606 8
  24375372.640        1278.494          51.950    98149596.797 8  24375369.660
      1311.771          51.900    96901933.854 9  24375372.000        1295.180
        54.850
 141751780.056 7                  26974477.780
     -1254.454                          44.850                   105853600.618 7
  26974484.420        -936.757          45.800   108614988.023 7  26974482.200
      -961.125          45.300   107234289.472 8  26974483.860        -948.942
        48.550
 146370494.336 7                  27853394.520
     -2884.686                          42.650                   109302638.366 7
  27853402.660       -2154.063          42.600   112154000.385 7  27853400.520
     -2210.312          43.350   110728314.029 7  27853402.380       -2182.220
        45.850
 23 12 20 10  2  0.0000000  0 20G05G07G08G13G14G15G18G20G22G23G24G30
                                E04E05E09E15E24E31E34E36
 110474979.561 8  86084385.41448  21022694.780                    21022693.840
     -1666.149       -1298.301          49.800          49.650



 126612448.300 7  98659033.53647  24093562.700                    24093563.560
     -2909.065       -2266.812          44.050          43.950



 131001934.486 6 102079464.40946  24928837.560                    24928844.680
      -290.914        -226.692          39.250          39.400    97826162.472 7
  24928845.560        -217.254          42.300


 105086306.880 8  81885423.92548  19997257.900                    19997256.060
       667.375         520.032          50.150          50.150



 111784282.881 8  87104652.02048  21271827.920                    21271828.020
       812.889         633.422          48.950          48.050    83475317.882 8
  21271832.660         607.069          53.750


 113685428.866 8  88586026.30347  21633623.740                    21633623.420
      2796.660        2179.216          49.350          46.850



 127474209.062 7  99330526.25846  24257544.720                    24257547.680
      -493.699        -384.704          43.150          40.500    95191765.713 7
  24257552.240        -368.743          47.350


 119665099.139 7  93245491.82346  22771526.120                    22771527.240
     -3477.792       -2709.971          45.550          41.300



 113615264.591 8  88531388.12647  21620255.760                    21620255.000
      1869.165        1456.496          49.900          45.450



 132730315.507 6 103426220.67046  25257744.600                    25257745.760
      3571.491        2782.972          39.700          38.900    99116803.632 7
  25257751.440        2666.897          44.000


 128023836.012 6  99758853.51146  24362124.600                    24362131.000
      3639.687        2836.123          40.000          38.750    95602240.788 7
  24362131.480        2717.636          44.000


 114066233.574 8  88882782.81748  21706086.120                    21706088.020
     -2170.948       -1691.650          49.850          49.600    85179333.598 8
  21706088.800       -1621.171          53.050


 132884073.706 8                  25287004.600
     -2019.709                          50.000                    99231611.118 8
  25287008.440       -1508.275          49.150   101820254.273 8  25287006.380
     -1547.553          49.900   100525931.847 8  25287008.400       -1527.912
        52.450
 128398241.422 8                  24433377.240
      2287.955                          48.900                    95881809.647 8
  24433383.680        1708.443          48.100    98383068.368 8  24433380.580
      1753.016          49.400    97132437.159 8  24433381.880        1730.729
        51.700
 122630167.077 8                  23335744.520
       173.754                          52.200                    91574491.716 9
  23335748.240         129.735          54.650    93963381.677 9  23335745.620
       133.086          55.050    92768932.349 9  23335747.320         131.430
        57.800
 147836293.458 6                  28132318.900
      1125.240                          41.550                   110397245.717 6
  28132325.840         840.396          40.900   113277166.401 6  28132324.120
       862.092          41.300   111837205.212 7  28132326.200         851.271
        44.150
 143442100.744 7                  27296115.700
      3241.222                          44.800                   107115910.957 7
  27296121.620        2420.463          42.550   109910215.736 7  27296119.840
      2483.581          44.050   108513062.001 7  27296122.140        2452.002
        46.300
 128042297.178 8                  24365628.200
      1699.854                          51.350                    95616055.205 8
  24365633.920        1269.332          51.700    98110384.457 8  24365631.360
      1302.435          52.200    96863219.984 9  24365633.440        1285.894
        54.950
 141789614.622 7                  26981677.360
     -1267.710                          45.350                   105881853.623 7
  26981684.260        -946.641          45.550   108643978.087 7  26981681.960
      -971.457          45.550   107262911.006 8  26981683.600        -959.041
        48.600
 146457076.090 7                  27869870.560
     -2887.329                          43.800                   109367293.374 7
  27869879.300       -2156.229          43.350   112220342.061 7  27869876.720
     -2212.401          42.350   110793812.369 7  27869878.340       -2184.287
        45.900
 23 12 20 10  2 30.0000000  0 20G05G07G08G13G14G15G18G20G22G23G24G30
                                E04E05E09E15E24E31E34E36
 110525257.912 8  86123563.29448  21032262.460                    21032261.960
     -1684.983       -1312.976          50.200          50.100



 126699765.520 7  98727072.75647  24110178.660                    24110179.820
     -2911.477       -2268.688          44.500          44.800



 131010952.366 6 102086491.20346  24930553.660                    24930560.780
      -309.579        -241.234          39.350          39.900    97832896.472 6
  24930561.200        -231.272          41.800


 105066492.377 8  81869984.04848  19993487.420                    19993485.380
       654.183         509.752          50.900          49.550



 111760190.167 8  87085878.53447  21267243.040                    21267243.200
       793.960         618.672          49.200          46.950    83457326.646 9
  21267248.240         592.810          54.150


 113601685.540 8  88520771.74847  21617687.940                    21617687.340
      2786.955        2171.653          49.550          46.350



 127489308.532 7  99342292.00046  24260418.360                    24260420.920
      -512.416        -399.288          44.250          39.700    95203041.188 7
  24260426.120        -382.653          47.750


 119769559.875 7  93326889.66046  22791404.280                    22791405.580
     -3485.493       -2715.974          45.650          39.800



 113559447.191 8  88487894.17747  21609633.840                    21609633.260
      1852.581        1443.574          50.200          44.950



 132623264.877 6 103342804.38246  25237373.600                    25237374.980
      3565.801        2778.543          37.900          37.100    99036862.962 7
  25237380.560        2662.938          44.850


 127914723.948 6  99673831.20946  24341361.540                    24341367.680
      3635.396        2832.779          41.450          40.700    95520761.082 7
  24341368.020        2714.844          43.950


 114131505.741 8  88933644.19548  21718507.060                    21718508.680
     -2179.957       -1698.670          50.350          50.600    85228075.748 8
  21718509.640       -1627.898          53.000


 132944754.597 8                  25298552.060
     -2025.159                          50.000                    99276924.699 8
  25298555.720       -1512.321          49.400   101866749.951 8  25298553.320
     -1551.735          49.650   100571836.477 8  25298555.620       -1532.047
        52.300
 128329650.684 8                  24420324.760
      2285.420                          48.700                    95830589.342 8
  24420331.180        1706.697          48.400    98330511.893 8  24420328.400
      1751.137          49.650    97080548.770 8  24420329.540        1728.894
        51.850
 122625081.225 8                  23334776.660
       165.895                          52.350                    91570693.796 9
  23334780.660         123.886          54.900    93959484.687 9  23334777.920
       127.107          54.950    92765084.895 9  23334779.520         125.478
        57.750
 147802753.081 7                  28125936.500
      1111.361                          42.200                   110372199.253 6
  28125943.160         829.820          40.950   113251466.529 6  28125941.980
       851.634          41.100   111811832.041 7  28125943.680         840.698
        44.050
 143344900.915 7                  27277618.960
      3239.306                          44.200                   107043326.863 7
  27277625.420        2418.947          43.300   109835738.094 7  27277622.520
      2481.983          43.650   108439531.130 7  27277625.440        2450.525
        46.300
 127991495.631 8                  24355960.860
      1687.503                          51.950                    95578119.103 8
  24355966.600        1260.194          52.000    98071458.695 8  24355964.240
      1293.006          52.200    96824789.053 9  24355966.080        1276.615
        54.950
 141827852.858 7                  26988953.760
     -1280.954                          46.250                   105910408.073 7
  26988961.120        -956.564          45.800   108673277.430 7  26988958.600
      -981.512          45.750   107291837.898 8  26988960.120        -968.947
        48.650
 146543742.855 7                  27886362.740
     -2889.977                          43.350                   109432011.840 7
  27886372.120       -2157.992          43.150   112286748.878 7  27886369.100
     -2214.367          42.700   110859375.021 7  27886370.780       -2186.302
        45.700
 23 12 20 10  3  0.0000000  0 20G05G07G08G13G14G15G18G20G22G23G24G30
                                E04E05E09E15E24E31E34E36
 110576102.285 8  86163182.22948  21041937.920                    21041937.740
     -1704.226       -1327.971          50.350          50.500



 126787163.316 7  98795174.77747  24126810.020                    24126811.320
     -2914.687       -2271.189          44.150          44.450



 131020537.419 6 102093959.94746  24932377.620                    24932384.720
      -329.116        -256.459          40.150          40.750    97840053.979 6
  24932385.000        -245.689          41.600


 105047075.442 8  81854853.96048  19989792.640                    19989790.400
       640.582         499.155          50.700          50.100



 111736677.141 8  87067556.75747  21262768.520                    21262768.660
       774.059         603.165          49.200          47.050    83439768.284 9
  21262774.100         577.985          54.300


 113518233.194 8  88455743.92347  21601807.440                    21601806.700
      2776.939        2163.850          49.650          46.150



 127504972.894 7  99354497.92546  24263399.580                    24263401.560
      -531.605        -414.240          43.900          41.000    95214738.511 7
  24263407.340        -396.961          47.950


 119874258.689 7  93408473.02947  22811327.820                    22811329.240
     -3493.794       -2722.440          44.900          42.250



 113504130.105 8  88444790.08347  21599107.180                    21599106.700
      1835.478        1430.247          50.000          45.400



 132516378.833 6 103259516.36046  25217033.840                    25217035.580
      3560.212        2774.185          39.150          38.050    98957045.251 7
  25217041.020        2658.467          44.250


 127805735.187 7  99588905.00546  24320621.920                    24320627.380
      3630.734        2829.146          42.250          38.900    95439373.501 7
  24320628.160        2711.265          44.300


 114197054.615 8  88984721.19548  21730980.620                    21730981.980
     -2189.562       -1706.153          50.050          50.050    85277024.545 8
  21730982.960       -1635.170          52.650


 133005604.421 8                  25310131.540
     -2031.308                          50.050                    99322364.432 8
  25310135.220       -1516.737          49.300   101913375.079 8  25310132.480
     -1556.388          49.550   100617868.908 8  25310135.000       -1536.585
        52.050
 128261141.811 8                  24407287.780
      2282.264                          48.000                    95779430.192 8
  24407294.460        1704.173          48.550    98278018.158 8  24407291.720
      1748.587          49.800    97028722.327 8  24407292.800        1726.385
        51.750
 122620237.845 8                  23333854.920
       157.377                          52.300                    91567076.961 9
  23333859.200         117.494          54.900    93955773.504 9  23333856.360
       120.529          54.950    92761420.886 9  23333857.880         119.000
        57.600
 147769632.910 7                  28119634.020
      1096.851                          42.600                   110347466.566 6
  28119640.860         819.133          41.750   113226088.643 6  28119639.440
       840.565          40.950   111786776.758 7  28119641.180         829.857
        44.050
 143247767.680 7                  27259134.920
      3236.575                          44.200                   106970792.459 7
  27259141.520        2416.918          42.950   109761311.495 7  27259138.480
      2479.972          44.150   108366050.630 7  27259141.380        2448.406
        46.200
 127941069.054 8                  24346364.980
      1674.574                          51.900                    95540463.004 8
  24346370.580        1250.456          51.950    98032820.249 8  24346368.540
      1283.067          52.550    96786641.778 9  24346370.060        1266.757
        54.850
 141866493.352 7                  26996306.720
     -1294.791                          46.100                   105939262.913 7
  26996314.500        -966.896          45.350   108702884.999 7  26996311.800
      -992.107          45.950   107321069.108 8  26996313.140        -979.501
        48.300
 146630492.476 7                  27902870.500
     -2893.187                          43.250                   109496792.160 7
  27902880.560       -2160.354          43.200   112353219.135 7  27902877.420
     -2216.849          43.050   110925000.306 7  27902878.860       -2188.624
        45.800
 23 12 20 10  3 30.0000000  0 20G05G07G08G13G14G15G18G20G22G23G24G30
                                E04E05E09E15E24E31E34E36
 110627504.170 8  86203235.59548  21051719.480                    21051719.600
     -1722.700       -1342.365          50.500          50.650



 126874633.029 7  98863332.82347  24143454.880                    24143456.440
     -2916.629       -2272.705          43.300          43.100



 131030682.055 6 102101864.72346  24934308.400                    24934314.980
      -347.363        -270.676          40.400          40.600    97847629.418 6
  24934315.500        -259.593          41.750


 105028049.326 8  81840028.40748  19986172.180                    19986169.780
       627.714         489.127          50.200          50.000



 111713737.382 8  87049681.67147  21258403.220                    21258403.240
       755.032         588.338          49.000          47.950    83422638.002 9
  21258408.980         563.864          54.300


 113435066.713 8  88390938.86347  21585981.300                    21585980.600
      2767.421        2156.433          49.100          46.550



 127521193.864 7  99367137.57546  24266486.520                    24266488.320
      -550.161        -428.699          43.000          40.400    95226851.472 7
  24266494.360        -410.722          47.900


 119979185.447 7  93490234.00746  22831294.780                    22831296.260
     -3501.549       -2728.482          44.800          41.200



 113449307.854 8  88402071.56747  21588674.720                    21588674.120
      1819.085        1417.473          49.950          45.900



 132409652.646 6 103176352.89446  25196724.660                    25196726.420
      3554.941        2770.082          37.750          36.000    98877346.888 7
  25196731.800        2654.591          43.950


 127696863.719 6  99504070.22046  24299904.640                    24299909.840
      3627.062        2826.289          41.500          39.750    95358073.504 7
  24299910.660        2708.595          44.050


 114262871.433 8  89036006.98648  21743505.060                    21743506.360
     -2198.294       -1712.957          49.550          49.600    85326173.420 8
  21743507.320       -1641.581          52.350


 133066615.719 8                  25321741.640
     -2036.333                          49.900                    99367924.770 8
  25321745.460       -1520.715          49.300   101960123.951 8  25321742.300
     -1560.405          49.650   100664023.511 8  25321745.080       -1540.527
        52.100
 128192708.277 7                  24394265.080
      2279.922                          47.100                    95728327.299 8
  24394271.980        1702.489          48.700    98225582.142 8  24394269.240
      1746.909          50.050    96976952.876 8  24394270.380        1724.688
        51.900
 122615630.199 8                  23332978.140
       149.637                          52.300                    91563636.166 9
  23332982.500         111.742          54.800    93952242.953 9  23332979.520
       114.657          55.250    92757935.212 9  23332981.100         113.210
        57.600
 147736926.796 7                  28113410.180
      1083.213                          43.000                   110323043.130 6
  28113417.400         809.046          41.250   113201028.084 7  28113415.640
       830.023          42.000   111762034.761 7  28113417.260         819.521
        44.250
 143150695.251 7                  27240662.360
      3234.546                          44.050                   106898303.377 7
  27240669.160        2415.474          43.250   109686931.393 7  27240666.020
      2478.600          44.800   108292616.043 7  27240669.080        2446.953
        46.650
 127891011.260 8                  24336839.420
      1662.432                          52.100                    95503082.278 8
  24336844.940        1241.418          51.900    97994464.354 8  24336842.940
      1273.851          52.850    96748773.469 9  24336844.240        1257.595
        54.900
 141905527.603 7                  27003734.720
     -1307.728                          46.250                   105968411.771 7
  27003742.700        -976.507          45.000   108732794.260 7  27003739.940
     -1002.054          46.250   107350598.168 8  27003741.020        -989.282
        48.200
 146717315.418 7                  27919392.260
     -2895.300                          43.250                   109561627.262 7
  27919402.920       -2162.083          43.200   112419745.606 7  27919399.820
     -2218.487          42.700   110990681.089 7  27919400.780       -2190.252
        45.550
 23 12 20 10  4  0.0000000  0 20G05G07G08G13G14G15G18G20G22G23G24G30
                                E04E05E09E15E24E31E34E36
 110679471.132 8  86243729.28048  21061608.620                    21061608.700
     -1741.409       -1356.944          50.550          50.750



 126962182.818 7  98931553.24847  24160115.300                    24160116.880
     -2919.436       -2274.891          44.800          44.300



 131041395.653 6 102110212.94246  24936347.300                    24936353.860
      -366.482        -285.570          39.950          40.200    97855629.735 6
  24936354.360        -273.565          41.700


 105009424.324 8  81825515.41748  19982627.980                    19982625.540
       614.303         478.678          50.300          50.050



 111691380.916 8  87032261.10248  21254148.900                    21254148.800
       735.738         573.305          49.100          48.000    83405943.301 9
  21254154.780         549.421          54.300


 113352197.358 8  88326365.36247  21570211.580                    21570211.160
      2757.478        2148.685          48.900          46.550



 127537979.708 7  99380217.36546  24269680.700                    24269682.400
      -568.876        -443.283          42.650          40.400    95239386.242 7
  24269688.680        -424.667          47.600


 120084346.439 7  93572177.51546  22851306.440                    22851307.800
     -3509.113       -2734.380          45.300          40.950



 113394991.734 8  88359747.44847  21578338.640                    21578337.940
      1802.277        1404.375          50.050          45.500



 132303098.452 6 103093323.40846  25176448.300                    25176449.920
      3549.273        2765.653          39.050          38.400    98797776.942 7
  25176455.300        2650.299          44.700


 127588120.243 7  99419335.12546  24279211.620                    24279216.280
      3622.774        2822.942          42.300          39.050    95276869.044 7
  24279217.360        2705.417          44.800


 114328964.001 8  89087507.64148  21756082.080                    21756083.420
     -2207.457       -1720.098          49.350          49.250    85375528.227 8
  21756084.440       -1648.403          52.650


 133127797.645 8                  25333384.200
     -2042.058                          49.850                    99413612.523 8
  25333388.160       -1524.872          49.400   102007003.553 8  25333384.720
     -1564.627          49.150   100710307.193 8  25333387.640       -1544.783
        52.200
 128124360.140 7                  24381258.720
      2276.978                          47.200                    95677288.176 8
  24381265.680        1700.421          49.000    98173211.564 8  24381262.960
      1744.685          49.700    96925248.026 8  24381264.180        1722.556
        52.250
 122611268.149 8                  23332148.160
       141.496                          52.200                    91560378.768 9
  23332152.440         105.710          54.800    93948900.581 9  23332149.340
       108.449          54.850    92754635.329 9  23332151.060         107.054
        57.750
 147704644.774 6                  28107267.120
      1069.104                          41.400                   110298936.343 7
  28107274.560         798.332          42.550   113176292.453 6  28107272.700
       819.198          41.850   111737613.540 7  28107274.300         808.849
        45.200
 143053694.769 7                  27222203.580
      3232.154                          43.900                   106825867.997 7
  27222210.760        2413.806          43.200   109612606.392 7  27222207.360
      2476.789          44.550   108219235.852 7  27222210.500        2445.264
        46.850
 127841332.593 8                  24327386.080
      1649.868                          52.300                    95465984.655 8
  24327391.420        1232.053          51.950    97956398.960 8  24327389.520
      1264.186          52.650    96711191.958 9  24327390.600        1248.121
        55.150
 141944963.586 7                  27011239.240
     -1321.085                          45.850                   105997860.631 7
  27011247.260        -986.400          45.050   108763011.340 7  27011244.500
     -1012.234          45.550   107380431.143 8  27011245.300        -999.393
        48.100
 146804219.014 7                  27935929.380
     -2898.006                          42.850                   109626522.536 7
  27935940.480       -2164.021          42.700   112486333.818 7  27935937.400
     -2220.459          42.550   111056422.834 7  27935938.240       -2192.256
        45.450
 23 12 20 10  4 30.0000000  0 20G05G07G08G13G14G15G18G20G22G23G24G30
                                E04E05E09E15E24E31E34E36
 110731996.585 8  86284658.15648  21071603.960                    21071603.880
     -1760.235       -1371.613          49.900          49.950



 127049806.843 7  98999831.52447  24176789.760                    24176791.520
     -2922.030       -2276.914          43.800          43.600



 131052673.645 6 102119000.99646  24938493.400                    24938500.260
      -385.406        -300.313          37.950          38.400    97864051.586 6
  24938499.900        -287.801          40.250


 104991196.547 8  81811311.95348  19979159.320                    19979156.880
       601.038         468.341          49.950          49.900



 111669603.839 8  87015292.00047  21250004.960                    21250004.680
       716.271         558.135          49.100          47.550    83389681.257 9
  21250010.720         534.912          54.400


 113269622.466 8  88262021.31547  21554498.060                    21554497.820
      2747.544        2140.944          49.000          47.200



 127555324.594 7  99393732.77946  24272981.380                    24272982.820
      -587.409        -457.722          42.800          40.900    95252338.495 7
  24272989.000        -438.674          46.950


 120189734.394 7  93654297.87246  22871361.140                    22871362.540
     -3516.686       -2740.277          45.250          40.800



 113341178.358 8  88317815.08547  21568098.200                    21568097.340
      1785.456        1391.269          49.900          45.250



 132196714.016 6 103010426.28546  25156203.980                    25156206.120
      3543.584        2761.229          38.350          37.000    98718333.794 7
  25156211.120        2646.048          44.050


 127479501.143 6  99334696.96646  24258542.180                    24258546.600
      3618.680        2819.753          41.550          36.750    95195757.540 7
  24258548.220        2702.170          46.050


 114395326.063 8  89139218.29848  21768710.380                    21768711.780
     -2216.501       -1727.146          49.050          49.050    85425084.263 8
  21768713.240       -1655.188          53.100


 133189145.266 8                  25345058.300
     -2047.700                          49.800                    99459424.009 8
  25345062.340       -1529.044          49.750   102054010.137 8  25345058.680
     -1568.940          49.400   100756716.228 8  25345061.740       -1548.998
        52.500
 128056093.285 7                  24368267.980
      2274.284                          47.700                    95626309.763 8
  24368274.860        1698.266          49.500    98120903.263 8  24368272.120
      1742.666          49.900    96873604.665 8  24368273.400        1720.506
        52.550
 122607147.429 8                  23331364.120
       133.384                          51.950                    91557301.593 9
  23331368.300          99.613          55.000    93945743.132 9  23331365.160
       102.210          55.250    92751518.013 9  23331366.940         100.924
        58.000
 147672783.069 7                  28101203.980
      1055.000                          42.350                   110275143.476 7
  28101212.040         787.951          42.500   113151878.890 6  28101209.440
       808.377          41.750   111713510.336 7  28101211.260         798.211
        45.000
 142956762.944 7                  27203757.800
      3229.973                          42.950                   106753483.863 7
  27203765.580        2411.949          44.350   109538333.953 7  27203761.520
      2474.836          44.550   108145907.564 7  27203765.020        2443.357
        47.300
 127792029.387 8                  24318004.220
      1637.166                          52.300                    95429167.403 8
  24318009.460        1222.605          52.200    97918621.248 8  24318007.480
      1254.541          52.900    96673894.477 9  24318008.440        1238.565
        55.400
 141984795.199 7                  27018819.060
     -1334.311                          45.650                   106027604.937 7
  27018827.140        -996.266          45.350   108793531.591 7  27018824.240
     -1022.357          45.200   107410563.414 8  27018824.920       -1009.302
        48.050
 146891196.257 7                  27952480.760
     -2900.430                          42.700                   109691472.821 7
  27952492.360       -2166.016          43.000   112552978.507 7  27952488.840
     -2222.445          42.800   111122220.311 7  27952489.680       -2194.120
        45.600
 23 12 20 10  5  0.0000000  0 20G05G07G08G13G14G15G18G20G22G23G24G30
                                E04E05E09E15E24E31E34E36
 110785081.043 8  86326022.61348  21081705.640                    21081705.260
     -1779.116       -1386.326          50.450          50.250



 127137505.902 7  99068168.27547  24193478.420                    24193480.480
     -2925.129       -2279.328          43.350          43.650



 131064517.116 6 102128229.71646  24940746.780                    24940753.780
      -404.819        -315.442          38.050          38.200    97872895.778 6
  24940753.560        -302.097          40.950


 104973367.799 8  81797419.41748  19975766.540                    19975764.140
       587.127         457.501          50.200          50.000



 111648408.592 8  86998776.26448  21245971.680                    21245971.280
       696.284         542.561          49.300          48.000    83373853.682 9
  21245977.200         520.066          54.150


 113187345.807 8  88197909.65947  21538841.400                    21538841.260
      2737.208        2132.890          49.600          47.400



 127573229.167 7  99407684.32946  24276388.500                    24276389.880
      -606.593        -472.671          42.200          41.150    95265708.705 7
  24276395.720        -452.848          46.400


 120295348.197 7  93736594.23646  22891458.940                    22891460.200
     -3524.641       -2746.477          45.900          41.000



 113287871.496 8  88276277.41247  21557954.100                    21557953.100
      1768.141        1377.776          50.100          44.850



 132090503.753 6 102927664.90046  25135992.880                    25135995.400
      3537.170        2756.229          39.350          38.150    98639020.754 7
  25136000.000        2641.277          43.800


 127371009.567 6  99250158.21546  24237896.820                    24237901.180
      3613.928        2816.053          41.400          40.400    95114741.268 7
  24237903.380        2698.549          45.750


 114461957.805 8  89191139.09548  21781390.080                    21781391.400
     -2225.914       -1734.479          50.000          49.650    85474841.686 8
  21781393.180       -1662.193          52.850


 133250660.067 8                  25356764.240
     -2053.605                          50.000                    99505360.353 8
  25356768.320       -1533.568          49.700   102101144.824 8  25356764.700
     -1573.613          49.100   100803251.742 8  25356767.660       -1553.578
        52.000
 127987910.228 8                  24355293.340
      2270.946                          48.950                    95575393.902 8
  24355299.900        1695.820          49.550    98068659.155 8  24355297.140
      1740.062          49.250    96822024.680 8  24355298.520        1717.938
        52.000
 122603270.295 8                  23330626.360
       124.812                          52.150                    91554406.319 9
  23330630.520          93.206          54.900    93942772.331 9  23330627.520
        95.667          55.000    92748584.979 9  23330629.160          94.421
        57.500
 147641344.280 7                  28095221.400
      1040.595                          42.700                   110251666.388 7
  28095229.660         777.011          42.550   113127789.352 6  28095226.460
       797.311          41.050   111689727.018 7  28095228.620         787.204
        44.550
 142859903.284 7                  27185325.900
      3227.119                          43.600                   106681153.531 7
  27185333.920        2409.868          44.000   109464116.764 7  27185329.740
      2472.605          43.850   108072633.804 7  27185333.180        2441.241
        46.650
 127743104.382 8                  24308694.240
      1624.129                          52.550                    95392632.567 8
  24308699.480        1212.813          52.150    97881133.321 8  24308697.320
      1244.455          52.500    96636883.095 9  24308698.260        1228.655
        54.900
 142025022.858 7                  27026474.300
     -1347.797                          46.000                   106057645.003 7
  27026482.400       -1006.464          45.800   108824355.323 7  27026479.280
     -1032.815          44.550   107440995.318 7  27026480.020       -1019.661
        47.750
 146978246.829 7                  27969046.080
     -2903.216                          42.850                   109756477.840 7
  27969058.080       -2167.938          42.500   112619679.349 6  27969054.260
     -2224.634          41.950   111188073.247 7  27969055.080       -2196.229
        44.800
 23 12 20 10  5 30.0000000  0 20G05G07G08G13G14G15G18G20G22G23G24G30
                                E04E05E09E15E24E31E34E36
 110838722.165 8  86367820.83748  21091913.180                    21091912.460
     -1797.213       -1400.429          50.600          50.500



 127225279.259 7  99136562.93347  24210181.160                    24210183.600
     -2926.945       -2280.741          44.200          44.700



 131076926.446 6 102137899.40146  24943108.440                    24943114.860
      -422.652        -329.335          40.250          40.200    97882162.628 6
  24943114.840        -315.932          40.700


 104955939.490 8  81783838.90248  19972449.960                    19972447.700
       574.439         447.615          50.500          49.950



 111627796.064 8  86982714.59347  21242049.320                    21242048.900
       677.578         527.983          49.650          47.500    83358461.264 9
  21242054.500         505.925          54.100


 113105369.149 8  88134031.79047  21523241.900                    21523241.760
      2727.722        2125.498          50.300          47.650



 127591692.487 7  99422071.25846  24279901.980                    24279903.200
      -624.720        -486.799          42.650          41.300    95279496.163 7
  24279908.720        -466.450          46.150


 120401185.292 7  93819064.59746  22911599.120                    22911600.400
     -3531.396       -2751.741          45.250          40.950



 113235073.251 8  88235136.05347  21547906.780                    21547905.600
      1751.521        1364.826          50.300          44.600



 131984470.567 6 102845041.47846  25115815.660                    25115818.180
      3531.649        2751.931          38.900          38.300    98559839.934 7
  25115822.700        2637.322          43.950


 127262647.010 6  99165719.97546  24217275.920                    24217280.100
      3610.082        2813.057          41.750          36.600    95033821.294 7
  24217283.080        2695.828          45.900


 114528857.944 8  89243269.02848  21794120.900                    21794122.040
     -2234.307       -1741.021          50.600          50.600    85524799.528 8
  21794123.780       -1668.514          52.800


 133312342.123 8                  25368502.000
     -2058.826                          50.100                    99551421.578 8
  25368506.140       -1537.441          49.800   102148407.660 8  25368502.640
     -1577.532          49.450   100849913.767 8  25368505.420       -1557.454
        52.550
 127919811.894 8                  24342334.880
      2268.698                          49.550                    95524541.276 8
  24342341.020        1694.168          49.600    98016479.928 8  24342338.240
      1738.332          49.150    96770508.753 8  24342339.740        1716.303
        52.250
 122599637.502 8                  23329935.080
       117.133                          52.350                    91551693.505 9
  23329939.180          87.501          54.900    93939988.753 9  23329936.480
        89.751          55.150    92745836.781 9  23329937.880          88.643
        57.850
 147610329.652 6                  28089319.620
      1026.877                          41.800                   110228506.023 7
  28089328.040         766.867          42.750   113104024.828 6  28089324.440
       786.868          41.900   111666264.573 7  28089326.800         776.952
        45.200
 142763117.596 7                  27166908.300
      3225.038                          44.600                   106608878.322 7
  27166916.540        2408.341          43.950   109389956.129 7  27166912.240
      2471.203          44.950   107999415.879 7  27166915.460        2439.711
        47.250
 127694558.863 8                  24299456.420
      1611.967                          52.600                    95356381.104 8
  24299461.660        1203.749          52.200    97843936.168 8  24299459.300
      1235.174          52.400    96600158.789 9  24299460.340        1219.456
        55.100
 142065645.468 7                  27034204.620
     -1360.541                          46.100                   106087979.978 7
  27034212.760       -1015.940          46.000   108855481.658 7  27034209.540
     -1042.489          44.700   107471725.970 8  27034210.380       -1029.258
        48.250
 147065368.811 7                  27985625.260
     -2905.070                          42.700                   109821536.233 7
  27985637.020       -2169.473          43.550   112686434.902 6  27985633.060
     -2226.058          41.750   111253980.225 7  27985633.920       -2197.797
        45.400
 23 12 20 10  6  0.0000000  0 20G05G07G08G13G14G15G18G20G22G23G24G30
                                E04E05E09E15E24E31E34E36
 110892912.703 8  86410047.18148  21102225.320                    21102224.260
     -1815.804       -1414.913          50.150          50.200



 127313118.990 7  99205009.29247  24226896.600                    24226899.400
     -2929.413       -2282.665          43.650          43.550



 131089895.185 6 102148005.08246  24945576.580                    24945582.420
      -441.742        -344.208          39.300          39.050    97891847.257 6
  24945582.420        -329.907          40.850


 104938906.054 8  81770566.08548  19969208.560                    19969206.460
       560.950         437.104          50.050          49.850



 111607760.635 8  86967102.60748  21238236.740                    21238236.400
       657.836         512.601          49.300          48.250    83343499.781 8
  21238241.520         491.230          53.950


 113023688.884 8  88070384.87247  21507698.780                    21507698.620
      2717.383        2117.442          50.300          47.750



 127610706.979 7  99436887.64346  24283520.200                    24283521.380
      -643.419        -501.368          42.850          39.850    95293695.198 7
  24283526.720        -480.426          46.250


 120507236.643 7  93901701.91546  22931780.220                    22931781.440
     -3538.822       -2757.524          45.900          40.150



 113182778.895 8  88194387.32747  21537955.340                    21537954.260
      1734.349        1351.443          50.100          44.650



 131878610.720 6 102762553.12246  25095671.340                    25095673.620
      3525.267        2746.955          39.250          38.800    98480788.571 7
  25095678.420        2632.556          43.350


 127154408.319 6  99081378.26146  24196678.480                    24196682.460
      3605.365        2809.379          41.150          38.350    94952993.855 7
  24196686.300        2692.351          46.600


 114596018.569 8  89295601.93948  21806901.280                    21806902.180
     -2243.318       -1748.041          50.550          50.600    85574951.888 8
  21806903.820       -1675.219          52.850


 133374184.836 8                  25380270.340
     -2064.487                          49.700                    99597602.781 8
  25380274.460       -1541.665          49.750   102195793.595 8  25380271.280
     -1581.906          49.800   100896697.341 8  25380273.740       -1561.788
        52.200
 127851792.630 8                  24329391.420
      2265.527                          49.400                    95473747.699 8
  24329397.160        1691.812          49.400    97964361.290 8  24329394.320
      1736.000          49.250    96719052.650 8  24329396.000        1713.887
        51.800
 122596243.162 8                  23329289.160
       108.744                          52.100                    91549158.755 9
  23329293.220          81.256          54.850    93937387.882 9  23329290.680
        83.346          55.400    92743268.970 9  23329291.980          82.304
        57.600
 147579733.651 7                  28083497.520
      1012.403                          42.350                   110205658.352 7
  28083506.200         756.021          43.300   113080581.159 6  28083501.760
       775.715          41.600   111643118.909 7  28083504.860         765.865
        44.950
 142666401.133 7                  27148503.920
      3222.542                          44.050                   106536654.755 7
  27148512.360        2406.389          44.700   109315848.500 7  27148508.160
      2469.211          45.750   107926250.284 7  27148511.200        2437.788
        47.650
 127646387.404 8                  24290289.680
      1599.088                          52.400                    95320408.957 8
  24290295.040        1194.172          52.250    97807025.617 8  24290292.340
      1225.295          52.550    96563717.441 9  24290293.620        1209.734
        54.850
 142106655.270 7                  27042008.460
     -1373.749                          45.450                   106118604.083 7
  27042016.620       -1025.887          45.950   108886904.677 7  27042013.600
     -1052.665          45.350   107502749.532 8  27042014.500       -1039.309
        48.100
 147152553.615 7                  28002216.280
     -2907.504                          42.900                   109886641.501 7
  28002228.240       -2171.182          43.250   112753238.665 7  28002223.860
     -2227.797          43.000   111319934.738 7  28002225.060       -2199.516
        45.450
 23 12 20 10  6 30.0000000  0 20G05G07G08G13G14G15G18G20G22G23G24G30
                                E04E05E09E15E24E31E34E36
 110947659.428 8  86452706.90948  21112643.340                    21112642.000
     -1834.083       -1429.156          50.550          50.550



 127401033.361 7  99273513.80647  24243626.320                    24243629.380
     -2931.763       -2284.496          43.750          43.750



 131103432.301 6 102158553.68146  24948152.720                    24948158.640
      -460.690        -358.970          39.650          39.850    97901956.358 7
  24948158.900        -343.934          42.050


 104922276.999 8  81757608.37048  19966044.100                    19966042.120
       547.602         426.702          50.050          50.050



 111588312.043 8  86951947.88248  21234535.760                    21234535.520
       638.575         497.592          49.050          48.300    83328976.515 8
  21234540.240         476.876          53.800


 112942315.900 8  88006977.39147  21492214.040                    21492213.880
      2707.336        2109.613          49.950          47.350



 127630280.547 7  99452139.64646  24287245.040                    24287245.820
      -661.735        -515.642          42.750          39.400    95308311.708 7
  24287251.480        -494.127          46.500


 120613508.439 7  93984511.02146  22952003.120                    22952004.240
     -3545.973       -2763.098          45.400          41.100



 113130999.234 8  88154039.64147  21528101.840                    21528100.760
      1717.526        1338.336          49.750          45.300



 131772935.930 6 102680209.02146  25075562.240                    25075564.160
      3519.535        2742.489          39.650          39.050    98401875.457 7
  25075569.320        2628.206          44.700


 127046303.855 6  98997141.15346  24176106.620                    24176110.700
      3601.266        2806.184          41.550          39.550    94872266.686 7
  24176115.140        2689.244          46.250


 114663447.279 8  89348143.73548  21819732.540                    21819733.380
     -2252.049       -1754.845          50.000          50.150    85625304.422 8
  21819735.120       -1681.628          53.050


 133436197.077 8                  25392070.880
     -2069.699                          49.400                    99643910.574 8
  25392075.080       -1545.624          49.650   102243309.423 8  25392072.200
     -1585.945          50.050   100943609.152 8  25392074.340       -1565.779
        52.550
 127783862.227 8                  24316464.740
      2262.948                          48.950                    95423020.481 8
  24316470.140        1689.841          49.150    97912310.749 8  24316467.240
      1733.949          49.100    96667663.768 8  24316469.220        1711.870
        51.950
 122593096.859 8                  23328690.400
       100.771                          51.850                    91546809.226 9
  23328694.500          75.287          54.800    93934977.061 9  23328691.880
        77.249          55.400    92740888.797 9  23328693.280          76.257
        57.800
 147549566.116 7                  28077756.840
       998.354                          42.100                   110183130.573 7
  28077765.880         745.575          43.000   113057465.696 6  28077760.600
       765.068          41.550   111620297.287 7  28077764.200         755.362
        45.100
 142569764.630 7                  27130114.820
      3219.982                          43.850                   106464490.819 7
  27130123.460        2404.514          45.250   109241802.065 7  27130119.260
      2467.264          44.650   107853145.093 7  27130122.240        2435.886
        47.650
 127598600.066 8                  24281195.920
      1586.575                          52.250                    95284723.653 8
  24281201.400        1184.752          52.200    97770409.386 8  24281198.440
      1215.674          52.350    96527566.672 9  24281200.000        1200.231
        55.000
 142148059.966 7                  27049887.380
     -1386.799                          45.450                   106149523.060 7
  27049895.540       -1035.472          46.050   108918630.254 7  27049892.900
     -1062.534          45.950   107534071.806 8  27049893.760       -1048.993
        48.750
 147239808.255 6                  28018820.400
     -2909.613                          41.750                   109951798.930 6
  28018832.420       -2172.669          41.400   112820095.875 7  28018828.220
     -2229.356          43.050   111385942.060 7  28018829.600       -2201.082
        44.800
 23 12 20 10  7  0.0000000  0 20G05G07G08G13G14G15G18G20G22G23G24G30
                                E04E05E09E15E24E31E34E36
 111002957.081 8  86495795.92448  21123166.180                    21123164.700
     -1852.894       -1443.815          50.850          50.800



 127489016.945 7  99342072.26147  24260369.220                    24260372.400
     -2934.289       -2286.465          43.900          44.000



 131117532.851 6 102169541.35646  24950835.740                    24950841.900
      -480.008        -374.024          40.700          40.350    97912486.278 7
  24950842.440        -358.306          42.050


 104906048.588 8  81744962.85448  19962955.900                    19962954.020
       533.755         415.913          50.050          50.000



 111569446.610 8  86937247.56548  21230945.680                    21230945.600
       618.571         482.005          49.100          48.350    83314888.717 8
  21230949.980         462.019          53.750


 112861247.698 8  87943807.40447  21476787.220                    21476787.060
      2696.749        2101.364          49.950          47.650



 127650407.695 6  99467823.02446  24291075.100                    24291075.580
      -680.582        -530.327          41.800          40.650    95323341.588 7
  24291081.740        -508.112          46.400


 120719993.378 7  94067486.19346  22972266.660                    22972267.840
     -3553.361       -2768.855          45.450          40.250



 113079731.523 8  88114090.86447  21518345.720                    21518344.760
      1699.910        1324.608          49.500          45.550



 131667444.608 6 102598007.88946  25055488.020                    25055490.100
      3513.053        2737.438          40.500          36.600    98323099.340 7
  25055495.240        2623.328          43.650


 126938330.599 6  98913006.30846  24155559.800                    24155563.780
      3596.777        2802.689          40.750          39.150    94791637.495 7
  24155568.740        2685.703          46.400


 114731138.264 8  89400889.88048  21832613.720                    21832614.540
     -2261.141       -1761.931          50.000          50.100    85675852.802 8
  21832616.260       -1688.498          53.000


 133498374.389 8                  25403902.840
     -2075.754                          49.550                    99690341.621 8
  25403906.800       -1550.012          49.300   102290951.727 8  25403904.300
     -1590.571          49.950   100990645.827 8  25403906.340       -1570.286
        52.400
 127716017.139 8                  24303554.240
      2259.604                          48.800                    95372356.947 8
  24303559.340        1687.402          49.000    97860325.557 8  24303556.420
      1731.453          48.750    96616339.406 8  24303558.740        1709.398
        51.700
 122590194.776 8                  23328137.980
        92.270                          51.700                    91544642.076 9
  23328142.300          68.886          54.850    93932753.379 9  23328139.580
        70.696          55.350    92738693.380 9  23328141.060          69.787
        57.850
 147519823.632 6                  28072096.960
       984.052                          41.850                   110160920.188 7
  28072106.020         734.747          42.800   113034675.941 6  28072100.720
       753.929          41.350   111597797.214 7  28072104.620         744.354
        45.000
 142473205.372 7                  27111740.660
      3217.019                          45.050                   106392384.432 7
  27111749.580        2402.282          45.400   109167814.671 7  27111745.140
      2465.006          45.000   107780098.200 7  27111747.840        2433.668
        47.850
 127551193.566 8                  24272174.620
      1573.425                          51.700                    95249322.713 8
  24272180.220        1174.986          52.100    97734084.947 8  24272177.000
      1205.591          52.150    96491703.986 9  24272178.860        1190.267
        54.900
 142189853.883 7                  27057840.420
     -1400.064                          45.250                   106180732.717 7
  27057848.560       -1045.492          46.300   108950654.080 7  27057846.320
     -1072.691          46.250   107565688.548 8  27057847.040       -1059.026
        49.050
 147327126.287 6                  28035436.540
     -2912.146                          41.850                   110017003.790 6
  28035448.240       -2174.545          41.500   112887001.710 6  28035444.580
     -2231.269          41.950   111451997.409 7  28035445.680       -2202.933
        44.500
 23 12 20 10  7 30.0000000  0 20G05G07G08G13G14G15G18G20G22G23G24G30
                                E04E05E09E15E24E31E34E36
 111058803.888 8  86539312.85948  21133793.500                    21133792.120
     -1870.989       -1457.916          50.450          50.400



 127577069.216 7  99410684.20847  24277125.100                    24277128.380
     -2936.483       -2288.177          44.350          44.200



 131132197.595 6 102180968.64246  24953626.100                    24953632.720
      -498.771        -388.645          39.200          39.200    97923437.467 7
  24953633.560        -372.213          43.000


 104890222.360 8  81732630.72048  19959944.300                    19959942.300
       520.409         405.515          50.200          50.050



 111551165.422 8  86923002.50247  21227466.800                    21227466.720
       599.308         466.993          49.200          47.900    83301237.214 8
  21227471.000         447.501          53.850


 112780486.912 8  87880876.96547  21461418.780                    21461418.580
      2686.601        2093.456          48.950          47.400



 127671087.694 6  99483937.21146  24295010.280                    24295010.640
      -698.996        -544.676          40.250          40.400    95338784.354 7
  24295017.440        -521.860          47.100


 120826689.413 7  94150625.85046  22992570.280                    22992571.540
     -3560.480       -2774.405          44.650          40.150



 113028978.104 8  88074542.82147  21508687.520                    21508686.720
      1682.797        1311.272          49.200          45.650



 131562139.941 6 102515952.23846  25035449.340                    25035451.540
      3506.450        2732.297          40.550          38.700    98244462.622 7
  25035456.540        2618.606          43.600


 126830490.334 6  98828975.08146  24135038.200                    24135041.960
      3592.237        2799.148          41.700          38.850    94711107.618 7
  24135047.280        2682.515          46.100


 114799090.489 8  89453839.59048  21845544.680                    21845545.440
     -2269.762       -1768.648          50.150          50.050    85726596.266 8
  21845547.040       -1694.950          53.250


 133560717.018 8                  25415766.260
     -2081.131                          49.100                    99736896.139 8
  25415770.020       -1554.135          49.300   102338720.708 8  25415767.920
     -1594.672          49.750   101037807.578 8  25415769.800       -1574.411
        52.450
 127648258.596 8                  24290660.080
      2256.870                          48.600                    95321758.045 8
  24290665.080        1685.258          49.050    97808406.674 8  24290662.020
      1729.330          48.350    96565080.510 8  24290664.700        1707.346
        51.700
 122587537.977 8                  23327632.280
        84.117                          51.700                    91542658.079 9
  23327636.740          62.813          54.950    93930717.632 9  23327634.080
        64.473          55.200    92736683.507 9  23327635.500          63.660
        57.950
 147490507.649 6                  28066518.180
       969.883                          41.250                   110139028.322 7
  28066527.400         724.140          43.100   113012212.980 7  28066522.180
       743.098          42.000   111575619.806 7  28066526.100         733.624
        45.750
 142376725.535 7                  27093381.720
      3214.291                          44.900                   106320337.208 7
  27093390.500        2400.332          44.600   109093888.029 7  27093386.400
      2463.007          45.200   107707111.273 7  27093388.680        2431.657
        47.700
 127504169.365 8                  24263226.020
      1560.733                          51.700                    95214207.247 8
  24263231.680        1165.506          52.200    97698053.420 8  24263228.320
      1195.920          52.000    96456130.487 9  24263230.460        1180.705
        55.100
 142232036.110 7                  27065867.440
     -1412.854                          45.200                   106212232.321 7
  27065875.500       -1055.099          46.600   108982975.426 7  27065873.480
     -1082.467          46.400   107597599.029 8  27065874.180       -1068.879
        49.350
 147414506.113 6                  28052064.160
     -2913.866                          40.750                   110082254.740 7
  28052076.200       -2176.029          43.300   112953954.926 6  28052072.840
     -2232.736          41.900   111518099.482 7  28052073.720       -2204.313
        45.650
 23 12 20 10  8  0.0000000  0 20G05G07G08G13G14G15G18G20G22G23G24G30
                                E04E05E09E15E24E31E34E36
 111115200.545 8  86583258.25348  21144525.460                    21144524.180
     -1889.112       -1472.037          50.400          50.600



 127665191.219 7  99479350.51047  24293894.460                    24293897.420
     -2938.853       -2290.021          44.750          45.050



 131147427.844 6 102192836.51846  24956523.820                    24956531.040
      -517.353        -403.127          37.350          37.950    97934810.891 7
  24956532.300        -386.196          43.300


 104874800.796 8  81720613.90948  19957009.680                    19957007.580
       507.240         395.252          50.550          49.850



 111533471.155 8  86909214.76648  21224099.620                    21224099.540
       580.004         451.951          49.250          48.550    83288023.974 8
  21224103.840         433.076          53.700


 112700037.511 8  87818189.15047  21446109.540                    21446109.320
      2676.518        2085.600          49.150          47.400



 127692321.317 6  99500482.82946  24299050.760                    24299051.680
      -717.180        -558.844          41.200          40.100    95354640.546 7
  24299058.420        -535.536          47.050


 120933595.692 7  94233929.35546  23012914.080                    23012915.360
     -3566.927       -2779.427          45.450          40.150



 112978742.547 8  88035398.29147  21499127.860                    21499127.040
      1665.844        1298.062          49.150          45.700



 131457026.511 6 102434045.55546  25015447.040                    25015449.020
      3500.641        2727.770          41.350          38.950    98165968.722 7
  25015454.340        2613.984          45.100


 126722786.372 6  98745050.08846  24114542.560                    24114546.420
      3587.610        2795.548          40.950          39.750    94630679.521 7
  24114551.820        2679.187          45.750


 114867304.517 8  89506993.29348  21858525.360                    21858526.160
     -2278.122       -1775.163          49.600          49.500    85777535.213 8
  21858527.880       -1701.246          53.250


 133623226.853 8                  25427661.440
     -2086.562                          48.700                    99783575.492 8
  25427665.020       -1558.147          49.100   102386617.794 8  25427663.160
     -1598.795          49.800   101085095.792 8  25427665.060       -1578.474
        52.350
 127580589.412 8                  24277782.840
      2254.121                          48.350                    95271225.865 8
  24277787.980        1683.175          49.000    97756556.252 8  24277784.740
      1727.216          48.050    96513889.216 8  24277787.660        1705.131
        51.650
 122585128.993 8                  23327173.820
        76.128                          51.750                    91540859.143 9
  23327178.260          56.830          54.700    93928871.767 9  23327175.720
        58.315          55.100    92734861.108 9  23327177.100          57.556
        57.800
 147461620.966 6                  28061020.980
       955.510                          41.050                   110117457.009 7
  28061030.440         713.670          43.050   112990078.962 7  28061025.780
       732.384          42.200   111553767.142 7  28061029.360         722.996
        45.750
 142280328.735 7                  27075038.440
      3211.821                          44.850                   106248351.889 7
  27075047.320        2398.443          44.450   109020024.936 7  27075043.760
      2460.948          45.450   107634187.058 7  27075045.480        2429.735
        47.600
 127457530.481 8                  24254350.720
      1548.131                          51.750                    95179379.527 8
  24254356.460        1156.084          52.050    97662317.147 8  24254353.120
      1186.266          52.000    96420848.494 9  24254355.380        1171.146
        55.000
 142274607.279 7                  27073968.440
     -1425.498                          44.900                   106244022.369 7
  27073976.440       -1064.563          46.100   109015594.812 7  27073974.540
     -1092.362          46.300   107629803.742 8  27073975.380       -1078.439
        49.000
 147501947.615 6                  28068703.760
     -2916.053                          41.200                   110147551.767 6
  28068715.580       -2177.444          40.550   113020955.406 7  28068712.660
     -2234.238          43.800   111584248.241 7  28068713.900       -2205.907
        45.100
 23 12 20 10  8 30.0000000  0 20G05G07G08G13G14G15G18G20G22G23G24G30
                                E04E05E09E15E24E31E34E36
 111172140.129 8  86627626.71148  21155360.760                    21155359.700
     -1907.412       -1486.297          50.300          50.250



 127753377.677 7  99548067.04347  24310676.080                    24310678.680
     -2941.032       -2291.720          43.800          43.950



 131163218.994 6 102205141.45245  24959527.900                    24959536.280
      -536.787        -418.272          36.400          34.900    97946603.123 7
  24959537.340        -400.415          42.850


 104859780.202 8  81708909.54648  19954151.380                    19954149.320
       493.722         384.718          50.150          50.050



 111516360.097 8  86895881.48048  21220843.540                    21220843.280
       560.297         436.595          49.300          48.350    83275246.240 8
  21220847.780         418.354          53.700


 112619897.290 8  87755742.25447  21430859.200                    21430858.960
      2665.728        2077.192          48.950          47.900



 127714103.013 6  99517455.49146  24303195.780                    24303197.180
      -735.604        -573.200          41.900          41.050    95370905.987 7
  24303203.540        -549.273          47.000


 121040705.149 7  94317391.17746  23033296.420                    23033297.740
     -3574.052       -2784.979          44.850          40.300



 112929022.292 8  87996655.28447  21489666.320                    21489665.540
      1648.396        1284.467          49.300          45.650



 131352102.839 6 102352286.77646  24995480.760                    24995482.980
      3493.680        2722.347          41.200          39.200    98087616.525 7
  24995488.360        2608.979          43.650


 126615215.602 6  98661228.87446  24094072.220                    24094076.400
      3583.330        2792.210          41.100          40.700    94550350.907 7
  24094081.420        2675.651          44.950


 114935774.542 8  89560346.46548  21871554.700                    21871555.620
     -2287.005       -1782.085          49.350          49.350    85828665.309 8
  21871557.540       -1707.782          53.300


 133685899.352 8                  25439587.560
     -2092.266                          49.100                    99830376.294 8
  25439591.340       -1562.367          49.100   102434639.496 8  25439589.480
     -1603.155          49.850   101132507.049 8  25439591.300       -1582.787
        52.300
 127513006.027 8                  24264922.000
      2250.927                          48.250                    95220757.745 8
  24264927.400        1680.875          48.950    97704771.575 8  24264924.080
      1724.763          48.500    96462762.812 8  24264926.880        1702.813
        51.650
 122582964.018 8                  23326761.900
        67.699                          52.200                    91539242.417 9
  23326766.200          50.562          54.650    93927212.868 9  23326763.680
        51.884          55.150    92733223.297 9  23326765.140          51.204
        57.750
 147433159.989 6                  28055604.740
       941.174                          41.400                   110096203.570 7
  28055614.720         702.872          43.150   112968271.099 7  28055610.420
       721.159          42.100   111532236.490 7  28055613.540         712.019
        45.600
 142184012.380 7                  27056710.600
      3208.701                          44.900                   106176426.488 7
  27056719.600        2396.189          45.250   108946223.318 7  27056716.160
      2458.769          44.650   107561323.552 7  27056717.660        2427.426
        47.550
 127411273.570 8                  24245548.080
      1535.078                          51.250                    95144837.038 8
  24245553.800        1146.331          51.800    97626873.549 8  24245550.700
      1176.224          52.250    96385855.447 9  24245552.960        1161.291
        54.950
 142317561.731 7                  27082142.380
     -1438.644                          44.900                   106276098.612 7
  27082150.300       -1074.197          45.850   109048507.849 7  27082148.420
     -1102.264          46.550   107662298.380 8  27082149.520       -1088.199
        49.050
 147589444.368 6                  28085353.660
     -2917.733                          38.500                   110212890.126 6
  28085364.920       -2178.878          39.750   113087998.208 6  28085362.940
     -2235.886          41.350   111650438.815 7  28085363.940       -2207.281
        43.300
 23 12 20 10  9  0.0000000  0 20G05G07G08G13G14G15G18G20G22G23G24G30
                                E04E05E09E15E24E31E34E36
 111229626.933 8  86672421.57148  21166300.160                    21166299.280
     -1925.238       -1500.187          50.350          50.150



 127841633.420 7  99616837.54747  24327470.640                    24327473.520
     -2942.956       -2293.220          42.450          42.400



 131179577.045 6 102217888.04246  24962640.500                    24962649.160
      -553.889        -431.603          37.800          36.700    97958818.644 7
  24962650.120        -414.192          42.650


 104845167.194 8  81697522.77648  19951370.760                    19951368.620
       480.338         374.289          50.750          50.100



 111499838.697 8  86883007.66048  21217699.740                    21217699.240
       540.884         421.468          49.600          48.300    83262908.825 8
  21217704.060         403.982          53.900


 112540074.279 8  87693542.53147  21415669.200                    21415669.100
      2655.366        2069.118          48.750          47.950



 127736437.350 7  99534858.75246  24307446.080                    24307447.940
      -753.673        -587.282          42.900          40.800    95387584.092 7
  24307453.680        -562.667          47.150


 121148021.085 7  94401013.90046  23053718.120                    23053719.480
     -3580.662       -2790.129          45.200          41.400



 112879824.795 8  87958319.60847  21480304.380                    21480303.380
      1631.186        1271.054          49.800          45.900



 131247377.399 6 102270682.45946  24975552.180                    24975554.400
      3487.603        2717.611          41.350          40.100    98009412.374 7
  24975560.060        2604.376          44.300


 126507785.327 6  98577517.11346  24073628.480                    24073632.960
      3578.573        2788.505          39.700          39.000    94470127.153 7
  24073637.460        2672.401          44.950


 115004504.959 8  89613902.55048  21884633.700                    21884634.580
     -2295.380       -1788.610          49.550          49.400    85879989.859 8
  21884636.640       -1713.973          53.200


 133748740.214 8                  25451545.740
     -2097.418                          48.950                    99877302.822 8
  25451549.700       -1566.228          49.200   102482790.196 8  25451547.720
     -1607.126          49.650   101180045.662 8  25451549.580       -1586.665
        52.300
 127445515.108 8                  24252078.860
      2248.172                          48.050                    95170358.677 8
  24252084.420        1678.864          48.950    97653057.751 8  24252081.280
      1722.604          48.800    96411706.366 8  24252083.700        1700.751
        51.750
 122581049.454 8                  23326397.800
        59.758                          52.400                    91537812.683 9
  23326401.820          44.627          54.750    93925745.844 9  23326399.360
        45.762          55.100    92731774.916 9  23326400.840          45.175
        57.750
 147405131.566 7                  28050271.080
       927.041                          42.500                   110075273.105 7
  28050281.300         692.404          42.800   112946794.628 7  28050277.340
       710.331          42.350   111511033.027 7  28050279.820         701.357
        45.450
 142087784.110 7                  27038399.740
      3206.072                          45.250                   106104566.816 7
  27038409.100        2394.289          44.900   108872489.130 7  27038405.240
      2456.616          44.350   107488526.618 7  27038406.720        2425.481
        47.200
 127365405.476 8                  24236819.480
      1522.548                          51.350                    95110584.877 8
  24236825.120        1136.976          51.850    97591727.855 8  24236822.360
      1166.625          52.200    96351156.520 9  24236824.540        1151.809
        54.950
 142360903.892 7                  27090390.160
     -1451.014                          44.650                   106308464.408 7
  27090397.920       -1083.603          45.400   109081717.972 7  27090396.200
     -1111.830          46.550   107695086.341 8  27090397.400       -1097.731
        48.850
 147677000.122 6                  28102014.980
     -2919.557                          39.800                   110278272.521 6
  28102025.900       -2180.050          41.200   113155086.297 6  28102024.340
     -2236.994          41.500   111716674.061 7  28102025.360       -2208.519
        44.250
 23 12 20 10  9 30.0000000  0 20G05G07G08G13G14G15G18G20G22G23G24G30
                                E04E05E09E15E24E31E34E36
 111287649.850 8  86717634.18348  21177341.620                    21177340.840
     -1943.181       -1514.168          50.600          50.600



 127929947.704 7  99685653.65547  24344276.220                    24344279.620
     -2944.713       -2294.589          43.600          43.550



 131196492.003 6 102231068.53746  24965859.460                    24965867.880
      -572.999        -446.492          39.050          38.550    97971449.932 6
  24965868.420        -427.862          41.850


 104830953.040 8  81686446.79648  19948666.060                    19948663.760
       467.112         363.982          50.850          50.200



 111483897.949 8  86870586.29547  21214666.420                    21214665.760
       521.569         406.418          50.150          47.550    83251005.016 9
  21214670.900         389.546          54.250


 112460560.910 8  87631584.10147  21400538.300                    21400538.180
      2645.205        2061.199          49.950          47.250



 127759313.510 7  99552684.24346  24311799.580                    24311801.660
      -771.502        -601.173          43.350          39.750    95404666.831 7
  24311806.820        -576.212          47.200


 121255530.871 7  94484787.68746  23074176.680                    23074178.120
     -3586.940       -2795.021          45.550          40.300



 112831142.193 8  87920385.14447  21471040.560                    21471039.280
      1614.009        1257.669          50.600          45.300



 131142843.401 6 102189227.32246  24955660.000                    24955662.260
      3481.334        2712.729          40.750          39.200    97931351.162 7
  24955668.140        2599.606          45.750


 126400487.099 6  98493908.26546  24053209.960                    24053214.880
      3574.212        2785.105          40.400          39.750    94390002.027 7
  24053218.560        2669.110          44.850


 115073484.743 8  89667652.93548  21897760.220                    21897761.100
     -2303.515       -1794.950          49.800          49.800    85931500.635 8
  21897762.980       -1720.207          53.500


 133811739.679 8                  25463534.140
     -2102.561                          49.150                    99924347.778 8
  25463538.300       -1570.155          49.350   102531062.425 8  25463536.140
     -1611.088          49.550   101227704.250 8  25463538.080       -1590.583
        52.300
 127378107.851 8                  24239251.720
      2245.438                          48.400                    95120022.087 8
  24239257.460        1676.826          48.950    97601408.033 8  24239254.540
      1720.583          49.050    96360713.212 8  24239256.520        1698.698
        51.800
 122579376.287 8                  23326079.620
        51.665                          52.600                    91536563.209 9
  23326083.540          38.597          55.100    93924463.777 9  23326081.100
        39.605          55.100    92730509.146 9  23326082.460          39.085
        57.900
 147377526.999 7                  28045018.600
       913.170                          43.150                   110054659.211 7
  28045028.500         681.788          43.350   112925643.004 7  28045024.880
       699.566          43.400   111490150.256 7  28045026.980         690.680
        46.250
 141991636.123 7                  27020104.060
      3203.495                          45.000                   106032767.114 7
  27020113.800        2392.371          45.100   108798816.487 7  27020109.940
      2454.695          45.050   107415790.450 7  27020111.160        2423.539
        47.650
 127319917.558 8                  24228163.320
      1509.861                          51.750                    95076616.614 8
  24228168.820        1127.540          52.000    97556873.462 8  24228166.420
      1156.938          52.300    96316745.190 9  24228168.460        1142.234
        55.000
 142404622.818 7                  27098709.560
     -1463.731                          44.200                   106341111.536 7
  27098717.340       -1092.911          45.350   109115216.787 7  27098715.680
     -1121.510          46.600   107728159.312 8  27098716.900       -1107.207
        48.800
 147764603.195 6                  28118685.560
     -2920.922                          40.100                   110343690.286 6
  28118695.580       -2181.184          40.800   113222210.600 6  28118694.820
     -2238.074          41.400   111782945.092 7  28118695.840       -2209.521
        44.050
 23 12 20 10 10  0.0000000  0 20G05G07G08G13G14G15G18G20G22G23G24G30
                                E04E05E09E15E24E31E34E36
 111346217.178 8  86763271.00748  21188486.640                    21188485.820
     -1961.132       -1528.157          50.250          50.100



 128018329.626 7  99754522.45447  24361094.920                    24361098.680
     -2947.100       -2296.449          43.500          43.000



 131213973.233 6 102244690.20546  24969186.300                    24969193.920
      -591.736        -461.095          39.050          39.600    97984504.082 7
  24969194.340        -442.140          42.200


 104817148.456 8  81675689.96548  19946039.180                    19946036.980
       453.427         353.319          50.150          50.050



 111468548.597 8  86858625.76848  21211745.660                    21211744.820
       501.933         391.116          50.300          48.000    83239542.841 8
  21211750.320         374.805          53.950


 112381369.546 8  87569876.56948  21385468.840                    21385468.640
      2634.505        2052.861          50.200          48.200



 127782740.400 7  99570938.85846  24316257.800                    24316259.840
      -790.030        -615.612          43.050          39.950    95422160.804 7
  24316264.760        -589.905          46.700


 121363242.040 7  94568718.40146  23094673.520                    23094675.300
     -3593.493       -2800.127          44.850          40.300



 112782986.380 8  87882861.15747  21461876.940                    21461875.540
      1596.522        1244.044          50.400          45.400



 131038513.800 6 102107931.42446  24935806.700                    24935809.220
      3474.528        2707.422          41.400          39.850    97853442.605 7
  24935815.220        2594.392          45.750


 126293332.516 6  98410411.29146  24032818.680                    24032823.960
      3569.271        2781.253          38.650          39.100    94309984.109 7
  24032826.820        2665.576          44.400


 115142722.665 8  89721604.47448  21910935.980                    21910936.700
     -2312.089       -1801.631          50.100          50.050    85983204.164 8
  21910938.460       -1726.540          53.200


 133874907.833 8                  25475554.620
     -2108.246                          48.850                    99971518.682 8
  25475559.140       -1574.303          49.150   102579463.890 8  25475556.760
     -1615.375          49.900   101275490.439 8  25475558.660       -1594.861
        52.400
 127310795.313 8                  24226442.660
      2242.268                          48.300                    95069756.210 8
  24226448.380        1674.462          48.300    97549830.886 8  24226445.780
      1718.085          49.350    96309791.698 8  24226447.440        1696.256
        51.700
 122577955.281 8                  23325809.320
        43.237                          52.300                    91535502.036 9
  23325813.240          32.330          54.750    93923374.926 9  23325810.820
        33.188          55.300    92729434.134 9  23325812.080          32.740
        57.900
 147350357.257 7                  28039848.900
       898.501                          43.200                   110034370.035 7
  28039858.160         671.046          43.350   112904824.562 7  28039854.960
       688.473          43.600   111469596.456 7  28039856.940         679.756
        46.400
 141895580.517 7                  27001825.920
      3200.421                          44.850                   105961036.503 7
  27001835.780        2389.932          44.200   108725214.750 7  27001832.380
      2452.234          45.800   107343124.274 7  27001833.320        2421.090
        47.700
 127274821.061 8                  24219581.720
      1496.801                          51.650                    95042940.645 8
  24219587.100        1117.770          51.650    97522318.986 8  24219584.960
      1146.911          52.550    96282629.969 9  24219586.880        1132.338
        55.000
 142448727.301 7                  27107102.420
     -1476.537                          43.650                   106374046.596 7
  27107110.200       -1102.464          44.750   109149011.024 7  27107108.680
     -1131.334          46.550   107761523.961 8  27107109.720       -1116.911
        48.350
 147852261.834 6                  28135366.600
     -2922.632                          40.550                   110409149.564 6
  28135375.940       -2182.616          39.900   113289377.475 6  28135375.560
     -2239.337          40.650   111849258.180 7  28135376.720       -2210.991
        43.100
 23 12 20 10 10 30.0000000  0 20G05G07G08G13G14G15G18G20G22G23G24G30
                                E04E05E09E15E24E31E34E36
 111405321.739 8  86809326.46648  21199733.860                    21199733.040
     -1979.341       -1542.345          50.200          49.950



 128106772.737 7  99823438.93947  24377925.360                    24377929.460
     -2949.378       -2298.225          42.800          42.550



 131232015.575 6 102258749.13646  24972619.680                    24972626.960
      -610.863        -476.002          39.300          39.800    97997977.177 7
  24972628.040        -456.266          42.550


 104803748.683 8  81665248.56748  19943489.180                    19943487.080
       439.769         342.676          50.150          50.100



 111453785.652 8  86847122.17048  21208936.460                    21208935.540
       482.015         375.596          50.400          48.450    83228518.551 9
  21208941.240         360.063          54.100


 112302496.453 8  87508417.03147  21370460.040                    21370459.640
      2623.492        2044.280          50.600          47.750



 127806711.145 7  99589617.28546  24320819.400                    24320821.140
      -808.170        -629.745          42.100          39.900    95440060.927 7
  24320826.400        -603.535          46.600


 121471146.374 7  94652799.62646  23115207.000                    23115208.940
     -3600.295       -2805.425          44.600          39.850



 112735353.291 8  87845744.47247  21452812.780                    21452811.300
      1578.854        1230.277          50.300          45.900



 130934385.803 6 102026792.61946  24915991.960                    24915994.380
      3467.371        2701.847          40.550          37.650    97775684.552 7
  24916000.620        2589.241          45.850


 126186317.306 6  98327022.94446  24012453.980                    24012459.820
      3564.183        2777.287          39.700          39.150    94230070.286 7
  24012461.820        2661.936          44.600


 115212211.765 8  89775751.74948  21924159.520                    21924160.220
     -2320.681       -1808.324          50.450          50.550    86035095.277 8
  21924161.920       -1733.011          53.350


 133938238.969 8                  25487606.100
     -2113.916                          49.000                   100018811.294 8
  25487610.940       -1578.543          49.200   102627990.233 8  25487608.380
     -1619.773          49.800   101323399.917 8  25487610.260       -1599.149
        52.400
 127243572.752 8                  24213650.700
      2239.103                          48.900                    95019557.525 8
  24213656.280        1672.045          48.300    97498322.680 8  24213654.000
      1715.673          49.350    96258938.253 8  24213655.520        1693.826
        51.850
 122576781.471 8                  23325585.920
        34.794                          52.300                    91534625.463 9
  23325589.920          25.987          54.850    93922475.485 9  23325587.520
        26.691          55.250    92728546.127 9  23325588.760          26.347
        57.950
 147323617.610 7                  28034760.980
       883.949                          43.200                   110014402.047 7
  28034769.740         660.122          43.500   112884335.666 7  28034766.920
       677.258          42.750   111449368.012 7  28034768.640         668.704
        46.150
 141799613.609 7                  26983564.680
      3197.087                          45.350                   105889372.304 7
  26983574.540        2387.549          44.800   108651681.124 7  26983571.440
      2449.839          44.900   107270525.366 7  26983572.440        2418.676
        47.750
 127230111.369 8                  24211073.900
      1483.719                          52.300                    95009553.526 8
  24211079.040        1107.973          51.650    97488060.900 8  24211077.140
      1136.854          52.550    96248807.363 9  24211078.900        1122.441
        55.050
 142493210.396 7                  27115567.280
     -1489.149                          43.550                   106407264.407 7
  27115575.300       -1112.091          44.850   109183095.380 7  27115573.780
     -1141.038          46.350   107795175.046 8  27115574.580       -1126.597
        48.400
 147939968.353 6                  28152056.940
     -2924.424                          40.650                   110474644.575 6
  28152065.940       -2183.748          39.900   113356581.157 6  28152065.080
     -2240.935          41.550   111915607.516 7  28152066.960       -2212.279
        43.700
 23 12 20 10 11  0.0000000  0 20G05G07G08G13G14G15G18G20G22G23G24G30
                                E04E05E09E15E24E31E34E36
 111464960.459 8  86855798.13648  21211082.700                    21211081.800
     -1997.256       -1556.305          50.200          50.150



 128195274.847 7  99892401.37447  24394767.000                    24394771.380
     -2951.452       -2299.839          43.350          43.050



 131250616.877 6 102273243.54246  24976159.200                    24976166.420
      -629.810        -490.765          37.250          37.700    98011867.652 7
  24976168.200        -470.349          42.800


 104790753.109 8  81655122.12848  19941016.020                    19941014.060
       426.047         331.984          49.450          49.400



 111439608.315 8  86836074.89148  21206238.660                    21206237.760
       462.381         360.296          50.250          48.300    83217931.582 9
  21206243.560         345.280          54.250


 112223942.754 8  87447206.36048  21355511.960                    21355511.320
      2612.816        2035.961          49.950          48.350



 127831223.071 7  99608717.38546  24325483.840                    24325485.460
      -826.578        -644.090          42.300          40.050    95458365.172 7
  24325491.040        -617.187          46.700


 121579239.721 7  94737028.13946  23135776.460                    23135778.720
     -3606.777       -2810.477          44.750          40.050



 112688243.123 8  87809035.25247  21443848.060                    21443846.700
      1561.199        1216.520          50.200          46.000



 130830460.852 6 101945812.02846  24896215.780                    24896218.360
      3460.392        2696.405          41.100          38.000    97698078.116 7
  24896224.540        2583.993          45.900


 126079441.506 6  98243743.18846  23992116.220                    23992121.860
      3559.650        2773.755          38.000          37.700    94150260.512 7
  23992123.160        2658.343          44.650


 115281949.299 8  89830092.58948  21937430.260                    21937431.120
     -2329.087       -1814.876          49.800          49.700    86087171.889 8
  21937432.520       -1739.287          53.400


 134001731.589 8                  25499688.380
     -2119.451                          48.800                   100066224.493 8
  25499693.600       -1582.786          49.150   102676640.306 8  25499690.820
     -1624.055          49.750   101371431.553 8  25499692.580       -1603.421
        52.200
 127176439.695 8                  24200875.740
      2235.833                          49.150                    94969425.667 8
  24200881.180        1669.617          48.300    97446883.040 8  24200879.040
      1713.153          49.250    96208152.506 8  24200880.640        1691.362
        51.650
 122575854.081 8                  23325409.400
        26.373                          51.950                    91533932.900 9
  23325413.540          19.726          54.950    93921764.865 9  23325411.080
        20.211          55.150    92727844.537 9  23325412.320          19.967
        57.800
 147297307.613 7                  28029754.500
       869.415                          42.950                   109994754.900 7
  28029763.020         649.323          43.300   112864175.983 7  28029760.300
       666.229          43.450   111429464.597 7  28029761.860         657.768
        46.050
 141703735.941 7                  26965320.280
      3193.897                          45.450                   105817775.041 7
  26965330.380        2385.207          45.000   108578216.130 7  26965327.120
      2447.348          44.850   107197994.241 7  26965328.080        2416.256
        47.600
 127185788.185 8                  24202639.700
      1470.569                          52.400                    94976455.056 8
  24202644.720        1098.174          51.750    97454098.990 8  24202642.800
      1126.819          52.550    96215277.174 9  24202644.460        1112.475
        54.900
 142538069.394 7                  27124103.600
     -1501.923                          43.250                   106440762.909 7
  27124112.020       -1121.491          44.900   109217467.785 7  27124110.260
     -1150.857          45.850   107829110.494 8  27124111.000       -1136.104
        48.100
 148027719.360 6                  28168755.560
     -2926.229                          39.150                   110540172.900 6
  28168763.760       -2185.222          38.800   113423818.855 6  28168763.360
     -2242.169          41.100   111981990.520 7  28168765.540       -2213.600
        42.650
 23 12 20 10 11 30.0000000  0 20G05G07G08G13G14G15G18G20G22G23G24G30
                                E04E05E09E15E24E31E34E36
 111525134.299 8  86902686.77548  21222533.380                    21222532.540
     -2014.655       -1569.863          49.400          49.050



 128283838.522 7  99961411.84547  24411620.400                    24411624.860
     -2953.183       -2301.187          42.400          42.450



 131269780.412 6 102288176.09146  24979805.940                    24979812.880
      -648.228        -505.114          37.350          36.550    98026177.986 7
  24979815.460        -484.062          43.350


 104778165.896 8  81645313.88548  19938620.560                    19938618.760
       412.823         321.680          48.950          49.000



 111426020.499 8  86825486.97848  21203652.920                    21203652.200
       443.127         345.293          49.450          48.900    83207784.834 8
  21203657.960         330.878          53.850


 112145713.647 8  87386248.61948  21340625.540                    21340624.820
      2602.336        2027.794          49.500          48.550



 127856278.255 6  99628240.79446  24330251.740                    24330253.300
      -844.286        -657.890          41.400          40.300    95477075.071 7
  24330259.120        -630.408          46.150


 121687522.840 7  94821404.51846  23156382.020                    23156384.720
     -3612.463       -2814.910          43.600          41.250



 112641661.201 8  87772737.64447  21434983.780                    21434982.620
      1543.966        1203.090          49.550          46.400



 130726745.089 6 101864994.44546  24876479.360                    24876481.940
      3453.678        2691.174          39.950          39.100    97620627.926 7
  24876488.320        2579.040          45.550


 125972709.830 6  98160575.72046  23971805.920                    23971811.400
      3555.280        2770.351          40.100          39.600    94070558.391 7
  23971812.220        2654.819          44.450


 115351937.228 8  89884628.53048  21950748.480                    21950749.700
     -2336.993       -1821.037          48.950          48.850    86139435.481 8
  21950750.820       -1745.229          53.150


 134065388.966 8                  25511802.140
     -2124.662                          48.550                   100113760.709 8
  25511807.420       -1586.605          48.950   102725416.613 8  25511804.440
     -1628.003          49.800   101419587.810 8  25511806.260       -1607.296
        52.550
 127109400.330 8                  24188118.560
      2233.097                          48.600                    94919363.782 7
  24188123.840        1667.570          47.950    97395515.195 8  24188121.840
      1711.043          49.400    96157437.644 8  24188123.560        1689.259
        51.900
 122575177.062 8                  23325280.480
        18.434                          51.600                    91533427.324 9
  23325284.760          13.705          54.500    93921246.098 9  23325282.220
        14.100          55.250    92727332.362 9  23325283.520          13.918
        58.050
 147271431.380 7                  28024830.480
       855.343                          42.100                   109975431.653 7
  28024838.940         638.729          42.800   112844348.661 7  28024836.280
       655.428          43.550   111409889.309 7  28024837.840         647.100
        46.400
 141607952.686 7                  26947093.760
      3191.147                          45.350                   105746248.631 7
  26947103.900        2382.860          43.850   108504823.790 7  26947100.360
      2445.110          45.250   107125534.862 7  26947101.540        2413.976
        47.300
 127141855.839 8                  24194279.860
      1457.916                          52.000                    94943648.467 8
  24194284.760        1088.670          51.450    97420436.567 8  24194282.800
      1117.120          52.750    96182042.672 9  24194284.360        1102.888
        55.300
 142583306.289 7                  27132711.840
     -1514.085                          43.050                   106474543.616 7
  27132720.740       -1130.781          44.650   109252129.725 7  27132718.620
     -1160.188          45.700   107863331.816 8  27132719.380       -1145.446
        48.250
 148115516.281 6                  28185462.700
     -2927.333                          39.250                   110605735.525 6
  28185470.540       -2186.086          40.300   113491091.792 6  28185470.220
     -2242.999          40.200   112048408.309 7  28185472.540       -2214.425
        43.650
 23 12 20 10 12  0.0000000  0 20G05G07G08G13G14G15G18G20G22G23G24G30
                                E04E05E09E15E24E31E34E36
 111585841.430 8  86949990.97048  21234085.580                    21234084.820
     -2032.058       -1583.424          49.500          49.350



 128372462.643 7 100030469.41647  24428485.280                    24428489.600
     -2954.562       -2302.261          42.850          42.850



 131289505.815 6 102303546.47046  24983559.760                    24983566.360
      -666.689        -519.497          38.750          38.400    98040907.922 7
  24983569.340        -497.777          42.950


 104765987.365 8  81635824.09848  19936303.000                    19936301.120
       399.434         311.246          49.350          49.400



 111413022.526 8  86815358.68548  21201179.340                    21201178.900
       423.816         330.246          49.550          49.550    83198078.560 8
  21201184.560         316.482          53.950


 112067811.320 8  87325545.51948  21325801.100                    21325800.520
      2591.700        2019.507          49.750          48.100



 127881875.168 7  99648186.32246  24335122.740                    24335124.200
      -861.825        -671.557          42.100          40.800    95496189.523 7
  24335130.180        -643.533          46.100


 121795992.866 7  94905926.54846  23177023.080                    23177026.160
     -3618.349       -2819.494          43.650          40.900



 112595608.747 8  87736852.59747  21426220.220                    21426219.220
      1526.526        1189.501          49.800          46.150



 130623241.193 6 101784341.95546  24856783.100                    24856785.960
      3447.017        2685.983          40.700          39.700    97543335.928 7
  24856792.360        2573.979          46.000


 125866123.415 6  98077521.41946  23951523.460                    23951528.680
      3550.984        2767.002          40.650          39.800    93990964.682 7
  23951529.300        2651.584          44.550


 115422174.006 8  89939358.38548  21964114.160                    21964115.520
     -2345.141       -1827.386          49.250          49.100    86191884.895 8
  21964116.500       -1751.131          53.450


 134129210.754 8                  25523947.320
     -2129.699                          49.000                   100161419.711 8
  25523952.600       -1590.408          48.900   102774318.911 8  25523949.400
     -1631.874          49.300   101467868.463 8  25523951.280       -1611.154
        52.100
 127042455.385 8                  24175379.360
      2230.277                          48.750                    94869372.403 8
  24175384.460        1665.442          48.200    97344219.695 8  24175382.580
      1708.904          49.100    96106794.203 8  24175384.400        1687.132
        51.750
 122574750.834 8                  23325199.300
        10.362                          51.800                    91533109.005 9
  23325203.640           7.762          54.550    93920919.479 9  23325201.000
         7.969          54.800    92727009.896 9  23325202.420           7.860
        57.700
 147245989.625 7                  28019989.060
       841.152                          42.350                   109956432.851 7
  28019997.640         628.192          43.600   112824854.252 7  28019994.760
       644.513          43.600   111390642.705 7  28019996.500         636.369
        46.600
 141512265.403 7                  26928885.240
      3188.378                          46.350                   105674794.222 7
  26928895.100        2380.793          44.050   108431505.317 7  26928891.800
      2442.975          46.050   107053148.428 7  26928893.240        2411.880
        46.950
 127098315.095 8                  24185994.520
      1445.237                          52.450                    94911134.331 8
  24185999.460        1079.201          51.650    97387074.227 8  24185997.280
      1107.373          52.450    96149104.435 9  24185998.780        1093.235
        55.050
 142628919.440 7                  27141391.880
     -1526.242                          44.150                   106508605.280 7
  27141401.020       -1139.789          44.750   109287079.973 7  27141398.660
     -1169.520          45.200   107897837.779 7  27141399.360       -1154.703
        47.850
 148203356.747 6                  28202178.100
     -2928.250                          39.850                   110671330.648 6
  28202186.720       -2186.665          40.950   113558398.172 6  28202185.000
     -2243.790          40.050   112114859.055 7  28202188.040       -2215.185
        43.850
 23 12 20 10 12 30.0000000  0 20G05G07G08G13G14G15G18G20G22G23G24G30
                                E04E05E09E15E24E31E34E36
 111647079.956 8  86997709.22448  21245738.920                    21245738.300
     -2050.273       -1597.619          50.000          49.950



 128461145.909 7 100099573.05947  24445361.360                    24445365.560
     -2957.170       -2304.295          43.000          42.750



 131309792.170 6 102319353.98646  24987420.360                    24987426.820
      -685.787        -534.378          39.100          39.250    98056056.777 7
  24987429.980        -512.032          43.200


 104754218.177 8  81626653.26348  19934063.520                    19934061.380
       385.354         300.273          49.800          49.500



 111400614.541 8  86805690.13048  21198818.080                    21198817.880
       403.627         314.515          49.500          48.950    83188812.870 9
  21198823.360         301.409          54.100


 111990237.485 8  87265098.37447  21311039.160                    21311038.700
      2580.214        2010.556          49.550          47.800



 127908012.077 7  99668552.65946  24340096.700                    24340098.240
      -880.422        -686.046          42.200          40.500    95515707.239 7
  24340103.800        -657.455          45.950


 121904646.665 7  94990591.76046  23197699.160                    23197702.440
     -3624.955       -2824.643          43.550          40.550



 112550087.055 8  87701381.13347  21417557.660                    21417556.780
      1508.403        1175.380          49.600          46.450



 130519951.632 6 101703856.47646  24837127.820                    24837130.780
      3438.839        2679.612          39.900          37.900    97466203.973 7
  24837137.060        2568.264          45.850


 125759683.391 7  97994581.13546  23931268.920                    23931273.520
      3545.193        2762.487          42.050          41.000    93911480.238 7
  23931274.260        2647.555          45.000


 115492657.839 8  89994280.77148  21977526.920                    21977528.300
     -2353.744       -1834.090          49.250          49.300    86244518.825 8
  21977529.380       -1757.658          53.800


 134193196.497 8                  25536123.720
     -2135.622                          49.250                   100209201.154 8
  25536128.760       -1594.819          48.800   102823346.845 8  25536125.340
     -1636.426          49.550   101516273.151 8  25536127.520       -1615.623
        51.900
 126975605.356 8                  24162658.200
      2226.646                          48.600                    94819451.904 8
  24162663.140        1662.699          48.400    97292996.930 8  24162661.440
      1706.073          49.350    96056222.571 8  24162663.300        1684.399
        51.800
 122574575.647 8                  23325165.920
         1.478                          51.950                    91532978.154 9
  23325170.260           1.107          54.550    93920785.217 9  23325167.440
         1.146          54.850    92726877.340 9  23325169.120           1.102
        57.550
 147220982.742 7                  28015230.520
       826.088                          43.050                   109937758.792 7
  28015239.140         616.924          43.250   112805693.042 7  28015236.220
       633.037          43.900   111371725.069 7  28015237.900         624.963
        46.450
 141416675.165 7                  26910694.960
      3184.621                          45.850                   105603412.435 7
  26910704.080        2378.066          44.300   108358261.348 7  26910701.240
      2440.050          45.850   106980835.560 7  26910703.360        2409.063
        45.300
 127055166.551 8                  24177783.740
      1431.543                          52.150                    94878913.054 8
  24177788.720        1068.983          51.800    97354012.388 8  24177786.320
      1096.930          52.700    96116462.872 9  24177787.820        1082.982
        55.050
 142674907.167 7                  27150143.240
     -1539.310                          44.950                   106542946.649 7
  27150152.720       -1149.500          45.100   109322317.216 7  27150150.040
     -1179.466          45.450   107932627.082 8  27150150.640       -1164.443
        48.050
 148291238.555 6                  28218901.400
     -2930.443                          38.850                   110736956.647 6
  28218910.340       -2188.194          39.150   113625736.092 6  28218908.400
     -2245.183          40.350   112181341.026 7  28218911.460       -2216.641
        42.500
 23 12 20 10 13  0.0000000  0 20G05G07G08G13G14G15G18G20G22G23G24G30
                                E04E05E09E15E24E31E34E36
 111708843.541 8  87045836.61748  21257492.240                    21257491.740
     -2067.672       -1611.175          49.700          49.450



 128549883.156 7 100168718.77146  24462247.600                    24462251.780
     -2958.844       -2305.598          42.650          41.800



 131330635.218 6 102335595.30146  24991386.600                    24991393.400
      -704.023        -548.591          38.400          38.000    98071621.368 7
  24991396.320        -525.804          43.200


 104742854.730 8  81617798.59248  19931901.280                    19931899.020
       371.886         289.780          49.900          49.950



 111388792.834 8  86796478.40848  21196568.420                    21196568.400
       384.117         299.313          49.350          49.000    83179984.973 9
  21196573.700         286.865          54.100


 111912989.935 8  87204905.48447  21296339.320                    21296339.020
      2569.373        2002.110          49.150          47.950



 127934683.479 7  99689335.46746  24345172.280                    24345173.900
      -898.287        -699.966          42.000          41.600    95535624.067 7
  24345179.040        -670.615          45.800


 122013477.233 7  95075394.69346  23218409.040                    23218412.380
     -3630.686       -2829.110          44.250          39.900



 112505093.334 8  87666321.08047  21408995.560                    21408994.840
      1490.852        1161.703          49.300          46.700



 130416874.984 6 101623536.88646  24817513.020                    24817515.940
      3432.191        2674.430          40.150          39.750    97389231.047 7
  24817522.260        2562.933          46.550


 125653386.825 6  97911752.63646  23911041.760                    23911045.860
      3540.863        2759.115          41.000          40.750    93832102.924 7
  23911046.680        2644.114          45.200


 115563383.220 8  90049391.37148  21990985.640                    21990987.040
     -2361.727       -1840.310          48.350          48.550    86297333.121 8
  21990988.320       -1763.552          53.900


 134257341.948 8                  25548330.420
     -2140.989                          49.250                   100257101.849 8
  25548335.120       -1598.797          48.450   102872497.143 8  25548331.840
     -1640.501          49.250   101564798.645 8  25548334.140       -1619.627
        51.850
 126908847.001 8                  24149954.460
      2223.584                          48.400                    94769599.866 8
  24149959.360        1660.540          48.550    97241844.400 8  24149957.820
      1703.822          49.450    96005720.283 8  24149959.560        1682.208
        52.000
 122574647.927 8                  23325179.720
        -6.750                          51.600                    91533032.104 9
  23325183.960          -4.986          54.450    93920840.579 9  23325180.940
        -5.124          54.850    92726931.994 9  23325182.920          -5.069
        57.650
 147196407.430 6                  28010553.940
       812.030                          41.600                   109919407.047 7
  28010562.700         606.222          43.700   112786862.565 7  28010559.820
       622.080          44.100   111353133.963 7  28010561.460         614.036
        46.850
 141321179.599 7                  26892522.520
      3181.429                          45.950                   105532101.502 7
  26892531.220        2375.702          44.200   108285090.027 7  26892528.340
      2437.794          45.450   106908594.460 7  26892531.400        2406.790
        42.400
 127012407.018 8                  24169646.860
      1418.691                          51.950                    94846982.283 8
  24169651.960        1059.432          51.700    97321248.638 8  24169649.360
      1087.079          52.800    96084115.613 9  24169650.900        1073.252
        55.200
 142721263.877 7                  27158964.940
     -1551.498                          44.800                   106577563.562 7
  27158974.500       -1158.568          45.400   109357837.191 7  27158971.600
     -1188.725          45.600   107967695.531 8  27158972.120       -1173.704
        48.300
 148379155.393 6                  28235631.120
     -2931.396                          39.150                   110802608.847 6
  28235640.340       -2188.937          40.400   113693100.962 6  28235638.100
     -2246.025          39.450   112247849.557 7  28235641.240       -2217.410
        43.100
 23 12 20 10 13 30.0000000  0 20G05G07G08G13G14G15G18G20G22G23G24G30
                                E04E05E09E15E24E31E34E36
 111771134.522 8  87094374.96848  21269346.000                    21269345.500
     -2085.433       -1625.016          50.150          50.050



 128638677.637 7 100237909.07347  24479144.720                    24479149.080
     -2961.043       -2307.312          43.100          42.800



 131352038.105 6 102352272.90746  24995459.640                    24995466.260
      -723.149        -563.492          37.100          37.000    98087604.049 7
  24995469.400        -540.034          42.600


 104731901.962 8  81609263.93548  19929817.120                    19929814.860
       357.913         278.893          49.550          49.700



 111377562.006 8  86787727.12848  21194431.280                    21194431.260
       364.185         283.781          49.950          49.000    83171598.333 9
  21194436.520         271.924          54.450


 111836075.451 8  87144972.13148  21281702.820                    21281702.700
      2557.937        1993.198          49.000          48.250



 127961892.124 7  99710536.91246  24350349.980                    24350351.880
      -916.281        -713.990          42.850          40.200    95555942.103 7
  24350356.360        -684.235          45.850


 122122486.501 7  95160336.90246  23239152.980                    23239156.200
     -3636.945       -2833.987          44.650          39.850



 112460633.726 8  87631677.23047  21400535.160                    21400534.480
      1472.659        1147.527          49.750          46.250



 130314018.361 6 101543388.76246  24797940.120                    24797943.200
      3424.460        2668.407          40.900          40.500    97312422.362 7
  24797949.220        2557.357          46.350


 125547239.370 7  97829040.31146  23890842.880                    23890846.600
      3535.268        2754.754          42.350          41.050    93752836.928 7
  23890847.700        2640.069          45.950


 115634352.995 7  90104692.39647  22004490.680                    22004492.140
     -2370.079       -1846.818          47.850          47.750    86350329.908 9
  22004493.840       -1769.808          54.400


 134321651.094 8                  25560568.180
     -2146.715                          48.900                   100305124.790 8
  25560572.660       -1603.102          48.850   102921772.875 8  25560569.320
     -1644.911          49.000   101613447.989 8  25560571.940       -1624.039
        51.950
 126842185.374 8                  24137269.060
      2220.170                          48.500                    94719820.069 8
  24137274.060        1657.914          48.850    97190765.990 8  24137272.620
      1701.178          49.350    95955291.183 8  24137274.220        1679.548
        52.100
 122574972.465 8                  23325241.500
       -15.391                          51.850                    91533274.422 9
  23325245.620         -11.477          54.750    93921089.226 9  23325242.480
       -11.772          54.600    92727177.477 9  23325244.720         -11.623
        57.700
 147172268.608 6                  28005960.160
       797.158                          41.500                   109901381.211 7
  28005969.440         595.189          44.100   112768366.491 7  28005966.420
       610.689          43.600   111334873.002 7  28005968.000         602.963
        46.850
 141225784.348 7                  26874368.920
      3177.963                          46.350                   105460865.543 7
  26874377.340        2373.066          44.550   108211995.653 7  26874374.520
      2434.944          45.700   106836429.348 6  26874378.460        2404.014
        37.850
 126970041.619 8                  24161584.900
      1405.223                          52.300                    94815345.845 8
  24161590.160        1049.442          51.950    97288786.899 8  24161587.340
      1076.797          52.550    96052066.522 9  24161589.000        1063.149
        55.250
 142767992.332 7                  27167857.560
     -1564.079                          45.600                   106612458.091 7
  27167867.000       -1168.066          46.000   109393642.027 7  27167863.920
     -1198.457          45.350   108003045.209 8  27167864.380       -1183.244
        48.650
 148467109.461 6                  28252368.260
     -2932.701                          40.900                   110868288.829 6
  28252378.020       -2190.104          40.850   113760494.358 6  28252375.040
     -2247.064          40.900   112314386.254 7  28252378.580       -2218.620
        44.050
 23 12 20 10 14  0.0000000  0 20G05G07G08G13G14G15G18G20G22G23G24G30
                                E04E05E09E15E24E31E34E36
 111833950.029 8  87143322.04248  21281299.500                    21281299.020
     -2102.612       -1638.402          50.050          49.750



 128727527.417 7 100307142.46147  24496052.300                    24496057.000
     -2962.768       -2308.657          42.900          43.000



 131374000.209 6 102369386.23346  24999639.000                    24999646.000
      -741.404        -577.719          38.400          38.500    98104004.397 7
  24999648.020        -553.503          42.700


 104721359.833 8  81601049.26248  19927810.940                    19927808.800
       344.365         268.335          49.550          49.650



 111366921.660 8  86779435.96348  21192406.520                    21192406.420
       344.766         268.650          49.950          48.850    83163652.634 9
  21192411.700         257.486          54.650


 111759495.259 8  87085299.27947  21267130.120                    21267129.880
      2546.978        1984.659          50.200          47.300



 127989635.789 6  99732155.24646  24355629.360                    24355631.620
      -933.540        -727.440          41.650          41.300    95576659.650 7
  24355635.560        -697.191          46.250


 122231670.903 7  95245415.55746  23259930.180                    23259933.160
     -3642.663       -2838.440          44.350          39.950



 112416708.601 8  87597449.87747  21392176.480                    21392175.820
      1455.113        1133.855          49.650          46.800



 130211383.679 6 101463413.58346  24778409.600                    24778412.540
      3417.425        2662.929          40.100          39.750    97235779.486 7
  24778418.400        2551.974          46.200


 125441241.521 7  97746444.54646  23870672.460                    23870675.640
      3530.596        2751.114          42.300          41.000    93673682.643 7
  23870677.160        2636.692          46.150


 115705564.955 8  90160182.15348  22018041.820                    22018042.980
     -2377.947       -1852.948          48.250          48.050    86403507.563 9
  22018045.500       -1775.608          54.450


 134386123.040 8                  25572836.760
     -2151.877                          48.650                   100353269.308 8
  25572841.160       -1606.839          48.750   102971173.353 8  25572837.940
     -1648.820          48.750   101662220.484 8  25572840.700       -1627.839
        51.550
 126775620.572 8                  24124602.120
      2217.133                          48.500                    94670112.570 8
  24124607.240        1655.690          48.850    97139761.771 8  24124605.840
      1698.894          49.500    95904935.323 8  24124607.300        1677.318
        51.950
 122575549.034 8                  23325351.240
       -23.470                          51.900                    91533704.948 9
  23325355.300         -17.521          54.800    93921530.985 9  23325352.160
       -17.912          54.450    92727613.618 9  23325354.500         -17.710
        57.500
 147148566.286 6                  28001449.500
       782.813                          41.500                   109883681.321 7
  28001459.020         584.564          44.000   112750204.864 7  28001456.180
       599.815          43.700   111316942.239 7  28001457.520         592.207
        46.650
 141130490.363 7                  26856234.380
      3174.778                          46.550                   105389705.232 7
  26856242.260        2370.695          44.150   108138978.909 7  26856239.940
      2432.530          45.950   106764340.852 5  26856244.680        2401.866
        30.400
 126928070.433 8                  24153597.900
      1392.444                          51.850                    94784003.802 8
  24153603.260        1039.856          52.000    97256627.234 8  24153600.360
      1066.931          52.550    96020315.669 9  24153602.120        1053.427
        55.050
 142815090.283 7                  27176820.500
     -1576.121                          45.700                   106647628.524 7
  27176829.700       -1176.902          46.150   109429729.983 7  27176826.420
     -1207.726          45.400   108038674.401 8  27176827.000       -1192.256
        48.600
 148555097.956 6                  28269112.120
     -2933.634                          39.900                   110933994.508 6
  28269122.020       -2190.559          40.650   113827914.077 6  28269119.020
     -2247.672          41.150   112380948.950 7  28269122.200       -2219.113
        43.750
 23 12 20 10 14 30.0000000  0 20G05G07G08G13G14G15G18G20G22G23G24G30
                                E04E05E09E15E24E31E34E36
 111897288.658 8  87192676.74548  21293352.520                    21293352.040
     -2119.710       -1651.725          50.200          50.350



 128816432.467 7 100376418.92147  24512970.360                    24512975.320
     -2964.178       -2309.756          42.850          42.850



 131396521.567 6 102386935.41146  25003924.700                    25003932.040
      -759.611        -591.902          38.200          38.000    98120822.390 7
  25003933.140        -567.382          42.750


 104711229.543 8  81593155.50848  19925883.160                    19925881.100
       331.053         257.962          49.850          49.850



 111356872.622 8  86771605.55048  21190494.280                    21190494.060
       325.394         253.555          49.850          48.900    83156148.483 9
  21190499.440         243.062          54.450


 111683251.771 8  87025888.78847  21252621.540                    21252620.960
      2536.070        1976.160          50.050          47.850



 128017913.422 6  99754189.64646  24361010.220                    24361012.880
      -950.945        -741.001          41.750          40.950    95597775.936 7
  24361016.680        -710.201          46.050


 122341027.642 7  95330628.49846  23280740.180                    23280743.300
     -3647.939       -2842.553          44.100          40.850



 112373319.948 8  87563640.57947  21383919.920                    21383919.300
      1437.627        1120.230          49.800          46.600



 130108974.323 6 101383613.99546  24758921.820                    24758924.960
      3410.023        2657.157          41.500          40.200    97159304.831 7
  24758930.480        2546.673          46.250


 125335395.065 7  97663966.75946  23850530.700                    23850533.700
      3525.963        2747.504          42.950          41.200    93594641.430 7
  23850535.540        2633.044          46.300


 115777018.153 7  90215859.89647  22031638.780                    22031639.780
     -2385.553       -1858.874          47.950          47.800    86456865.373 9
  22031642.860       -1781.331          54.050


 134450758.109 8                  25585136.220
     -2156.857                          48.700                   100401535.655 8
  25585140.860       -1610.615          48.650   103020698.838 8  25585137.800
     -1652.674          49.100   101711116.400 8  25585140.480       -1631.651
        51.650
 126709153.875 8                  24111953.840
      2214.209                          48.800                    94620478.328 8
  24111959.180        1653.542          48.450    97088832.733 8  24111957.800
      1696.650          49.950    95854653.682 8  24111959.100        1675.090
        51.900
 122576378.631 8                  23325509.140
       -31.640                          52.000                    91534324.421 9
  23325513.180         -23.578          54.600    93922166.624 9  23325510.080
       -24.175          54.750    92728241.176 9  23325512.400         -23.883
        57.450
 147125301.592 6                  27997022.120
       768.427                          41.300                   109866308.218 7
  27997031.680         574.042          43.350   112732378.596 7  27997028.980
       588.861          43.700   111299342.560 7  27997030.560         581.438
        46.300
 141035299.684 7                  26838119.500
      3171.731                          46.300                   105318622.029 7
  26838126.620        2368.369          44.350   108066041.279 7  26838124.940
      2430.153          45.850   106692309.685 5  26838130.900        2399.449
        35.650
 126886494.858 8                  24145686.180
      1379.570                          52.000                    94752957.165 8
  24145691.600        1030.176          51.850    97224770.679 8  24145688.620
      1057.030          52.750    95988864.075 9  24145690.520        1043.623
        55.000
 142862556.669 7                  27185853.480
     -1587.961                          45.450                   106683074.092 7
  27185862.240       -1185.772          45.700   109466100.232 7  27185859.080
     -1216.771          45.950   108074582.311 8  27185859.740       -1201.252
        48.550
 148643119.262 6                  28285862.020
     -2934.312                          39.800                   110999724.719 6
  28285872.320       -2191.103          40.650   113895358.993 6  28285869.020
     -2248.346          40.050   112447536.508 7  28285871.900       -2219.661
        43.250
 23 12 20 10 15  0.0000000  0 20G05G07G08G13G14G15G18G20G22G23G24G30
                                E04E05E09E15E24E31E34E36
 111961148.367 8  87242437.48148  21305504.660                    21305504.120
     -2137.187       -1665.344          50.100          50.100



 128905391.079 7 100445737.12847  24529898.800                    24529903.880
     -2966.075       -2311.232          43.650          43.800



 131419600.735 6 102404919.23546  25008316.300                    25008323.880
      -778.732        -606.804          37.150          37.250    98138056.875 7
  25008324.940        -581.368          43.550


 104701510.726 8  81585582.38048  19924033.740                    19924031.640
       317.277         247.229          49.750          49.850



 111347414.575 8  86764235.65748  21188694.460                    21188694.200
       305.564         238.103          49.800          48.750    83149085.668 9
  21188699.620         228.176          54.250


 111607346.451 8  86966741.81547  21238177.300                    21238176.520
      2524.632        1967.246          50.300          47.650



 128046722.927 6  99776638.47046  24366492.400                    24366495.300
      -969.048        -755.107          40.500          39.600    95619289.372 7
  24366499.320        -723.637          45.900


 122450553.638 7  95415973.30346  23301582.300                    23301585.460
     -3653.485       -2846.876          43.950          39.700



 112330468.736 8  87530250.07747  21375765.660                    21375764.980
      1419.622        1106.200          50.050          47.050



 130006792.303 6 101303991.56646  24739477.300                    24739480.680
      3402.287        2651.131          40.900          40.350    97082999.981 7
  24739485.860        2540.780          46.150


 125229700.697 7  97581607.47846  23830417.780                    23830420.740
      3521.038        2743.664          42.250          41.500    93515713.788 7
  23830422.960        2629.092          46.350


 115848710.545 7  90271724.01747  22045281.320                    22045282.420
     -2393.606       -1865.150          47.850          47.800    86510401.809 8
  22045285.480       -1787.435          53.700


 134515555.428 8                  25597466.540
     -2162.426                          48.350                   100449923.152 8
  25597471.340       -1614.758          48.600   103070348.634 8  25597468.600
     -1656.911          48.850   101760135.049 8  25597471.120       -1635.858
        51.950
 126642785.525 8                  24099324.320
      2210.752                          48.650                    94570917.524 8
  24099329.920        1650.859          48.300    97037979.043 8  24099328.480
      1693.961          49.850    95804446.436 8  24099329.680        1672.394
        52.300
 122577461.152 8                  23325715.100
       -40.128                          51.650                    91535132.777 9
  23325719.200         -29.999          54.450    93922996.072 9  23325716.080
       -30.776          54.350    92729060.079 9  23325718.460         -30.401
        57.700
 147102474.656 6                  27992678.260
       753.703                          41.150                   109849262.072 7
  27992687.840         562.893          43.650   112714887.758 7  27992684.940
       577.523          42.850   111282074.078 7  27992686.840         570.065
        46.650
 140940213.303 7                  26820024.400
      3167.979                          46.200                   105247616.668 7
  26820031.380        2365.665          44.600   107993183.512 7  26820029.980
      2427.434          45.850   106620378.204 7  26820037.340        2396.512
        42.950
 126845315.023 8                  24137849.800
      1366.196                          52.050                    94722206.048 8
  24137855.220        1020.227          51.700    97193217.357 8  24137852.280
      1046.794          52.350    95957711.857 9  24137854.240        1033.519
        55.250
 142910389.384 7                  27194956.040
     -1600.376                          45.400                   106718793.210 7
  27194964.360       -1195.052          45.150   109502751.165 7  27194961.400
     -1226.276          45.950   108110767.340 8  27194962.120       -1210.689
        48.750
 148731170.692 6                  28302617.660
     -2935.390                          41.350                   111065477.383 7
  28302628.320       -2192.057          42.250   113962826.966 6  28302624.500
     -2249.131          39.850   112514146.831 7  28302627.540       -2220.692
        44.550
 23 12 20 10 15 30.0000000  0 20G05G07G08G13G14G15G18G20G22G23G24G30
                                E04E05E09E15E24E31E34E36
 112025523.025 8  87292599.47048  21317754.720                    21317754.140
     -2154.437       -1678.785          49.650          49.600



 128994398.734 6 100515093.55746  24546836.440                    24546841.760
     -2967.670       -2312.477          41.700          41.750



 131443233.349 6 102423334.36346  25012813.180                    25012820.300
      -796.800        -620.877          37.750          38.650    98155704.691 7
  25012822.260        -595.160          43.200


 104692200.860 8  81578327.91148  19922262.260                    19922260.120
       303.568         236.546          50.150          49.800



 111338544.196 8  86757323.69248  21187006.440                    21187006.240
       285.925         222.799          49.650          48.400    83142461.707 9
  21187011.600         213.391          54.400


 111531777.733 8  86907857.10547  21223797.220                    21223796.220
      2513.339        1958.446          50.850          47.650



 128076059.073 6  99799497.69646  24372074.660                    24372077.500
      -986.185        -768.459          41.000          39.200    95641196.131 7
  24372082.580        -736.858          46.600


 122560242.524 7  95501445.06846  23322455.580                    23322458.180
     -3658.857       -2851.062          44.350          40.650



 112288152.563 8  87497276.51247  21367713.260                    21367712.520
      1401.695        1092.232          50.750          46.850



 129904836.834 6 101224545.63446  24720075.840                    24720079.320
      3394.822        2645.310          40.800          39.850    97006864.312 7
  24720084.300        2535.017          46.500


 125124156.118 7  97499364.89446  23810333.340                    23810336.080
      3515.549        2739.387          42.600          40.750    93436897.985 7
  23810338.800        2625.202          46.800


 115920637.074 8  90327770.58648  22058968.440                    22058969.840
     -2401.402       -1871.225          48.350          48.350    86564113.090 8
  22058972.660       -1793.313          53.800


 134580511.140 8                  25609827.200
     -2167.905                          48.550                   100498428.943 8
  25609832.160       -1618.792          49.100   103120119.809 8  25609829.840
     -1661.053          49.300   101809273.528 8  25609831.880       -1639.977
        51.950
 126576512.731 8                  24086713.120
      2207.486                          48.700                    94521428.072 8
  24086718.860        1648.378          48.700    96987198.570 8  24086717.340
      1691.401          50.000    95754311.474 8  24086718.480        1669.873
        52.050
 122578793.572 8                  23325968.560
       -48.646                          51.200                    91536127.731 9
  23325972.780         -36.305          54.800    93924016.991 9  23325969.760
       -37.296          54.700    92730068.014 9  23325972.040         -36.785
        57.450
 147080082.498 6                  27988417.140
       739.068                          41.900                   109832540.622 7
  27988426.740         551.890          43.950   112697730.094 7  27988423.420
       566.262          42.800   111265134.516 7  27988425.820         559.051
        46.200
 140845229.286 7                  26801948.760
      3164.367                          46.350                   105176687.704 7
  26801955.800        2363.000          44.950   107920404.150 7  26801954.540
      2424.613          46.700   106548524.069 7  26801963.340        2393.785
        45.700
 126804528.202 8                  24130088.240
      1352.938                          52.000                    94691748.406 8
  24130093.700        1010.323          52.050    97161965.166 8  24130090.700
      1036.688          52.650    95926856.942 9  24130092.760        1023.492
        55.100
 142958583.304 7                  27204127.220
     -1612.497                          44.800                   106754782.066 7
  27204134.900       -1204.180          44.750   109539678.859 7  27204132.520
     -1235.539          46.600   108147225.612 8  27204133.200       -1219.855
        48.350
 148819246.581 6                  28319378.200
     -2936.303                          41.100                   111131248.302 6
  28319389.020       -2192.692          40.750   114030313.654 6  28319385.340
     -2249.931          41.600   112580775.634 7  28319388.060       -2221.308
        43.900
 23 12 20 10 16  0.0000000  0 20G05G07G08G13G14G15G18G20G22G23G24G30
                                E04E05E09E15E24E31E34E36
 112090418.498 8  87343167.30048  21330103.840                    21330103.140
     -2171.893       -1692.386          49.500          49.300



 129083462.257 6 100584493.52346  24563784.600                    24563790.360
     -2969.777       -2314.119          41.250          41.200



 131467426.692 6 102442186.40646  25017417.160                    25017423.920
      -815.812        -635.692          38.150          37.850    98173771.226 7
  25017426.020        -609.253          43.150


 104683308.139 8  81571398.49448  19920570.160                    19920567.920
       289.479         225.566          50.000          49.900



 111330269.648 8  86750876.01148  21185431.740                    21185431.680
       265.842         207.150          49.550          48.300    83136282.680 9
  21185436.880         198.461          54.150


 111456555.547 8  86849242.40947  21209483.140                    21209481.860
      2501.601        1949.299          50.900          47.100



 128105928.274 6  99822772.27946  24377758.680                    24377760.800
     -1004.307        -782.584          41.900          40.300    95663500.912 7
  24377767.380        -750.183          46.250


 122670099.540 7  95587047.81346  23343360.820                    23343363.120
     -3664.739       -2855.648          44.100          38.850



 112246380.888 8  87464727.23447  21359764.480                    21359763.520
      1383.220        1077.837          51.000          46.400



 129803118.694 6 101145284.66346  24700719.540                    24700723.260
      3386.411        2638.762          40.300          39.900    96930905.821 7
  24700727.820        2528.924          46.900


 125018770.483 7  97417246.19147  23790279.040                    23790281.860
      3510.007        2735.067          42.800          42.050    93358200.877 7
  23790284.860        2621.229          46.900


 115992804.208 8  90384004.63747  22072701.360                    22072703.100
     -2409.625       -1877.633          48.000          47.900    86618004.039 8
  22072705.680       -1799.400          53.600


 134645633.011 8                  25622219.600
     -2173.709                          49.050                   100547058.805 8
  25622224.780       -1623.161          49.200   103170018.291 8  25622222.600
     -1665.486          49.550   101858537.701 8  25622224.280       -1644.310
        52.400
 126510344.256 8                  24074121.900
      2203.762                          48.450                    94472016.508 8
  24074127.600        1645.631          48.950    96936498.026 8  24074126.060
      1688.524          50.000    95704255.419 8  24074127.140        1667.089
        52.550
 122580384.258 8                  23326271.120
       -57.412                          51.250                    91537315.555 9
  23326275.580         -42.901          54.800    93925235.798 9  23326272.680
       -43.962          54.750    92731271.332 9  23326274.780         -43.451
        57.800
 147058133.670 7                  27984240.560
       724.203                          42.100                   109816150.213 7
  27984250.040         540.676          43.800   112680912.125 7  27984246.480
       554.857          43.050   111248530.319 7  27984249.160         547.845
        46.600
 140750357.175 7                  26783894.520
      3160.491                          46.000                   105105842.222 7
  26783901.500        2360.133          44.500   107847710.463 7  26783900.420
      2421.638          46.750   106476722.989 8  26783900.720        2390.942
        48.550
 126764143.110 8                  24122403.220
      1339.404                          52.200                    94661590.763 8
  24122408.700        1000.189          52.150    97131020.791 8  24122405.680
      1026.268          52.750    95896305.930 9  24122407.700        1013.235
        55.550
 143007144.782 7                  27213368.160
     -1624.982                          44.100                   106791045.390 7
  27213375.420       -1213.372          44.150   109576888.194 7  27213373.440
     -1245.028          46.550   108183961.947 8  27213374.180       -1229.209
        48.300
 148907352.829 6                  28336144.440
     -2937.514                          39.900                   111197041.919 7
  28336155.120       -2193.770          42.250   114097823.588 6  28336151.900
     -2250.666          40.050   112647427.406 7  28336153.900       -2222.166
        44.300
 23 12 20 10 16 30.0000000  0 20G05G07G08G13G14G15G18G20G22G23G24G30
                                E04E05E09E15E24E31E34E36
 112155827.060 8  87394134.93148  21342550.680                    21342549.840
     -2189.035       -1705.743          49.700          49.650



 129172575.357 6 100653932.10546  24580742.360                    24580748.200
     -2971.545       -2315.495          41.850          41.550



 131492174.771 6 102461470.68846  25022126.500                    25022133.420
      -834.384        -650.166          38.050          38.550    98192252.023 7
  25022135.600        -623.160          43.800


 104674827.886 8  81564790.49048  19918956.440                    19918954.200
       275.484         214.663          49.650          49.700



 111322585.691 8  86744888.52248  21183969.440                    21183969.540
       246.131         191.790          49.550          48.100    83130544.669 8
  21183974.480         183.793          53.950


 111381676.636 8  86790895.20847  21195234.180                    21195232.980
      2490.027        1940.281          50.150          47.650



 128136323.386 7  99846456.69446  24383542.940                    24383544.340
     -1022.324        -796.620          42.900          40.550    95686198.453 7
  24383552.160        -763.317          46.250


 122780116.317 7  95672775.05046  23364296.380                    23364298.500
     -3670.029       -2859.767          44.200          39.300



 112205149.491 8  87432598.95347  21351918.420                    21351917.360
      1365.205        1063.799          51.000          46.300



 129701635.076 6 101066206.42346  24681407.940                    24681411.620
      3378.272        2632.418          40.900          40.550    96855122.488 7
  24681416.000        2523.045          46.150


 124913539.691 7  97335248.15646  23770254.220                    23770257.180
      3504.578        2730.838          42.200          40.200    93279619.415 7
  23770260.520        2617.271          47.100


 116065205.076 7  90440420.81347  22086478.880                    22086480.800
     -2417.497       -1883.767          47.950          47.900    86672069.526 8
  22086483.260       -1805.231          53.500


 134710915.326 8                  25634642.520
     -2178.948                          48.700                   100595808.496 8
  25634648.240       -1627.143          49.500   103220039.726 8  25634645.860
     -1669.602          49.650   101907923.263 8  25634647.180       -1648.365
        52.500
 126444275.486 8                  24061549.580
      2200.334                          48.550                    94422679.404 8
  24061555.320        1643.197          49.000    96885873.871 8  24061553.660
      1685.982          49.850    95654274.787 8  24061554.740        1664.608
        52.400
 122582228.295 8                  23326621.900
       -65.915                          50.850                    91538692.564 9
  23326626.640         -49.244          54.800    93926648.739 9  23326623.740
       -50.508          54.700    92732666.304 9  23326625.740         -49.874
        57.700
 147036623.347 6                  27980147.160
       709.490                          40.950                   109800087.268 7
  27980156.920         529.804          44.100   112664430.141 7  27980152.940
       543.623          42.950   111232257.859 7  27980155.880         536.706
        46.600
 140655593.126 7                  26765860.900
      3156.778                          45.800                   105035077.369 7
  26765867.660        2357.347          44.800   107775099.507 7  26765866.960
      2418.861          46.350   106405035.094 8  26765867.880        2388.072
        48.150
 126724155.078 8                  24114793.840
      1326.052                          52.650                    94631729.615 8
  24114799.360         990.213          52.400    97100380.651 8  24114796.160
      1016.102          52.750    95866055.285 9  24114798.180        1003.175
        55.600
 143056066.798 7                  27222677.560
     -1636.917                          44.200                   106827577.950 7
  27222684.460       -1222.389          43.950   109614373.785 7  27222683.020
     -1254.275          46.350   108220971.025 8  27222683.740       -1238.381
        48.050
 148995481.873 6                  28352915.100
     -2938.328                          40.950                   111262852.490 6
  28352925.640       -2194.053          41.200   114165350.971 6  28352922.720
     -2251.292          41.100   112714096.388 7  28352924.400       -2222.740
        44.100
 23 12 20 10 17  0.0000000  0 20G05G07G08G13G14G15G18G20G22G23G24G30
                                E04E05E09E15E24E31E34E36
 112221746.101 8  87445500.34848  21355094.640                    21355093.700
     -2206.412       -1719.284          49.600          49.650



 129261736.369 6 100723408.01046  24597709.260                    24597715.180
     -2973.437       -2316.971          41.600          41.100



 131517476.015 6 102481186.02246  25026941.280                    25026947.720
      -853.016        -664.686          39.250          38.750    98211145.909 7
  25026950.340        -637.061          42.850


 104666760.072 8  81558503.86948  19917421.120                    19917419.120
       261.559         203.812          49.950          49.750



 111315491.913 8  86739360.90548  21182619.520                    21182619.700
       226.050         176.143          49.900          48.300    83125247.370 8
  21182624.400         168.864          53.750


 111307142.366 8  86732816.56447  21181050.600                    21181049.800
      2478.259        1931.111          50.300          47.650



 128167242.131 7  99870549.14946  24389426.980                    24389427.660
     -1039.923        -810.334          43.850          38.550    95709287.038 7
  24389436.320        -776.553          45.850


 122890289.431 7  95758624.10746  23385261.900                    23385263.720
     -3675.480       -2864.016          44.000          39.700



 112164459.013 8  87400892.17947  21344175.260                    21344174.220
      1346.798        1049.456          51.100          46.550



 129600388.144 6 100987312.64846  24662141.360                    24662145.020
      3370.424        2626.304          41.400          39.400    96779515.964 7
  24662149.620        2516.910          46.200


 124808464.321 7  97253371.20646  23750259.060                    23750261.720
      3499.296        2726.721          42.600          41.550    93201154.000 7
  23750265.500        2613.210          46.800


 116137837.525 8  90497017.46348  22100300.560                    22100302.560
     -2425.482       -1889.988          48.250          48.250    86726307.965 8
  22100304.940       -1811.136          53.350


 134776357.261 8                  25647095.740
     -2184.511                          48.050                   100644677.386 8
  25647102.020       -1631.378          49.350   103270183.465 8  25647099.220
     -1673.885          49.600   101957429.577 8  25647100.460       -1652.617
        52.250
 126378306.645 8                  24048996.120
      2196.758                          48.300                    94373416.959 8
  24049001.960        1640.460          49.200    96835326.316 8  24049000.280
      1683.196          49.700    95604369.790 8  24049001.300        1661.858
        52.300
 122584325.579 8                  23327020.880
       -74.679                          51.350                    91540258.683 9
  23327025.800         -55.717          54.750    93928255.723 9  23327022.900
       -57.213          54.500    92734252.854 9  23327024.880         -56.448
        57.450
 147015551.532 6                  27976137.280
       694.568                          41.550                   109784351.730 7
  27976147.160         518.666          44.000   112648284.118 7  27976143.240
       532.302          43.050   111216317.080 7  27976146.100         525.450
        46.500
 140560938.247 7                  26747848.180
      3152.792                          46.400                   104964393.967 7
  26747854.800        2354.438          45.100   107702572.142 7  26747854.140
      2415.717          46.200   106333429.722 7  26747855.680        2385.038
        47.700
 126684564.255 8                  24107260.100
      1312.516                          53.000                    94602165.071 8
  24107265.660         980.158          52.700    97070044.858 8  24107262.380
      1005.726          52.800    95836105.114 9  24107264.220         992.956
        55.550
 143105347.175 7                  27232055.080
     -1649.021                          43.700                   106864378.124 7
  27232061.680       -1231.602          43.550   109652133.964 7  27232060.860
     -1263.633          46.150   108258251.193 7  27232061.500       -1247.609
        47.650
 149083630.986 6                  28369689.260
     -2939.030                          39.350                   111328678.072 7
  28369700.140       -2194.734          42.100   114232893.762 6  28369697.060
     -2252.084          41.350   112780780.574 7  28369698.620       -2223.521
        44.550
 23 12 20 10 17 30.0000000  0 20G05G07G08G13G14G15G18G20G22G23G24G30
                                E04E05E09E15E24E31E34E36
 112288171.715 8  87497260.48548  21367735.120                    21367734.200
     -2222.538       -1731.851          49.450          49.400



 129350942.743 6 100792919.24946  24614684.920                    24614690.560
     -2974.224       -2317.584          41.550          41.400



 131543328.624 6 102501331.03446  25031860.800                    25031867.240
      -871.219        -678.868          39.350          39.750    98230451.525 7
  25031869.280        -650.403          42.350


 104659103.496 8  81552537.68848  19915964.000                    19915962.320
       248.395         193.554          49.050          49.000



 111308986.776 8  86734291.97748  21181381.700                    21181381.860
       207.092         161.371          50.050          48.350    83120389.651 8
  21181386.400         154.667          53.900


 111232953.436 8  86675006.99848  21166932.780                    21166932.260
      2467.205        1922.497          50.550          48.150



 128198681.279 7  99895047.09446  24395410.100                    24395410.180
     -1056.698        -823.403          44.500          38.950    95732764.226 7
  24395419.000        -789.036          45.750


 123000614.541 7  95844591.59946  23406256.260                    23406257.840
     -3680.156       -2867.658          43.950          39.350



 112124309.141 8  87369606.65147  21336534.880                    21336533.900
      1329.310        1035.828          51.050          46.650



 129499379.052 6 100908604.20046  24642920.060                    24642923.720
      3362.928        2620.463          41.200          39.700    96704087.009 7
  24642928.000        2511.337          46.700


 124703543.996 7  97171615.10346  23730293.260                    23730296.140
      3494.632        2723.089          42.050          40.800    93122804.388 7
  23730299.980        2609.743          47.500


 116210698.650 8  90553792.30848  22114165.760                    22114167.760
     -2432.542       -1895.488          48.800          48.700    86780717.179 8
  22114170.100       -1816.413          53.300


 134841956.948 7                  25659578.880
     -2189.068                          47.750                   100693664.089 8
  25659585.720       -1634.784          49.600   103320448.091 8  25659582.440
     -1677.437          49.200   102007055.244 8  25659583.720       -1656.085
        52.200
 126312436.901 8                  24036461.320
      2194.048                          48.150                    94324228.546 8
  24036467.480        1638.405          49.700    96784854.714 8  24036465.600
      1681.225          49.600    95554539.784 8  24036466.700        1659.816
        52.550
 122586674.914 8                  23327467.920
       -82.433                          51.050                    91542013.037 9
  23327472.840         -61.605          55.000    93930055.840 9  23327470.000
       -63.202          54.400    92736030.093 9  23327471.980         -62.415
        57.650
 146994917.133 6                  27972210.680
       680.489                          41.350                   109768942.831 7
  27972220.660         508.316          44.250   112632473.265 7  27972216.760
       521.436          42.700   111200707.200 7  27972219.560         514.894
        46.450
 140466392.447 7                  26729856.440
      3149.688                          46.400                   104893791.976 7
  26729863.220        2352.038          45.450   107630128.294 7  26729862.280
      2413.461          46.550   106261906.802 7  26729864.100        2382.711
        47.800
 126645369.744 8                  24099801.800
      1299.934                          52.950                    94572896.484 8
  24099807.480         970.688          53.100    97040012.728 8  24099803.920
       996.044          52.950    95806454.759 9  24099805.700         983.355
        55.800
 143154982.635 7                  27241500.180
     -1660.470                          43.050                   106901443.457 7
  27241506.740       -1239.889          43.900   109690166.227 7  27241506.380
     -1272.176          45.900   108295799.991 7  27241506.860       -1256.005
        47.650
 149171796.490 6                  28386466.540
     -2939.072                          39.900                   111394515.789 6
  28386477.660       -2194.784          41.800   114300449.033 7  28386474.620
     -2251.958          42.250   112847477.066 7  28386476.220       -2223.343
        44.800
 23 12 20 10 18  0.0000000  0 20G05G07G08G13G14G15G18G20G22G23G24G30
                                E04E05E09E15E24E31E34E36
 112355106.608 8  87549417.47048  21380472.500                    21380471.680
     -2239.978       -1745.440          49.400          49.550



 129440197.576 7 100862468.27547  24631669.860                    24631675.160
     -2976.356       -2319.246          43.200          43.350



 131569735.553 6 102521907.91046  25036885.860                    25036892.120
      -889.775        -693.329          38.550          38.700    98250171.085 6
  25036893.780        -664.398          41.750


 104651863.034 8  81546895.75348  19914586.140                    19914584.640
       234.196         182.490          48.750          48.800



 111303074.672 8  86729685.14948  21180256.800                    21180256.860
       186.888         145.627          50.400          48.550    83115974.778 8
  21180261.340         139.503          53.800


 111159115.957 8  86617471.29848  21152882.000                    21152881.640
      2455.022        1913.005          50.700          48.600



 128230643.303 7  99919952.46646  24401492.600                    24401492.620
     -1074.342        -837.153          44.100          38.100    95756631.881 7
  24401500.900        -802.377          45.800


 123111092.841 7  95930678.43946  23427279.680                    23427281.300
     -3685.519       -2871.837          43.800          39.900



 112084705.266 8  87338746.57647  21328998.440                    21328997.440
      1310.647        1021.287          51.100          46.550



 129398614.720 7 100830086.46446  24623745.400                    24623748.940
      3354.232        2613.685          42.500          38.800    96628840.837 7
  24623753.080        2504.793          46.050


 124598784.199 6  97089984.08446  23710358.000                    23710360.860
      3488.961        2718.670          41.950          41.350    93044574.669 7
  23710365.020        2605.384          46.750


 116283791.114 8  90610747.41448  22128074.860                    22128076.920
     -2440.693       -1901.841          48.200          48.200    86835299.152 8
  22128079.060       -1822.554          52.850


 134907718.357 8                  25672092.820
     -2195.076                          48.050                   100742771.564 8
  25672100.000       -1639.208          49.150   103370836.638 8  25672096.220
     -1681.988          49.250   102056803.257 8  25672097.760       -1660.601
        52.050
 126246671.304 8                  24023946.320
      2190.098                          48.050                    94275117.916 8
  24023952.760        1635.423          49.800    96734462.941 8  24023950.660
      1678.076          49.550    95504788.576 8  24023951.880        1656.790
        52.550
 122589281.025 8                  23327963.880
       -91.538                          51.200                    91543959.131 9
  23327968.800         -68.361          54.950    93932052.707 9  23327965.920
       -70.138          54.400    92738001.573 9  23327967.920         -69.271
        57.650
 146974724.959 7                  27968368.640
       665.274                          42.400                   109753864.201 7
  27968378.340         496.892          44.350   112617001.268 7  27968374.520
       509.855          43.000   111185431.892 7  27968377.060         503.339
        46.750
 140371961.614 7                  26711886.560
      3145.353                          45.800                   104823275.769 7
  26711893.440        2348.906          45.100   107557772.509 7  26711892.320
      2410.129          46.500   106190470.802 7  26711894.300        2379.494
        47.500
 126606576.513 8                  24092419.800
      1286.062                          52.850                    94543927.528 8
  24092425.560         960.401          53.050    97010288.066 8  24092421.900
       985.431          53.150    95777107.951 9  24092423.540         972.896
        55.900
 143204975.834 7                  27251013.340
     -1672.785                          43.300                   106938775.913 7
  27251020.100       -1249.057          43.600   109728472.597 7  27251020.100
     -1281.682          45.950   108333619.408 7  27251020.360       -1265.415
        47.600
 149259980.436 6                  28403247.460
     -2940.089                          39.900                   111460367.378 7
  28403258.500       -2195.644          42.300   114368018.459 6  28403255.520
     -2252.831          41.150   112914187.571 7  28403257.020       -2224.209
        44.650
 23 12 20 10 18 30.0000000  0 20G05G07G08G13G14G15G18G20G22G23G24G30
                                E04E05E09E15E24E31E34E36
 112422548.535 8  87601969.53348  21393306.360                    21393305.780
     -2256.364       -1758.208          50.150          50.250



 129529500.732 7 100932054.98847  24648664.200                    24648668.720
     -2977.620       -2320.229          43.400          43.350



 131596697.012 6 102542916.83346  25042016.440                    25042022.720
      -907.741        -707.331          39.900          39.500    98270304.671 6
  25042023.720        -678.043          41.100


 104645040.012 8  81541579.11048  19913287.680                    19913286.320
       220.657         171.940          49.150          49.100



 111297756.242 8  86725540.92048  21179244.940                    21179244.820
       167.555         130.563          50.800          48.600    83112003.214 8
  21179249.320         125.122          53.750


 111085632.494 8  86560211.44948  21138898.580                    21138898.380
      2443.711        1904.190          50.250          48.800



 128263127.140 7  99945264.47446  24407674.220                    24407674.420
     -1091.229        -850.312          43.200          39.950    95780889.183 7
  24407681.960        -814.866          45.600


 123221722.473 7  96016883.18146  23448331.800                    23448333.580
     -3690.011       -2875.339          43.250          39.800



 112045648.962 8  87308313.17647  21321566.200                    21321565.160
      1292.875        1007.438          51.350          46.900



 129298098.521 7 100751762.08446  24604617.960                    24604621.240
      3346.577        2607.717          43.100          38.850    96553779.966 7
  24604625.480        2499.105          45.650


 124494186.833 6  97008479.67546  23690453.540                    23690456.760
      3483.890        2714.721          41.100          40.950    92966466.270 7
  23690460.740        2601.715          46.700


 116357114.140 8  90667882.15648  22142027.720                    22142029.800
     -2447.745       -1907.337          48.750          49.000    86890053.264 8
  22142031.820       -1827.861          52.300


 134973641.810 8                  25684637.740
     -2200.003                          48.800                   100792000.056 8
  25684644.940       -1642.824          49.000   103421349.362 8  25684640.740
     -1685.690          49.300   102106673.863 8  25684642.620       -1664.254
        52.100
 126181011.299 8                  24011451.460
      2187.092                          48.450                    94226086.137 8
  24011458.180        1633.189          49.800    96684152.058 8  24011455.680
      1675.854          49.600    95455117.249 8  24011457.140        1654.534
        52.700
 122592145.020 8                  23328508.920
       -99.610                          51.300                    91546097.801 9
  23328514.040         -74.359          54.900    93934247.174 9  23328510.840
       -76.294          54.600    92740168.142 9  23328512.940         -75.320
        57.750
 146954976.223 7                  27964610.860
       650.987                          42.850                   109739116.701 7
  27964620.320         486.229          44.100   112601869.060 7  27964616.620
       498.869          43.100   111170492.030 7  27964618.980         492.573
        46.700
 140277648.048 7                  26693939.180
      3141.939                          46.550                   104752847.103 7
  26693945.820        2346.208          45.050   107485506.527 7  26693944.720
      2407.494          46.350   106119123.478 7  26693946.680        2376.839
        47.600
 126568185.917 8                  24085114.320
      1273.151                          52.800                    94515259.253 8
  24085120.300         950.717          52.950    96980871.914 8  24085116.440
       975.521          53.400    95748065.734 9  24085118.020         963.121
        56.050
 143255325.774 7                  27260594.520
     -1684.154                          43.600                   106976374.773 7
  27260601.600       -1257.598          43.400   109767052.321 7  27260601.720
     -1290.503          45.950   108371708.706 7  27260601.760       -1274.137
        47.500
 149348181.527 6                  28420031.640
     -2940.064                          41.300                   111526231.766 6
  28420043.040       -2195.578          40.950   114435601.081 6  28420039.440
     -2252.722          41.750   112980911.088 7  28420041.280       -2224.288
        44.300
 23 12 20 10 19  0.0000000  0 20G05G07G08G13G14G15G18G20G22G23G24G30
                                E04E05E09E15E24E31E34E36
 112490493.279 8  87654913.40448  21406236.000                    21406235.640
     -2273.241       -1771.360          50.100          50.100



 129618849.112 7 101001676.90647  24665667.160                    24665671.060
     -2979.037       -2321.334          44.800          44.500



 131624210.236 6 102564355.65646  25047251.840                    25047258.040
      -926.311        -721.805          38.950          39.100    98290850.155 6
  25047258.540        -691.543          41.100


 104638632.855 8  81536586.50848  19912068.400                    19912067.140
       206.590         160.979          49.050          49.300



 111293029.511 8  86721857.74948  21178345.660                    21178345.380
       147.673         115.070          50.800          48.200    83108473.496 8
  21178350.000         110.380          53.950


 111012502.641 8  86503227.14348  21124982.420                    21124982.300
      2431.798        1894.907          50.450          48.000



 128296128.810 6  99970979.99646  24413954.100                    24413954.960
     -1108.796        -863.998          41.650          39.750    95805533.183 7
  24413961.340        -827.789          45.550


 123332498.308 7  96103201.84646  23469411.760                    23469413.760
     -3694.933       -2879.175          43.300          39.850



 112007139.841 8  87278306.14347  21314238.120                    21314236.940
      1274.494         993.114          51.400          46.250



 129197831.000 7 100673631.46446  24585537.900                    24585540.600
      3338.111        2601.123          43.500          36.800    96478904.760 7
  24585545.140        2492.840          45.950


 124389750.915 6  96927101.05646  23670579.720                    23670583.100
      3478.646        2710.635          40.600          40.350    92888478.452 7
  23670587.240        2597.696          46.800


 116430664.021 8  90725193.68048  22156023.880                    22156025.960
     -2455.479       -1913.363          49.200          49.100    86944976.800 8
  22156027.720       -1833.554          52.150


 135039724.864 8                  25697213.160
     -2205.406                          49.100                   100841347.744 8
  25697219.960       -1646.904          49.100   103471984.374 8  25697215.860
     -1689.860          49.000   102156665.213 8  25697217.820       -1668.355
        51.850
 126115455.488 8                  23998976.520
      2183.468                          48.100                    94177132.160 8
  23998983.360        1630.563          50.000    96633921.013 8  23998980.460
      1673.047          49.350    95405524.737 8  23998982.160        1651.828
        52.450
 122595265.160 8                  23329102.760
      -108.243                          51.650                    91548427.762 9
  23329108.080         -80.813          55.150    93936637.917 9  23329104.420
       -82.869          54.450    92742528.492 9  23329106.700         -81.830
        57.600
 146935669.204 7                  27960937.020
       636.134                          42.600                   109724699.056 7
  27960946.260         475.132          44.150   112587075.296 7  27960942.520
       487.643          42.800   111155886.334 7  27960945.000         481.340
        46.400
 140183451.169 7                  26676014.080
      3137.895                          46.250                   104682505.513 7
  26676020.540        2343.383          45.600   107413329.926 7  26676019.340
      2404.488          46.550   106047864.389 7  26676021.160        2373.806
        47.950
 126530196.480 8                  24077885.080
      1259.640                          52.350                    94486890.526 8
  24077891.200         940.688          52.950    96951763.134 8  24077887.320
       965.194          53.350    95719326.980 9  24077888.860         953.004
        55.800
 143306028.585 7                  27270243.000
     -1696.002                          43.950                   107014237.135 7
  27270250.480       -1266.289          43.750   109805902.407 7  27270250.420
     -1299.436          45.600   108410064.927 7  27270250.300       -1282.937
        47.300
 149436395.348 6                  28436818.260
     -2940.743                          38.350                   111592105.659 7
  28436829.620       -2195.955          42.300   114503193.403 6  28436825.780
     -2253.137          40.200   113047644.179 7  28436827.720       -2224.466
        44.150
 23 12 20 10 19 30.0000000  0 21G05G07G08G13G14G15G17G18G20G22G23G24
                                G30E04E05E09E15E24E31E34E36
 112558938.245 8  87708247.06048  21419260.800                    21419260.580
     -2289.675       -1784.165          50.050          50.100



 129708240.844 7 101071332.62147  24682678.280                    24682681.720
     -2980.082       -2322.147          44.200          44.100



 131652273.203 6 102586222.79246  25052592.080                    25052598.260
      -944.313        -735.831          39.400          38.850    98311806.178 7
  25052598.840        -705.166          42.250


 104632641.121 8  81531917.61848  19910928.220                    19910927.000
       193.195         150.542          49.200          49.100



 111288893.843 8  86718635.13448  21177558.760                    21177558.360
       128.217          99.908          50.850          48.150    83105385.159 8
  21177563.160          95.695          53.950


 110939728.342 8  86446519.88947  21111133.820                    21111133.760
      2420.014        1885.725          50.050          47.800



 133502539.587 6 104027965.60946  25404689.080                    25404694.480
      2822.052        2199.005          40.700          40.500



 128329645.936 6  99997097.15146  24420331.840                    24420333.600
     -1125.596        -877.091          41.250          39.300    95830562.118 7
  24420339.020        -840.549          45.300


 123443416.917 7  96189631.74246  23490518.920                    23490521.440
     -3699.528       -2882.755          43.050          39.500



 111969178.274 8  87248725.76947  21307014.200                    21307012.740
      1256.369         978.990          51.650          45.550



 129097814.287 7 100595696.25746  24566505.600                    24566507.940
      3329.918        2594.737          44.150          37.400    96404216.850 7
  24566512.300        2486.461          45.600


 124285477.088 6  96845848.76446  23650736.700                    23650740.540
      3473.166        2706.365          40.550          39.850    92810611.672 7
  23650744.520        2593.624          46.500


 116504438.747 8  90782680.40348  22170062.900                    22170065.100
     -2462.582       -1918.897          49.150          49.350    87000068.245 8
  22170066.500       -1839.099          51.600


 135105966.646 8                  25709818.840
     -2210.596                          49.100                   100890813.966 8
  25709825.120       -1650.806          48.900   103522741.026 8  25709821.220
     -1693.782          48.950   102206776.649 8  25709823.220       -1672.281
        51.600
 126050004.116 8                  23986521.420
      2180.143                          48.000                    94128256.194 8
  23986528.340        1627.961          49.800    96583770.004 8  23986525.260
      1670.446          49.550    95356011.251 8  23986527.020        1649.211
        52.300
 122598641.289 8                  23329745.400
      -116.675                          52.050                    91550948.896 9
  23329750.720         -87.120          55.000    93939224.823 9  23329746.820
       -89.422          54.600    92745082.514 9  23329749.180         -88.271
        57.500
 146916803.843 7                  27957346.940
       621.493                          42.600                   109710611.185 7
  27957356.460         464.266          44.400   112572619.952 7  27957352.540
       476.108          43.100   111141614.721 7  27957355.120         470.246
        46.550
 140089371.966 7                  26658111.280
      3134.091                          46.650                   104612251.805 7
  26658117.860        2340.471          45.250   107341243.475 7  26658116.380
      2401.457          46.700   105976694.296 8  26658117.920        2370.982
        48.050
 126492608.246 8                  24070732.060
      1246.386                          52.150                    94458821.410 8
  24070738.320         930.655          52.700    96922961.775 8  24070734.460
       955.017          53.350    95690891.745 9  24070736.060         942.820
        55.650
 143357082.040 7                  27279958.220
     -1707.649                          43.350                   107052361.339 7
  27279966.300       -1275.043          43.800   109845021.176 7  27279965.780
     -1308.410          45.600   108448686.411 7  27279965.560       -1291.715
        47.150
 149524619.314 6                  28453606.660
     -2940.876                          37.850                   111657987.041 7
  28453618.200       -2195.991          43.150   114570793.464 6  28453614.160
     -2253.336          41.800   113114384.901 7  28453616.340       -2224.584
        45.300
 23 12 20 10 20  0.0000000  0 21G05G07G08G13G14G15G17G18G20G22G23G24
                                G30E04E05E09E15E24E31E34E36
 112627891.045 8  87761976.43448  21432382.220                    21432382.220
     -2306.063       -1796.936          50.350          50.550



 129797685.256 7 101141029.37847  24699699.300                    24699702.480
     -2981.548       -2323.291          43.500          43.600



 131680894.698 6 102608525.11746  25058038.700                    25058045.220
      -962.745        -750.196          39.350          39.650    98333179.202 7
  25058046.060        -718.821          42.800


 104627075.255 8  81527580.56448  19909869.040                    19909867.800
       179.146         139.593          49.000          49.250



 111285358.998 8  86715880.69048  21176886.120                    21176885.720
       108.561          84.592          50.350          48.250    83102745.473 9
  21176890.640          81.084          54.250


 110867321.200 8  86390098.73248  21097355.060                    21097355.040
      2408.205        1876.523          49.850          48.100



 133417900.063 6 103962012.98047  25388582.500                    25388588.040
      2821.818        2198.822          41.900          42.100



 128363686.587 6 100023622.26646  24426809.240                    24426811.760
     -1142.724        -890.438          41.400          39.250    95855981.955 7
  24426816.480        -853.245          45.000


 123554485.447 7  96276178.43446  23511654.500                    23511657.260
     -3703.868       -2886.139          43.300          40.200



 111931775.336 8  87219580.70047  21299896.560                    21299894.780
      1238.180         964.816          51.400          45.850



 128998060.929 7 100517966.24646  24547523.380                    24547525.300
      3321.489        2588.169          44.000          37.950    96329725.572 7
  24547529.720        2480.316          45.100


 124181376.322 6  96764731.35646  23630926.640                    23630930.700
      3468.024        2702.362          39.650          39.700    92732874.180 7
  23630934.820        2589.583          46.800


 116578446.620 8  90840348.80248  22184146.280                    22184148.380
     -2469.956       -1924.644          49.050          48.900    87055333.782 8
  22184149.700       -1844.479          51.350


 135172376.655 8                  25722456.440
     -2215.734                          48.900                   100940405.801 8
  25722462.180       -1654.590          49.050   103573626.557 8  25722458.640
     -1697.688          49.000   102257015.336 8  25722460.660       -1676.178
        51.800
 125984667.803 8                  23974088.200
      2176.699                          48.300                    94079466.155 8
  23974095.080        1625.430          49.700    96533707.163 8  23974092.140
      1667.890          49.800    95306584.812 8  23974093.780        1646.644
        52.450
 122602283.659 8                  23330438.640
      -125.078                          51.700                    91553668.845 9
  23330443.860         -93.428          55.100    93942015.724 9  23330439.940
       -95.837          54.700    92747837.940 9  23330442.300         -94.666
        57.650
 146898390.338 6                  27953843.060
       606.911                          41.700                   109696860.746 7
  27953852.820         453.218          44.850   112558510.798 7  27953848.280
       465.034          42.950   111127684.924 7  27953851.200         459.136
        46.750
 139995421.843 7                  26640233.100
      3130.222                          46.850                   104542094.461 7
  26640239.600        2337.517          45.250   107269255.912 7  26640237.960
      2398.519          46.650   105905621.841 8  26640239.120        2368.011
        48.400
 126455431.711 8                  24063657.340
      1233.104                          51.700                    94431059.721 8
  24063663.600         920.824          52.600    96894475.872 8  24063659.920
       944.834          53.350    95662767.948 9  24063661.600         932.854
        55.650
 143408494.243 7                  27289741.660
     -1718.962                          43.200                   107090753.428 7
  27289750.360       -1283.645          44.000   109884414.805 7  27289749.340
     -1317.080          45.550   108487579.274 7  27289749.140       -1300.347
        47.350
 149612860.984 6                  28470398.640
     -2940.772                          39.600                   111723881.653 6
  28470410.300       -2196.122          41.850   114638407.112 7  28470405.900
     -2253.435          42.450   113181139.036 7  28470408.380       -2224.793
        44.800
 23 12 20 10 20 30.0000000  0 21G05G07G08G13G14G15G17G18G20G22G23G24
                                G30E04E05E09E15E24E31E34E36
 112697329.851 8  87816084.51148  21445596.120                    21445596.040
     -2322.581       -1809.807          50.300          50.250



 129887161.793 6 101210751.19046  24716726.220                    24716729.380
     -2983.019       -2324.437          41.550          40.950



 131710054.914 6 102631247.23646  25063587.880                    25063594.640
      -980.753        -764.226          38.800          39.750    98354954.495 7
  25063595.600        -732.355          42.050


 104621916.279 8  81523560.58148  19908887.300                    19908886.080
       165.207         128.733          48.800          48.600



 111282405.763 8  86713579.43748  21176324.020                    21176323.740
        88.974          69.329          49.800          48.350    83100540.109 9
  21176328.720          66.344          54.050


 110795263.975 8  86333950.22648  21083642.980                    21083642.900
      2396.153        1867.132          49.700          48.100



 133333260.388 6 103896060.15346  25372475.720                    25372481.380
      2821.268        2198.392          41.800          41.750



 128398229.603 6 100050538.84746  24433382.520                    24433385.220
     -1159.683        -903.649          40.650          39.250    95881776.976 7
  24433389.580        -866.044          44.000


 123665681.874 7  96362824.79546  23532814.540                    23532817.440
     -3708.446       -2889.706          43.050          38.900



 111894912.589 8  87190856.53947  21292881.700                    21292879.680
      1219.756         950.462          50.900          46.050



 128898554.412 7 100440428.58846  24528588.140                    24528589.620
      3312.794        2581.395          43.600          39.000    96255418.628 7
  24528594.000        2473.939          44.600


 124077430.596 6  96683734.73446  23611146.340                    23611150.680
      3462.536        2698.084          39.450          39.450    92655252.418 7
  23611154.540        2585.521          46.700


 116652666.986 8  90898182.77148  22198270.000                    22198272.200
     -2477.393       -1930.438          48.350          48.400    87110757.991 8
  22198273.340       -1850.006          50.800


 135238935.339 8                  25735122.340
     -2220.876                          48.800                   100990108.670 8
  25735127.620       -1658.549          48.850   103624626.042 8  25735124.440
     -1701.847          48.900   102307366.512 8  25735126.440       -1680.206
        51.900
 125919428.083 8                  23961673.340
      2173.122                          48.200                    94030748.260 8
  23961680.000        1622.745          49.200    96483718.359 8  23961677.500
      1665.121          49.900    95257231.461 8  23961678.960        1643.943
        52.600
 122606173.492 8                  23331178.920
      -133.647                          51.450                    91556573.573 9
  23331183.980         -99.837          54.850    93944996.233 9  23331180.220
      -102.463          54.600    92750780.557 9  23331182.500        -101.146
        57.750
 146880409.958 6                  27950421.460
       592.278                          41.750                   109683433.794 7
  27950431.720         442.283          44.600   112544733.602 7  27950426.660
       453.764          43.300   111114082.850 7  27950429.800         447.955
        47.000
 139901583.140 7                  26622376.060
      3126.082                          45.950                   104472020.320 7
  26622382.460        2334.358          45.450   107197353.724 7  26622380.840
      2395.355          46.550   105834633.676 8  26622381.540        2364.848
        48.800
 126418648.283 8                  24056657.400
      1219.602                          51.400                    94403591.601 8
  24056663.580         910.815          52.200    96866291.190 8  24056660.180
       934.560          53.150    95634941.549 9  24056661.960         922.664
        55.700
 143460244.301 7                  27299589.620
     -1730.583                          43.650                   107129397.802 7
  27299598.780       -1292.245          43.750   109924067.332 7  27299597.020
     -1325.985          45.250   108526727.721 7  27299597.020       -1309.181
        47.350
 149701099.220 6                  28487189.920
     -2941.213                          38.000                   111789773.817 6
  28487201.580       -2196.334          41.300   114706018.130 6  28487196.820
     -2253.643          39.300   113247890.635 7  28487199.400       -2224.947
        43.400
 23 12 20 10 21  0.0000000  0 21G05G07G08G13G14G15G17G18G20G22G23G24
                                G30E04E05E09E15E24E31E34E36
 112767263.911 8  87870578.49348  21458904.220                    21458904.180
     -2339.198       -1822.756          50.700          50.750



 129976681.146 7 101280506.36447  24733761.140                    24733764.380
     -2984.552       -2325.629          43.250          43.650



 131739764.803 6 102654397.60546  25069241.700                    25069248.820
      -999.368        -778.734          39.800          39.300    98377140.275 7
  25069249.900        -746.315          43.500


 104617176.642 8  81519867.35748  19907985.440                    19907984.120
       151.096         117.737          49.450          49.600



 111280045.640 8  86711740.34748  21175874.720                    21175874.580
        68.871          53.665          49.700          48.250    83098777.634 9
  21175879.580          51.385          54.250


 110723570.160 8  86278084.89147  21070000.160                    21069999.980
      2383.808        1857.511          50.450          47.800



 133248635.052 6 103830118.45046  25356371.820                    25356377.540
      2820.361        2197.688          40.100          39.800



 128433284.691 7 100077854.43646  24440053.380                    24440055.920
     -1176.928        -917.088          43.100          39.000    95907954.395 7
  24440060.280        -878.924          43.350


 123777014.630 7  96449577.37146  23554000.500                    23554003.680
     -3713.117       -2893.346          42.800          38.600



 111858602.554 8  87162563.06247  21285971.960                    21285969.840
      1201.227         936.021          51.300          45.800



 128799308.995 7 100363094.37046  24509702.540                    24509703.800
      3303.762        2574.356          44.000          38.450    96181306.659 7
  24509708.000        2467.104          44.300


 123973652.590 6  96602868.78546  23591398.100                    23591402.080
      3456.449        2693.335          41.050          39.050    92577755.887 7
  23591406.280        2581.159          46.800


 116727109.832 8  90956190.10848  22212436.080                    22212438.220
     -2485.006       -1936.370          49.050          49.200    87166348.349 8
  22212439.320       -1855.782          50.800


 135305653.950 8                  25747818.560
     -2226.574                          49.150                   101039930.936 8
  25747823.400       -1662.673          48.900   103675748.030 8  25747820.820
     -1706.092          48.800   102357838.639 8  25747822.640       -1684.346
        51.750
 125854297.315 8                  23949279.300
      2169.250                          48.600                    93982111.723 8
  23949285.560        1619.837          49.250    96433813.040 8  23949283.580
      1662.111          49.700    95207960.534 8  23949284.960        1640.980
        52.300
 122610322.715 8                  23331968.580
      -142.568                          52.150                    91559671.997 9
  23331973.400        -106.474          55.000    93948175.478 9  23331969.840
      -109.237          54.400    92753919.391 9  23331972.080        -107.854
        57.650
 146862874.756 7                  27947084.920
       577.116                          42.950                   109670339.247 7
  27947095.300         430.932          45.250   112531297.475 7  27947089.880
       442.163          43.000   111100817.510 7  27947093.140         436.623
        47.050
 139807869.007 7                  26604542.760
      3121.873                          46.800                   104402039.200 7
  26604549.140        2331.200          45.400   107125546.987 7  26604547.520
      2391.956          46.550   105763739.740 8  26604547.940        2361.603
        48.700
 126382270.103 8                  24049734.680
      1205.874                          51.800                    94376426.112 8
  24049740.580         900.476          52.250    96838417.032 8  24049737.520
       923.978          52.900    95607421.726 9  24049739.420         912.218
        55.400
 143512341.981 7                  27309503.860
     -1742.418                          44.850                   107168301.798 7
  27309513.120       -1301.142          44.050   109963986.217 7  27309510.720
     -1335.016          44.400   108566139.159 7  27309511.020       -1318.055
        46.850
 149789343.336 6                  28503982.200
     -2941.332                          37.400                   111855670.307 7
  28503993.880       -2196.571          42.400   114773633.721 6  28503988.960
     -2253.982          39.100   113314646.663 7  28503991.720       -2225.253
        43.900
 23 12 20 10 21 30.0000000  0 21G05G07G08G13G14G15G17G18G20G22G23G24
                                G30E04E05E09E15E24E31E34E36
 112837692.385 8  87925457.73948  21472306.440                    21472306.100
     -2355.547       -1835.495          50.300          50.400



 130066243.412 7 101350294.97547  24750804.360                    24750807.380
     -2985.811       -2326.612          42.700          42.400



 131770024.782 6 102677976.66146  25075000.300                    25075007.520
     -1017.378        -792.769          37.050          36.250    98399736.844 7
  25075009.280        -759.930          43.850


 104612858.083 8  81516502.24148  19907163.720                    19907162.400
       137.263         106.958          49.450          49.350



 111278279.670 8  86710364.22948  21175538.500                    21175538.440
        49.164          38.309          49.500          49.100    83097458.851 9
  21175543.440          36.700          54.250


 110652242.864 8  86222505.15948  21056427.080                    21056426.760
      2371.764        1848.128          50.400          48.250



 133164028.028 6 103764190.95146  25340271.440                    25340277.620
      2820.260        2197.604          36.200          37.200



 128468851.095 7 100105568.44746  24446821.740                    24446823.680
     -1193.765        -930.211          42.450          40.950    95934513.653 7
  24446828.680        -891.554          43.100


 123888481.962 7  96536434.79746  23575212.120                    23575215.260
     -3717.602       -2896.841          42.400          40.150



 111822847.715 8  87134702.20647  21279167.900                    21279165.960
      1182.729         921.609          50.850          46.850



 128700328.562 7 100285966.67046  24490867.340                    24490868.580
      3295.249        2567.723          43.000          40.350    96107392.594 7
  24490872.540        2460.632          44.150


 123870044.628 6  96522135.31946  23571682.160                    23571686.380
      3451.032        2689.118          41.050          40.650    92500386.336 7
  23571690.360        2577.145          46.900


 116801774.915 8  91014370.61348  22226644.540                    22226646.700
     -2492.134       -1941.925          49.300          49.250    87222104.658 8
  22226647.440       -1861.157          50.700


 135372533.317 8                  25760545.300
     -2231.829                          48.950                   101089873.268 8
  25760549.900       -1666.646          48.750   103726993.220 8  25760547.840
     -1710.123          49.150   102408432.398 8  25760549.460       -1688.418
        51.750
 125789277.436 8                  23936906.440
      2165.686                          48.600                    93933558.005 8
  23936912.340        1617.176          49.250    96383992.696 8  23936910.520
      1659.469          49.700    95158773.503 8  23936912.100        1638.301
        52.350
 122614732.930 8                  23332807.920
      -151.094                          51.850                    91562965.314 9
  23332812.500        -112.895          55.050    93951554.711 9  23332809.160
      -115.868          54.650    92757255.669 9  23332811.280        -114.377
        57.750
 146845786.229 6                  27943833.240
       562.425                          41.750                   109657578.277 7
  27943843.780         419.988          44.750   112518203.613 7  27943838.500
       430.874          43.300   111087890.101 7  27943841.380         425.376
        46.850
 139714282.141 7                  26586733.740
      3117.555                          46.600                   104332153.086 7
  26586740.000        2328.116          45.300   107053837.737 7  26586738.280
      2388.734          46.650   105692942.060 8  26586738.780        2358.427
        48.700
 126346298.944 8                  24042889.460
      1192.501                          51.750                    94349564.560 8
  24042895.040         890.479          52.100    96810854.736 8  24042892.380
       913.736          53.000    95580209.802 9  24042894.320         902.073
        55.350
 143564786.739 7                  27319484.200
     -1753.557                          45.400                   107207464.973 7
  27319493.480       -1309.626          43.800   110004171.050 7  27319490.380
     -1343.725          44.600   108605813.166 7  27319491.060       -1326.748
        46.900
 149877592.374 6                  28520775.100
     -2941.242                          38.300                   111921570.466 7
  28520787.180       -2196.570          44.150   114841253.037 7  28520782.460
     -2253.799          42.450   113381406.411 7  28520785.300       -2225.341
        46.350
 23 12 20 10 22  0.0000000  0 21G05G07G08G13G14G15G17G18G20G22G23G24
                                G30E04E05E09E15E24E31E34E36
 112908609.109 8  87980717.45148  21485801.460                    21485801.000
     -2372.278       -1848.531          49.700          49.700



 130155843.911 7 101420113.36547  24767854.960                    24767857.520
     -2987.888       -2328.230          42.500          42.650



 131800829.637 6 102701980.28746  25080862.020                    25080869.640
     -1036.048        -807.317          37.000          37.250    98422740.281 7
  25080871.540        -773.791          43.850


 104608956.826 8  81513462.28948  19906421.480                    19906420.060
       122.745          95.646          49.900          49.850



 111277103.850 8  86709447.97748  21175314.660                    21175314.560
        29.100          22.674          49.550          49.000    83096580.773 9
  21175319.600          21.646          54.300


 110581280.373 8  86167209.71848  21042923.380                    21042923.040
      2359.027        1838.204          50.800          48.050



 133079438.103 6 103698276.74245  25324174.420                    25324180.480
      2819.043        2196.654          36.350          35.900



 128504923.048 7 100133676.38346  24453686.300                    24453687.600
     -1211.009        -943.646          43.200          40.300    95961450.427 7
  24453693.380        -904.383          43.400


 124000077.073 7  96623391.77646  23596448.200                    23596451.340
     -3722.214       -2900.435          42.550          39.200



 111787645.289 8  87107271.78947  21272469.020                    21272467.260
      1163.908         906.942          50.900          47.000



 128601611.985 7 100209044.56846  24472082.200                    24472083.560
      3285.661        2560.253          42.850          40.650    96033675.544 7
  24472087.200        2453.687          44.500


 123766604.066 6  96441532.30646  23551998.240                    23552002.500
      3445.069        2684.471          41.850          41.250    92423141.794 7
  23552006.280        2572.381          46.950


 116876656.864 8  91072720.11348  22240894.200                    22240896.280
     -2500.032       -1948.080          48.900          48.900    87278022.906 8
  22240897.000       -1866.904          50.950


 135439569.238 8                  25773301.760
     -2237.533                          48.850                   101139932.509 8
  25773306.140       -1670.835          48.600   103778358.359 8  25773304.580
     -1714.442          49.450   102459144.587 8  25773306.060       -1692.612
        51.800
 125724365.365 8                  23924554.140
      2161.605                          48.700                    93885084.780 8
  23924559.800        1614.110          49.400    96334254.937 8  23924557.740
      1656.302          49.500    95109668.010 8  23924559.700        1635.224
        52.300
 122619400.650 8                  23333696.200
      -160.216                          51.850                    91566450.923 9
  23333700.700        -119.659          55.100    93955131.247 9  23333697.480
      -122.799          54.750    92760786.736 9  23333699.500        -121.211
        57.700
 146829140.878 6                  27940665.740
       547.080                          41.450                   109645148.242 7
  27940676.000         408.533          44.600   112505449.344 7  27940671.520
       419.163          44.050   111075297.947 7  27940674.020         413.843
        47.150
 139620820.197 7                  26568948.460
      3112.962                          46.850                   104262360.270 7
  26568954.440        2324.614          45.450   106982224.215 7  26568952.720
      2385.268          46.850   105622238.897 8  26568953.480        2354.905
        48.800
 126310731.500 8                  24036121.180
      1178.564                          52.250                    94323004.493 8
  24036126.380         880.020          52.150    96783601.787 8  24036124.000
       903.000          53.100    95553303.295 9  24036126.020         891.509
        55.350
 143617572.966 7                  27329529.300
     -1765.514                          45.900                   107246883.142 7
  27329538.520       -1318.407          43.250   110044617.531 7  27329535.000
     -1352.819          44.100   108645745.489 7  27329536.040       -1335.623
        46.450
 149965840.355 6                  28537567.920
     -2941.705                          38.950                   111987469.850 7
  28537580.200       -2196.907          42.900   114908871.519 7  28537576.000
     -2254.081          43.400   113448165.349 7  28537578.520       -2225.635
        45.850
 23 12 20 10 22 30.0000000  0 21G05G07G08G13G14G15G17G18G20G22G23G24
                                G30E04E05E09E15E24E31E34E36
 112980011.922 8  88036355.94148  21499388.980                    21499388.260
     -2387.774       -1860.605          49.450          49.300



 130245482.472 7 101489961.43547  24784912.720                    24784915.000
     -2988.094       -2328.389          42.250          42.700



 131832179.166 6 102726408.38545  25086827.440                    25086835.080
     -1054.088        -821.372          36.450          35.250    98446150.477 7
  25086837.560        -786.845          43.400


 104605474.222 8  81510748.54748  19905758.840                    19905757.200
       109.603          85.404          49.400          49.600



 111276518.894 8  86708992.13748  21175203.400                    21175203.180
        10.218           7.961          49.750          48.750    83096143.923 9
  21175208.240           7.524          54.100


 110510685.585 8  86112200.79747  21029489.680                    21029489.320
      2347.372        1829.122          50.850          47.850



 132994868.541 6 103632378.24146  25308081.180                    25308087.320
      2818.571        2196.280          37.100          36.650



 128541499.411 7 100162177.36146  24460646.700                    24460647.720
     -1227.274        -956.320          43.050          36.950    95988763.863 7
  24460654.140        -916.288          43.250


 124111798.244 6  96710446.98746  23617708.080                    23617711.240
     -3725.493       -2902.988          41.950          38.950



 111752996.948 8  87080273.12147  21265875.620                    21265874.160
      1146.104         893.069          51.200          46.650



 128503162.693 7 100132330.75346  24453347.920                    24453349.480
      3277.596        2553.968          42.250          39.550    95960158.120 7
  24453353.120        2447.581          44.000


 123663332.937 6  96361061.30746  23532346.600                    23532350.880
      3439.998        2680.517          41.450          41.400    92346023.761 7
  23532354.240        2568.828          46.650


 116951754.968 8  91131238.03648  22255184.840                    22255187.040
     -2506.436       -1953.069          48.300          48.550    87334102.565 8
  22255187.660       -1871.646          50.750


 135506762.139 8                  25786088.140
     -2241.865                          48.650                   101190108.979 8
  25786092.300       -1674.223          48.200   103829843.775 8  25786091.260
     -1717.803          49.550   102509975.533 8  25786092.480       -1696.021
        51.700
 125659562.643 8                  23912222.740
      2158.771                          48.750                    93836693.192 8
  23912228.240        1612.013          49.550    96284600.948 8  23912225.760
      1654.075          49.600    95060645.219 8  23912228.040        1633.029
        52.400
 122624327.083 8                  23334633.720
      -168.022                          52.050                    91570129.726 9
  23334638.180        -125.552          54.950    93958906.020 9  23334634.960
      -128.787          54.800    92764513.527 9  23334636.940        -127.189
        57.750
 146812939.982 6                  27937582.860
       533.053                          41.300                   109633050.137 7
  27937592.820         397.993          44.700   112493035.641 7  27937588.940
       408.367          44.100   111063042.041 7  27937591.320         403.218
        47.200
 139527485.541 7                  26551187.460
      3109.444                          46.900                   104192662.489 7
  26551193.220        2321.938          45.550   106910708.201 7  26551191.480
      2382.682          46.850   105551631.993 8  26551192.380        2352.303
        48.900
 126275569.138 8                  24029430.040
      1165.718                          52.200                    94296746.906 8
  24029434.940         870.521          52.000    96756659.223 8  24029432.820
       893.224          53.150    95526703.217 9  24029434.820         881.872
        55.400
 143670699.721 7                  27339639.080
     -1776.137                          45.400                   107286555.600 7
  27339647.980       -1326.384          42.700   110085324.941 7  27339644.420
     -1360.922          43.700   108685935.420 7  27339645.820       -1343.611
        45.950
 150054175.079 5                  28554360.120
     -2940.902                          35.800                   112053367.535 6
  28554372.400       -2196.300          41.450   114976488.260 6  28554368.600
     -2253.473          40.700   113514922.555 7  28554370.900       -2224.877
        43.900
 23 12 20 10 23  0.0000000  0 21G05G07G08G13G14G15G17G18G20G22G23G24
                                G30E04E05E09E15E24E31E34E36
 113051902.523 8  88092374.49948  21513069.240                    21513068.580
     -2404.131       -1873.352          49.600          49.700



 130335161.494 6 101559841.05346  24801978.020                    24801980.340
     -2989.744       -2329.676          41.600          41.050



 131864075.983 6 102751262.93346  25092897.340                    25092904.800
     -1072.434        -835.669          37.700          37.800    98469969.431 7
  25092907.200        -800.562          43.150


 104602414.183 8  81508364.07648  19905176.460                    19905174.820
        95.136          74.131          48.850          48.800



 111276528.082 8  86708999.26848  21175205.320                    21175204.920
        -9.917          -7.729          50.200          48.850    83096150.745 9
  21175210.040          -7.416          54.300


 110440463.842 8  86057482.57548  21016126.880                    21016126.540
      2334.731        1819.272          50.400          48.000



 132910325.872 6 103566500.58746  25291993.500                    25291999.500
      2817.512        2195.453          40.600          40.100



 128578581.672 7 100191072.54346  24467703.180                    24467703.820
     -1244.371        -969.641          42.250          40.000    96016455.088 7
  24467711.420        -929.187          43.800


 124223646.201 6  96797600.92846  23638992.220                    23638995.640
     -3729.977       -2906.485          41.300          39.450



 111718906.692 8  87053709.31647  21259388.480                    21259387.280
      1127.305         878.420          51.350          47.050



 128404986.869 7 100055830.05346  24434665.680                    24434667.300
      3268.533        2546.907          42.650          38.950    95886844.945 7
  24434671.140        2440.570          44.850


 123560235.867 7  96280725.97746  23512728.040                    23512732.520
      3433.951        2675.808          42.400          41.700    92269035.732 7
  23512735.260        2564.316          46.850


 117027071.258 7  91189925.96347  22269516.940                    22269519.200
     -2513.890       -1958.878          47.750          47.700    87390345.145 8
  22269519.880       -1877.265          50.850


 135574115.214 8                  25798905.020
     -2247.341                          48.350                   101240405.053 8
  25798909.080       -1678.353          48.400   103881451.931 8  25798908.360
     -1722.091          49.650   102560927.643 8  25798909.400       -1700.196
        51.650
 125594873.553 8                  23899912.820
      2154.709                          48.250                    93788386.443 8
  23899918.320        1609.048          49.600    96235034.019 8  23899915.620
      1651.012          49.800    95011708.387 8  23899917.980        1630.017
        52.300
 122629516.091 8                  23335621.180
      -177.138                          52.000                    91574004.603 9
  23335625.540        -132.202          54.950    93962881.982 9  23335622.460
      -135.648          54.850    92768438.946 9  23335624.380        -133.941
        57.550
 146797187.272 6                  27934585.220
       517.941                          41.900                   109621286.699 7
  27934595.020         386.687          44.700   112480965.332 7  27934591.580
       396.837          44.200   111051125.172 7  27934593.700         391.750
        47.100
 139434283.139 7                  26533451.600
      3104.875                          47.050                   104123063.471 7
  26533457.200        2318.521          45.850   106839293.546 7  26533455.480
      2379.048          47.100   105481125.158 8  26533456.440        2348.776
        49.000
 126240815.873 8                  24022816.760
      1151.892                          51.950                    94270794.806 8
  24022821.540         860.160          52.150    96730030.105 8  24022819.440
       882.630          53.250    95500412.607 9  24022821.480         871.413
        55.300
 143724168.717 7                  27349813.880
     -1787.694                          45.650                   107326483.602 7
  27349822.420       -1334.771          42.300   110126294.570 7  27349818.820
     -1369.795          43.150   108726384.242 7  27349820.740       -1352.346
        45.100
 150142419.750 6                  28571152.240
     -2940.979                          38.700                   112119264.504 6
  28571164.540       -2196.387          41.600   115044104.273 6  28571160.880
     -2253.583          39.750   113581679.043 7  28571163.280       -2225.009
        43.300
 23 12 20 10 23 30.0000000  0 21G05G07G08G13G14G15G17G18G20G22G23G24
                                G30E04E05E09E15E24E31E34E36
 113124273.834 8  88148767.65448  21526840.960                    21526840.340
     -2420.327       -1885.972          49.000          49.000



 130424875.247 7 101629747.74347  24819049.840                    24819052.540
     -2990.851       -2330.538          42.300          42.200



 131896514.156 6 102776539.42346  25099070.300                    25099077.320
     -1090.382        -849.645          39.500          39.550    98494192.690 7
  25099080.000        -814.066          43.050


 104599772.464 8  81506305.56948  19904673.660                    19904672.200
        81.078          63.177          48.850          48.950



 111277126.426 8  86709465.47948  21175319.320                    21175318.860
       -29.727         -23.164          50.200          48.350    83096597.531 9
  21175324.060         -22.203          54.050


 110370612.218 8  86003052.76748  21002834.540                    21002834.000
      2322.250        1809.546          50.150          48.450



 132825807.515 6 103500641.84546  25275910.520                    25275916.360
      2817.249        2195.250          38.950          39.400



 128616163.089 6 100220356.67346  24474854.580                    24474855.200
     -1260.715        -982.377          40.900          38.100    96044519.067 7
  24474863.480        -941.665          44.100


 124335613.035 6  96884847.50246  23660298.920                    23660302.240
     -3733.980       -2909.607          40.800          38.200



 111685371.455 8  87027577.99347  21253007.020                    21253005.860
      1108.607         863.851          51.750          46.800



 128307082.568 7  99979540.93446  24416035.100                    24416036.980
      3258.988        2539.469          42.050          38.750    95813734.504 7
  24416040.980        2433.698          44.100


 123457309.274 7  96200523.49647  23493141.920                    23493146.440
      3428.181        2671.311          42.350          42.000    92192175.023 7
  23493148.480        2559.979          46.550


 117102599.523 8  91248779.05048  22283889.480                    22283891.700
     -2521.154       -1964.539          48.450          48.200    87446746.001 8
  22283892.420       -1882.613          50.400


 135641623.331 8                  25811751.400
     -2252.797                          48.300                   101290816.888 8
  25811755.620       -1682.332          48.050   103933178.871 8  25811754.820
     -1726.121          49.550   102611997.033 8  25811755.820       -1704.216
        51.750
 125530294.170 8                  23887623.660
      2150.816                          48.450                    93740161.612 8
  23887629.340        1606.161          49.400    96185551.141 8  23887626.700
      1648.041          49.950    94962854.528 8  23887628.820        1627.126
        52.650
 122634963.338 8                  23336657.760
      -185.876                          51.950                    91578072.323 9
  23336662.040        -138.781          54.550    93967055.820 9  23336659.140
      -142.413          54.700    92772559.725 9  23336660.960        -140.593
        57.600
 146781878.374 6                  27931671.860
       502.759                          40.950                   109609854.608 7
  27931681.720         375.561          44.150   112469235.031 7  27931678.620
       385.410          43.650   111039543.979 7  27931680.620         380.362
        47.000
 139341209.860 7                  26515740.380
      3100.180                          47.350                   104053560.842 7
  26515745.720        2315.184          45.300   106767977.790 7  26515743.920
      2375.608          46.950   105410715.970 8  26515745.080        2345.348
        49.000
 126206467.524 8                  24016280.580
      1138.216                          52.050                    94245145.063 8
  24016285.340         849.969          51.900    96703711.244 8  24016283.240
       872.190          53.150    95474428.306 9  24016285.200         861.069
        55.400
 143777973.443 7                  27360052.600
     -1798.999                          45.050                   107366662.353 6
  27360060.680       -1343.305          41.650   110167521.459 7  27360057.160
     -1378.568          42.450   108767087.053 7  27360059.500       -1360.892
        44.950
 150230656.598 6                  28587943.560
     -2940.985                          38.750                   112185155.575 7
  28587955.580       -2196.302          42.750   115111714.301 6  28587951.840
     -2253.489          41.750   113648429.591 7  28587954.480       -2224.876
        45.200
 23 12 20 10 24  0.0000000  0 21G05G07G08G13G14G15G17G18G20G22G23G24
                                G30E04E05E09E15E24E31E34E36
 113197125.946 8  88205535.45648  21540704.200                    21540703.940
     -2436.387       -1898.485          49.050          49.050



 130514625.919 6 101699683.18846  24836128.680                    24836131.860
     -2992.460       -2331.792          40.750          40.850



 131929495.352 6 102802239.03446  25105346.380                    25105353.360
     -1108.111        -863.466          38.350          37.700    98518821.531 7
  25105355.540        -827.728          43.050


 104597552.537 8  81504575.73248  19904251.200                    19904249.740
        66.929          52.151          48.850          49.050



 111278316.788 8  86710392.99748  21175545.920                    21175545.480
       -49.570         -38.628          49.950          48.800    83097486.395 9
  21175550.820         -37.005          54.550


 110301135.694 8  85948915.24748  20989613.640                    20989612.940
      2309.655        1799.731          50.150          48.700



 132741320.108 6 103434807.24646  25259833.360                    25259839.440
      2815.751        2194.082          40.800          40.550



 128654244.715 6 100250030.61846  24482101.240                    24482102.120
     -1277.878        -995.749          41.550          38.300    96072956.559 7
  24482110.560        -954.190          44.600


 124447699.108 6  96972187.02046  23681628.320                    23681631.300
     -3738.438       -2913.076          41.600          39.500



 111652394.904 8  87001881.99847  21246731.900                    21246730.720
      1089.821         849.212          51.700          47.000



 128209455.452 6  99903467.79946  24397457.200                    24397459.280
      3249.699        2532.229          41.850          39.850    95740831.085 7
  24397463.640        2426.624          45.400


 123354557.360 7  96120457.12146  23473589.000                    23473593.760
      3422.339        2666.758          42.200          41.850    92115444.761 7
  23473595.140        2555.510          47.200


 117178341.282 8  91307798.51848  22298302.840                    22298304.660
     -2528.262       -1970.077          48.750          49.000    87503306.299 8
  22298305.740       -1888.022          50.850


 135709289.194 7                  25824627.800
     -2258.236                          47.950                   101341346.516 8
  25824632.180       -1686.295          48.450   103985026.677 8  25824631.360
     -1730.346          49.400   102663185.744 8  25824632.280       -1708.285
        52.000
 125465828.329 8                  23875356.180
      2147.049                          48.850                    93692021.568 8
  23875361.960        1603.247          49.700    96136155.260 8  23875359.600
      1645.101          50.100    94914086.567 8  23875361.300        1624.171
        53.000
 122640672.261 8                  23337744.040
      -194.659                          51.700                    91582335.446 9
  23337748.380        -145.384          54.800    93971430.155 9  23337745.640
      -149.145          54.650    92776878.453 9  23337747.360        -147.268
        57.850
 146767016.663 6                  27928843.800
       487.997                          41.650                   109598756.485 7
  27928853.680         364.364          44.350   112457847.416 7  27928850.580
       373.794          43.250   111028301.104 7  27928852.600         369.097
        47.050
 139248270.246 7                  26498054.520
      3095.779                          47.000                   103984158.034 7
  26498059.700        2311.667          45.750   106696764.471 7  26498057.760
      2371.955          46.600   105340407.901 8  26498059.220        2341.789
        49.300
 126172527.646 8                  24009822.120
      1124.553                          52.000                    94219800.340 8
  24009827.000         839.769          52.300    96677705.364 8  24009824.780
       861.613          53.150    95448753.003 9  24009826.680         850.702
        55.850
 143832115.122 7                  27370355.460
     -1810.257                          44.250                   107407092.733 6
  27370363.080       -1351.941          41.250   110209006.545 6  27370359.680
     -1387.185          41.600   108808044.798 7  27370362.380       -1369.684
        44.600
 150318886.555 6                  28604733.440
     -2940.981                          38.850                   112251041.456 7
  28604745.180       -2196.112          43.100   115179318.967 7  28604741.780
     -2253.381          42.750   113715174.871 7  28604744.240       -2224.756
        46.250
 23 12 20 10 24 30.0000000  0 21G05G07G08G13G14G15G17G18G20G22G23G24
                                G30E04E05E09E15E24E31E34E36
 113270457.559 8  88262676.89548  21554658.740                    21554658.680
     -2452.418       -1910.978          49.900          49.750



 130604413.279 7 101769647.22346  24853214.520                    24853218.240
     -2993.449       -2332.564          42.050          41.600



 131963020.114 6 102828362.29046  25111726.340                    25111732.780
     -1126.862        -878.071          38.100          38.000    98543856.285 7
  25111735.060        -841.260          42.400


 104595755.593 8  81503175.49348  19903909.280                    19903907.640
        52.717          41.077          49.350          49.450



 111280099.654 8  86711782.19448  21175885.140                    21175884.920
       -69.329         -54.024          49.950          48.800    83098817.703 9
  21175890.380         -51.802          54.550


 110232037.282 8  85895072.34948  20976464.660                    20976463.960
      2296.821        1789.731          50.600          48.950



 132656866.819 6 103368999.23846  25243762.680                    25243768.780
      2814.361        2193.002          40.550          40.600



 128692825.247 7 100280093.27746  24489443.000                    24489444.040
     -1294.113       -1008.398          42.250          38.900    96101766.600 7
  24489452.300        -966.590          44.900


 124559902.202 6  97059617.68646  23702980.160                    23702983.280
     -3742.113       -2915.946          41.500          38.100



 111619978.792 8  86976622.70447  21240563.440                    21240562.120
      1071.071         834.601          52.100          47.050



 128112108.968 7  99827613.33046  24378932.960                    24378935.040
      3239.991        2524.665          42.800          39.650    95668137.196 7
  24378939.720        2419.581          45.100


 123251982.016 7  96040528.37647  23454069.520                    23454074.520
      3416.023        2661.840          42.800          42.600    92038846.386 7
  23454075.320        2551.006          47.200


 117254295.802 8  91366983.75848  22312756.840                    22312758.360
     -2535.363       -1975.611          49.700          49.650    87560025.458 8
  22312759.480       -1893.257          50.800


 135777113.128 8                  25837534.300
     -2263.434                          48.300                   101391994.190 7
  25837538.920       -1690.311          47.900   104036995.605 8  25837537.860
     -1734.354          49.650   102714494.050 8  25837538.880       -1712.340
        51.700
 125401477.564 8                  23863110.760
      2143.017                          49.650                    93643967.427 8
  23863116.500        1600.336          49.550    96086847.540 8  23863114.420
      1642.028          50.600    94865405.637 8  23863115.720        1621.188
        52.900
 122646643.978 8                  23338880.280
      -203.518                          52.000                    91586794.810 9
  23338884.800        -151.964          54.600    93976005.854 9  23338882.140
      -155.945          54.850    92781395.984 9  23338883.780        -153.926
        57.650
 146752603.254 6                  27926100.960
       472.799                          41.250                   109587993.125 7
  27926110.960         353.212          43.600   112446803.268 7  27926107.860
       362.357          43.800   111017397.354 7  27926109.880         357.769
        46.650
 139155466.499 7                  26480394.420
      3091.267                          47.600                   103914856.662 7
  26480399.600        2308.299          45.950   106625655.218 7  26480397.400
      2368.440          46.750   105270202.591 8  26480399.160        2338.384
        49.200
 126138997.474 8                  24003441.640
      1110.800                          52.550                    94194761.563 8
  24003446.660         829.451          52.200    96652013.402 8  24003444.300
       851.126          53.400    95423387.634 9  24003446.140         840.295
        55.700
 143886592.714 7                  27380722.220
     -1821.621                          43.850                   107447773.922 6
  27380729.160       -1360.185          40.600   110250748.997 6  27380726.340
     -1395.699          41.750   108849256.605 7  27380729.220       -1377.880
        44.050
 150407108.211 6                  28621521.740
     -2940.715                          39.050                   112316921.180 7
  28621532.960       -2195.903          42.650   115246917.310 7  28621529.760
     -2253.354          42.350   113781913.893 7  28621532.400       -2224.605
        45.600
 23 12 20 10 25  0.0000000  0 21G05G07G08G13G14G15G17G18G20G22G23G24
                                G30E04E05E09E15E24E31E34E36
 113344264.493 8  88320188.70248  21568703.900                    21568704.120
     -2467.556       -1922.773          49.850          49.750



 130694234.534 7 101839637.66446  24870306.980                    24870310.920
     -2993.757       -2332.802          42.350          41.600



 131997084.538 6 102854906.01246  25118208.540                    25118214.980
     -1143.842        -891.306          37.550          37.100    98569294.101 7
  25118217.360        -854.324          43.900


 104594380.190 8  81502103.73048  19903647.560                    19903645.840
        39.200          30.545          49.050          48.750



 111282473.146 8  86713631.62148  21176336.660                    21176336.700
       -88.453         -68.926          49.600          48.600    83100590.061 9
  21176342.360         -66.076          54.550


 110163316.992 8  85841524.09148  20963387.620                    20963386.980
      2284.857        1780.409          50.600          48.450



 132572449.181 6 103303219.13146  25227698.700                    25227705.000
      2813.805        2192.572          38.600          39.500



 128731901.039 7 100310541.86746  24496879.020                    24496880.340
     -1310.101       -1020.862          43.550          39.400    96130946.461 7
  24496887.980        -978.463          44.850


 124672217.936 6  97147136.14746  23724353.460                    23724356.520
     -3745.457       -2918.548          40.250          38.950



 111588122.257 8  86951799.43847  21234501.460                    21234499.980
      1053.146         820.633          51.950          47.100



 128015044.151 7  99751978.36546  24360462.340                    24360464.220
      3231.488        2518.042          42.550          39.150    95595653.670 7
  24360469.360        2412.897          45.600


 123149582.823 7  95960736.89347  23434583.580                    23434588.600
      3411.023        2657.943          42.600          42.700    91962379.592 7
  23434589.200        2547.078          47.600


 117330460.018 8  91426332.38648  22327250.740                    22327252.240
     -2541.691       -1980.542          49.100          49.000    87616901.216 8
  22327253.320       -1898.064          51.150


 135845093.199 7                  25850470.400
     -2268.138                          47.900                   101442758.445 7
  25850475.400       -1693.765          47.950   104089084.161 8  25850474.160
     -1737.944          49.650   102765920.457 8  25850475.140       -1715.891
        51.900
 125337241.043 8                  23850887.180
      2139.786                          49.850                    93595998.597 8
  23850892.780        1597.879          49.350    96037627.349 8  23850890.880
      1639.534          50.800    94816811.126 8  23850891.960        1618.679
        53.150
 122652877.241 8                  23340066.380
      -211.634                          51.850                    91591449.490 9
  23340071.060        -158.044          54.400    93980781.965 9  23340068.340
      -162.223          54.800    92786111.383 9  23340069.960        -160.148
        57.750
 146738636.658 6                  27923443.160
       458.579                          41.550                   109577563.471 7
  27923453.540         342.467          44.000   112436101.540 7  27923450.280
       351.404          44.000   111006831.663 7  27923452.120         346.853
        47.050
 139062798.562 7                  26462760.240
      3087.126                          47.200                   103845656.681 7
  26462765.440        2305.229          46.000   106554650.007 7  26462763.060
      2365.386          46.950   105200099.994 8  26462764.940        2335.335
        49.650
 126105875.887 8                  23997138.920
      1097.698                          52.550                    94170027.885 8
  23997144.100         819.687          52.250    96626634.506 8  23997141.600
       841.098          53.550    95398331.346 9  23997143.380         830.402
        56.000
 143941402.768 7                  27391152.220
     -1832.004                          43.300                   107488703.398 6
  27391158.500       -1368.171          39.950   110292746.200 6  27391156.360
     -1403.731          41.350   108890719.954 7  27391159.300       -1386.019
        43.900
 150495317.886 6                  28638307.840
     -2939.758                          37.700                   112382791.927 6
  28638318.220       -2195.090          40.100   115314506.399 6  28638315.540
     -2252.586          41.150   113848643.820 7  28638318.180       -2223.844
        43.850
 23 12 20 10 25 30.0000000  0 21G05G07G08G13G14G15G17G18G20G22G23G24
                                G30E04E05E09E15E24E31E34E36
 113418542.627 8  88378067.68348  21582838.760                    21582839.020
     -2484.243       -1935.777          50.050          50.050



 130784086.959 7 101909652.42446  24887405.500                    24887409.560
     -2996.232       -2334.731          42.400          41.750



 132031686.661 6 102881868.77945  25124792.780                    25124799.480
     -1163.003        -906.233          36.350          35.800    98595133.376 7
  25124802.140        -868.405          45.000


 104593424.964 8  81501359.38048  19903465.840                    19903464.020
        24.452          19.054          48.750          48.450



 111285435.023 8  86715939.52248  21176900.200                    21176900.460
      -108.995         -84.934          49.150          48.550    83102801.795 9
  21176906.260         -81.391          54.750


 110094975.261 8  85788270.84348  20950382.500                    20950382.060
      2271.232        1769.793          50.050          48.000



 132488067.891 6 103237467.49846  25211641.740                    25211647.940
      2811.336        2190.649          39.950          40.200



 128771468.153 7 100341373.31546  24504408.580                    24504410.080
     -1327.519       -1034.432          43.700          36.950    96160493.214 7
  24504416.820        -991.242          44.550


 124784641.677 6  97234738.72846  23745747.320                    23745750.280
     -3749.702       -2921.855          41.550          38.100



 111556824.346 8  86927411.45147  21228545.720                    21228544.040
      1033.398         805.245          51.600          46.700



 127918261.887 7  99676563.56646  24342045.400                    24342046.940
      3221.090        2509.939          42.550          39.500    95523381.141 7
  24342052.620        2405.246          45.850


 123047359.101 6  95881082.19446  23415130.820                    23415136.060
      3403.934        2652.422          41.900          40.750    91886043.850 8
  23415136.520        2542.034          48.100


 117406830.603 8  91485841.82148  22341783.820                    22341785.400
     -2549.557       -1986.671          48.300          48.300    87673931.074 8
  22341786.660       -1903.938          51.850


 135913227.196 7                  25863435.700
     -2274.117                          47.200                   101493637.634 7
  25863440.980       -1698.184          47.700   104141290.637 8  25863439.700
     -1742.448          49.950   102817463.288 8  25863440.720       -1720.329
        51.700
 125273117.737 8                  23838685.200
      2135.150                          49.800                    93548114.290 8
  23838690.680        1594.410          49.500    95988493.894 8  23838688.780
      1635.930          50.850    94768302.239 8  23838689.740        1615.213
        52.950
 122659370.568 8                  23341302.080
      -221.209                          51.750                    91596298.376 9
  23341306.760        -165.182          54.350    93985757.347 9  23341303.980
      -169.492          54.800    92791023.513 9  23341305.620        -167.367
        57.400
 146725115.462 6                  27920870.440
       442.528                          41.950                   109567466.368 7
  27920880.820         330.628          44.250   112425741.043 7  27920877.580
       339.319          44.600   110996602.865 7  27920879.140         334.927
        47.150
 138970266.079 7                  26445151.780
      3081.680                          46.800                   103776557.849 7
  26445157.040        2301.186          46.150   106483748.593 7  26445154.500
      2361.226          46.900   105130099.872 8  26445156.560        2331.200
        49.300
 126073161.518 8                  23990913.680
      1083.168                          52.250                    94145598.290 8
  23990918.920         808.922          52.350    96601567.625 8  23990916.420
       829.989          53.550    95373583.110 9  23990918.100         819.472
        55.850
 143996541.596 7                  27401644.840
     -1843.861                          43.050                   107529878.387 6
  27401650.760       -1376.823          40.250   110334995.339 6  27401649.160
     -1412.826          41.450   108932432.020 7  27401651.960       -1394.881
        43.550
 150583511.583 6                  28655090.900
     -2940.014                          40.700                   112448650.778 6
  28655100.860       -2195.604          40.350   115382083.280 6  28655098.280
     -2252.641          41.350   113915361.682 7  28655100.760       -2224.189
        43.650
 23 12 20 10 26  0.0000000  0 21G05G07G08G13G14G15G17G18G20G22G23G24
                                G30E04E05E09E15E24E31E34E36
 113493293.699 8  88436315.19648  21597063.700                    21597063.760
     -2499.150       -1947.393          49.850          49.850



 130873974.178 7 101979694.30647  24904510.620                    24904514.740
     -2996.790       -2335.164          43.400          43.700



 132066829.083 6 102909252.55446  25131480.260                    25131486.720
     -1180.104        -919.558          38.050          38.200    98621376.105 7
  25131489.620        -881.090          43.600


 104592894.747 8  81500946.19748  19903365.100                    19903363.080
        10.849           8.452          49.350          49.350



 111288989.461 8  86718709.15648  21177576.560                    21177576.880
      -128.075         -99.801          49.450          48.300    83105456.010 9
  21177582.860         -95.612          54.950


 110027018.214 8  85735317.34248  20937450.480                    20937450.260
      2259.150        1760.379          49.650          48.350



 132403729.874 6 103171749.59146  25195592.880                    25195598.960
      2810.979        2190.373          40.300          39.950



 128811528.918 7 100372589.41746  24512032.080                    24512033.620
     -1343.332       -1046.754          43.450          39.400    96190408.606 7
  24512039.520       -1003.123          43.950


 124897174.672 6  97322426.47946  23767162.060                    23767164.860
     -3752.522       -2924.052          41.850          37.900



 111526090.077 8  86903462.66247  21222697.180                    21222695.460
      1015.380         791.204          51.250          47.200



 127821769.346 7  99601374.50446  24323683.660                    24323684.980
      3211.547        2502.500          43.350          39.800    95451324.924 7
  24323690.860        2398.535          46.150


 122945316.360 6  95801568.50746  23395712.640                    23395717.760
      3398.722        2648.361          41.800          41.200    91809843.288 8
  23395718.360        2538.005          48.450


 117483410.495 7  91545514.35247  22356356.560                    22356358.340
     -2555.915       -1991.626          47.650          47.550    87731117.222 8
  22356359.900       -1908.655          52.300


 135981519.099 7                  25876431.040
     -2278.763                          47.150                   101544634.717 7
  25876436.800       -1701.625          47.850   104193618.097 8  25876435.260
     -1746.072          49.900   102869125.559 8  25876436.260       -1723.846
        51.600
 125209112.850 8                  23826505.780
      2131.804                          49.950                    93500318.405 8
  23826511.100        1591.923          49.650    95939451.171 8  23826509.120
      1633.410          51.200    94719882.940 8  23826510.120        1612.638
        53.050
 122666128.738 8                  23342588.220
      -229.427                          51.900                    91601345.041 9
  23342592.720        -171.322          54.350    93990935.667 9  23342590.020
      -175.767          55.050    92796136.007 9  23342591.700        -173.559
        57.400
 146712044.242 7                  27918383.460
       428.497                          42.250                   109557705.374 7
  27918393.540         320.052          44.250   112415725.418 7  27918390.520
       328.251          44.350   110986714.546 7  27918391.780         324.122
        46.900
 138877875.007 7                  26427570.300
      3077.611                          47.100                   103707564.595 7
  26427575.680        2298.343          46.450   106412955.504 7  26427572.660
      2358.160          46.800   105060206.703 8  26427575.080        2328.211
        49.350
 126040859.230 8                  23984766.840
      1070.142                          52.350                    94121476.420 8
  23984772.160         799.131          52.700    96576816.493 8  23984769.600
       819.945          53.800    95349146.610 9  23984771.240         809.567
        55.950
 144052011.829 7                  27412200.680
     -1854.289                          44.000                   107571300.819 6
  27412206.400       -1384.510          40.200   110377498.366 6  27412205.200
     -1420.717          41.700   108974394.742 7  27412207.640       -1402.536
        43.750
 150671691.554 6                  28671871.240
     -2938.496                          39.650                   112514499.381 6
  28671880.920       -2194.628          41.100   115449649.707 6  28671878.540
     -2251.807          40.100   113982069.190 7  28671880.720       -2223.151
        43.550
 23 12 20 10 26 30.0000000  0 21G05G07G08G13G14G15G17G18G20G22G23G24
                                G30E04E05E09E15E24E31E34E36
 113568512.057 8  88494926.82548  21611377.520                    21611377.400
     -2514.984       -1959.731          50.250          50.250



 130963891.881 7 102049759.96347  24921621.500                    24921625.880
     -2997.937       -2336.059          43.150          43.300



 132102507.350 6 102937053.85246  25138269.660                    25138276.320
     -1198.296        -933.737          36.950          37.500    98648019.057 7
  25138278.640        -894.708          42.550


 104592786.748 8  81500862.01948  19903344.700                    19903342.440
        -3.368          -2.626          49.850          49.700



 111293132.912 8  86721937.76648  21178365.080                    21178365.320
      -147.921        -115.265          49.700          48.800    83108550.089 9
  21178371.500        -110.474          54.900


 109959444.748 8  85682662.73448  20924591.540                    20924591.360
      2246.029        1750.154          49.550          48.950



 132319434.954 6 103106065.26446  25179552.100                    25179557.860
      2808.985        2188.826          40.200          40.700



 128852077.967 7 100404186.01146  24519748.420                    24519750.400
     -1359.672       -1059.486          43.200          40.100    96220688.670 7
  24519755.200       -1015.497          42.850


 125009810.947 6  97410194.66346  23788596.380                    23788599.320
     -3756.077       -2926.821          41.400          38.450



 111495917.413 8  86879951.47947  21216955.420                    21216953.720
       996.438         776.443          51.150          47.050



 127725565.856 7  99526410.70646  24305376.740                    24305377.820
      3201.847        2494.942          42.750          40.050    95379484.624 7
  24305384.000        2391.026          46.250


 122843452.542 7  95722194.25946  23376328.340                    23376333.420
      3392.515        2643.522          42.700          41.900    91733776.344 8
  23376334.240        2533.291          49.000


 117560195.019 7  91605346.32447  22370968.040                    22370970.140
     -2562.902       -1997.071          46.700          46.450    87788456.162 8
  22370971.920       -1913.811          52.250


 136049965.358 7                  25889455.760
     -2284.156                          47.050                   101595747.057 7
  25889461.900       -1705.635          47.750   104246063.809 8  25889460.200
     -1750.149          49.850   102920904.584 8  25889461.200       -1727.878
        51.450
 125145224.041 8                  23814348.300
      2127.730                          49.950                    93452609.197 8
  23814353.660        1588.863          49.700    95890497.380 8  23814351.480
      1630.315          51.150    94671551.439 8  23814352.580        1609.575
        53.100
 122673148.919 8                  23343924.220
      -238.338                          52.000                    91606587.351 9
  23343928.440        -177.979          54.150    93996314.738 9  23343925.980
      -182.632          55.050    92801446.696 9  23343927.620        -180.296
        57.350
 146699420.115 6                  27915981.620
       413.244                          41.600                   109548278.205 7
  27915991.120         308.759          44.000   112406052.313 7  27915988.260
       316.657          44.050   110977164.412 7  27915989.400         312.771
        46.850
 138785623.632 7                  26410015.380
      3072.692                          47.050                   103638675.651 7
  26410020.780        2294.591          46.350   106342269.442 7  26410017.520
      2354.481          46.850   104990419.200 8  26410020.140        2324.485
        49.300
 126008966.272 8                  23978697.920
      1056.294                          52.450                    94097660.215 8
  23978703.180         788.771          52.650    96552379.002 8  23978700.700
       809.358          53.750    95325019.759 9  23978702.240         799.059
        55.900
 144107808.364 7                  27422818.660
     -1865.147                          44.550                   107612966.952 6
  27422824.420       -1392.930          39.750   110420251.456 6  27422823.440
     -1429.361          41.650   109016604.359 7  27422825.440       -1411.198
        43.600
 150759852.606 6                  28688647.700
     -2938.223                          38.350                   112580333.743 6
  28688657.580       -2194.205          40.850   115517201.517 6  28688655.300
     -2251.388          40.400   114048762.279 7  28688657.480       -2222.797
        43.600
 23 12 20 10 27  0.0000000  0 21G05G07G08G13G14G15G17G18G20G22G23G24
                                G30E04E05E09E15E24E31E34E36
 113644197.109 8  88553902.11148  21625780.040                    21625779.460
     -2530.494       -1971.816          50.400          50.300



 131053840.783 7 102119849.92147  24938738.340                    24938743.020
     -2998.662       -2336.624          42.650          42.400



 132138722.674 6 102965273.59946  25145160.980                    25145167.820
     -1215.912        -947.461          37.750          36.800    98675063.070 7
  25145169.480        -908.261          43.100


 104593102.980 8  81501108.40948  19903405.040                    19903402.600
       -17.669         -13.768          49.650          49.750



 111297866.703 8  86725626.38148  21179266.000                    21179266.080
      -167.540        -130.553          49.700          48.850    83112084.988 9
  21179272.400        -125.114          54.800


 109892258.402 8  85630309.77248  20911806.440                    20911806.120
      2233.152        1740.119          49.950          48.850



 132235187.631 6 103040418.08346  25163520.260                    25163526.040
      2807.513        2187.679          38.300          38.200



 128893115.064 7 100436162.85646  24527557.580                    24527559.860
     -1375.860       -1072.104          42.550          39.900    96251333.138 7
  24527563.900       -1027.484          42.200


 125122549.874 6  97498042.80546  23810050.140                    23810053.400
     -3759.352       -2929.379          41.400          38.500



 111466308.488 8  86856879.56547  21211320.900                    21211319.280
       977.808         761.927          50.700          47.850



 127629656.015 7  99451675.73046  24287125.660                    24287126.580
      3192.178        2487.412          42.750          41.250    95307863.590 7
  24287132.900        2383.763          46.450


 122741770.520 7  95642961.67247  23356978.740                    23356983.640
      3386.418        2638.772          42.900          42.300    91657845.158 8
  23356984.700        2528.831          48.650


 117637184.518 7  91665338.00247  22385618.380                    22385620.940
     -2569.535       -2002.239          45.900          45.950    87845948.151 8
  22385622.720       -1918.855          52.050


 136118567.421 7                  25902510.240
     -2289.300                          47.250                   101646975.758 7
  25902516.620       -1709.534          47.750   104298628.921 8  25902514.680
     -1754.112          49.700   102972801.494 8  25902515.780       -1731.846
        51.600
 125081453.873 8                  23802213.240
      2123.797                          49.900                    93404988.599 8
  23802218.880        1585.906          49.850    95841634.514 8  23802216.400
      1627.300          51.250    94623309.709 8  23802217.640        1606.604
        53.400
 122680433.260 8                  23345310.440
      -247.163                          52.000                    91612026.913 9
  23345314.500        -184.525          54.000    94001896.206 9  23345312.280
      -189.354          55.300    92806957.211 9  23345313.820        -186.959
        57.600
 146687245.070 6                  27913664.960
       398.241                          41.100                   109539186.404 7
  27913674.340         297.457          43.550   112396723.337 7  27913671.700
       305.262          44.550   110967954.024 7  27913672.580         301.389
        46.850
 138693515.267 7                  26392487.700
      3067.906                          47.350                   103569893.488 7
  26392493.260        2290.951          46.500   106271692.959 7  26392489.780
      2350.820          47.100   104920739.878 8  26392492.480        2320.848
        49.700
 125977484.942 8                  23972707.340
      1042.589                          52.350                    94074151.396 8
  23972712.480         778.525          52.600    96528256.907 8  23972710.060
       798.843          53.850    95301204.305 9  23972711.560         788.702
        56.100
 144163931.189 7                  27433498.760
     -1876.165                          45.600                   107654876.746 6
  27433504.180       -1401.144          39.500   110463254.545 7  27433503.860
     -1437.532          42.300   109059060.790 7  27433505.360       -1419.266
        43.850
 150847994.462 6                  28705420.700
     -2937.688                          40.600                   112646153.825 7
  28705430.740       -2193.866          42.800   115584738.659 7  28705428.160
     -2250.962          42.000   114115440.895 7  28705430.540       -2222.342
        45.450
 23 12 20 10 27 30.0000000  0 21G05G07G08G13G14G15G17G18G20G22G23G24
                                G30E04E05E09E15E24E31E34E36
 113720342.835 8  88613236.35348  21640270.100                    21640269.380
     -2546.434       -1984.237          50.200          50.200



 131143817.141 6 102189961.25746  24955860.440                    24955865.340
     -3000.075       -2337.725          41.700          41.500



 132175470.204 6 102993908.13346  25152154.000                    25152160.520
     -1234.296        -961.783          39.850          39.350    98702504.437 7
  25152162.080        -921.673          43.550


 104593840.916 8  81501683.40248  19903545.500                    19903543.120
       -32.102         -25.015          49.500          49.350



 111303187.353 8  86729772.28148  21180278.620                    21180278.520
      -187.588        -146.175          49.800          48.300    83116058.122 9
  21180284.920        -140.091          54.650


 109825458.002 8  85578257.55348  20899094.800                    20899094.440
      2219.698        1729.637          50.400          49.000



 132150987.420 6 102974807.62146  25147497.360                    25147502.980
      2805.361        2185.995          38.450          38.850



 128934634.789 6 100468515.80446  24535458.460                    24535460.740
     -1392.592       -1085.140          41.300          39.950    96282338.041 6
  24535464.760       -1039.839          41.750


 125235385.097 6  97585966.06346  23831522.380                    23831525.460
     -3763.117       -2932.309          41.200          38.200



 111437261.135 8  86834245.24047  21205793.200                    21205791.860
       958.317         746.739          50.600          47.950



 127534039.299 7  99377169.18646  24268930.280                    24268931.320
      3181.842        2479.359          42.050          41.550    95236461.489 7
  24268937.560        2376.054          46.600


 122640268.325 7  95563869.20447  23337663.280                    23337668.140
      3379.869        2633.670          42.100          42.400    91582048.251 8
  23337669.460        2523.994          48.900


 117714374.325 7  91725485.78347  22400307.100                    22400309.780
     -2576.787       -2007.891          46.200          46.100    87903589.741 8
  22400311.260       -1924.197          51.650


 136187321.688 7                  25915593.880
     -2294.784                          47.500                   101698318.115 7
  25915600.300       -1713.567          47.650   104351310.655 8  25915598.120
     -1758.334          49.350   103024813.537 8  25915599.360       -1735.956
        51.450
 125017799.981 8                  23790100.280
      2119.280                          50.050                    93357454.834 8
  23790106.260        1582.656          50.100    95792860.748 8  23790103.400
      1623.915          51.050    94575155.947 8  23790104.780        1603.285
        53.550
 122687978.931 8                  23346746.380
      -256.340                          51.850                    91617661.626 8
  23346750.440        -191.417          53.850    94007677.918 9  23346748.280
      -196.392          55.300    92812665.425 9  23346749.740        -193.907
        57.600
 146675516.125 6                  27911432.500
       383.252                          40.600                   109530427.704 7
  27911442.320         285.987          43.500   112387736.153 7  27911439.820
       293.563          44.350   110959081.080 7  27911440.740         289.767
        46.750
 138601548.200 7                  26374987.000
      3062.774                          47.400                   103501216.831 7
  26374992.720        2287.136          46.500   106201224.737 7  26374988.780
      2346.729          46.900   104851167.440 8  26374991.720        2316.908
        49.650
 125946412.419 8                  23966794.580
      1028.453                          52.600                    94050947.858 8
  23966799.540         767.995          52.400    96504448.059 8  23966797.200
       788.049          53.900    95277698.113 9  23966798.660         778.004
        56.150
 144220375.239 7                  27444240.000
     -1887.292                          46.100                   107697026.398 6
  27444245.600       -1409.268          39.350   110506503.769 7  27444245.380
     -1446.017          42.350   109101760.234 7  27444246.360       -1427.667
        43.900
 150936111.830 6                  28722188.760
     -2937.172                          39.000                   112711955.547 6
  28722199.580       -2193.452          40.350   115652256.986 7  28722196.740
     -2250.580          42.250   114182100.921 7  28722198.960       -2222.076
        44.200
 23 12 20 10 28  0.0000000  0 21G05G07G08G13G14G15G17G18G20G22G23G24
                                G30E04E05E09E15E24E31E34E36
 113796952.726 8  88672932.29848  21654848.420                    21654847.360
     -2561.231       -1995.767          49.750          49.800



 131233825.556 6 102260097.55646  24972988.360                    24972993.740
     -3000.692       -2338.206          41.450          40.950



 132212754.268 6 103022960.71046  25159249.380                    25159255.740
     -1251.581        -975.258          36.700          37.500    98730346.523 7
  25159256.680        -934.600          42.300


 104595006.309 8  81502591.46648  19903767.340                    19903764.860
       -45.935         -35.795          49.300          49.400



 111309100.124 8  86734379.56848  21181403.820                    21181403.640
      -206.814        -161.156          49.500          48.100    83120473.419 9
  21181410.040        -154.466          54.750


 109759051.104 8  85526511.96348  20886458.080                    20886457.700
      2207.050        1719.780          50.350          48.950



 132066842.751 6 102909240.48846  25131484.620                    25131490.920
      2803.831        2184.809          37.300          37.850



 128976640.705 6 100501247.58046  24543451.720                    24543454.160
     -1408.120       -1097.241          41.100          40.200    96313706.005 6
  24543458.520       -1051.552          41.950


 125348319.383 6  97673966.48046  23853013.420                    23853016.240
     -3765.932       -2934.503          40.950          38.000



 111408781.720 8  86812053.45947  21200373.640                    21200372.500
       939.957         732.433          50.150          47.800



 127438724.162 7  99302897.64946  24250792.220                    24250793.300
      3172.227        2471.867          42.550          41.000    95165284.599 7
  24250799.620        2368.864          46.850


 122538952.794 7  95484922.20146  23318383.340                    23318388.320
      3373.999        2629.096          42.450          41.600    91506390.745 8
  23318389.720        2519.647          49.200


 117791768.693 7  91785792.95347  22415034.780                    22415037.600
     -2583.077       -2012.792          45.950          45.800    87961384.084 8
  22415038.680       -1928.918          51.900


 136256233.487 7                  25928707.440
     -2299.383                          47.050                   101749778.109 8
  25928713.980       -1717.123          48.100   104404113.098 8  25928711.460
     -1761.929          49.000   103076944.757 8  25928712.940       -1739.556
        51.350
 124954268.872 8                  23778010.660
      2115.726                          49.750                    93310012.773 8
  23778016.980        1579.964          50.650    95744181.070 8  23778013.680
      1621.172          50.850    94527095.076 8  23778015.260        1600.586
        53.600
 122695791.994 8                  23348233.240
      -264.818                          51.800                    91623496.021 9
  23348237.180        -197.710          54.050    94013664.517 9  23348235.160
      -202.851          55.300    92818575.923 9  23348236.560        -200.277
        57.550
 146664239.181 6                  27909286.020
       368.399                          39.800                   109522006.563 7
  27909296.580         275.152          43.900   112379095.347 7  27909294.020
       282.297          44.500   110950550.105 7  27909294.800         278.749
        46.950
 138509729.656 7                  26357514.500
      3058.303                          47.500                   103432651.070 7
  26357520.360        2283.827          46.700   106130870.290 7  26357516.060
      2343.347          46.850   104781707.340 8  26357519.140        2313.531
        49.600
 125915754.829 8                  23960960.760
      1015.107                          52.200                    94028054.173 8
  23960965.520         758.024          52.700    96480957.152 8  23960963.280
       777.817          53.850    95254505.811 9  23960964.700         767.914
        56.100
 144277144.349 7                  27455043.040
     -1897.591                          46.200                   107739418.805 6
  27455048.880       -1417.095          40.150   110550002.074 7  27455048.600
     -1453.860          42.200   109144705.592 7  27455049.220       -1435.501
        43.950
 151024208.443 6                  28738953.040
     -2936.082                          38.200                   112777741.845 6
  28738964.300       -2192.519          40.150   115719759.428 6  28738961.140
     -2249.649          40.150   114248745.285 7  28738963.160       -2221.036
        43.000
 23 12 20 10 28 30.0000000  0 21G05G07G08G13G14G15G17G18G20G22G23G24
                                G30E04E05E09E15E24E31E34E36
 113874025.654 8  88732989.04548  21669514.860                    21669513.740
     -2576.437       -2007.614          50.150          50.400



 131323865.881 6 102330258.77246  24990122.280                    24990128.020
     -3001.491       -2338.825          40.700          39.900



 132250574.475 6 103052431.04946  25166445.900                    25166452.580
     -1269.316        -989.073          37.750          37.850    98758588.915 7
  25166452.840        -947.758          42.150


 104596600.561 8  81503833.71948  19904070.780                    19904068.300
       -60.020         -46.769          50.050          50.050



 111315605.385 8  86739448.53948  21182641.720                    21182641.600
      -226.326        -176.360          49.450          48.800    83125331.162 9
  21182647.820        -169.019          54.700


 109693040.959 8  85475075.53148  20873896.840                    20873896.380
      2194.050        1709.650          50.650          49.200



 131982757.417 6 102843719.53746  25115483.480                    25115490.160
      2802.154        2183.499          38.550          38.900



 129019131.474 6 100534357.18246  24551537.380                    24551539.740
     -1423.937       -1109.564          41.800          38.750    96345436.022 7
  24551544.980       -1063.476          42.600


 125461350.748 6  97762042.53646  23874522.800                    23874525.660
     -3768.976       -2936.875          41.800          38.600



 111380872.011 8  86790305.61148  21195062.560                    21195061.600
       921.233         717.844          50.400          48.000



 127343714.135 7  99228863.87046  24232712.200                    24232713.500
      3162.014        2463.907          42.550          41.300    95094335.557 7
  24232719.760        2361.449          46.750


 122437825.816 7  95406122.12847  23299139.320                    23299144.200
      3368.146        2624.537          43.100          42.200    91430874.056 8
  23299145.820        2515.130          49.200


 117869367.080 7  91846259.09847  22429801.160                    22429804.300
     -2589.715       -2017.964          46.200          46.150    88019330.764 8
  22429804.920       -1933.791          51.850


 136325303.272 7                  25941851.100
     -2304.541                          46.550                   101801356.066 7
  25941857.580       -1720.951          47.900   104457036.587 8  25941854.860
     -1765.794          49.000   103129195.480 8  25941856.680       -1743.372
        51.400
 124890862.221 8                  23765944.640
      2111.784                          49.900                    93262663.656 8
  23765951.260        1576.968          50.750    95695596.757 8  23765947.640
      1618.122          50.600    94479128.360 8  23765949.380        1597.583
        53.650
 122703873.661 8                  23349771.140
      -273.506                          52.250                    91629530.993 9
  23349774.960        -204.217          54.000    94019856.930 9  23349773.120
      -209.576          55.300    92824689.615 9  23349774.480        -206.927
        57.650
 146653415.293 6                  27907226.180
       353.531                          39.550                   109513923.718 7
  27907236.860         264.070          44.050   112370801.654 7  27907234.280
       270.959          44.400   110942361.836 7  27907235.200         267.509
        47.150
 138418061.976 8                  26340070.740
      3053.484                          48.050                   103364197.952 7
  26340076.660        2280.135          46.700   106060631.437 7  26340072.360
      2339.778          46.850   104712361.349 8  26340075.320        2309.933
        49.700
 125885513.434 8                  23955206.080
      1001.442                          52.700                    94005471.294 8
  23955210.760         747.827          52.700    96457785.150 8  23955208.540
       767.325          53.800    95231628.377 9  23955209.940         757.591
        56.150
 144334237.495 7                  27465907.720
     -1908.142                          46.700                   107782053.176 6
  27465914.080       -1424.767          40.800   110593748.679 7  27465913.480
     -1462.131          42.350   109187896.075 7  27465913.780       -1443.383
        44.400
 151112282.911 6                  28755712.800
     -2934.961                          39.700                   112843511.528 6
  28755724.580       -2191.851          38.500   115787244.887 6  28755721.320
     -2249.012          39.200   114315372.847 6  28755723.380       -2220.200
        41.850
 23 12 20 10 29  0.0000000  0 21G05G07G08G13G14G15G17G18G20G22G23G24
                                G30E04E05E09E15E24E31E34E36
 113951550.057 8  88793397.59848  21684267.200                    21684266.020
     -2591.587       -2019.421          49.950          50.000



 131413929.493 6 102400438.08946  25007260.620                    25007266.700
     -3002.412       -2339.544          40.750          40.200



 132288921.774 6 103082312.10145  25173743.000                    25173750.040
     -1287.001       -1002.855          36.050          35.350    98787224.942 7
  25173749.640        -961.028          43.200


 104598616.582 8  81505404.62248  19904454.460                    19904452.180
       -74.200         -57.818          49.850          49.850



 111322695.127 8  86744972.93948  21183990.780                    21183990.820
      -245.873        -191.591          48.800          48.250    83130625.365 9
  21183996.720        -183.683          54.450


 109627421.586 8  85423943.59948  20861409.960                    20861409.320
      2180.880        1699.389          51.150          48.750



 131898726.481 6 102778240.90846  25099492.940                    25099499.240
      2800.424        2182.144          39.750          39.300



 129062097.304 7 100567836.95546  24559713.640                    24559715.600
     -1440.084       -1122.146          43.050          36.850    96377520.775 7
  24559721.960       -1075.278          42.950


 125574468.852 6  97850186.18846  23896048.780                    23896051.800
     -3772.151       -2939.350          41.150          37.850



 111353524.885 8  86768996.14047  21189858.600                    21189857.860
       902.335         703.117          50.650          47.850



 127249004.281 7  99155064.02246  24214689.380                    24214690.580
      3152.310        2456.348          42.300          40.850    95023610.736 7
  24214697.060        2353.829          46.700


 122336880.994 7  95327463.98147  23279930.140                    23279934.960
      3361.950        2619.707          43.400          42.250    91355493.365 8
  23279936.600        2510.480          48.900


 117947160.352 7  91906877.10547  22444604.900                    22444608.080
     -2596.050       -2022.899          47.150          47.250    88077423.003 8
  22444608.220       -1938.696          51.950


 136394523.033 7                  25955023.160
     -2309.644                          45.950                   101853046.019 7
  25955029.820       -1724.758          47.850   104510074.992 8  25955026.880
     -1769.794          48.700   103181559.660 8  25955028.940       -1747.307
        51.500
 124827573.236 8                  23753900.980
      2107.779                          50.050                    93215402.412 8
  23753907.740        1574.049          50.700    95647102.613 8  23753903.900
      1615.045          50.100    94431250.665 8  23753905.860        1594.550
        53.650
 122712216.686 8                  23351358.760
      -282.344                          52.400                    91635761.137 9
  23351362.560        -210.850          54.100    94026249.602 9  23351360.820
      -216.354          55.150    92831001.024 9  23351362.160        -213.602
        57.800
 146643036.968 6                  27905251.140
       338.561                          40.950                   109506173.629 7
  27905261.880         252.860          43.650   112362849.397 7  27905259.280
       259.469          43.950   110934510.665 7  27905260.380         256.156
        47.000
 138326539.038 7                  26322654.440
      3048.400                          47.350                   103295852.907 7
  26322660.600        2276.434          46.850   105990503.491 7  26322656.120
      2335.758          46.600   104643124.853 8  26322659.140        2306.066
        49.950
 125855681.058 8                  23949529.160
       987.704                          52.800                    93983193.858 8
  23949533.840         737.594          52.750    96434926.568 8  23949531.620
       756.814          53.650    95209060.364 9  23949533.040         747.228
        56.350
 144391645.226 7                  27476832.180
     -1918.682                          46.900                   107824922.468 6
  27476839.260       -1432.860          41.300   110637736.315 6  27476838.100
     -1470.246          41.900   109231324.548 7  27476838.240       -1451.622
        44.800
 151200325.843 6                  28772466.960
     -2934.211                          38.850                   112909257.709 6
  28772478.680       -2190.992          39.750   115854706.153 6  28772475.400
     -2248.031          38.600   114381976.599 7  28772477.560       -2219.664
        42.500
 23 12 20 10 29 30.0000000  0 21G05G07G08G13G14G15G17G18G20G22G23G24
                                G30E04E05E09E15E24E31E34E36
 114029528.233 8  88854159.73348  21699106.020                    21699104.800
     -2606.748       -2031.235          50.300          50.300



 131504019.887 6 102470638.28846  25024404.360                    25024410.560
     -3003.175       -2340.140          41.150          41.200



 132327799.402 6 103112606.39546  25181141.120                    25181148.180
     -1304.647       -1016.607          38.000          38.300    98816256.996 7
  25181148.120        -974.352          42.700


 104601058.371 8  81507307.28848  19904919.140                    19904916.920
       -88.554         -69.003          50.000          49.900



 111330372.970 8  86750955.59448  21185451.700                    21185451.960
      -265.729        -207.065          48.950          48.200    83136358.735 9
  21185457.540        -198.471          54.250


 109562198.745 8  85373120.62548  20848998.560                    20848997.620
      2167.467        1688.936          51.300          48.550



 131814756.947 6 102712810.05947  25083514.340                    25083520.480
      2797.801        2180.099          41.550          42.050



 129105540.044 7 100601688.35346  24567980.820                    24567982.400
     -1456.111       -1134.635          44.200          36.350    96409961.704 7
  24567989.760       -1087.348          43.150


 125687674.978 6  97938398.44446  23917591.560                    23917594.400
     -3775.018       -2941.579          41.950          37.850



 111326745.222 8  86748128.85647  21184762.700                    21184762.000
       883.121         688.146          51.050          47.600



 127154601.420 7  99081503.42846  24196724.980                    24196726.360
      3141.639        2448.035          42.900          39.900    94953115.168 7
  24196732.720        2345.965          46.650


 122236123.597 7  95248951.85546  23260756.680                    23260761.200
      3355.409        2614.608          44.200          41.200    91280252.625 8
  23260763.020        2505.618          49.000


 118025151.211 7  91967649.08847  22459446.320                    22459449.340
     -2602.978       -2028.299          47.900          47.700    88135662.782 8
  22459449.660       -1943.810          51.850


 136463896.535 7                  25968224.320
     -2314.999                          45.400                   101904850.774 7
  25968231.120       -1728.807          47.550   104563231.189 8  25968228.380
     -1773.959          48.850   103234040.136 8  25968230.420       -1751.405
        51.150
 124764406.905 8                  23741880.780
      2103.425                          50.400                    93168232.776 8
  23741887.360        1570.758          50.250    95598702.452 8  23741883.420
      1611.682          49.850    94383465.770 8  23741885.680        1591.222
        53.100
 122720825.559 8                  23352997.080
      -291.403                          52.600                    91642189.799 9
  23353000.960        -217.634          54.200    94032845.973 9  23352999.080
      -223.313          55.150    92837513.537 9  23353000.360        -220.449
        57.600
 146633108.582 6                  27903361.820
       323.251                          40.900                   109498759.489 7
  27903372.320         241.544          43.700   112355241.856 7  27903369.800
       247.775          44.000   110926999.823 7  27903371.140         244.631
        46.750
 138235166.478 7                  26305266.680
      3043.149                          47.550                   103227620.145 7
  26305273.140        2272.500          46.850   105920490.723 7  26305268.440
      2331.818          46.850   104574002.085 8  26305271.460        2302.188
        49.800
 125826262.155 8                  23943930.900
       973.745                          52.650                    93961225.193 8
  23943935.680         727.111          52.700    96412384.811 8  23943933.360
       746.065          53.700    95186805.153 9  23943934.820         736.602
        56.100
 144449369.770 7                  27487816.800
     -1929.421                          46.700                   107868028.305 6
  27487824.780       -1440.748          41.600   110681966.681 7  27487822.760
     -1478.317          42.350   109274992.653 7  27487823.100       -1459.602
        44.800
 151288339.124 6                  28789215.500
     -2933.461                          39.400                   112974981.679 7
  28789227.600       -2190.467          42.600   115922144.754 6  28789223.520
     -2247.561          40.850   114448557.870 7  28789226.080       -2219.049
        44.750
 23 12 20 10 30  0.0000000  0 21G05G07G08G13G14G15G17G18G20G22G23G24
                                G30E04E05E09E15E24E31E34E36
 114107956.711 8  88915272.75848  21714030.520                    21714029.420
     -2621.980       -2043.104          50.200          50.200



 131594134.909 7 102540857.68347  25041553.020                    25041559.140
     -3004.381       -2341.078          42.800          42.900



 132367204.703 5 103143311.81445  25188639.660                    25188646.580
     -1322.322       -1030.382          35.050          34.600    98845683.062 7
  25188646.900        -987.748          42.350


 104603925.555 8  81509541.43748  19905464.780                    19905462.560
      -102.946         -80.219          50.250          50.150



 111338637.299 8  86757395.26648  21187024.320                    21187024.740
      -285.451        -222.432          48.600          48.400    83142530.073 9
  21187029.980        -213.232          54.000


 109497373.668 8  85322607.59648  20836662.740                    20836661.660
      2153.995        1678.438          50.550          48.850



 131730850.458 6 102647428.32046  25067547.720                    25067553.640
      2795.452        2178.269          40.300          40.100



 129149456.385 7 100635908.78945  24576338.220                    24576339.400
     -1472.002       -1147.018          43.850          35.150    96442756.275 7
  24576347.500       -1099.308          43.250


 125800965.279 7  98026676.27746  23939150.180                    23939153.180
     -3778.176       -2944.045          42.300          38.850



 111300532.320 8  86727703.20947  21179774.620                    21179773.920
       864.066         673.298          51.050          47.700



 127060507.120 7  99008183.23346  24178819.220                    24178820.780
      3131.313        2439.982          42.450          39.900    94882850.011 7
  24178827.100        2338.105          46.250


 122135553.654 7  95170585.81747  23241618.880                    23241623.380
      3349.190        2609.763          43.750          42.900    91205151.879 8
  23241625.120        2500.831          48.300


 118103337.132 8  92028573.05948  22474324.880                    22474327.740
     -2609.639       -2033.489          48.100          48.100    88194048.221 8
  22474328.160       -1948.805          51.650


 136533422.291 7                  25981454.500
     -2320.337                          45.200                   101956769.203 7
  25981461.460       -1732.695          47.000   104616504.036 8  25981458.800
     -1777.979          49.100   103286635.774 8  25981460.860       -1755.385
        50.900
 124701362.954 8                  23729883.880
      2099.195                          50.000                    93121154.528 8
  23729890.080        1567.579          49.950    95550396.066 8  23729886.180
      1608.469          49.600    94335773.449 8  23729888.800        1588.030
        52.750
 122729699.512 8                  23354685.920
      -300.568                          52.750                    91648816.405 9
  23354689.940        -224.405          54.350    94039645.448 9  23354687.700
      -230.291          55.050    92844226.582 9  23354689.020        -227.348
        57.600
 146623629.153 7                  27901557.980
       308.137                          42.050                   109491680.582 7
  27901568.380         230.286          43.500   112347978.294 7  27901565.680
       236.103          44.000   110919828.586 7  27901567.280         233.249
        46.700
 138143944.675 7                  26287907.560
      3037.831                          46.700                   103159499.950 7
  26287914.300        2268.571          46.650   105850593.495 7  26287909.780
      2327.660          47.100   104504993.377 8  26287912.500        2298.141
        49.750
 125797256.020 8                  23938411.100
       959.692                          52.350                    93939564.756 8
  23938416.080         716.621          52.700    96390159.317 8  23938413.620
       735.349          53.650    95164862.188 9  23938415.160         725.959
        56.050
 144507408.103 7                  27498861.160
     -1940.081                          46.800                   107911368.493 6
  27498869.700       -1448.945          41.400   110726437.516 7  27498866.900
     -1486.663          42.050   109318898.158 7  27498867.660       -1467.834
        44.700
 151376319.700 6                  28805957.980
     -2932.765                          39.500                   113040681.240 7
  28805970.260       -2189.768          42.000   115989558.247 6  28805965.920
     -2246.873          41.900   114515114.396 7  28805968.520       -2218.300
        44.800
 23 12 20 10 30 30.0000000  0 21G05G07G08G13G14G15G17G18G20G22G23G24
                                G30E04E05E09E15E24E31E34E36
 114186834.575 8  88976735.96048  21729040.540                    21729039.620
     -2636.752       -2054.614          50.200          50.250



 131684275.667 7 102611097.15347  25058706.640                    25058712.600
     -3005.127       -2341.659          42.850          42.650



 132407138.280 6 103174428.91846  25196238.500                    25196245.740
     -1339.589       -1043.838          37.800          38.250    98875503.590 7
  25196246.160       -1000.606          44.150


 104607220.433 8  81512108.86048  19906091.820                    19906089.680
      -117.062         -91.218          50.250          50.100



 111347489.551 8  86764293.05748  21188708.840                    21188709.340
      -304.854        -237.551          48.900          48.350    83149140.446 9
  21188714.380        -227.704          54.150


 109432950.314 8  85272407.59948  20824403.240                    20824402.240
      2140.647        1668.038          50.550          49.250



 131647011.851 6 102582099.35146  25051594.100                    25051599.880
      2793.346        2176.626          40.950          41.200



 129193846.027 7 100670498.01645  24584785.560                    24584786.460
     -1487.502       -1159.099          43.950          35.200    96475904.243 7
  24584794.940       -1110.751          43.800


 125914338.720 6  98115018.95846  23960724.660                    23960728.040
     -3780.631       -2945.956          41.550          38.500



 111274888.931 8  86707721.34447  21174894.900                    21174894.120
       845.262         658.646          51.400          47.050



 126966725.959 7  98935107.04446  24160973.160                    24160974.700
      3120.954        2431.915          42.700          38.900    94812818.674 7
  24160980.940        2330.429          46.350


 122035174.236 7  95092368.22047  23222517.360                    23222521.600
      3342.669        2604.681          43.600          43.000    91130193.368 8
  23222523.280        2496.180          48.600


 118181718.603 8  92089649.41048  22489240.640                    22489243.420
     -2616.030       -2038.469          48.600          48.600    88252579.701 8
  22489244.000       -1953.570          51.750


 136603101.754 7                  25994714.140
     -2325.154                          45.750                   102008802.447 7
  25994720.780       -1736.397          46.950   104669894.667 8  25994718.600
     -1781.682          48.950   103339347.709 8  25994720.480       -1759.053
        50.650
 124638444.104 8                  23717910.800
      2095.124                          49.900                    93074169.692 8
  23717916.580        1564.544          50.050    95502185.541 8  23717912.680
      1605.362          49.100    94288175.769 8  23717915.700        1584.954
        52.400
 122738840.819 8                  23356425.680
      -309.268                          52.950                    91655642.669 9
  23356429.820        -230.920          54.800    94046649.793 9  23356427.100
      -236.984          54.800    92851141.882 9  23356428.580        -233.915
        57.500
 146614600.684 7                  27899840.520
       293.312                          42.650                   109484938.481 7
  27899850.420         219.073          43.800   112341060.310 7  27899847.440
       224.855          43.850   110912998.544 7  27899849.340         221.965
        46.550
 138052877.025 7                  26270577.660
      3032.888                          47.150                   103091494.858 7
  26270584.660        2264.917          47.050   105780814.356 7  26270580.320
      2323.967          46.700   104436101.264 8  26270582.980        2294.388
        49.650
 125768664.909 8                  23932970.220
       946.059                          52.600                    93918214.251 8
  23932975.520         706.459          53.200    96368251.846 8  23932972.860
       724.891          53.550    95143233.201 9  23932974.480         715.660
        56.100
 144565760.301 7                  27509965.180
     -1950.365                          46.350                   107954943.055 6
  27509974.100       -1456.427          41.950   110771148.806 7  27509970.920
     -1494.320          42.100   109363041.085 7  27509971.920       -1475.429
        44.800
 151464267.475 6                  28822694.260
     -2930.804                          37.650                   113106356.330 6
  28822706.240       -2188.729          41.700   116056946.622 7  28822702.020
     -2245.862          42.000   114581646.121 7  28822704.660       -2217.240
        44.750
