     2.11           OBSERVATION DATA    M (MIXED)           RINEX VERSION / TYPE
teqc  2019Feb25                         20231227 23:06:00UTCPGM / RUN BY / DATE
Linux 2.6.32-573.12.1.x86_64|x86_64|gcc|Linux 64|=+         COMMENT
teqc  2019Feb25                         20231227 23:06:00UTCCOMMENT
teqc  2019Feb25     IGN-RGP             20231227 17:02:20UTCCOMMENT
teqc  2019Feb25     Administrateur RGP  20231227 17:02:20UTCCOMMENT
teqc  2019Feb25     IGN-RGP             20231227 17:02:17UTCCOMMENT
teqc  2019Feb25     IGN-RGP             20231227 17:02:15UTCCOMMENT
BIT 2 OF LLI FLAGS DATA COLLECTED UNDER A/S CONDITION       COMMENT
IGNF                                                        MARKER NAME
10001M009                                                   MARKER NUMBER
Automatic           IGN                                     OBSERVER / AGENCY
1834194             LEICA GR50          4.51                REC # / TYPE / VERS
5000113963          TRM57971.00     NONE                    ANT # / TYPE
  4201694.1440   177888.8370  4779371.7670                  APPROX POSITION XYZ
        0.0000        0.0000        0.0000                  ANTENNA: DELTA H/E/N
     1     1                                                WAVELENGTH FACT L1/2
    21    L1    L2    C1    P1    P2    D1    D2    S1    S2# / TYPES OF OBSERV
          L5    C5    D5    S5    L7    C7    D7    S7    L8# / TYPES OF OBSERV
          C8    D8    S8                                    # / TYPES OF OBSERV
    30.0000                                                 INTERVAL
DefaultJobName                                              COMMENT
DefaultUserDiscription                                      COMMENT
Project creator:                                            COMMENT
 SNR is mapped to RINEX snr flag value [0-9]                COMMENT
  L1 & L2: min(max(int(snr_dBHz/6), 0), 9)                  COMMENT
    18                                                      LEAP SECONDS
Forced Modulo Decimation to 30 seconds                      COMMENT
teqc_2019 edited: all GLONASS satellites excluded           COMMENT
teqc_2019 edited: all SBAS satellites excluded              COMMENT
  2023    12    27    16     0    0.0000000     GPS         TIME OF FIRST OBS
                                                            END OF HEADER
 23 12 27 16  0  0.0000000  0 19G06G11G12G24G25G26G28G29G31G32E03E05
                                E08E10E11E12E24E25E33
 127811807.730 6  99593666.92946  24321764.160                    24321765.700
     -2322.957       -1810.095          41.750          41.050    95443952.608 7
  24321765.700       -1734.555          43.200


 121646288.280 7  94789351.48547  23148500.620                    23148499.380
      -416.068        -324.207          46.150          43.850    90839824.283 8
  23148504.000        -310.550          48.950


 115898161.863 8  90310307.87948  22054663.480                    22054660.320
     -2666.045       -2077.437          50.300          50.200



 136809793.564 6 106605046.01346  26034040.380                    26034043.640
     -3811.197       -2969.771          36.650          37.500   102163197.543 6
  26034045.620       -2846.098          38.900


 104852255.304 8  81703096.88448  19952707.340                    19952706.600
      -815.332        -635.323          51.350          51.350    78298962.699 9
  19952708.440        -608.815          56.050


 132251202.494 6 103052917.55746  25166564.000                    25166572.180
      3366.791        2623.483          40.400          38.650    98759053.271 7
  25166571.700        2514.288          43.850


 112073361.315 8  87329902.48647  21326833.480                    21326832.260
      1964.388        1530.692          48.900          47.600    83691212.114 8
  21326835.920        1466.915          53.250


 110588260.193 8  86172774.05148  21044202.640                    21044199.960
      1963.330        1529.868          50.150          50.300



 120503081.633 7  93898542.51847  22930957.000                    22930954.420
      3057.758        2382.671          46.100          43.350



 121559096.171 7  94721415.11747  23131918.960                    23131920.520
     -2543.788       -1982.173          47.800          42.750    90774688.451 7
  23131920.520       -1899.472          47.050


 134577897.430 8                  25609312.320
     -1251.272                          50.150                   100496536.392 8
  25609314.720        -934.409          48.000   103118174.269 7  25609311.180
      -958.744          47.200   101807355.478 8  25609314.280        -946.529
        50.700
 134078231.025 7                  25514237.880
     -3003.627                          42.900                   100123380.743 7
  25514244.980       -2243.068          44.550   102735284.320 7  25514244.800
     -2301.504          46.100   101429331.679 8  25514245.180       -2272.217
        48.250
 142396626.283 7                  27097171.260
      1271.802                          44.750                   106335180.152 7
  27097174.780         949.729          44.550   109109123.481 7  27097173.320
       974.533          45.950   107722148.966 8  27097174.320         962.158
        48.150
 135659242.551 8                  25815080.060
      2459.962                          48.200                   101304049.015 7
  25815083.320        1836.944          47.400   103946740.601 8  25815081.140
      1884.957          49.000   102625395.458 8  25815082.940        1860.950
        51.150
 136390497.171 6                  25954246.940
      3179.332                          40.950                   101850062.235 6
  25954249.080        2374.147          41.600   104507009.253 6  25954247.000
      2436.007          41.150   103178534.899 7  25954248.180        2405.063
        44.400
 133852578.023 7                  25471284.940
      1317.703                          47.400                    99954890.558 7
  25471284.980         983.911          46.000   102562396.183 7  25471282.820
      1009.599          46.900   101258650.525 8  25471284.180         996.747
        49.400
 126154740.108 8                  24006423.780
     -1170.239                          52.700                    94206530.798 8
  24006425.140        -873.827          53.100    96664091.508 8  24006422.260
      -896.622          53.000    95435314.308 9  24006424.300        -885.246
        56.100
 125990323.317 8                  23975139.960
      1264.035                          53.050                    94083802.133 8
  23975143.480         943.960          53.650    96538137.464 8  23975140.460
       968.563          53.050    95310964.453 9  23975142.080         956.234
        56.350
 141197903.792 7                  26869050.220
     -1528.763                          44.050                   105440059.725 7
  26869054.080       -1141.580          44.350   108190640.977 7  26869052.700
     -1171.468          44.850   106815352.991 7  26869051.760       -1156.435
        47.400
 23 12 27 16  0 30.0000000  0 19G06G11G12G24G25G26G28G29G31G32E03E05
                                E08E10E11E12E24E25E33
 127881727.890 6  99648150.22247  24335069.460                    24335071.240
     -2337.747       -1821.616          41.700          42.000    95496165.775 7
  24335070.180       -1745.604          43.300


 121659069.325 7  94799310.77647  23150932.760                    23150931.420
      -435.771        -339.560          45.300          44.050    90849368.619 8
  23150935.800        -325.278          49.000


 115978257.792 8  90372720.30348  22069905.080                    22069901.720
     -2673.178       -2082.996          49.600          49.650



 136924126.301 5 106694136.17946  26055797.480                    26055800.300
     -3810.154       -2968.961          34.300          36.000   102248575.485 6
  26055802.840       -2845.145          37.150


 104876918.928 8  81722315.29248  19957400.480                    19957399.940
      -828.487        -645.574          50.650          50.750    78317380.338 9
  19957401.660        -618.583          55.850


 132150212.089 6 102974224.06646  25147345.880                    25147354.180
      3365.938        2622.817          39.650          37.900    98683638.767 7
  25147353.580        2513.698          44.400


 112014659.403 8  87284160.75748  21315662.860                    21315661.640
      1949.584        1519.157          48.650          48.450    83647376.304 8
  21315665.460        1455.912          53.200


 110529606.243 8  86127069.71048  21033041.040                    21033038.600
      1947.611        1517.620          49.900          50.050



 120411492.984 7  93827174.81147  22913528.340                    22913525.520
      3048.652        2375.577          46.300          43.750



 121635595.480 7  94781024.96647  23146476.400                    23146477.620
     -2555.638       -1991.405          47.650          43.550    90831814.552 7
  23146477.980       -1908.391          47.350


 134615640.356 8                  25616494.580
     -1264.350                          50.100                   100524721.033 8
  25616496.940        -944.117          48.100   103147094.172 7  25616493.220
      -968.759          47.250   101835907.757 8  25616496.560        -956.446
        50.550
 134168391.484 7                  25531394.920
     -3006.320                          42.600                   100190708.321 7
  25531402.220       -2245.044          44.300   102804368.279 7  25531401.680
     -2303.575          46.250   101497537.460 7  25531402.260       -2274.341
        47.900
 142358679.257 7                  27089950.540
      1258.706                          45.050                   106306843.120 7
  27089953.960         939.957          44.650   109080047.225 7  27089952.240
       964.366          46.300   107693442.325 8  27089953.100         952.130
        48.000
 135585594.371 7                  25801065.040
      2450.563                          47.900                   101249052.070 7
  25801068.640        1829.892          47.600   103890308.943 8  25801066.000
      1877.657          49.150   102569681.160 8  25801068.180        1853.732
        50.950
 136295163.402 6                  25936105.320
      3176.821                          40.900                   101778871.730 6
  25936107.540        2372.204          41.250   104433961.566 7  25936105.480
      2434.163          42.250   103106415.804 7  25936106.320        2403.056
        44.250
 133813266.834 7                  25463804.220
      1303.663                          47.200                    99925534.847 7
  25463804.600         973.576          46.300   102532274.669 7  25463801.920
       998.949          47.050   101228911.913 8  25463803.480         986.251
        49.250
 126189942.713 8                  24013122.700
     -1176.045                          52.700                    94232818.473 8
  24013123.740        -878.213          52.850    96691064.947 8  24013121.000
      -901.098          53.350    95461944.862 9  24013123.140        -889.612
        55.750
 125952494.137 8                  23967941.200
      1258.478                          52.800                    94055553.098 8
  23967944.840         939.809          53.650    96509151.489 8  23967941.760
       964.311          53.250    95282346.946 9  23967943.340         952.065
        56.050
 141243971.806 7                  26877816.480
     -1541.637                          43.650                   105474461.187 7
  26877820.440       -1151.380          44.350   108225939.860 7  26877818.840
     -1181.396          44.700   106850203.160 7  26877818.240       -1166.322
        47.050
 23 12 27 16  1  0.0000000  0 19G06G11G12G24G25G26G28G29G31G32E03E05
                                E08E10E11E12E24E25E33
 127952103.065 7  99702988.03146  24348461.260                    24348463.440
     -2353.142       -1833.617          42.200          41.900    95548718.703 7
  24348461.280       -1757.120          42.900


 121672450.035 7  94809737.32647  23153478.900                    23153477.800
      -455.727        -355.110          45.400          43.400    90859360.753 8
  23153481.820        -340.277          48.850


 116058576.503 8  90435306.31848  22085189.020                    22085185.600
     -2680.655       -2088.822          49.200          48.900



 137038433.260 6 106783206.19745  26077549.640                    26077552.300
     -3809.760       -2968.657          36.050          35.350   102333934.168 6
  26077555.420       -2844.640          38.200


 104901983.271 8  81741845.95848  19962169.840                    19962169.540
      -841.810        -655.956          50.750          50.600    78336097.232 9
  19962171.120        -628.623          55.700


 132049251.806 6 102895554.00746  25128133.580                    25128141.300
      3364.866        2621.985          39.450          37.800    98608246.668 7
  25128141.240        2512.954          43.700


 111956407.151 8  87238769.42047  21304577.780                    21304576.660
      1934.580        1507.466          48.800          47.950    83603876.283 8
  21304580.500        1444.609          53.000


 110471430.762 8  86081738.19348  21021970.520                    21021968.300
      1931.456        1505.031          50.050          50.200



 120320182.796 7  93756024.08447  22896152.640                    22896149.840
      3039.214        2368.221          46.300          43.750



 121712457.124 7  94840917.13147  23161102.640                    23161103.220
     -2567.718       -2000.820          47.050          42.300    90889211.209 7
  23161104.420       -1917.464          47.350


 134653784.643 8                  25623753.160
     -1277.900                          50.200                   100553205.399 8
  25623755.600        -954.226          48.250   103176321.615 7  25623751.760
      -979.134          47.200   101864763.660 8  25623755.260        -966.679
        50.850
 134258643.114 7                  25548569.460
     -3009.612                          43.150                   100258103.995 7
  25548576.760       -2247.432          44.300   102873522.106 7  25548576.080
     -2306.024          46.250   101565812.201 8  25548576.620       -2276.726
        48.100
 142321137.247 7                  27082806.720
      1244.922                          45.100                   106278808.548 7
  27082810.160         929.680          44.900   109051281.299 7  27082808.220
       953.864          46.350   107665042.074 8  27082809.000         941.752
        48.550
 135512236.528 7                  25787105.340
      2440.801                          47.250                   101194271.904 7
  25787109.040        1822.613          47.850   103834099.741 8  25787106.440
      1870.137          48.750   102514186.476 8  25787108.680        1846.352
        51.300
 136199920.094 6                  25917980.740
      3173.828                          41.000                   101707748.800 6
  25917983.000        2369.903          41.300   104360983.237 6  25917981.200
      2431.862          41.900   103034365.164 7  25917981.900        2400.891
        44.650
 133774380.933 7                  25456404.320
      1289.428                          46.900                    99896496.727 7
  25456405.020         962.892          46.400   102502479.020 7  25456401.940
       988.017          46.750   101199495.027 8  25456403.660         975.489
        49.550
 126225326.469 8                  24019856.120
     -1182.131                          53.100                    94259241.424 8
  24019856.840        -882.770          52.700    96718177.190 8  24019854.300
      -905.778          53.150    95488712.464 9  24019856.420        -894.282
        55.900
 125914837.310 8                  23960775.020
      1252.633                          52.400                    94027432.781 8
  23960778.940         935.467          53.600    96480297.591 8  23960775.840
       959.844          53.100    95253859.840 9  23960777.400         947.658
        56.300
 141290438.088 7                  26886658.560
     -1555.097                          43.350                   105509160.081 7
  26886662.300       -1161.385          44.350   108261543.945 7  26886660.660
     -1191.654          44.300   106885354.658 7  26886660.520       -1176.522
        47.150
 23 12 27 16  1 30.0000000  0 19G06G11G12G24G25G26G28G29G31G32E03E05
                                E08E10E11E12E24E25E33
 128022920.561 7  99758170.55147  24361937.280                    24361939.620
     -2368.311       -1845.435          42.300          42.050    95601601.947 7
  24361937.000       -1768.386          43.150


 121686419.869 7  94820622.93947  23156137.300                    23156136.380
      -475.587        -370.585          45.600          44.150    90869792.825 8
  23156140.260        -355.228          48.950


 116139106.606 8  90498057.07048  22100513.340                    22100510.000
     -2688.030       -2094.568          49.300          49.200



 137152702.563 5 106872246.81445  26099294.660                    26099297.460
     -3808.649       -2967.796          35.000          34.600   102419264.654 6
  26099300.880       -2844.022          38.200


 104927437.554 8  81761680.47248  19967013.440                    19967013.360
      -855.035        -666.261          50.950          50.900    78355105.312 9
  19967014.880        -638.586          55.650


 131948312.184 6 102816900.03446  25108925.400                    25108932.720
      3363.926        2621.246          39.250          37.500    98532869.995 7
  25108932.940        2512.173          44.000


 111898596.419 8  87193722.12947  21293576.640                    21293575.740
      1919.586        1495.782          48.550          47.950    83560705.970 8
  21293579.460        1433.386          52.900


 110413724.432 8  86036772.25848  21010989.340                    21010987.300
      1915.517        1492.611          50.200          50.250



 120229143.111 7  93685084.15447  22878828.260                    22878825.820
      3029.866        2360.938          46.400          43.700



 121789667.928 7  94901081.37047  23175795.260                    23175795.640
     -2579.674       -2010.137          47.050          42.550    90946868.610 7
  23175797.260       -1926.491          47.550


 134692318.852 8                  25631085.920
     -1291.219                          49.950                   100581980.924 8
  25631088.480        -964.184          48.250   103205847.818 7  25631084.700
      -989.453          47.800   101893914.525 8  25631088.180        -976.801
        51.000
 134348973.613 7                  25565759.200
     -3012.335                          42.850                   100325558.569 7
  25565766.260       -2249.612          44.350   102942736.371 7  25565765.500
     -2308.230          46.200   101634146.622 8  25565765.980       -2278.932
        48.000
 142283990.914 7                  27075738.200
      1231.362                          45.250                   106251069.439 7
  27075741.460         919.476          44.850   109022818.551 7  27075739.620
       943.529          46.650   107636941.148 8  27075740.240         931.491
        48.400
 135439160.614 7                  25773199.400
      2431.005                          47.700                   101139702.249 8
  25773203.420        1815.327          48.000   103778106.520 8  25773200.360
      1862.688          49.100   102458905.039 8  25773202.760        1838.980
        51.450
 136104758.940 6                  25899871.840
      3170.316                          41.000                   101636687.238 6
  25899874.140        2367.375          41.550   104288067.841 6  25899872.120
      2429.259          41.700   102962376.697 7  25899873.100        2398.316
        44.500
 133735910.970 7                  25449083.440
      1275.280                          46.400                    99867769.226 7
  25449084.320         952.229          46.350   102473002.090 7  25449081.300
       977.125          46.950   101170392.810 8  25449082.960         964.670
        49.600
 126260880.865 8                  24026621.940
     -1188.136                          52.800                    94285791.796 8
  24026622.480        -887.173          52.700    96745420.179 8  24026620.100
      -910.324          53.500    95515609.143 9  24026622.160        -898.771
        55.950
 125877342.850 8                  23953639.760
      1246.938                          52.150                    93999433.709 8
  23953643.880         931.144          53.450    96451568.098 8  23953640.860
       955.419          53.500    95225495.559 9  23953642.360         943.247
        56.250
 141337291.117 7                  26895574.080
     -1568.437                          42.700                   105544147.737 7
  26895577.980       -1171.237          44.300   108297444.338 7  26895575.920
     -1201.718          44.300   106920798.694 7  26895576.440       -1186.582
        47.150
 23 12 27 16  2  0.0000000  0 19G06G11G12G24G25G26G28G29G31G32E03E05
                                E08E10E11E12E24E25E33
 128094187.114 7  99813702.94747  24375498.700                    24375501.000
     -2383.502       -1857.272          42.400          42.800    95654820.506 7
  24375498.800       -1779.698          43.900


 121700987.523 7  94831974.38147  23158909.400                    23158908.860
      -495.804        -386.340          45.850          43.650    90880671.305 8
  23158912.680        -370.328          49.300


 116219856.164 8  90560978.82448  22115879.380                    22115876.300
     -2695.588       -2100.457          48.600          48.800



 137266941.929 5 106961264.11045  26121033.900                    26121037.360
     -3807.826       -2967.152          35.950          35.650   102504572.834 7
  26121040.460       -2843.431          42.250


 104953290.303 8  81781825.48148  19971932.920                    19971933.040
      -868.782        -676.974          50.550          50.550    78374410.944 9
  19971934.460        -648.769          55.750


 131847403.040 6 102738269.83646  25089722.860                    25089730.300
      3362.740        2620.324          38.350          37.650    98457516.121 7
  25089730.200        2511.141          44.350


 111841238.390 8  87149027.59847  21282661.660                    21282660.860
      1904.021        1483.654          48.550          47.550    83517873.705 8
  21282664.520        1421.809          53.150


 110356497.182 8  85992179.63748  21000099.400                    21000097.440
      1899.287        1479.966          50.600          50.550



 120138385.401 7  93614363.94247  22861557.500                    22861555.580
      3020.146        2353.364          46.650          44.200



 121867234.026 7  94961522.46446  23190555.400                    23190555.500
     -2591.685       -2019.496          46.350          41.700    91004791.315 7
  23190557.740       -1935.337          47.850


 134731250.853 8                  25638494.280
     -1304.784                          49.150                   100611053.509 8
  25638497.140        -974.363          48.550   103235678.822 8  25638493.560
      -999.777          48.100   101923366.319 8  25638496.780        -987.065
        51.600
 134439390.106 7                  25582965.220
     -3015.638                          43.800                   100393077.330 7
  25582972.280       -2252.010          44.650   103012016.498 7  25582971.220
     -2310.648          46.050   101702546.069 8  25582971.720       -2281.341
        48.450
 142247250.339 7                  27068746.640
      1217.544                          45.400                   106223633.330 7
  27068749.780         909.178          45.250   108994666.716 7  27068748.460
       932.963          46.850   107609147.169 8  27068748.700         921.152
        49.050
 135366377.466 8                  25759349.040
      2420.864                          48.100                   101085351.239 8
  25759353.360        1807.715          48.600   103722337.659 8  25759350.280
      1854.970          48.950   102403845.104 8  25759352.600        1831.303
        51.950
 136009690.910 6                  25881780.760
      3166.800                          41.200                   101565695.222 6
  25881783.020        2364.902          41.550   104215223.821 6  25881780.800
      2426.585          41.650   102890458.670 7  25881781.820        2395.791
        44.800
 133697867.093 7                  25441843.740
      1260.722                          46.650                    99839359.906 7
  25441844.620         941.330          46.700   102443851.638 7  25441841.760
       965.966          46.900   101141612.922 8  25441843.360         953.702
        49.900
 126296614.788 8                  24033421.900
     -1194.435                          52.300                    94312476.242 8
  24033422.440        -891.980          52.900    96772800.737 8  24033420.300
      -915.226          53.650    95542641.642 9  24033422.040        -903.605
        56.350
 125840020.040 8                  23946537.360
      1240.946                          52.250                    93971562.815 8
  23946541.380         926.648          53.600    96422970.131 8  23946538.600
       950.791          53.400    95197261.128 9  23946539.980         938.699
        56.600
 141384538.484 7                  26904564.740
     -1581.918                          42.750                   105579429.928 7
  26904568.620       -1181.238          44.950   108333646.925 7  26904566.440
     -1212.053          44.000   106956541.080 7  26904567.380       -1196.650
        47.700
 23 12 27 16  2 30.0000000  0 19G06G11G12G24G25G26G28G29G31G32E03E05
                                E08E10E11E12E24E25E33
 128165895.452 7  99869579.62847  24389144.400                    24389146.300
     -2397.206       -1867.952          42.750          42.650    95708369.017 7
  24389144.840       -1790.245          44.300


 121716147.833 7  94843787.61747  23161794.160                    23161793.940
      -514.735        -401.091          44.500          44.250    90891992.318 8
  23161797.940        -384.456          49.250


 116300819.037 8  90624066.76347  22131285.880                    22131283.220
     -2701.793       -2105.293          48.000          47.850



 137381144.767 5 107050252.94845  26142765.900                    26142770.380
     -3806.051       -2965.765          31.850          31.900   102589853.672 6
  26142772.920       -2842.040          40.750


 104979536.128 8  81802276.78648  19976927.300                    19976927.540
      -880.923        -686.433          50.400          50.400    78394010.113 9
  19976928.880        -657.886          55.850


 131746520.401 6 102659660.28646  25070525.460                    25070532.480
      3362.713        2620.306          38.500          37.000    98382182.042 7
  25070532.380        2511.011          44.250


 111784330.344 8  87104683.69147  21271832.340                    21271831.540
      1889.693        1472.490          48.400          47.900    83475377.463 8
  21271835.280        1411.232          53.350


 110299745.590 8  85947957.65048  20989300.020                    20989298.080
      1884.358        1468.333          50.650          50.400



 120047907.175 7  93543861.49447  22844339.960                    22844338.420
      3011.807        2346.865          46.050          45.350



 121945147.685 7  95022234.39646  23205381.760                    23205381.660
     -2602.423       -2027.864          46.200          41.150    91062973.566 7
  23205384.200       -1943.435          47.550


 134770574.648 8                  25645977.140
     -1316.815                          48.650                   100640418.660 8
  25645980.460        -983.376          48.600   103265810.030 8  25645977.100
     -1009.051          48.400   101953114.499 8  25645979.940        -996.218
        51.250
 134529885.779 7                  25600186.340
     -3017.457                          43.700                   100460655.212 7
  25600193.140       -2253.295          44.850   103081357.297 7  25600191.840
     -2312.037          45.850   101771005.403 8  25600192.540       -2282.626
        48.050
 142210911.664 7                  27061831.560
      1205.007                          45.100                   106196497.353 7
  27061834.600         899.754          45.300   108966822.836 7  27061833.680
       923.304          46.400   107581657.245 8  27061833.660         911.521
        48.450
 135293884.155 7                  25745553.980
      2411.978                          47.600                   101031216.650 8
  25745558.600        1801.167          48.450   103666790.862 8  25745555.340
      1848.111          49.200   102349004.407 8  25745557.540        1824.670
        51.650
 135914713.152 6                  25863706.620
      3164.960                          40.500                   101494770.622 6
  25863709.060        2363.379          41.350   104142448.977 6  25863706.940
      2425.116          41.850   102818608.956 7  25863707.780        2394.177
        44.400
 133660245.619 7                  25434684.600
      1247.428                          46.650                    99811266.005 7
  25434685.240         931.516          46.650   102415024.852 7  25434682.560
       955.785          46.750   101113152.585 8  25434684.120         943.571
        49.500
 126332523.184 8                  24040254.960
     -1199.475                          51.950                    94339290.961 8
  24040255.780        -895.729          53.150    96800314.967 8  24040253.780
      -919.085          53.700    95569806.120 9  24040255.120        -907.437
        56.150
 125802864.323 8                  23939466.800
      1236.121                          51.750                    93943816.686 8
  23939470.760         923.071          53.400    96394500.188 8  23939468.140
       947.099          53.300    95169153.088 9  23939469.440         935.066
        56.100
 141432174.169 7                  26913629.360
     -1594.117                          42.200                   105615002.046 7
  26913633.380       -1190.311          45.200   108370147.025 7  26913630.560
     -1221.313          43.750   106992577.193 7  26913632.260       -1205.818
        47.400
 23 12 27 16  3  0.0000000  0 19G06G11G12G24G25G26G28G29G31G32E03E05
                                E08E10E11E12E24E25E33
 128238046.324 7  99925801.13447  24402874.160                    24402875.620
     -2412.436       -1879.819          42.600          42.650    95762247.962 7
  24402875.420       -1801.711          44.600


 121731903.491 7  94856064.76347  23164792.240                    23164792.260
      -535.036        -416.909          45.050          44.050    90903757.904 8
  23164796.220        -399.694          48.950


 116381997.170 8  90687322.45048  22146733.400                    22146731.100
     -2709.632       -2111.400          48.350          48.300



 137495313.053 5 107139214.75745  26164491.500                    26164496.380
     -3805.185       -2965.092          34.950          35.200   102675108.718 6
  26164498.920       -2841.583          41.550


 105006177.592 8  81823036.38448  19981996.980                    19981997.160
      -894.828        -697.269          50.700          50.600    78413904.728 9
  19981998.520        -668.206          55.600


 131645668.072 6 102581074.36346  25051333.640                    25051340.580
      3361.279        2619.193          36.300          36.600    98306870.615 7
  25051340.560        2509.807          43.950


 111727877.435 8  87060694.44248  21261089.660                    21261088.780
      1874.021        1460.276          48.800          48.050    83433221.109 8
  21261092.720        1399.369          53.300


 110243473.632 8  85904109.40048  20978592.000                    20978589.900
      1867.638        1455.303          51.100          50.850



 119957713.942 7  93473581.10447  22827176.760                    22827175.420
      3001.611        2338.919          46.850          44.250



 122023409.029 7  95083217.23946  23220274.380                    23220274.460
     -2614.570       -2037.330          46.300          41.550    91121415.455 7
  23220276.720       -1952.478          47.500


 134810292.141 8                  25653534.900
     -1330.665                          48.800                   100670077.804 8
  25653538.720        -993.634          48.600   103296242.893 8  25653535.620
     -1019.562          49.000   101983160.504 8  25653537.980       -1006.645
        51.750
 134620461.652 7                  25617422.820
     -3020.800                          44.500                   100528292.996 7
  25617429.180       -2255.700          44.650   103150759.542 7  25617427.820
     -2314.488          45.600   101839525.427 7  25617428.640       -2285.154
        47.950
 142174978.921 7                  27054993.600
      1190.797                          45.250                   106169664.487 7
  27054996.600         889.248          45.250   108939289.988 7  27054996.180
       912.375          46.800   107554474.389 8  27054995.860         900.818
        48.850
 135221685.564 8                  25731815.140
      2401.586                          48.250                   100977302.148 8
  25731819.840        1793.332          48.650   103611469.894 8  25731816.540
      1840.092          49.300   102294386.678 8  25731818.580        1816.718
        51.900
 135819830.804 6                  25845650.940
      3160.958                          41.100                   101423917.238 6
  25845653.100        2360.413          41.350   104069747.196 6  25845651.020
      2422.082          41.900   102746831.370 7  25845652.000        2391.228
        44.650
 133623050.599 7                  25427606.740
      1232.511                          47.300                    99783490.558 7
  25427607.000         920.438          46.650   102386524.822 7  25427604.600
       944.391          47.100   101085014.841 8  25427606.060         932.415
        49.800
 126368608.913 8                  24047121.600
     -1205.937                          52.100                    94366238.103 8
  24047122.820        -900.617          53.050    96827965.073 8  24047120.880
      -924.082          53.650    95597104.742 9  24047121.960        -912.364
        56.250
 125765878.968 8                  23932428.660
      1229.858                          52.400                    93916197.778 8
  23932432.600         918.374          53.200    96366160.774 8  23932430.100
       942.341          53.450    95141173.929 9  23932431.320         930.342
        56.250
 141480199.746 7                  26922768.360
     -1607.528                          43.000                   105650865.361 7
  26922772.340       -1200.426          45.600   108406945.909 7  26922768.800
     -1231.742          43.550   107028908.284 7  26922771.280       -1216.028
        47.750
 23 12 27 16  3 30.0000000  0 19G06G11G12G24G25G26G28G29G31G32E03E05
                                E08E10E11E12E24E25E33
 128310637.608 6  99982365.82647  24416687.840                    24416689.020
     -2426.936       -1891.117          41.650          42.200    95816455.790 7
  24416689.700       -1812.273          45.250


 121748254.450 7  94868805.76847  23167903.560                    23167903.720
      -555.114        -432.557          45.250          44.350    90915968.018 8
  23167907.660        -414.376          49.200


 116463389.968 8  90750745.40648  22162221.940                    22162219.900
     -2716.722       -2116.926          48.450          48.400



 137609445.232 5 107228148.48045  26186210.300                    26186215.440
     -3803.825       -2964.042          35.650          35.200   102760336.748 7
  26186218.060       -2840.393          44.400


 105033214.489 8  81844104.11348  19987141.920                    19987141.960
      -907.864        -707.426          50.300          50.400    78434094.635 9
  19987143.380        -677.904          55.650


 131544847.145 5 102502512.91345  25032147.780                    25032154.720
      3360.266        2618.397          34.950          35.000    98231582.631 7
  25032154.620        2509.331          43.850


 111671882.086 8  87017061.73548  21250434.120                    21250433.200
      1859.060        1448.619          48.350          48.400    83391406.440 8
  21250437.200        1388.154          53.450


 110187682.747 8  85860636.01748  20967975.460                    20967973.180
      1851.495        1442.725          50.950          51.100



 119867808.338 7  93403524.84547  22810068.200                    22810067.140
      2991.982        2331.416          46.550          44.900



 122102015.416 7  95144468.96547  23235232.720                    23235232.960
     -2625.835       -2046.104          46.300          42.200    91180114.992 7
  23235234.860       -1960.863          47.200


 134850402.426 8                  25661167.440
     -1343.569                          48.300                   100700030.280 8
  25661171.780       -1003.272          48.800   103326976.738 8  25661168.820
     -1029.415          49.350   102013503.665 8  25661170.740       -1016.370
        52.000
 134711116.074 7                  25634674.280
     -3023.142                          45.000                   100595989.433 7
  25634680.400       -2257.538          45.000   103220221.992 7  25634678.700
     -2316.465          46.100   101908104.865 8  25634679.720       -2287.009
        48.550
 142139453.437 7                  27048233.080
      1177.395                          45.050                   106143135.739 7
  27048236.040         879.320          45.650   108912069.192 7  27048235.980
       902.129          46.850   107527599.616 8  27048235.620         890.722
        49.100
 135149783.841 8                  25718132.840
      2391.799                          48.850                   100923609.340 8
  25718137.400        1786.104          48.700   103556376.403 8  25718134.220
      1832.663          49.450   102239993.531 8  25718136.160        1809.358
        52.050
 135725046.081 6                  25827613.740
      3157.571                          40.900                   101353136.723 6
  25827615.660        2357.994          41.550   103997120.193 6  25827613.500
      2419.640          41.700   102675127.615 7  25827614.760        2388.681
        44.550
 133586283.378 7                  25420610.380
      1218.446                          47.350                    99756034.574 7
  25420610.280         909.918          46.700   102358352.582 7  25420608.040
       933.664          47.250   101057200.729 8  25420609.460         921.807
        49.900
 126404872.100 8                  24054022.000
     -1211.776                          52.100                    94393317.753 8
  24054023.500        -904.820          53.350    96855751.145 8  24054021.480
      -928.428          53.550    95624537.599 9  24054022.580        -916.611
        56.400
 125729064.554 8                  23925423.080
      1224.274                          52.150                    93888706.530 8
  23925427.000         914.264          53.250    96337952.359 8  23925424.560
       938.104          53.650    95113324.094 9  23925425.740         926.175
        56.300
 141528614.241 7                  26931981.380
     -1620.361                          42.800                   105687019.058 7
  26931985.460       -1209.942          45.800   108444042.727 7  26931981.180
     -1241.374          43.750   107065533.551 7  26931984.260       -1225.653
        47.900
 23 12 27 16  4  0.0000000  0 19G06G11G12G24G25G26G28G29G31G32E03E05
                                E08E10E11E12E24E25E33
 128383661.344 7 100039267.46147  24430583.840                    24430584.660
     -2441.272       -1902.290          42.700          42.250    95870986.532 7
  24430586.320       -1823.016          44.600


 121765194.650 7  94882005.93747  23171127.100                    23171127.080
      -574.431        -447.609          45.250          43.600    90928618.188 8
  23171131.320        -429.006          49.700


 116544990.492 8  90814330.22848  22177750.080                    22177748.100
     -2723.558       -2122.253          49.250          49.200



 137723533.760 5 107317048.26545  26207920.860                    26207926.140
     -3802.066       -2962.663          33.550          33.600   102845532.314 6
  26207928.740       -2839.324          41.950


 105060640.659 8  81865475.16848  19992360.940                    19992360.920
      -920.761        -717.476          50.850          51.000    78454575.230 9
  19992362.240        -687.562          55.650


 131444052.651 5 102423972.04345  25012966.880                    25012973.620
      3359.175        2617.545          35.300          32.550    98156314.359 7
  25012973.720        2508.656          43.650


 111616340.739 8  86973782.81748  21239864.860                    21239864.080
      1843.938        1436.837          48.100          48.050    83349930.803 8
  21239868.020        1376.872          53.550


 110132368.009 8  85817533.65148  20957449.460                    20957446.940
      1835.794        1430.489          51.000          50.950



 119778187.098 7  93333690.17847  22793013.740                    22793012.900
      2982.523        2324.047          46.600          44.400



 122180958.363 7  95205982.92547  23250255.100                    23250255.760
     -2637.017       -2054.820          46.050          42.900    91239065.864 7
  23250256.880       -1969.194          47.000


 134890898.699 8                  25668873.460
     -1356.358                          48.350                   100730270.974 8
  25668878.300       -1012.825          49.050   103358006.336 8  25668875.380
     -1039.273          49.800   102044138.808 8  25668876.940       -1026.075
        52.050
 134801841.482 7                  25651939.180
     -3025.259                          44.900                   100663738.867 7
  25651945.040       -2259.165          44.700   103289738.812 7  25651943.020
     -2318.173          46.300   101976737.999 8  25651944.240       -2288.706
        48.200
 142104330.519 7                  27041549.180
      1163.809                          44.800                   106116907.630 7
  27041552.440         869.179          45.900   108885156.861 7  27041552.260
       891.911          47.050   107501029.397 8  27041551.960         880.561
        49.150
 135078175.217 8                  25704506.380
      2382.008                          49.000                   100870135.425 8
  25704510.800        1778.805          48.800   103501507.513 8  25704507.640
      1825.193          49.950   102185822.123 8  25704509.480        1801.987
        52.050
 135630355.379 6                  25809594.300
      3154.655                          40.350                   101282426.416 6
  25809596.180        2355.841          41.550   103924565.249 7  25809594.220
      2417.204          42.150   102603494.980 7  25809595.460        2386.479
        44.650
 133549939.390 7                  25413694.400
      1204.359                          46.950                    99728894.641 7
  25413694.200         899.378          46.900   102330504.658 7  25413692.040
       922.806          47.550   101029706.801 8  25413693.420         911.064
        49.900
 126441306.887 8                  24060955.180
     -1217.348                          51.950                    94420525.557 8
  24060956.900        -909.044          53.600    96883668.722 8  24060954.520
      -932.775          53.500    95652100.293 9  24060955.900        -920.923
        56.250
 125692415.740 8                  23918449.000
      1218.847                          52.150                    93861338.934 8
  23918452.980         910.189          53.350    96309870.826 8  23918450.560
       933.921          53.900    95085599.532 9  23918451.700         922.052
        56.300
 141577410.559 7                  26941267.300
     -1632.967                          43.650                   105723457.908 7
  26941271.300       -1219.376          46.150   108481432.166 7  26941266.420
     -1251.242          44.000   107102447.698 8  26941269.840       -1235.304
        48.100
 23 12 27 16  4 30.0000000  0 19G06G11G12G24G25G26G28G29G31G32E03E05
                                E08E10E11E12E24E25E33
 128457121.325 6 100096509.05146  24444562.900                    24444563.280
     -2455.920       -1913.700          41.000          40.350    95925843.050 7
  24444565.960       -1833.953          45.400


 121782729.955 7  94895669.81347  23174464.020                    23174463.660
      -594.639        -463.354          45.700          43.550    90941712.735 8
  23174468.240        -443.920          49.800


 116626804.177 8  90878081.16948  22193318.900                    22193316.820
     -2730.688       -2127.809          49.400          49.450



 137837584.150 6 107405918.22246  26229624.320                    26229629.520
     -3801.022       -2961.850          36.350          36.500   102930699.246 6
  26229632.240       -2838.498          41.150


 105088461.860 8  81887154.03748  19997655.220                    19997655.080
      -934.082        -727.855          50.950          50.950    78475350.817 9
  19997656.400        -697.489          55.450


 131343291.742 6 102345457.34446  24993792.540                    24993799.040
      3358.161        2616.757          36.150          36.650    98081071.154 7
  24993799.320        2507.711          43.150


 111561261.769 8  86930864.18047  21229383.540                    21229382.960
      1828.290        1424.644          48.000          47.500    83308800.453 8
  21229386.840        1365.198          53.300


 110077537.269 8  85774808.41948  20947015.500                    20947012.760
      1819.524        1417.812          51.200          51.000



 119688858.868 7  93264083.82247  22776015.020                    22776014.340
      2972.626        2316.334          46.800          44.400



 122260241.154 7  95267761.69347  23265342.260                    23265343.420
     -2648.390       -2063.682          47.200          42.400    91298270.518 7
  23265343.600       -1977.641          46.500


 134931785.986 8                  25676653.980
     -1369.442                          48.250                   100760803.679 8
  25676659.180       -1022.641          48.900   103389335.548 8  25676656.200
     -1049.329          49.700   102075069.767 8  25676657.560       -1036.017
        52.000
 134892642.186 7                  25669218.280
     -3027.822                          44.750                   100731544.539 7
  25669223.800       -2261.170          44.700   103359313.317 7  25669221.700
     -2320.112          45.750   102045428.084 7  25669223.000       -2290.656
        47.950
 142069617.381 7                  27034943.280
      1150.142                          44.800                   106090985.524 7
  27034947.000         858.946          46.100   108858558.529 7  27034946.280
       881.331          46.800   107474769.183 8  27034946.320         870.135
        49.200
 135006867.799 8                  25690937.280
      2371.874                          49.550                   100816886.435 8
  25690941.160        1771.124          48.700   103446869.414 8  25690938.140
      1817.393          49.550   102131878.580 8  25690940.180        1794.254
        51.900
 135535766.948 6                  25791594.540
      3151.573                          40.400                   101211792.440 6
  25791596.340        2353.193          41.550   103852088.617 7  25791594.420
      2414.575          42.000   102531939.681 7  25791595.660        2383.852
        44.500
 133514025.902 7                  25406860.160
      1189.936                          46.800                    99702076.192 7
  25406859.980         888.615          46.750   102302986.603 7  25406857.820
       911.697          47.350   101002538.547 8  25406859.320         900.197
        49.900
 126477919.405 8                  24067922.240
     -1223.447                          52.250                    94447866.076 8
  24067924.040        -913.622          53.250    96911722.481 8  24067921.240
      -937.455          52.950    95679797.429 9  24067923.100        -925.526
        56.000
 125655939.051 8                  23911507.820
      1212.956                          52.600                    93834099.878 8
  23911511.820         905.796          53.200    96281921.182 8  23911509.240
       929.432          53.650    95058005.180 9  23911510.400         917.629
        56.150
 141626593.734 7                  26950626.860
     -1645.920                          44.150                   105760185.636 7
  26950630.440       -1229.178          45.900   108519117.997 7  26950625.580
     -1261.200          44.250   107139654.470 8  26950629.020       -1245.157
        48.000
 23 12 27 16  5  0.0000000  0 19G06G11G12G24G25G26G28G29G31G32E03E05
                                E08E10E11E12E24E25E33
 128531009.507 6 100154084.28146  24458623.260                    24458623.560
     -2469.521       -1924.303          41.600          41.850    95981019.354 7
  24458626.420       -1844.274          45.550


 121800854.273 7  94909792.66047  23177913.040                    23177912.260
      -613.535        -478.078          46.000          42.250    90955247.140 8
  23177917.080        -458.210          49.850


 116708824.237 8  90941992.91548  22208926.960                    22208924.940
     -2736.879       -2132.633          49.600          49.700



 137951588.931 5 107494752.66245  26251319.220                    26251324.220
     -3798.913       -2960.212          35.550          35.350   103015832.151 6
  26251327.100       -2836.795          38.100


 105116671.896 8  81909135.89848  20003023.560                    20003023.220
      -946.311        -737.385          51.050          51.100    78496416.778 9
  20003024.680        -706.752          55.550


 131242559.630 5 102266965.05445  24974623.680                    24974629.820
      3357.324        2616.108          35.050          34.650    98005849.413 7
  24974630.140        2507.322          42.600


 111506641.642 8  86888303.07148  21218989.600                    21218988.980
      1813.543        1413.151          48.450          48.050    83268012.723 8
  21218993.000        1354.141          53.600


 110023185.357 8  85732456.31348  20936672.640                    20936669.760
      1804.256        1405.914          51.350          51.450



 119599820.385 7  93194703.24947  22759071.520                    22759070.900
      2963.747        2309.415          47.200          43.950



 122339855.244 7  95329798.61547  23280492.440                    23280494.080
     -2658.869       -2071.848          46.150          43.700    91357722.558 7
  23280493.440       -1985.519          46.250


 134973057.468 8                  25684507.660
     -1381.566                          48.450                   100791623.273 8
  25684513.060       -1031.739          48.800   103420959.137 8  25684510.000
     -1058.729          49.550   102106291.358 8  25684511.280       -1045.244
        51.700
 134983510.546 7                  25686510.260
     -3029.553                          45.250                   100799400.725 7
  25686515.620       -2262.512          44.700   103428939.671 7  25686513.000
     -2321.454          44.850   102114169.355 7  25686514.680       -2291.985
        47.300
 142035309.320 7                  27028414.440
      1137.335                          44.300                   106065365.921 7
  27028418.720         849.176          46.400   108832270.590 7  27028417.320
       871.396          46.500   107448815.409 8  27028417.760         860.265
        49.000
 134935857.745 8                  25677424.700
      2362.375                          49.750                   100763859.522 8
  25677428.180        1764.128          48.600   103392459.192 8  25677425.400
      1810.129          49.400   102078160.009 8  25677427.380        1787.134
        51.600
 135441277.232 6                  25773613.340
      3148.394                          40.100                   101141232.140 6
  25773615.140        2350.888          41.250   103779687.583 6  25773613.320
      2412.247          41.700   102460459.007 7  25773614.620        2381.749
        44.050
 133478538.314 7                  25400106.960
      1176.232                          46.650                    99675575.785 7
  25400106.960         878.342          47.000   102275794.869 7  25400104.680
       901.236          47.050   100975692.478 8  25400106.260         889.805
        49.600
 126514703.831 8                  24074922.120
     -1228.627                          52.200                    94475334.969 8
  24074923.740        -917.501          53.150    96939907.958 8  24074920.580
      -941.434          52.700    95707624.616 9  24074923.060        -929.457
        55.600
 125619629.089 8                  23904598.320
      1208.014                          52.400                    93806985.328 8
  23904602.340         902.080          53.150    96254099.290 8  23904599.460
       925.547          53.400    95030536.959 9  23904600.800         913.826
        55.800
 141676156.648 7                  26960058.700
     -1657.937                          44.400                   105797196.931 7
  26960061.680       -1238.180          45.800   108557094.798 7  26960057.240
     -1270.531          44.550   107177148.519 7  26960060.440       -1254.311
        47.900
 23 12 27 16  5 30.0000000  0 18G06G11G12G25G26G28G29G31G32E03E05E08
                                E10E11E12E24E25E33
 128605322.361 6 100211990.40546  24472764.300                    24472764.520
     -2483.834       -1935.454          40.200          40.600    96036512.718 7
  24472767.420       -1854.805          44.850


 121819565.896 7  94924373.14547  23181473.900                    23181472.980
      -633.229        -493.426          45.550          43.400    90969220.123 8
  23181477.660        -472.849          49.850


 116791048.397 8  91006063.69848  22224573.700                    22224571.800
     -2743.953       -2138.145          49.100          49.150



 105145269.006 8  81931419.38448  20008465.460                    20008465.140
      -959.418        -747.598          51.400          51.450    78517771.791 9
  20008466.500        -716.430          55.250


 131141856.006 6 102188494.98446  24955460.220                    24955466.460
      3356.696        2615.614          36.650          36.000    97930649.024 7
  24955466.760        2506.470          42.350


 111452481.213 8  86846100.17647  21208683.200                    21208682.340
      1797.961        1401.009          48.700          47.650    83227568.278 8
  21208686.680        1342.658          53.800


 109969312.157 8  85690477.22948  20926420.820                    20926417.900
      1788.094        1393.321          51.450          51.300



 119511073.072 7  93125549.55547  22742183.480                    22742182.880
      2953.503        2301.433          47.550          44.900



 122419796.420 7  95392090.40647  23295704.920                    23295706.920
     -2669.687       -2080.276          46.700          43.800    91417418.860 7
  23295705.420       -1993.692          46.350


 135014710.695 8                  25692434.000
     -1394.573                          49.250                   100822727.931 8
  25692439.440       -1041.370          48.650   103452875.222 8  25692436.280
     -1068.546          49.250   102137801.728 8  25692437.660       -1054.971
        51.500
 135074443.462 7                  25703814.420
     -3031.791                          45.350                   100867305.100 7
  25703819.740       -2264.056          44.850   103498615.481 7  25703816.580
     -2323.151          44.650   102182959.442 7  25703818.720       -2293.546
        47.400
 142001406.075 7                  27021962.620
      1123.667                          44.150                   106040048.600 7
  27021967.440         839.019          46.550   108806292.815 7  27021965.320
       861.022          46.150   107423167.862 8  27021966.200         849.995
        48.900
 134865145.636 8                  25663968.800
      2352.425                          49.800                   100711055.101 8
  25663971.800        1756.701          48.750   103338277.258 8  25663969.080
      1802.525          49.200   102024666.835 8  25663971.280        1779.602
        51.700
 135346886.947 6                  25755651.300
      3144.724                          41.050                   101070746.073 6
  25755652.780        2348.319          41.150   103707362.731 6  25755651.380
      2409.596          41.800   102389053.561 7  25755652.580        2378.921
        44.050
 133443476.305 7                  25393434.760
      1161.917                          46.850                    99649393.179 7
  25393435.120         867.619          47.150   102248929.228 7  25393432.420
       890.318          46.550   100949168.354 8  25393434.180         878.972
        49.550
 126551658.720 8                  24081954.440
     -1234.345                          52.350                    94502931.166 8
  24081955.840        -921.752          53.000    96968224.058 8  24081952.520
      -945.825          52.700    95735580.766 9  24081955.420        -933.792
        55.600
 125583484.911 8                  23897720.400
      1202.277                          53.000                    93779994.574 8
  23897724.240         897.834          52.950    96226404.426 8  23897721.180
       921.291          53.100    95003194.149 9  23897722.760         909.579
        55.650
 141726096.716 7                  26969562.380
     -1670.709                          45.050                   105834489.884 7
  26969564.300       -1247.526          45.300   108595360.607 7  26969560.980
     -1280.206          44.750   107214927.898 7  26969563.620       -1263.847
        47.750
 23 12 27 16  6  0.0000000  0 18G06G11G12G25G26G28G29G31G32E03E05E08
                                E10E11E12E24E25E33
 128680066.404 6 100270232.56246  24486987.520                    24486987.960
     -2498.658       -1947.002          39.950          39.550    96092328.116 7
  24486990.320       -1865.853          44.800


 121838873.487 7  94939418.04447  23185148.040                    23185147.140
      -653.462        -509.189          45.300          43.950    90983638.167 8
  23185151.720        -487.974          49.650


 116873484.696 8  91070299.76848  22240260.780                    22240258.940
     -2751.404       -2143.952          49.600          49.600



 105174261.856 8  81954011.23848  20013982.660                    20013982.320
      -972.918        -758.117          51.350          51.350    78539422.322 9
  20013983.420        -726.556          54.900


 131041190.904 6 102110054.99745  24936303.860                    24936310.580
      3354.902        2614.222          36.900          35.400    97855477.420 7
  24936310.840        2505.379          42.150


 111398791.674 8  86804264.21348  21198466.460                    21198465.300
      1781.866        1388.469          48.700          48.050    83187475.498 8
  21198470.020        1330.594          53.850


 109915927.807 8  85648879.07148  20916262.000                    20916259.200
      1771.347        1380.271          50.950          50.900



 119422628.124 7  93056631.46247  22725352.960                    22725352.320
      2943.064        2293.299          47.450          44.250



 122500070.939 7  95454641.94647  23310980.720                    23310982.920
     -2681.317       -2089.339          46.250          43.950    91477364.058 7
  23310981.080       -2002.253          46.100


 135056753.585 8                  25700434.560
     -1407.934                          49.100                   100854123.576 8
  25700439.780       -1051.324          48.250   103485089.886 8  25700436.700
     -1078.757          49.200   102169606.881 8  25700438.200       -1065.012
        51.600
 135165448.051 7                  25721132.080
     -3034.618                          44.850                   100935262.990 7
  25721137.520       -2266.112          44.600   103568346.201 7  25721133.660
     -2325.248          44.300   102251803.749 7  25721136.420       -2295.672
        47.400
 141967917.744 7                  27015589.780
      1109.484                          43.550                   106015041.124 7
  27015595.000         828.462          46.550   108780632.986 7  27015592.320
       850.006          45.900   107397834.215 8  27015593.660         839.145
        49.150
 134794742.454 8                  25650571.560
      2341.704                          49.700                   100658481.389 8
  25650574.280        1748.638          48.800   103284332.044 8  25650571.760
      1794.254          49.150   101971407.373 8  25650573.940        1771.419
        51.950
 135252607.367 6                  25737710.220
      3140.855                          39.700                   101000342.641 6
  25737711.940        2345.484          41.500   103635122.679 6  25737710.560
      2406.586          41.800   102317731.812 7  25737711.680        2375.964
        44.550
 133408850.156 7                  25386845.440
      1146.974                          46.300                    99623536.047 7
  25386846.140         856.525          47.150   102222397.562 7  25386842.940
       878.859          46.100   100922973.955 8  25386845.000         867.657
        49.700
 126588793.086 8                  24089020.940
     -1240.759                          52.350                    94530661.384 8
  24089022.240        -926.504          53.000    96996677.672 8  24089018.820
      -950.697          52.700    95763672.685 9  24089021.860        -938.606
        55.850
 125547515.961 8                  23890875.780
      1196.088                          52.550                    93753134.672 8
  23890879.380         893.204          52.750    96198843.824 8  23890876.340
       916.506          53.150    94975983.900 9  23890878.060         904.845
        55.800
 141776421.776 7                  26979139.240
     -1683.744                          45.050                   105872070.314 7
  26979140.320       -1257.426          44.800   108633921.377 7  26979138.020
     -1290.273          45.050   107252998.503 7  26979140.060       -1273.896
        47.950
 23 12 27 16  6 30.0000000  0 18G06G11G12G25G26G28G29G31G32E03E05E08
                                E10E11E12E24E25E33
 128755236.203 6 100328806.41446  24501291.700                    24501292.560
     -2512.726       -1957.966          41.750          41.600    96148461.415 7
  24501294.060       -1876.572          44.900


 121858773.416 7  94954924.49647  23188934.920                    23188934.080
      -673.232        -524.596          45.650          44.400    90998498.527 8
  23188938.520        -502.866          49.550


 116956129.070 8  91134697.99648  22255987.540                    22255985.500
     -2758.331       -2149.349          49.400          49.350



 105203646.735 8  81976908.56548  20019574.380                    20019574.080
      -986.160        -768.437          50.600          50.600    78561365.599 9
  20019574.980        -736.479          55.050


 130940561.875 6 102031643.14346  24917154.300                    24917161.180
      3353.527        2613.154          37.400          37.350    97780332.853 6
  24917161.540        2504.083          41.700


 111345571.957 8  86762794.34048  21188339.180                    21188337.760
      1766.013        1376.115          48.750          48.100    83147733.550 9
  21188342.780        1318.681          54.450


 109863030.011 8  85607660.03148  20906195.820                    20906193.200
      1755.093        1367.605          50.200          50.300



 119334485.020 7  92987948.58147  22708579.820                    22708579.120
      2932.938        2285.407          47.600          44.900



 122580672.662 7  95517448.44347  23326318.820                    23326321.000
     -2692.287       -2097.887          46.500          44.100    91537553.624 7
  23326319.000       -2010.484          46.350


 135099181.738 8                  25708508.500
     -1420.820                          49.000                   100885806.929 8
  25708513.320       -1061.048          48.000   103517599.759 8  25708510.400
     -1088.701          49.450   102201703.493 8  25708512.040       -1074.881
        51.450
 135256519.260 7                  25738462.420
     -3036.926                          44.850                   101003270.645 7
  25738467.820       -2267.834          44.300   103638127.969 7  25738463.440
     -2327.094          44.750   102320698.462 7  25738466.820       -2297.445
        47.400
 141934842.070 7                  27009295.580
      1095.443                          43.600                   105990341.808 7
  27009300.900         818.014          46.300   108755289.342 7  27009297.900
       839.306          46.150   107372812.730 8  27009299.600         828.624
        49.100
 134724646.834 8                  25637232.760
      2331.244                          49.550                   100606137.345 8
  25637235.420        1740.791          49.100   103230622.485 8  25637232.840
      1786.236          49.400   101918380.569 8  25637235.080        1763.527
        52.100
 135158437.261 6                  25719789.960
      3137.019                          40.200                   100930020.963 6
  25719791.860        2342.567          41.450   103562966.482 6  25719790.380
      2403.771          41.950   102246492.873 7  25719791.580        2373.222
        44.500
 133374657.661 7                  25380338.560
      1132.357                          45.550                    99598002.757 7
  25380339.640         845.592          47.300   102196198.178 7  25380336.020
       867.670          46.150   100897107.620 8  25380338.320         856.581
        49.650
 126626103.623 8                  24096120.960
     -1246.869                          52.200                    94558523.158 8
  24096122.380        -931.075          53.300    97025266.274 8  24096118.960
      -955.351          53.300    95791897.871 9  24096121.820        -943.216
        56.150
 125511719.380 8                  23884063.960
      1190.217                          52.250                    93726403.494 8
  23884067.420         888.722          52.900    96171415.305 8  23884064.420
       911.913          53.300    94948904.050 9  23884066.160         900.351
        55.850
 141827127.222 7                  26988788.160
     -1696.707                          44.250                   105909934.795 7
  26988788.700       -1266.922          44.950   108672773.616 7  26988787.500
     -1300.104          45.650   107291356.863 8  26988788.840       -1283.584
        48.100
 23 12 27 16  7  0.0000000  0 18G06G11G12G25G26G28G29G31G32E03E05E08
                                E10E11E12E24E25E33
 128830827.526 6 100387708.77646  24515676.300                    24515677.220
     -2526.354       -1968.589          41.000          41.450    96204909.500 7
  24515678.380       -1886.568          45.250


 121879263.382 7  94970890.72547  23192834.120                    23192833.280
      -692.503        -539.610          45.500          44.700    91013799.490 8
  23192837.500        -517.173          49.450


 117038978.724 8  91199256.19148  22271753.340                    22271751.120
     -2764.789       -2154.381          49.350          49.250



 105233421.369 8  82000109.60348  20025240.240                    20025240.160
      -998.627        -778.149          50.950          51.050    78583599.937 9
  20025240.720        -745.798          54.800


 130839968.092 6 101953258.78445  24898011.700                    24898018.520
      3352.670        2612.486          38.550          34.200    97705214.582 6
  24898018.660        2503.890          41.900


 111292822.407 8  86721690.82947  21178301.380                    21178299.720
      1750.875        1364.319          48.800          47.850    83108342.702 9
  21178305.020        1307.368          54.700


 109810618.234 8  85566819.70448  20896222.060                    20896219.740
      1739.261        1355.269          50.250          50.350



 119246644.378 7  92919501.38147  22691864.240                    22691863.440
      2923.335        2277.925          47.250          45.100



 122661596.948 7  95580506.28147  23341718.220                    23341720.640
     -2702.613       -2105.934          46.400          43.700    91597984.049 7
  23341718.400       -2018.070          46.300


 135141992.187 8                  25716655.240
     -1433.101                          49.200                   100917775.753 7
  25716659.500       -1070.085          47.600   103550402.552 8  25716656.780
     -1098.029          49.200   102234089.306 8  25716658.600       -1084.037
        51.200
 135347653.405 7                  25755804.560
     -3038.531                          43.850                   101071325.298 7
  25755809.860       -2269.005          43.600   103707957.945 7  25755805.500
     -2328.162          43.700   102389640.777 7  25755809.000       -2298.571
        46.650
 141902178.243 7                  27003079.920
      1082.299                          44.500                   105965950.032 7
  27003085.100         808.238          46.350   108730261.251 7  27003081.940
       829.282          45.900   107348102.795 8  27003083.920         818.740
        49.150
 134654858.852 8                  25623952.400
      2321.380                          49.700                   100554023.013 8
  25623955.140        1733.521          49.250   103177148.643 8  25623952.600
      1778.762          49.050   101865586.483 8  25623954.780        1756.141
        52.100
 135064377.002 6                  25701890.900
      3133.578                          40.700                   100859781.237 6
  25701892.560        2340.098          41.200   103490894.416 7  25701891.220
      2401.056          42.050   102175336.978 7  25701892.340        2370.651
        44.500
 133340898.036 7                  25373913.980
      1118.390                          45.750                    99572792.700 7
  25373915.500         835.155          47.500   102170330.450 7  25373911.520
       856.971          45.850   100871568.730 8  25373914.000         846.040
        49.700
 126663588.384 8                  24103254.140
     -1252.040                          52.400                    94586515.042 8
  24103255.660        -934.977          53.200    97053988.373 8  24103252.500
      -959.338          53.600    95820254.860 9  24103254.880        -947.170
        56.250
 125476093.705 8                  23877284.540
      1185.066                          51.950                    93699799.953 8
  23877288.020         884.906          52.700    96144117.748 8  23877285.060
       908.034          53.400    94921953.502 9  23877286.780         896.478
        55.850
 141878209.911 7                  26998508.820
     -1708.689                          44.100                   105948080.999 7
  26998509.100       -1275.979          44.700   108711914.923 7  26998508.560
     -1309.264          45.650   107330000.613 7  26998509.460       -1292.615
        47.950
 23 12 27 16  7 30.0000000  0 18G06G11G12G25G26G28G29G31G32E03E05E08
                                E10E11E12E24E25E33
 128906839.562 6 100446939.00446  24530140.980                    24530141.860
     -2540.074       -1979.274          41.350          41.500    96261671.821 7
  24530143.140       -1896.964          45.100


 121900344.501 7  94987317.60547  23196845.740                    23196845.040
      -712.205        -554.964          46.300          43.700    91029541.919 8
  23196849.120        -531.810          49.600


 117122034.405 8  91263974.90748  22287558.200                    22287555.680
     -2771.371       -2159.510          49.100          49.250



 105263586.891 8  82023615.22748  20030980.500                    20030980.680
     -1011.503        -788.184          51.150          51.050    78606126.170 9
  20030980.880        -755.424          54.800


 130739411.974 6 101874903.70745  24878876.160                    24878882.580
      3351.812        2611.810          39.550          34.500    97630124.427 6
  24878882.880        2502.918          39.800


 111240546.726 8  86680956.56548  21168353.680                    21168351.920
      1735.125        1352.047          49.050          48.100    83069305.712 9
  21168357.360        1295.618          54.650


 109758695.055 8  85526360.10448  20886341.300                    20886339.300
      1723.170        1342.730          50.550          50.350



 119159110.477 7  92851293.21047  22675207.020                    22675206.120
      2913.050        2269.912          47.550          45.550



 122742842.476 7  95643814.45447  23357178.720                    23357181.100
     -2712.838       -2113.900          46.350          43.350    91658654.382 7
  23357179.100       -2025.958          46.550


 135185185.354 8                  25724874.800
     -1445.813                          49.050                   100950030.378 7
  25724878.440       -1079.604          47.050   103583498.603 8  25724876.100
     -1107.813          49.000   102266764.639 8  25724877.940       -1093.670
        51.050
 135438850.210 7                  25773158.580
     -3040.208                          43.750                   101139426.762 7
  25773163.480       -2270.455          43.800   103777835.964 7  25773159.200
     -2329.702          43.000   102458630.520 7  25773163.120       -2300.018
        46.700
 141869928.834 7                  26996943.380
      1068.461                          45.300                   105941867.728 7
  26996948.160         797.875          46.100   108705550.713 7  26996944.980
       818.645          45.950   107323706.374 8  26996947.060         808.298
        49.250
 134585381.983 8                  25610731.240
      2311.143                          49.300                   100502141.003 8
  25610734.080        1725.874          49.100   103123913.177 8  25610731.600
      1770.817          49.200   101813027.746 8  25610733.600        1748.341
        52.350
 134970430.219 6                  25684013.180
      3129.772                          39.400                   100789626.257 6
  25684014.960        2337.121          40.900   103418909.291 7  25684013.860
      2398.364          42.000   102104266.923 7  25684014.820        2367.730
        44.650
 133307573.888 7                  25367572.500
      1103.941                          45.350                    99547907.848 7
  25367574.280         824.372          47.400   102144796.413 7  25367569.900
       845.967          45.650   100846359.285 8  25367572.540         835.119
        49.850
 126701248.919 8                  24110420.900
     -1257.867                          52.550                    94614638.178 8
  24110422.300        -939.343          53.050    97082845.152 8  24110419.480
      -963.828          53.550    95848744.818 9  24110421.360        -951.571
        56.400
 125440640.937 8                  23870537.960
      1179.304                          52.050                    93673325.518 8
  23870541.440         880.653          52.450    96116952.672 8  23870538.660
       903.632          53.300    94895133.749 9  23870540.280         892.110
        56.000
 141929670.172 7                  27008301.060
     -1721.294                          44.200                   105986509.137 7
  27008301.680       -1285.341          44.800   108751345.531 7  27008301.380
     -1318.797          45.750   107368929.982 8  27008301.920       -1302.044
        48.400
 23 12 27 16  8  0.0000000  0 18G06G11G12G25G26G28G29G31G32E03E05E08
                                E10E11E12E24E25E33
 128983270.011 6 100506495.22946  24544685.300                    24544686.260
     -2554.418       -1990.454          41.700          41.650    96318746.559 7
  24544687.820       -1907.698          45.550


 121922016.299 7  95004204.76147  23200969.700                    23200969.100
      -732.582        -570.843          46.450          44.150    91045725.455 8
  23200973.320        -546.849          49.750


 117205294.900 8  91328853.22748  22303402.000                    22303399.380
     -2778.737       -2165.250          48.750          48.400



 105294142.902 8  82047425.12048  20036795.140                    20036795.340
     -1025.086        -798.768          51.700          51.700    78628943.994 9
  20036795.740        -765.544          55.000


 130638894.501 6 101796578.75845  24859748.040                    24859754.580
      3349.735        2610.196          40.000          35.400    97555063.055 6
  24859754.160        2501.356          39.750


 111188747.092 8  86640593.24948  21158496.620                    21158494.840
      1718.627        1339.191          49.700          48.250    83030624.201 9
  21158500.240        1283.376          54.700


 109707261.261 8  85486281.84248  20876553.740                    20876551.900
      1706.412        1329.673          50.700          50.850



 119071885.687 7  92783325.89747  22658608.600                    22658607.580
      2902.404        2261.615          47.300          45.000



 122824406.423 7  95707370.75147  23372699.880                    23372702.160
     -2723.769       -2122.419          46.050          43.150    91719562.481 7
  23372700.300       -2034.178          46.300


 135228760.077 8                  25733166.920
     -1458.953                          48.800                   100982569.941 7
  25733170.120       -1089.387          46.900   103616887.017 8  25733168.060
     -1117.959          48.900   102299728.630 8  25733169.860       -1103.669
        51.100
 135530107.834 7                  25790524.240
     -3043.007                          44.400                   101207573.616 7
  25790528.900       -2272.330          44.050   103847760.577 7  25790524.380
     -2331.575          42.600   102527666.255 7  25790528.940       -2301.953
        46.900
 141838094.859 7                  26990886.040
      1054.179                          45.900                   105918095.642 7
  26990890.360         787.132          46.100   108681158.473 7  26990887.200
       807.711          45.850   107299624.215 8  26990889.240         797.416
        49.300
 134516218.144 8                  25597569.600
      2300.207                          49.050                   100450492.738 8
  25597572.660        1717.634          49.400   103070917.546 8  25597570.040
      1762.437          49.050   101760705.795 8  25597572.060        1740.034
        52.600
 134876599.049 6                  25666157.720
      3125.912                          40.850                   100719557.573 6
  25666159.560        2334.204          41.550   103347012.750 6  25666158.220
      2394.940          41.550   102033284.308 7  25666159.340        2364.582
        44.950
 133274686.292 7                  25361314.180
      1088.859                          45.800                    99523348.967 7
  25361316.080         813.051          47.250   102119596.856 7  25361311.580
       834.361          45.700   100821480.063 8  25361314.100         823.702
        49.900
 126739085.162 8                  24117621.060
     -1264.225                          53.100                    94642892.523 8
  24117622.300        -944.052          53.000    97111836.571 8  24117619.600
      -968.701          53.400    95877367.699 9  24117621.340        -956.377
        56.550
 125405361.456 8                  23863824.380
      1173.023                          52.350                    93646980.484 8
  23863827.820         875.953          52.300    96089920.379 8  23863825.200
       898.813          53.300    94868445.080 9  23863826.780         887.408
        56.050
 141981506.622 7                  27018165.080
     -1734.185                          45.050                   106025218.206 7
  27018165.920       -1295.086          44.600   108791064.387 7  27018165.660
     -1328.742          46.100   107408143.942 8  27018166.040       -1311.878
        48.600
 23 12 27 16  8 30.0000000  0 18G06G11G12G25G26G28G29G31G32E03E05E08
                                E10E11E12E24E25E33
 129060111.922 6 100566372.08846  24559307.980                    24559308.920
     -2568.674       -2001.562          41.300          40.950    96376128.560 7
  24559310.500       -1918.176          45.700


 121944273.642 7  95021548.18847  23205205.060                    23205204.500
      -751.894        -585.890          46.300          43.600    91062346.259 8
  23205209.040        -561.503          49.750


 117288754.635 8  91393886.79948  22319283.720                    22319281.200
     -2785.516       -2170.531          48.550          48.300



 105325084.341 8  82071535.35748  20042683.140                    20042683.260
     -1038.055        -808.873          51.700          51.700    78652049.637 9
  20042683.980        -775.226          55.200


 130538411.962 6 101718281.03445  24840626.380                    24840633.100
      3348.815        2609.481          39.200          33.550    97480027.803 6
  24840632.620        2500.412          41.000


 111137421.035 8  86600598.94948  21148729.620                    21148727.840
      1702.702        1326.781          49.150          48.200    82992296.340 9
  21148733.240        1271.483          54.750


 109656313.167 8  85446582.05148  20866858.580                    20866856.860
      1690.002        1316.885          50.550          50.700



 118984967.892 7  92715597.81447  22642068.580                    22642067.480
      2891.827        2253.375          47.050          44.600



 122906281.318 7  95771169.32847  23388280.060                    23388282.440
     -2734.344       -2130.659          45.900          42.900    91780702.772 7
  23388280.640       -2042.013          46.350


 135272710.571 8                  25741530.400
     -1471.446                          48.200                   101015390.118 7
  25741533.400       -1098.929          46.800   103650563.350 8  25741531.540
     -1127.552          48.800   102332976.885 8  25741533.240       -1113.213
        50.550
 135621419.874 7                  25807900.060
     -3044.846                          43.750                   101275761.098 7
  25807904.960       -2273.808          44.200   103917726.889 7  25807900.440
     -2333.116          43.050   102596743.147 7  25807905.240       -2303.457
        46.650
 141806672.648 7                  26984907.000
      1040.285                          45.700                   105894631.043 7
  26984911.040         776.828          45.950   108657081.756 7  26984907.880
       797.089          46.050   107275853.552 8  26984909.740         787.025
        48.850
 134447364.593 8                  25584466.880
      2289.731                          48.950                   100399076.169 8
  25584470.240        1709.818          49.150   103018159.671 8  25584467.760
      1754.391          49.150   101708618.569 8  25584469.520        1732.138
        52.100
 134782881.098 6                  25648323.780
      3122.015                          40.550                   100649573.431 6
  25648325.700        2331.284          41.300   103275202.906 6  25648324.180
      2391.997          41.850   101962387.325 7  25648325.340        2361.535
        44.650
 133242231.671 7                  25355138.320
      1074.364                          46.250                    99499113.425 7
  25355140.120         802.216          47.150   102094729.074 7  25355135.800
       823.138          46.050   100796928.401 8  25355138.060         812.694
        49.550
 126777092.466 8                  24124853.700
     -1270.044                          52.550                    94671274.603 8
  24124854.760        -948.400          52.950    97140959.061 8  24124852.140
      -973.192          53.450    95906119.982 9  24124853.920        -960.763
        56.050
 125370251.066 8                  23857143.160
      1167.193                          52.700                    93620761.714 8
  23857146.380         871.650          52.250    96063017.633 8  23857143.860
       894.392          53.400    94841884.326 9  23857145.480         883.008
        55.650
 142033713.397 7                  27028099.700
     -1746.518                          44.850                   106064203.796 7
  27028100.820       -1304.394          44.950   108831067.005 7  27028100.300
     -1338.358          46.400   107447638.050 8  27028100.600       -1321.383
        48.450
 23 12 27 16  9  0.0000000  0 18G06G11G12G25G26G28G29G31G32E03E05E08
                                E10E11E12E24E25E33
 129137368.154 6 100626571.79646  24574009.240                    24574010.340
     -2582.105       -2012.031          41.450          41.750    96433819.959 7
  24574011.860       -1928.212          45.400


 121967121.372 7  95039351.65347  23209552.600                    23209552.200
      -771.213        -600.945          45.950          43.300    91079407.933 8
  23209556.900        -576.047          49.800


 117372418.155 8  91459079.16548  22335204.280                    22335201.880
     -2792.160       -2175.709          48.600          48.600



 105356416.050 8  82095949.69248  20048645.340                    20048645.400
     -1050.947        -818.920          51.800          52.000    78675446.718 9
  20048646.360        -784.800          55.600


 130437970.740 6 101640015.42745  24821512.780                    24821519.600
      3347.424        2608.391          39.950          34.450    97405023.332 6
  24821519.080        2499.642          41.150


 111086575.949 8  86560979.43148  21139054.080                    21139052.340
      1686.755        1314.354          49.350          48.200    82954327.645 9
  21139057.820        1259.595          54.950


 109605857.380 8  85407265.88448  20857257.180                    20857255.440
      1673.693        1304.178          50.900          50.800



 118898364.708 7  92648114.88147  22625588.520                    22625587.180
      2881.530        2245.351          47.500          45.250



 122988469.542 7  95835212.07747  23403919.980                    23403922.140
     -2744.743       -2138.760          46.350          43.000    91842077.060 7
  23403920.760       -2049.682          46.900


 135317040.968 8                  25749966.060
     -1483.962                          48.050                   101048493.973 7
  25749969.160       -1108.146          47.150   103684530.777 8  25749967.320
     -1137.019          48.600   102366512.529 8  25749968.920       -1122.609
        50.600
 135712789.715 7                  25825287.000
     -3046.548                          44.350                   101343991.753 7
  25825291.920       -2275.044          43.700   103987737.483 7  25825287.540
     -2334.381          43.000   102665863.772 7  25825292.480       -2304.626
        46.400
 141775668.498 7                  26979007.280
      1026.460                          45.400                   105871478.634 7
  26979011.420         766.513          46.350   108633325.362 7  26979007.960
       786.515          45.850   107252399.153 8  26979009.780         776.544
        48.950
 134378828.515 8                  25571424.580
      2279.167                          49.100                   100347896.679 8
  25571428.400        1702.004          49.700   102965645.050 8  25571425.580
      1746.345          49.200   101656771.515 8  25571427.440        1724.194
        52.350
 134689283.738 6                  25630512.780
      3117.651                          41.300                   100579679.316 6
  25630514.680        2328.164          41.350   103203485.466 6  25630513.160
      2388.859          41.850   101891581.551 7  25630514.320        2358.413
        44.550
 133210216.360 7                  25349046.180
      1059.800                          46.900                    99475205.921 7
  25349047.680         791.393          46.850   102070197.893 7  25349043.800
       812.131          46.450   100772709.056 8  25349045.660         801.784
        49.500
 126815276.058 8                  24132119.680
     -1275.729                          52.850                    94699788.334 8
  24132120.680        -952.661          53.050    97170216.628 8  24132118.380
      -977.524          53.700    95935005.638 9  24132120.060        -965.111
        56.200
 125335315.435 8                  23850495.240
      1161.642                          53.150                    93594673.454 8
  23850498.180         867.400          52.450    96036248.809 8  23850495.780
       890.041          53.550    94815455.782 9  23850497.420         878.728
        55.800
 142086294.454 7                  27038105.480
     -1759.023                          44.950                   106103468.887 7
  27038107.020       -1313.415          45.350   108871356.407 7  27038106.320
     -1347.753          46.650   107487415.303 8  27038106.440       -1330.588
        48.700
 23 12 27 16  9 30.0000000  0 18G06G11G12G25G26G28G29G31G32E03E05E08
                                E10E11E12E24E25E33
 129215034.974 6 100687091.46246  24588788.760                    24588789.900
     -2595.637       -2022.575          39.950          39.900    96491817.966 7
  24588791.400       -1938.278          45.500


 121990557.556 7  95057613.66047  23214012.160                    23214011.720
      -790.940        -616.316          45.500          43.700    91096909.028 8
  23214016.360        -590.652          49.200


 117456283.298 7  91524428.61747  22351163.220                    22351161.160
     -2798.721       -2180.823          47.850          47.900



 105388136.232 8  82120666.74848  20054681.540                    20054681.400
     -1063.794        -828.930          51.800          51.750    78699133.901 9
  20054682.780        -794.310          55.950


 130337570.342 6 101561781.60946  24802407.260                    24802413.640
      3345.755        2607.096          39.850          38.300    97330049.293 6
  24802413.320        2498.763          40.500


 111036212.617 8  86521735.30647  21129470.180                    21129468.380
      1670.853        1301.964          49.150          47.950    82916718.706 9
  21129474.100        1247.695          55.050


 109555893.328 8  85368332.89148  20847749.340                    20847747.500
      1657.297        1291.401          50.650          50.700



 118812077.593 7  92580878.23447  22609168.620                    22609167.120
      2870.893        2237.061          47.650          44.750



 123070966.907 7  95899495.69547  23419618.560                    23419620.740
     -2755.001       -2146.753          46.150          42.950    91903682.187 7
  23419619.640       -2057.277          46.550


 135361748.676 7                  25758473.420
     -1496.471                          47.550                   101081879.584 7
  25758476.900       -1117.476          47.600   103718787.312 8  25758474.980
     -1146.627          48.550   102400333.604 8  25758476.400       -1132.058
        50.800
 135804214.278 7                  25842684.320
     -3048.309                          44.100                   101412263.268 7
  25842688.980       -2276.246          43.650   104057790.005 7  25842685.300
     -2335.775          43.550   102735025.789 7  25842690.120       -2305.994
        46.550
 141745082.035 7                  26973186.900
      1012.642                          44.800                   105848638.117 7
  26973191.320         756.222          46.550   108609888.999 7  26973187.540
       775.933          45.900   107229260.710 8  26973189.260         766.109
        49.050
 134310610.456 8                  25558443.040
      2268.638                          48.550                   100296954.646 8
  25558446.900        1694.184          49.550   102913374.090 8  25558444.180
      1738.294          49.300   101605165.020 8  25558445.880        1716.258
        52.350
 134595807.739 6                  25612725.020
      3113.985                          41.100                   100509875.795 6
  25612726.840        2325.314          41.800   103131860.978 6  25612725.060
      2386.117          41.950   101820867.548 7  25612726.460        2355.587
        44.850
 133178639.982 7                  25343037.560
      1045.299                          47.000                    99451626.192 7
  25343038.660         780.553          46.600   102046003.040 7  25343035.360
       800.882          46.800   100748821.767 8  25343036.880         790.724
        49.550
 126853634.540 8                  24139418.880
     -1281.494                          52.650                    94728432.659 8
  24139419.860        -956.960          53.100    97199608.197 8  24139417.920
      -981.907          53.800    95964023.579 9  24139419.460        -969.414
        56.300
 125300553.638 8                  23843880.380
      1155.849                          52.750                    93568715.001 8
  23843883.040         863.146          52.500    96009613.175 8  23843880.740
       885.683          53.650    94789158.739 9  23843882.480         874.426
        55.900
 142139247.058 7                  27048182.020
     -1771.121                          45.450                   106143011.454 7
  27048184.120       -1322.600          45.900   108911930.519 7  27048183.000
     -1357.106          46.800   107527473.636 8  27048183.000       -1339.823
        49.000
 23 12 27 16 10  0.0000000  0 18G06G11G12G25G26G28G29G31G32E03E05E08
                                E10E11E12E24E25E33
 129293106.882 6 100747926.73946  24603645.260                    24603646.560
     -2608.828       -2032.852          40.900          40.300    96550118.459 7
  24603647.820       -1948.135          45.200


 122014578.467 7  95076331.29447  23218583.180                    23218582.620
      -810.172        -631.301          46.100          43.550    91114846.749 8
  23218586.700        -604.956          48.450


 117540345.925 8  91589931.93348  22367159.720                    22367158.120
     -2805.036       -2185.744          48.550          48.650



 105420241.283 8  82145683.69348  20060791.020                    20060790.820
     -1076.383        -838.739          52.000          52.000    78723108.481 9
  20060792.380        -803.760          55.850


 130237208.537 6 101483577.82446  24783308.860                    24783315.200
      3344.984        2606.489          38.600          37.100    97255104.072 6
  24783315.020        2497.922          41.550


 110986329.997 8  86482865.75948  21119977.780                    21119975.940
      1654.949        1289.571          49.250          48.350    82879468.737 9
  21119981.760        1235.828          54.750


 109506418.821 8  85329781.36248  20838334.620                    20838332.660
      1641.220        1278.874          50.550          50.450



 118726105.778 7  92513887.27047  22592808.680                    22592807.100
      2860.733        2229.145          47.650          44.350



 123153767.324 7  95964015.48047  23435374.940                    23435377.000
     -2764.689       -2154.304          45.600          43.800    91965513.652 7
  23435376.100       -2064.672          46.450


 135406829.366 7                  25767051.760
     -1508.701                          47.600                   101115543.733 7
  25767055.740       -1126.659          47.650   103753329.657 7  25767053.580
     -1156.091          47.900   102434436.845 8  25767054.920       -1141.331
        50.950
 135895688.484 7                  25860091.300
     -3049.742                          43.800                   101480571.861 7
  25860095.680       -2277.357          42.950   104127880.539 7  25860092.880
     -2336.587          43.000   102804225.362 7  25860097.020       -2307.083
        46.350
 141714911.026 7                  26967445.240
       998.894                          44.650                   105826107.850 7
  26967450.140         745.972          46.300   108586770.966 7  26967445.940
       765.470          45.350   107206436.564 8  26967447.800         755.671
        49.100
 134242709.134 8                  25545521.920
      2258.254                          49.300                   100246249.144 8
  25545525.900        1686.354          49.400   102861345.820 8  25545522.840
      1730.399          49.100   101553798.132 8  25545524.600        1708.409
        52.550
 134502452.061 6                  25594960.100
      3110.329                          41.250                   100440162.139 6
  25594962.020        2322.604          41.700   103060328.719 7  25594959.980
      2383.116          42.050   101750244.577 7  25594961.440        2352.905
        45.200
 133147500.423 7                  25337111.980
      1030.982                          46.900                    99428372.656 7
  25337112.800         769.822          46.050   102022142.899 7  25337110.020
       789.936          46.600   100725264.935 8  25337111.260         779.806
        49.600
 126892164.676 8                  24146750.720
     -1286.936                          52.450                    94757205.178 8
  24146751.740        -961.078          52.750    97229131.300 8  24146749.960
      -986.130          53.550    95993171.394 9  24146751.520        -973.626
        56.400
 125265962.922 8                  23837298.140
      1150.383                          53.150                    93542884.302 8
  23837300.460         859.093          52.250    95983108.632 8  23837298.200
       881.470          53.250    94762991.118 9  23837300.060         870.299
        56.000
 142192566.768 7                  27058328.360
     -1783.190                          45.650                   106182828.146 7
  27058330.940       -1331.638          45.900   108952785.905 7  27058329.540
     -1366.384          46.350   107567809.676 8  27058329.440       -1348.965
        49.250
 23 12 27 16 10 30.0000000  0 18G06G11G12G25G26G28G29G31G32E03E05E08
                                E10E11E12E24E25E33
 129371582.759 6 100809076.81746  24618578.460                    24618579.860
     -2622.847       -2043.778          38.600          39.150    96608720.611 7
  24618581.300       -1958.385          45.400


 122039184.756 7  95095505.07547  23223265.840                    23223265.000
      -829.985        -646.739          46.150          44.250    91133221.624 8
  23223268.400        -619.821          48.400


 117624606.185 8  91655589.26548  22383193.960                    22383192.620
     -2811.983       -2191.156          49.150          49.150



 105452731.993 8  82171001.13948  20066973.800                    20066973.680
     -1089.477        -848.942          51.050          51.050    78747371.042 9
  20066975.240        -813.553          56.100


 130136887.761 6 101405406.03046  24764218.360                    24764224.640
      3343.485        2605.322          38.950          38.300    97180189.469 7
  24764224.620        2496.592          43.050


 110936931.434 8  86444373.40548  21110577.520                    21110575.780
      1638.392        1276.670          49.250          48.250    82842580.233 9
  21110581.380        1223.563          54.800


 109457436.270 8  85291613.18248  20829013.440                    20829011.380
      1624.475        1265.827          49.850          49.800



 118640453.219 7  92447145.08247  22576509.560                    22576507.900
      2849.780        2220.611          47.650          45.050



 123236869.254 7  96028770.19247  23451188.580                    23451190.840
     -2775.115       -2162.428          45.300          43.000    92027570.231 7
  23451190.420       -2072.336          46.850


 135452283.092 7                  25775701.080
     -1521.386                          47.700                   101149486.443 8
  25775705.540       -1136.104          48.200   103788157.828 8  25775703.280
     -1165.686          48.000   102468822.287 8  25775704.460       -1150.925
        51.150
 135987211.781 7                  25877507.780
     -3051.649                          43.750                   101548917.120 7
  25877511.740       -2278.746          42.850   104198008.726 7  25877509.600
     -2338.173          43.150   102873462.079 7  25877513.300       -2308.551
        46.150
 141685157.733 7                  26961782.960
       984.729                          44.050                   105803889.501 7
  26961788.260         735.369          46.350   108563973.008 7  26961784.020
       754.513          45.550   107183928.407 8  26961785.840         744.979
        49.000
 134175127.662 8                  25532661.800
      2247.294                          49.400                   100195782.492 8
  25532665.540        1678.221          49.550   102809562.655 8  25532662.600
      1721.938          49.350   101502673.223 8  25532664.260        1700.099
        52.550
 134409220.235 6                  25577218.920
      3105.600                          41.750                   100370540.966 6
  25577220.620        2319.059          41.800   102988891.332 7  25577218.460
      2379.570          42.150   101679715.292 7  25577220.000        2349.418
        45.000
 133116799.907 7                  25331269.860
      1016.006                          46.350                    99405446.966 7
  25331270.540         758.736          46.250   101998619.146 7  25331268.020
       778.509          46.800   100702040.204 8  25331269.200         768.633
        49.550
 126930867.739 8                  24154115.500
     -1293.000                          51.950                    94786106.810 8
  24154116.600        -965.534          53.000    97258786.891 8  24154114.940
      -990.733          53.900    96022450.008 9  24154116.460        -978.127
        56.600
 125231544.975 8                  23830748.740
      1144.312                          52.800                    93517182.622 8
  23830750.840         854.534          52.450    95956736.467 8  23830748.680
       876.840          53.650    94736954.197 9  23830750.520         865.688
        56.100
 142246253.496 7                  27068544.600
     -1795.701                          45.650                   106222918.909 7
  27068547.380       -1340.926          45.950   108993922.510 7  27068545.640
     -1375.867          46.600   107608423.362 8  27068545.720       -1358.401
        49.250
 23 12 27 16 11  0.0000000  0 18G06G11G12G25G26G28G29G31G32E03E05E08
                                E10E11E12E24E25E33
 129450458.824 6 100870538.74046  24633587.720                    24633589.420
     -2635.543       -2053.669          39.050          39.000    96667621.629 7
  24633591.100       -1968.059          45.900


 122064374.519 7  95115133.51547  23228059.620                    23228058.340
      -849.101        -661.635          46.750          42.400    91152032.210 8
  23228061.400        -634.088          48.050


 117709061.965 8  91721398.96048  22399265.680                    22399264.040
     -2818.197       -2195.998          49.650          49.700



 105485606.688 8  82196617.79748  20073229.540                    20073229.520
     -1101.966        -858.674          51.250          51.250    78771920.343 9
  20073231.040        -822.883          56.050


 130036607.692 6 101327265.89546  24745135.380                    24745141.800
      3341.911        2604.090          38.500          37.000    97105305.256 7
  24745141.940        2495.744          43.100


 110888017.766 8  86406258.88748  21101269.500                    21101267.980
      1622.678        1264.426          49.550          48.800    82806053.830 9
  21101273.080        1211.687          54.600


 109408945.178 8  85253827.95248  20819785.780                    20819783.580
      1608.419        1253.314          49.850          49.950



 118555120.986 7  92380652.48047  22560271.420                    22560269.680
      2839.248        2212.402          47.950          44.800



 123320268.477 7  96093756.56547  23467058.900                    23467061.400
     -2784.503       -2169.745          46.150          43.050    92089848.835 7
  23467061.140       -2079.478          46.550


 135498107.340 8                  25784421.000
     -1533.304                          48.000                   101183705.838 8
  25784425.880       -1145.065          48.450   103823269.913 7  25784423.360
     -1174.924          47.800   102503488.030 8  25784424.560       -1160.060
        51.100
 136078781.085 7                  25894932.900
     -3052.881                          43.950                   101617296.702 7
  25894937.060       -2279.611          43.800   104268172.143 7  25894935.000
     -2339.208          42.350   102942733.574 7  25894938.260       -2309.369
        46.250
 141655821.760 7                  26956200.260
       971.052                          43.750                   105781982.813 7
  26956205.920         725.089          46.350   108541494.811 7  26956201.600
       744.111          45.450   107161735.962 8  26956203.220         734.647
        49.050
 134107866.695 8                  25519862.720
      2236.859                          49.900                   100145555.180 8
  25519866.280        1670.452          49.750   102758025.048 8  25519863.200
      1713.988          49.400   101451790.768 8  25519864.880        1692.215
        52.650
 134316113.083 7                  25559501.520
      3101.576                          42.250                   100301012.890 6
  25559503.020        2316.047          41.900   102917549.472 7  25559500.680
      2376.521          42.350   101609280.332 7  25559502.300        2346.281
        45.300
 133086538.144 7                  25325511.200
      1001.719                          46.750                    99382848.922 7
  25325511.800         747.968          46.250   101975431.594 7  25325509.200
       767.407          46.550   100679147.412 8  25325510.640         757.696
        49.500
 126969742.376 8                  24161513.000
     -1298.443                          52.050                    94815136.584 8
  24161514.340        -969.684          53.200    97288573.961 9  24161512.640
      -994.915          54.000    96051858.424 9  24161514.080        -982.274
        56.650
 125197298.960 8                  23824231.880
      1138.890                          52.950                    93491609.329 8
  23824234.080         850.463          52.750    95930496.044 8  23824232.040
       872.681          53.750    94711047.338 9  23824233.700         861.581
        56.200
 142300304.591 7                  27078830.180
     -1807.653                          45.700                   106263281.760 7
  27078833.000       -1349.703          45.750   109035338.307 7  27078831.060
     -1384.995          46.100   107649312.685 8  27078831.280       -1367.317
        48.900
 23 12 27 16 11 30.0000000  0 18G06G11G12G25G26G28G29G31G32E03E05E08
                                E10E11E12E24E25E33
 129529736.975 6 100932313.96046  24648673.580                    24648675.320
     -2648.894       -2064.072          39.050          38.550    96726822.893 7
  24648677.340       -1978.095          45.650


 122090151.374 7  95135219.43347  23232965.000                    23232963.340
      -868.696        -676.905          46.900          43.500    91171281.226 7
  23232966.300        -648.701          47.550


 117793716.651 8  91787363.66248  22415375.220                    22415373.400
     -2824.771       -2201.120          49.600          49.700



 105518869.168 8  82222536.62548  20079559.080                    20079559.260
     -1114.849        -868.713          51.000          50.900    78796759.220 9
  20079560.500        -832.515          55.550


 129936373.579 6 101249161.65846  24726061.380                    24726067.860
      3340.724        2603.167          38.650          38.450    97030455.379 7
  24726068.020        2494.618          44.200


 110839595.344 8  86368527.15448  21092054.960                    21092053.620
      1606.212        1251.595          49.250          48.400    82769894.256 9
  21092058.140        1199.395          54.000


 109360950.551 8  85216429.58048  20810652.620                    20810650.360
      1591.884        1240.431          49.850          49.800



 118470116.095 8  92314414.95047  22544095.700                    22544093.640
      2828.308        2203.877          48.850          44.750



 123403966.394 7  96158975.68647  23482986.080                    23482988.820
     -2794.505       -2177.536          46.400          42.950    92152350.500 7
  23482988.240       -2086.852          46.400


 135544305.145 8                  25793212.060
     -1545.828                          48.400                   101218204.185 8
  25793217.240       -1154.261          48.350   103858668.223 7  25793214.620
     -1184.399          47.900   102538436.351 8  25793215.800       -1169.321
        51.400
 136170398.826 7                  25912367.140
     -3054.384                          43.300                   101685712.464 7
  25912371.700       -2280.877          43.550   104338372.686 7  25912369.380
     -2340.470          42.600   103012041.731 7  25912372.700       -2310.636
        46.650
 141626908.311 7                  26950698.180
       957.044                          43.550                   105760391.630 7
  26950703.820         714.700          45.900   108519340.374 7  26950699.800
       733.386          45.600   107139863.151 8  26950701.060         724.008
        49.000
 134040932.317 8                  25507125.840
      2225.983                          50.350                   100095571.757 8
  25507129.080        1662.275          49.550   102706737.709 8  25507126.160
      1705.648          49.550   101401155.386 8  25507127.660        1683.957
        52.800
 134223136.907 7                  25541808.980
      3097.284                          42.050                   100231582.656 6
  25541810.360        2312.844          41.750   102846308.013 7  25541808.040
      2373.307          42.700   101538944.485 7  25541809.520        2343.115
        45.550
 133056720.311 7                  25319836.900
       986.842                          47.000                    99360582.380 7
  25319837.520         736.925          46.050   101952584.178 7  25319834.740
       756.116          46.350   100656590.433 8  25319836.500         746.504
        49.550
 127008792.815 8                  24168944.060
     -1304.289                          52.600                    94844297.632 8
  24168945.660        -973.985          52.950    97318495.732 9  24168943.760
      -999.408          54.050    96081399.834 9  24168945.100        -986.667
        56.750
 125163229.498 8                  23817748.620
      1133.013                          52.850                    93466167.892 8
  23817751.040         846.018          52.450    95904390.913 8  23817749.060
       868.146          53.800    94685274.051 9  23817750.500         857.101
        56.350
 142354722.972 7                  27089185.540
     -1819.708                          45.350                   106303918.892 7
  27089188.300       -1358.932          45.550   109077035.532 7  27089186.300
     -1394.298          46.050   107690479.862 8  27089186.760       -1376.580
        49.100
 23 12 27 16 12  0.0000000  0 18G06G11G12G25G26G28G29G31G32E03E05E08
                                E10E11E12E24E25E33
 129609410.417 6 100994397.18246  24663834.800                    24663836.540
     -2661.716       -2074.065          38.700          39.200    96786319.352 7
  24663838.640       -1987.884          45.300


 122116510.241 7  95155758.83446  23237981.000                    23237978.980
      -887.821        -691.810          46.900          41.800    91190964.842 7
  23237981.980        -663.084          47.400


 117878565.128 8  91853479.37148  22431521.460                    22431519.680
     -2831.099       -2206.052          48.250          48.200



 105552514.530 8  82248753.80448  20085961.460                    20085961.720
     -1127.495        -878.567          51.050          51.050    78821884.025 9
  20085962.660        -841.957          55.600


 129836182.022 6 101171090.55246  24706995.460                    24707001.900
      3339.491        2602.209          38.300          37.650    96955637.296 7
  24707002.080        2493.705          44.400


 110791661.832 8  86331176.40148  21082933.420                    21082932.180
      1590.027        1238.983          49.100          48.550    82734099.778 8
  21082936.280        1187.361          53.950


 109313449.397 8  85179415.73748  20801613.380                    20801611.120
      1575.553        1227.705          50.050          50.200



 118385436.558 8  92248430.93447  22527981.780                    22527979.540
      2817.597        2195.531          48.400          45.100



 123487955.687 7  96224421.84547  23498968.780                    23498971.560
     -2803.993       -2184.932          46.350          42.800    92215069.715 7
  23498971.440       -2093.964          46.750


 135590870.876 8                  25802073.240
     -1557.951                          48.400                   101252977.288 8
  25802078.500       -1163.442          48.650   103894348.462 8  25802075.900
     -1193.741          48.000   102573663.026 8  25802077.060       -1178.624
        51.400
 136262058.797 7                  25929809.380
     -3055.581                          43.800                   101754159.733 7
  25929814.140       -2281.762          43.800   104408605.552 7  25929811.740
     -2341.265          43.400   103081381.795 7  25929815.240       -2311.551
        46.850
 141598413.871 7                  26945275.860
       943.418                          44.100                   105739113.366 7
  26945281.280         704.318          45.550   108497507.016 7  26945277.420
       722.696          45.450   107118307.338 8  26945278.660         713.538
        48.400
 133974321.963 8                  25494450.420
      2215.290                          50.300                   100045830.312 8
  25494453.620        1654.338          49.850   102655698.654 8  25494450.600
      1697.406          49.750   101350765.135 8  25494452.080        1675.894
        52.900
 134130289.524 7                  25524140.980
      3093.287                          43.000                   100162248.589 6
  25524142.020        2309.851          41.750   102775165.233 7  25524139.940
      2370.207          42.850   101468706.062 7  25524141.260        2340.061
        45.350
 133027342.992 7                  25314246.380
       972.277                          46.550                    99338644.785 7
  25314247.040         726.134          46.300   101930074.304 7  25314244.040
       745.028          46.250   100634366.698 8  25314246.140         735.558
        49.450
 127048014.600 8                  24176407.760
     -1309.796                          52.450                    94873586.639 8
  24176409.700        -978.083          53.100    97348548.796 9  24176407.420
     -1003.625          54.050    96111070.873 9  24176408.720        -990.865
        56.600
 125129332.649 8                  23811298.200
      1127.403                          52.650                    93440855.332 8
  23811300.820         841.935          52.600    95878418.026 8  23811298.780
       863.881          53.700    94659631.329 9  23811300.120         852.897
        56.150
 142409502.833 7                  27099609.680
     -1831.670                          44.900                   106344825.939 7
  27099612.300       -1367.782          45.650   109119009.722 7  27099610.160
     -1403.436          45.750   107731920.484 8  27099611.020       -1385.629
        48.750
 23 12 27 16 12 30.0000000  0 18G06G11G12G25G26G28G29G31G32E03E05E08
                                E10E11E12E24E25E33
 129689478.040 6 101056787.59146  24679071.320                    24679072.780
     -2675.078       -2084.475          39.000          39.500    96846110.168 7
  24679074.900       -1997.695          45.050


 122143451.825 7  95176752.31346  23243107.600                    23243105.400
      -907.475        -707.121          46.150          41.500    91211083.591 7
  23243108.660        -677.632          47.550


 117963607.846 7  91919746.41148  22447704.380                    22447702.900
     -2837.601       -2211.117          47.950          48.050



 105586543.699 8  82275270.04648  20092436.780                    20092437.020
     -1140.370        -888.600          50.550          50.600    78847295.431 9
  20092437.980        -851.582          55.600


 129736035.366 6 101093054.42346  24687938.040                    24687944.500
      3337.508        2600.666          38.650          36.350    96880852.693 7
  24687944.320        2492.565          44.350


 110744220.636 8  86294209.26148  21073905.620                    21073904.300
      1573.480        1226.089          49.350          48.500    82698672.940 8
  21073908.260        1174.966          53.900


 109266443.296 8  85142787.65048  20792668.420                    20792666.120
      1558.877        1214.711          50.550          50.450



 118301086.129 7  92182703.36247  22511930.380                    22511928.020
      2806.380        2186.791          47.850          44.950



 123572234.821 7  96290093.85547  23515006.700                    23515009.380
     -2813.933       -2192.678          46.150          43.600    92278005.383 7
  23515009.180       -2101.243          46.450


 135637804.631 8                  25811004.440
     -1570.221                          48.800                   101288025.206 8
  25811009.760       -1172.600          48.800   103930310.688 8  25811007.240
     -1203.196          48.400   102609168.095 8  25811008.400       -1187.855
        51.550
 136353760.511 7                  25947259.700
     -3057.046                          43.400                   101822638.177 7
  25947264.800       -2282.838          43.300   104478870.413 7  25947262.220
     -2342.455          43.500   103150753.447 7  25947265.640       -2312.610
        46.350
 141570340.757 7                  26939933.720
       928.981                          44.600                   105718149.703 7
  26939938.900         693.719          45.050   108475996.459 7  26939935.240
       711.811          45.800   107097070.227 8  26939936.400         702.764
        48.250
 133908038.858 8                  25481837.160
      2204.223                          50.050                    99996333.264 8
  25481840.380        1645.976          50.100   102604910.369 8  25481837.400
      1688.938          49.750   101300622.470 8  25481838.760        1667.438
        52.850
 134037574.518 7                  25506498.140
      3088.493                          42.950                   100093013.393 7
  25506498.900        2306.341          42.000   102704123.905 7  25506496.920
      2366.422          42.900   101398567.804 7  25506498.180        2336.379
        45.300
 132998408.535 7                  25308740.220
       957.402                          46.800                    99317037.917 7
  25308740.860         714.855          46.500   101907903.760 7  25308737.720
       733.461          46.700   100612477.985 8  25308740.040         724.268
        49.400
 127087409.076 8                  24183904.440
     -1315.747                          52.650                    94903004.600 8
  24183906.560        -982.501          53.200    97378734.182 9  24183903.900
     -1008.185          54.200    96140872.544 9  24183905.180        -995.350
        56.500
 125095610.185 8                  23804880.880
      1121.415                          52.800                    93415673.000 8
  23804883.600         837.450          52.400    95852578.768 8  23804881.540
       859.278          53.750    94634120.536 9  23804882.980         848.354
        55.950
 142464644.209 7                  27110102.520
     -1843.779                          44.600                   106386002.941 7
  27110105.260       -1376.861          45.550   109161260.914 7  27110102.660
     -1412.719          45.850   107773634.579 8  27110104.160       -1394.787
        48.600
 23 12 27 16 13  0.0000000  0 19G06G11G12G20G25G26G28G29G31G32E03E05
                                E08E10E11E12E24E25E33
 129769936.858 6 101119482.83146  24694382.200                    24694383.380
     -2688.601       -2095.010          38.900          39.300    96906193.087 7
  24694385.640       -2007.508          44.750


 122170974.837 7  95198198.85746  23248344.580                    23248342.640
      -926.906        -722.266          45.650          40.800    91231636.538 8
  23248346.420        -692.230          48.000


 118048842.968 8  91986163.38848  22463923.940                    22463922.520
     -2844.063       -2216.154          48.250          48.300



 134911126.707 6 105125539.51645  25672734.480                    25672732.140
      2375.669        1851.169          36.100          31.650



 105620955.565 8  82302084.49848  20098985.060                    20098985.060
     -1153.266        -898.648          50.600          50.400    78872992.617 9
  20098986.400        -861.203          55.800


 129635933.989 6 101015053.58746  24668889.060                    24668895.560
      3335.862        2599.383          38.950          36.450    96806101.934 7
  24668895.560        2491.239          45.200


 110697273.234 8  86257626.89948  21064971.860                    21064970.420
      1556.770        1213.068          49.600          48.000    82663614.839 9
  21064974.440        1162.544          54.000


 109219932.796 8  85106545.74448  20783817.800                    20783815.540
      1542.230        1201.739          50.350          50.350



 118217066.748 7  92117233.77047  22495941.880                    22495939.540
      2795.428        2178.258          47.350          45.000



 123656800.263 7  96355988.96847  23531099.020                    23531101.500
     -2823.399       -2200.053          45.650          43.400    92341154.873 7
  23531101.380       -2108.441          46.500


 135685104.559 8                  25820005.460
     -1582.479                          48.700                   101323346.563 8
  25820010.620       -1181.760          48.800   103966553.484 8  25820008.300
     -1212.623          48.600   102644950.177 8  25820009.420       -1197.199
        51.600
 136445501.646 7                  25964717.460
     -3058.479                          43.700                   101891146.081 7
  25964722.360       -2283.943          42.700   104549165.452 7  25964720.360
     -2343.536          43.900   103220154.916 7  25964723.440       -2313.682
        46.150
 141542689.189 7                  26934671.800
       914.876                          44.250                   105697500.851 7
  26934676.700         683.085          44.750   108454808.929 7  26934673.460
       700.954          45.950   107076152.033 7  26934674.360         692.075
        47.900
 133842084.229 8                  25469286.320
      2193.206                          49.850                    99947081.516 8
  25469289.800        1637.746          50.250   102554373.785 8  25469286.680
      1680.418          50.050   101250728.302 8  25469287.900        1659.099
        53.000
 133944993.229 7                  25488880.620
      3083.816                          42.850                   100023878.089 7
  25488881.380        2302.899          42.150   102633185.068 7  25488879.500
      2362.854          43.250   101328530.726 7  25488880.500        2332.867
        45.450
 132969917.120 7                  25303318.420
       942.476                          46.400                    99295761.882 7
  25303319.120         703.878          46.650   101886072.688 7  25303315.960
       722.185          46.800   100590924.436 8  25303318.220         713.060
        49.550
 127126975.581 8                  24191433.940
     -1321.575                          52.550                    94932551.039 8
  24191436.100        -986.931          53.250    97409051.394 9  24191433.120
     -1012.637          54.000    96170804.370 9  24191434.400        -999.801
        56.350
 125062061.936 8                  23798496.660
      1115.529                          52.400                    93390620.765 8
  23798499.320         833.004          52.300    95826872.997 8  23798497.420
       854.740          53.650    94608741.533 9  23798499.000         843.866
        55.800
 142520145.077 7                  27120663.540
     -1855.854                          43.900                   106427448.412 7
  27120666.580       -1385.873          45.600   109203787.585 7  27120663.560
     -1422.077          45.550   107815620.649 8  27120665.680       -1403.949
        48.350
 23 12 27 16 13 30.0000000  0 19G06G11G12G20G25G26G28G29G31G32E03E05
                                E08E10E11E12E24E25E33
 129850786.701 6 101182482.73946  24709767.440                    24709768.400
     -2701.732       -2105.242          38.850          39.700    96966568.038 7
  24709770.780       -2017.624          45.000


 122199080.850 7  95220099.66346  23253692.660                    23253690.560
      -946.988        -737.913          45.650          41.750    91252624.822 8
  23253695.240        -707.149          48.250


 118134272.143 7  92052731.57647  22480180.460                    22480178.760
     -2851.169       -2221.690          47.550          47.600



 134839985.325 5 105070104.76445  25659196.680                    25659194.160
      2367.090        1844.502          35.150          32.700



 105655752.040 8  82329198.64648  20105606.640                    20105606.380
     -1166.637        -909.066          50.900          50.900    78898977.014 9
  20105608.180        -871.195          55.900


 129535881.262 6 100937090.58246  24649849.400                    24649856.180
      3333.595        2597.612          38.100          37.150    96731387.443 7
  24649855.720        2489.560          45.350


 110650823.968 8  86221432.68448  21056132.980                    21056131.340
      1539.702        1199.769          49.850          48.750    82628928.724 9
  21056135.580        1149.725          54.100


 109173921.085 8  85070692.50048  20775062.080                    20775059.860
      1525.089        1188.382          50.550          50.500



 118133383.472 7  92052026.08847  22480017.300                    22480014.940
      2783.598        2169.039          47.350          45.800



 123741651.460 7  96422106.74747  23547245.660                    23547248.040
     -2833.497       -2207.921          45.550          42.750    92404517.720 7
  23547248.140       -2115.827          46.900


 135732771.727 8                  25829076.380
     -1595.347                          48.900                   101358942.156 8
  25829081.380       -1191.348          48.800   104003077.667 8  25829079.280
     -1222.405          49.100   102681010.067 8  25829080.300       -1206.926
        51.750
 136537282.588 7                  25982182.900
     -3060.288                          44.350                   101959683.686 7
  25982187.940       -2285.280          42.400   104619491.012 7  25982185.920
     -2344.899          43.000   103289586.489 7  25982188.600       -2315.006
        45.600
 141515462.435 7                  26929490.620
       900.082                          44.950                   105677169.192 7
  26929495.020         672.205          44.250   108433946.885 7  26929492.480
       689.716          46.150   107055555.185 7  26929493.260         680.979
        47.800
 133776462.224 8                  25456798.720
      2181.495                          50.400                    99898078.164 8
  25456802.380        1629.071          50.250   102504092.074 8  25456799.240
      1671.561          50.200   101201085.770 8  25456800.400        1650.272
        52.950
 133852550.203 7                  25471289.460
      3078.896                          43.600                    99954846.030 6
  25471289.900        2299.060          41.700   102562352.160 7  25471288.400
      2359.161          43.550   101258598.246 7  25471289.180        2329.034
        45.300
 132941872.144 7                  25297981.620
       927.133                          46.350                    99274819.236 7
  25297982.400         692.312          46.700   101864583.709 7  25297979.280
       710.357          47.100   100569708.626 8  25297981.360         701.315
        49.700
 127166716.440 8                  24198996.480
     -1327.977                          52.700                    94962227.658 8
  24198998.620        -991.639          53.000    97439502.192 9  24198995.540
     -1017.519          54.150    96200868.078 9  24198996.860       -1004.580
        56.250
 125028690.658 8                  23792146.160
      1109.086                          52.300                    93365700.679 8
  23792148.720         828.193          52.300    95801302.823 8  23792146.980
       849.819          53.700    94583496.402 9  23792148.720         839.017
        55.800
 142576006.412 7                  27131293.160
     -1868.407                          43.400                   106469163.072 7
  27131296.600       -1395.226          45.450   109246590.438 7  27131293.260
     -1431.632          45.700   107857879.405 8  27131295.800       -1413.386
        48.400
 23 12 27 16 14  0.0000000  0 19G06G11G12G20G25G26G28G29G31G32E03E05
                                E08E10E11E12E24E25E33
 129932022.523 6 101245783.42746  24725226.100                    24725226.940
     -2714.315       -2115.049          39.250          39.400    97027231.193 7
  24725229.320       -2026.773          44.650


 122227766.441 7  95242452.09446  23259151.300                    23259149.040
      -965.700        -752.493          45.800          41.150    91274045.904 8
  23259154.240        -721.224          48.350


 118219891.892 7  92119448.27848  22496473.320                    22496471.320
     -2857.143       -2226.345          47.950          48.000



 134769063.303 5 105014840.98845  25645700.440                    25645698.320
      2360.655        1839.479          35.600          33.150



 105690929.960 8  82356610.03148  20112300.840                    20112300.320
     -1178.887        -918.612          51.000          51.100    78925246.251 9
  20112302.500        -880.288          55.850


 129435875.499 6 100859164.20846  24630818.940                    24630825.360
      3332.895        2597.070          38.150          37.350    96656708.035 7
  24630825.140        2488.806          45.300


 110604872.227 8  86185626.15148  21047388.720                    21047386.980
      1523.534        1187.171          49.600          48.000    82594614.132 9
  21047391.420        1137.647          54.000


 109128406.513 8  85035226.63648  20766400.920                    20766398.780
      1508.947        1175.805          50.700          50.800



 118050035.932 7  91987080.01447  22464156.620                    22464154.240
      2772.672        2160.525          47.900          45.400



 123826782.801 7  96488442.82647  23563445.540                    23563448.020
     -2842.197       -2214.700          44.800          42.000    92468089.792 7
  23563448.180       -2122.502          46.250


 135780802.189 8                  25838216.520
     -1607.021                          49.200                   101394809.049 8
  25838221.380       -1200.120          48.650   104039880.221 8  25838219.380
     -1231.321          49.350   102717344.789 8  25838220.300       -1215.745
        51.950
 136629098.911 7                  25999655.080
     -3061.219                          43.650                   102028247.741 7
  25999660.180       -2285.976          42.800   104689843.685 7  25999657.880
     -2345.531          42.550   103359044.871 7  25999660.640       -2315.786
        45.700
 141488658.648 7                  26924390.100
       886.442                          44.800                   105657153.413 7
  26924393.980         661.939          43.800   108413408.953 7  26924391.940
       679.191          46.250   107035278.330 7  26924392.660         670.585
        47.850
 133711171.981 8                  25444374.240
      2170.902                          50.400                    99849322.577 8
  25444378.160        1621.084          50.250   102454064.591 8  25444374.980
      1663.411          50.400   101151694.237 8  25444376.000        1642.230
        53.200
 133760244.916 7                  25453724.400
      3074.727                          43.350                    99885916.832 6
  25453724.660        2296.032          41.850   102491624.819 7  25453723.300
      2355.850          43.350   101188769.976 7  25453724.060        2325.951
        45.600
 132914271.781 7                  25292729.380
       912.710                          46.650                    99254208.611 7
  25292730.220         681.504          46.400   101843435.411 7  25292727.280
       699.291          47.350   100548829.160 8  25292729.160         690.379
        49.800
 127206628.931 8                  24206591.560
     -1333.156                          52.700                    94992032.456 8
  24206593.580        -995.566          52.650    97470084.502 9  24206590.600
     -1021.554          54.250    96231061.630 9  24206591.960       -1008.545
        56.250
 124995494.097 8                  23785828.960
      1103.688                          52.350                    93340911.065 8
  23785831.540         824.206          52.350    95775866.528 8  23785829.860
       845.712          53.600    94558383.449 9  23785831.660         834.925
        55.950
 142632224.153 7                  27141990.780
     -1879.697                          43.700                   106511143.853 7
  27141994.580       -1403.683          45.400   109289666.372 7  27141990.880
     -1440.316          45.650   107900407.768 8  27141993.660       -1422.010
        48.550
 23 12 27 16 14 30.0000000  0 20G06G11G12G18G20G25G26G28G29G31G32E03
                                E05E08E10E11E12E24E25E33
 130013642.893 6 101309383.76446  24740757.940                    24740758.720
     -2726.989       -2124.925          39.550          39.150    97088181.546 7
  24740761.020       -2036.430          44.750


 122257031.931 7  95265256.38046  23264720.260                    23264717.920
      -985.123        -767.628          45.950          41.700    91295900.013 8
  23264723.460        -735.698          48.650


 118305702.236 8  92186313.50548  22512802.640                    22512800.300
     -2863.527       -2231.319          48.450          48.750



                                  26001355.920
      3656.312                          38.400                   102034966.578 7
  26001375.000        2730.643          42.400


 134698364.589 6 104959751.13645  25632246.740                    25632245.780
      2352.839        1833.382          37.650          33.750



 105726489.968 8  82384319.14048  20119067.780                    20119066.980
     -1191.878        -928.736          51.250          51.150    78951800.810 9
  20119069.420        -889.966          56.000


 129335918.917 6 100781276.13746  24611797.720                    24611804.220
      3330.928        2595.532          37.700          37.000    96582065.353 7
  24611803.940        2487.447          45.350


 110559421.107 8  86150209.70748  21038739.640                    21038737.880
      1506.608        1173.980          49.300          48.700    82560673.375 9
  21038742.440        1125.093          54.300


 109083390.760 8  85000149.45748  20757834.760                    20757832.620
      1492.127        1162.697          50.700          50.800



 117967028.209 7  91922398.74147  22448360.700                    22448358.260
      2761.280        2151.649          47.850          45.550



 123912192.483 7  96554995.77746  23579698.460                    23579700.900
     -2851.604       -2222.029          45.250          40.700    92531869.707 7
  23579701.080       -2129.436          46.700


 135829195.724 8                  25847425.760
     -1619.125                          48.950                   101430947.063 8
  25847430.440       -1209.107          48.800   104076960.981 8  25847428.520
     -1240.662          49.400   102753954.178 8  25847429.360       -1224.926
        51.700
 136720949.882 7                  26017133.840
     -3062.280                          44.000                   102096837.626 7
  26017139.440       -2286.667          43.750   104760222.919 7  26017136.060
     -2346.386          42.050   103428529.426 7  26017139.440       -2316.536
        45.800
 141462279.755 7                  26919370.340
       872.256                          44.950                   105637454.910 7
  26919373.680         651.284          43.700   108393196.574 7  26919372.440
       668.354          46.300   107015322.892 7  26919372.980         659.788
        47.550
 133646216.393 8                  25432013.500
      2159.455                          50.050                    99800816.873 8
  25432017.440        1612.632          50.550   102404293.514 8  25432014.240
      1654.696          50.300   101102555.843 8  25432015.320        1633.711
        53.100
 133668080.533 7                  25436186.220
      3069.478                          43.850                    99817092.872 7
  25436186.440        2292.282          42.250   102421005.437 7  25436185.060
      2352.019          43.350   101119048.300 7  25436185.680        2322.132
        45.400
 132887117.959 7                  25287562.060
       897.716                          46.050                    99233931.455 7
  25287563.060         670.284          46.750   101822629.280 7  25287560.340
       687.796          47.600   100528287.516 8  25287561.920         679.055
        49.800
 127246714.113 8                  24214219.460
     -1339.056                          52.400                    95021966.210 8
  24214221.320        -999.914          52.600    97500799.126 9  24214218.580
     -1026.021          54.250    96261385.822 9  24214219.860       -1012.967
        56.000
 124962473.777 8                  23779545.360
      1097.670                          52.450                    93316253.061 8
  23779548.060         819.711          52.700    95750565.271 8  23779546.360
       841.080          53.350    94533403.819 9  23779548.120         830.399
        55.750
 142688797.955 7                  27152756.300
     -1891.880                          43.150                   106553390.541 7
  27152760.420       -1412.623          45.600   109333015.137 7  27152756.460
     -1449.529          45.700   107943205.495 8  27152759.260       -1431.107
        48.300
 23 12 27 16 15  0.0000000  0 20G06G11G12G18G20G25G26G28G29G31G32E03
                                E05E08E10E11E12E24E25E33
 130095642.330 6 101373279.50946  24756361.920                    24756362.460
     -2739.362       -2134.563          39.500          39.250    97149414.978 7
  24756364.760       -2045.800          44.250


 122286873.480 7  95288509.55247  23270398.940                    23270396.560
     -1004.200        -782.493          46.150          42.050    91318184.309 8
  23270402.140        -749.937          48.550


 118391699.231 8  92253324.15147  22529167.420                    22529164.880
     -2869.663       -2236.102          48.100          47.750



 136528291.629 5 106385697.27845  25980467.020                    25980479.820
      3661.205        2852.981          34.200          31.800   101953004.553 6
  25980486.500        2733.774          40.650


 134627888.546 5 104904834.86045  25618835.420                    25618834.480
      2345.003        1827.278          35.950          32.550



 105762428.488 8  82412323.19848  20125906.780                    20125905.780
     -1204.133        -938.285          51.150          51.000    78978638.029 9
  20125908.340        -899.244          55.700


 129236009.568 6 100703424.91546  24592785.780                    24592791.800
      3329.976        2594.792          38.800          38.100    96507457.994 7
  24592791.680        2486.376          45.000


 110514469.579 8  86115182.56048  21030185.580                    21030183.960
      1490.041        1161.071          49.200          49.050    82527105.691 9
  21030188.540        1112.720          54.050


 109038871.550 8  84965459.19248  20749363.100                    20749360.880
      1475.718        1149.911          50.550          50.650



 117884359.160 8  91857981.37247  22432629.260                    22432626.780
      2749.970        2142.836          48.200          45.000



 123997874.548 7  96621760.97646  23596003.180                    23596005.580
     -2860.229       -2228.752          44.600          41.700    92595853.011 7
  23596006.160       -2136.103          46.800


 135877948.033 8                  25856703.260
     -1630.970                          49.400                   101467352.992 8
  25856707.900       -1217.968          48.350   104114316.635 8  25856705.880
     -1249.786          49.650   102790834.966 8  25856706.680       -1233.847
        51.850
 136812830.690 7                  26034618.280
     -3062.922                          43.750                   102165449.814 7
  26034623.860       -2287.396          43.050   104830625.003 7  26034620.480
     -2347.168          43.000   103498036.561 7  26034624.140       -2317.282
        46.150
 141436323.577 7                  26914430.980
       858.010                          44.650                   105618072.052 7
  26914434.020         640.946          43.500   108373308.088 7  26914433.400
       657.556          46.350   106995687.216 7  26914433.720         649.313
        47.750
 133581594.215 8                  25419716.240
      2148.598                          49.700                    99752560.156 8
  25419720.280        1604.377          50.300   102354777.918 8  25419717.100
      1646.275          50.200   101053669.689 8  25419718.080        1625.304
        53.150
 133576056.175 7                  25418674.680
      3065.177                          43.750                    99748373.482 6
  25418674.780        2288.885          41.950   102350493.352 7  25418673.500
      2348.601          43.350   101049432.564 7  25418673.980        2318.705
        45.600
 132860408.550 7                  25282479.360
       882.962                          46.350                    99213986.160 7
  25282480.560         659.311          46.600   101802163.669 7  25282477.980
       676.535          47.700   100508082.067 8  25282479.240         667.932
        50.000
 127286968.917 8                  24221879.540
     -1344.626                          51.850                    95052026.623 8
  24221881.340       -1004.079          52.250    97531643.718 9  24221878.900
     -1030.288          54.250    96291838.326 9  24221880.020       -1017.183
        56.050
 124929627.117 8                  23773294.840
      1092.044                          52.200                    93291724.739 8
  23773297.700         815.499          52.700    95725397.080 8  23773295.800
       836.752          53.200    94508555.560 9  23773297.600         826.145
        55.950
 142745723.402 7                  27163588.940
     -1903.356                          43.350                   106595899.823 7
  27163593.040       -1421.419          45.200   109376633.347 7  27163589.200
     -1458.480          45.850   107986269.233 8  27163591.720       -1439.891
        48.350
 23 12 27 16 15 30.0000000  0 20G06G11G12G18G20G25G26G28G29G31G32E02
                                E03E08E10E11E12E24E25E33
 130178018.723 6 101437468.95846  24772037.600                    24772038.140
     -2751.901       -2144.336          40.100          40.400    97210929.890 7
  24772040.020       -2055.097          43.200


 122317290.666 7  95312211.27946  23276187.320                    23276184.940
     -1023.442        -797.487          46.400          41.850    91340898.470 8
  23276190.420        -764.250          48.750


 118477882.425 8  92320479.86848  22545567.460                    22545564.880
     -2875.788       -2240.874          48.250          48.300



 136418405.950 6 106300081.96244  25959554.880                    25959566.200
      3664.764        2855.718          37.850          29.000   101870949.386 6
  25959574.300        2736.854          40.850


 134557638.893 6 104850094.92245  25605467.220                    25605466.480
      2337.646        1821.544          36.050          31.700



 105798745.441 8  82440622.11748  20132817.720                    20132816.780
     -1216.906        -948.239          51.200          51.050    79005757.822 9
  20132819.120        -908.702          55.450


 129136148.936 6 100625611.70346  24573782.700                    24573789.080
      3327.778        2593.081          39.100          39.350    96432887.057 7
  24573788.800        2485.211          45.100


 110470019.982 8  86080546.54148  21021726.980                    21021725.540
      1473.122        1147.890          49.000          48.400    82493912.841 9
  21021730.240        1100.191          54.350


 108994850.315 8  84931156.96448  20740986.180                    20740983.860
      1459.024        1136.903          50.850          50.850



 117802032.087 8  91793830.45947  22416962.960                    22416960.380
      2738.478        2133.880          48.700          44.250



 124083826.452 7  96688736.45546  23612359.300                    23612361.720
     -2869.553       -2236.014          45.600          41.550    92660037.830 7
  23612362.420       -2142.888          46.250


 143952042.681 7                  27393162.780
      2448.410                          44.500                   107496672.280 7
  27393167.400        1828.147          42.250   110300922.635 7  27393164.500
      1876.146          42.350   108898790.617 7  27393167.380        1852.042
        45.650
 135927058.155 8                  25866048.820
     -1642.907                          49.300                   101504026.108 8
  25866053.400       -1226.866          48.100   104151946.443 8  25866051.240
     -1258.850          49.750   102827986.432 8  25866052.040       -1242.867
        52.200
 141410791.275 7                  26909572.380
       843.996                          44.800                   105599005.742 7
  26909575.020         630.260          43.400   108353744.399 7  26909574.960
       646.664          46.400   106976372.221 8  26909575.140         638.445
        48.150
 133517307.632 8                  25407482.820
      2137.271                          50.100                    99704554.034 8
  25407486.820        1596.001          50.600   102305519.454 8  25407483.580
      1637.672          50.200   101005037.394 8  25407484.720        1616.866
        53.700
 133484174.360 7                  25401190.240
      3060.500                          44.500                    99679760.515 7
  25401190.220        2285.381          42.400   102280090.481 7  25401188.900
      2345.019          43.500   100979924.646 7  25401189.420        2315.229
        46.150
 132834144.821 7                  25277481.580
       868.021                          46.750                    99194373.698 7
  25277482.800         648.237          46.750   101782039.581 8  25277480.340
       665.068          48.000   100488213.788 8  25277481.380         656.671
        50.600
 127327393.716 8                  24229571.880
     -1350.288                          51.700                    95082213.985 8
  24229573.720       -1008.345          52.250    97562618.571 9  24229571.560
     -1034.642          54.300    96322419.432 9  24229572.520       -1021.479
        56.500
 124896954.930 8                  23767077.680
      1086.155                          52.450                    93267326.698 8
  23767080.620         811.141          52.850    95700362.561 8  23767078.300
       832.271          53.150    94483839.285 9  23767080.240         821.701
        56.400
 142802999.461 7                  27174488.340
     -1914.991                          43.200                   106638670.907 7
  27174492.320       -1430.088          45.050   109420520.195 7  27174488.760
     -1467.264          45.850   108029598.207 8  27174490.920       -1448.691
        48.800
 23 12 27 16 16  0.0000000  0 20G06G11G12G18G20G25G26G28G29G31G32E02
                                E03E08E10E11E12E24E25E33
 130260774.733 6 101501954.20746  24787785.640                    24787786.060
     -2765.584       -2155.001          40.750          40.700    97272728.232 7
  24787787.720       -2065.122          43.650


 122348287.763 7  95336364.87647  23282086.000                    23282083.820
     -1043.488        -813.106          46.250          42.900    91364045.673 8
  23282089.140        -779.242          49.050


 118564256.043 8  92387783.96548  22562003.800                    22562000.940
     -2882.856       -2246.382          48.450          48.450



 136308402.781 6 106214367.03845  25938620.540                    25938631.340
      3667.975        2858.208          37.200          32.600   101788806.252 6
  25938639.000        2738.985          39.300


 134487623.446 5 104795537.50745  25592143.680                    25592142.520
      2328.960        1814.783          35.000          33.400



 105835445.442 8  82469219.51848  20139801.500                    20139800.680
     -1230.360        -958.723          50.900          50.900    79033163.663 9
  20139802.700        -918.720          55.400


 129036342.998 6 100547841.17446  24554790.060                    24554796.440
      3325.478        2591.291          39.400          36.250    96358357.047 7
  24554796.340        2483.218          45.250


 110426079.404 8  86046307.16648  21013365.200                    21013363.880
      1455.685        1134.301          49.000          48.700    82461100.117 9
  21013368.840        1086.982          54.600


 108951332.869 8  84897247.29348  20732705.040                    20732702.700
      1441.515        1123.260          50.900          50.800



 117720054.630 8  91729951.96647  22401363.280                    22401360.440
      2726.161        2124.282          48.550          44.400



 124170050.318 7  96755923.83846  23628767.080                    23628769.680
     -2878.947       -2243.337          43.850          41.050    92724425.744 7
  23628770.240       -2150.134          46.400


 143878608.817 7                  27379188.720
      2446.649                          44.300                   107441835.579 7
  27379193.420        1826.928          42.250   110244655.391 7  27379189.780
      1874.603          42.300   108843238.637 7  27379193.160        1850.776
        45.350
 135976529.847 8                  25875463.060
     -1655.667                          48.900                   101540969.241 7
  25875467.680       -1236.433          47.850   104189853.299 8  25875465.400
     -1268.562          49.850   102865411.424 8  25875466.180       -1252.499
        51.850
 141385688.788 7                  26904795.620
       829.153                          45.000                   105580260.390 7
  26904798.020         619.105          43.650   108334510.039 7  26904798.160
       635.228          46.400   106957382.366 8  26904798.360         627.266
        48.000
 133453363.467 8                  25395314.520
      2125.206                          49.850                    99656803.615 8
  25395318.540        1586.979          50.500   102256523.365 8  25395315.220
      1628.375          50.000   100956664.144 8  25395316.480        1607.656
        53.250
 133392442.267 7                  25383734.380
      3054.613                          44.200                    99611259.345 7
  25383734.280        2280.950          42.550   102209802.310 7  25383732.700
      2340.540          43.350   100910529.976 7  25383733.340        2310.847
        45.950
 132808332.665 7                  25272569.740
       852.360                          46.150                    99175098.447 7
  25272570.880         636.471          46.750   101762261.486 8  25272568.680
       653.045          48.250   100468687.121 8  25272569.460         644.689
        50.500
 127367993.529 8                  24237297.440
     -1356.774                          51.700                    95112532.035 8
  24237299.520       -1013.224          52.300    97593727.520 9  24237297.500
     -1039.659          54.150    96353132.930 9  24237298.340       -1026.456
        56.150
 124864462.738 8                  23760894.860
      1079.521                          52.750                    93243063.066 8
  23760897.800         806.121          53.100    95675465.961 8  23760895.100
       827.130          53.250    94459259.168 9  23760897.120         816.626
        56.250
 142860629.748 7                  27185455.200
     -1927.421                          44.550                   106681706.527 7
  27185458.820       -1439.345          44.900   109464678.487 7  27185455.820
     -1476.944          45.800   108073195.163 8  27185457.520       -1458.156
        48.350
 23 12 27 16 16 30.0000000  0 20G06G11G12G18G20G25G26G28G29G31G32E02
                                E03E08E10E11E12E24E25E33
 130343900.805 6 101566727.84846  24803603.960                    24803604.380
     -2777.127       -2163.991          39.850          40.000    97334802.998 7
  24803605.860       -2073.986          43.100


 122379856.855 7  95360964.17547  23288093.480                    23288091.500
     -1062.032        -827.558          46.150          43.250    91387620.007 8
  23288096.860        -793.127          49.650


 118650812.068 8  92455230.21148  22578475.040                    22578471.840
     -2888.480       -2250.765          49.150          49.350



 136198278.284 6 106128557.43246  25917663.220                    25917673.360
      3672.462        2861.718          40.800          39.000   101706572.363 7
  25917681.080        2742.398          43.000


 134417838.309 6 104741159.50945  25578863.980                    25578862.700
      2321.772        1809.172          36.850          31.200



 105872520.987 8  82498109.55948  20146856.700                    20146856.160
     -1242.383        -968.090          51.250          51.300    79060849.958 9
  20146857.760        -927.754          55.350


 128936585.847 6 100470108.65746  24535806.560                    24535813.340
      3324.168        2590.272          39.800          38.450    96283863.475 7
  24535812.860        2482.335          44.700


 110382642.876 8  86012460.54848  21005099.500                    21005098.000
      1439.183        1121.441          49.550          48.650    82428663.782 9
  21005103.340        1074.686          54.700


 108908312.813 8  84863725.21248  20724518.540                    20724516.220
      1425.307        1110.631          50.600          50.550



 117638422.207 8  91666342.33347  22385829.220                    22385826.240
      2715.020        2115.601          48.750          45.100



 124256536.265 7  96823315.46847  23645224.960                    23645227.400
     -2887.522       -2250.017          45.000          42.900    92789009.362 7
  23645227.980       -2156.290          46.900


 143805202.449 7                  27365219.540
      2446.087                          44.050                   107387019.399 7
  27365225.160        1826.725          42.800   110188409.183 7  27365220.640
      1874.464          42.050   108787707.450 7  27365224.040        1850.488
        45.700
 136026354.817 8                  25884944.340
     -1667.019                          48.250                   101578176.181 7
  25884949.100       -1244.853          47.700   104228030.856 8  25884946.660
     -1277.309          49.650   102903103.674 8  25884947.520       -1261.112
        51.650
 141361009.924 7                  26900099.640
       815.294                          45.650                   105561831.375 7
  26900101.880         608.849          44.150   108315600.275 7  26900102.000
       624.672          46.400   106938712.973 8  26900102.200         616.808
        48.350
 133389756.531 8                  25383210.380
      2114.274                          49.800                    99609305.015 8
  25383214.460        1578.876          50.600   102207785.659 8  25383211.020
      1620.072          49.900   100908545.989 8  25383212.400        1599.459
        53.300
 133300855.002 7                  25366305.940
      3049.997                          44.400                    99542866.336 7
  25366305.960        2277.492          42.750   102139625.128 7  25366304.100
      2337.038          43.550   100841244.877 7  25366304.760        2307.294
        46.150
 132782965.802 7                  25267742.560
       838.017                          46.250                    99156155.727 7
  25267743.580         625.647          46.650   101742824.605 8  25267741.660
       642.023          48.250   100449497.320 8  25267742.300         633.788
        50.400
 127408761.345 8                  24245055.180
     -1361.991                          51.650                    95142975.536 8
  24245057.460       -1017.035          52.450    97624965.196 8  24245055.360
     -1043.564          53.950    96383973.519 9  24245056.140       -1030.311
        56.150
 124832143.958 8                  23754744.860
      1074.112                          52.850                    93218928.935 8
  23754748.000         802.119          53.300    95650702.236 8  23754745.000
       823.076          53.300    94434810.239 9  23754747.000         812.605
        56.450
 142918605.856 7                  27196488.100
     -1938.615                          44.950                   106725000.405 7
  27196491.160       -1447.578          44.800   109509101.759 7  27196488.700
     -1485.348          45.550   108117053.736 8  27196489.940       -1466.464
        48.250
 23 12 27 16 17  0.0000000  0 20G06G11G12G18G20G25G26G28G29G31G32E02
                                E03E08E10E11E12E24E25E33
 130427402.062 6 101631793.80046  24819493.500                    24819494.340
     -2789.262       -2173.449          40.950          41.300    97397157.865 7
  24819495.960       -2082.814          43.600


 122412004.637 7  95386014.41746  23294210.820                    23294209.240
     -1080.771        -842.157          45.650          41.800    91411626.491 8
  23294214.840        -807.121          50.050


 118737557.517 8  92522824.06548  22594982.280                    22594978.780
     -2894.242       -2255.253          49.200          49.150



 136088041.046 5 106042638.78444  25896684.500                    25896695.720
      3676.406        2864.764          34.550          29.100   101624254.143 5
  25896701.440        2745.578          35.950


 134348293.816 6 104686969.01346  25565630.080                    25565628.580
      2314.570        1803.563          38.150          37.850



 105909979.158 8  82527297.75548  20153984.680                    20153984.340
     -1254.646        -977.646          51.050          51.000    79088821.973 9
  20153985.740        -936.844          55.650


 128836886.043 6 100392420.86246  24516833.880                    24516840.840
      3322.710        2589.135          39.450          39.750    96209412.745 7
  24516840.560        2481.318          45.200


 110339719.838 8  85979014.05548  20996931.560                    20996929.880
      1422.508        1108.449          49.600          48.150    82396610.901 9
  20996935.420        1062.347          54.850


 108865798.538 8  84830597.23248  20716428.220                    20716426.040
      1408.990        1097.916          50.500          50.500



 117557144.836 8  91603009.36147  22370362.640                    22370359.720
      2703.545        2106.659          48.350          44.300



 124343288.876 7  96890914.86346  23661733.640                    23661736.080
     -2895.836       -2256.495          45.900          40.200    92853792.113 7
  23661736.540       -2162.470          46.650


 143731831.496 7                  27351257.320
      2445.432                          44.150                   107332229.656 7
  27351262.920        1826.081          42.550   110132190.111 6  27351258.520
      1873.744          41.850   108732203.033 7  27351261.680        1849.983
        45.200
 136076539.305 7                  25894493.880
     -1678.449                          47.600                   101615651.597 7
  25894498.800       -1253.440          47.500   104266483.883 8  25894496.220
     -1286.035          49.400   102941067.894 8  25894497.260       -1269.758
        51.350
 141336763.020 7                  26895485.880
       801.456                          46.000                   105543724.948 7
  26895488.240         598.459          44.650   108297021.502 7  26895487.940
       614.146          46.300   106920370.377 8  26895488.160         606.240
        48.350
 133326496.144 8                  25371172.240
      2103.254                          50.000                    99562065.206 8
  25371176.220        1570.584          50.750   102159313.492 8  25371172.780
      1611.599          49.700   100860690.000 8  25371174.240        1591.104
        53.200
 133209422.285 7                  25348907.040
      3045.579                          44.650                    99474588.686 7
  25348906.920        2274.366          42.900   102069566.323 7  25348904.860
      2333.640          43.250   100772076.658 7  25348905.640        2303.926
        46.100
 132758052.646 7                  25263001.720
       823.367                          46.150                    99137551.790 7
  25263002.400         614.895          46.600   101723735.358 8  25263000.720
       630.758          48.100   100430650.729 8  25263001.500         622.795
        50.250
 127449704.679 8                  24252846.480
     -1367.324                          51.800                    95173550.120 8
  24252849.040       -1021.043          52.850    97656337.377 8  24252846.520
     -1047.676          53.800    96414946.901 9  24252847.380       -1034.343
        56.100
 124800006.623 8                  23748629.320
      1068.619                          53.150                    93194930.302 8
  23748632.720         797.970          53.800    95626077.551 8  23748629.460
       818.800          53.300    94410498.579 9  23748631.420         808.400
        56.550
 142976933.925 7                  27207587.960
     -1949.704                          44.850                   106768557.106 7
  27207590.620       -1455.896          45.100   109553794.733 7  27207588.220
     -1493.944          45.200   108161178.571 8  27207589.380       -1474.912
        48.050
 23 12 27 16 17 30.0000000  0 20G06G11G12G18G20G25G26G28G29G31G32E02
                                E03E08E10E11E12E24E25E33
 130511269.294 6 101697144.95446  24835452.900                    24835453.960
     -2802.099       -2183.451          40.900          40.850    97459786.088 7
  24835455.400       -2092.504          42.400


 122444723.568 7  95411509.72747  23300436.720                    23300435.640
     -1100.447        -857.490          45.750          42.250    91436059.496 8
  23300441.360        -821.854          49.950


 118824484.711 8  92590559.53948  22611523.980                    22611520.220
     -2900.983       -2260.506          48.200          48.350



 135977688.081 6 105956612.86145  25875683.900                    25875690.500
      3680.441        2867.903          36.250          34.400   101541849.523 6
  25875699.800        2747.909          38.750


 134278986.233 6 104632963.10545  25552441.240                    25552439.900
      2306.234        1797.072          39.300          35.600



 105947812.818 8  82556778.53048  20161184.000                    20161183.960
     -1267.766        -987.870          49.900          49.950    79117074.383 9
  20161185.260        -946.745          55.550


 128737237.885 6 100314773.27246  24497871.100                    24497878.320
      3320.294        2587.253          39.950          40.150    96135000.563 7
  24497877.800        2479.409          44.950


 110297305.603 8  85945964.03748  20988860.380                    20988858.700
      1404.924        1094.748          49.150          48.000    82364937.983 9
  20988864.120        1049.083          54.600


 108823783.936 8  84797858.62248  20708433.040                    20708430.980
      1391.821        1084.537          50.250          50.300



 117476218.417 7  91539949.87847  22354962.720                    22354959.960
      2691.271        2097.097          47.400          45.850



 124430298.600 7  96958714.60346  23678291.220                    23678293.600
     -2905.035       -2263.664          46.400          40.950    92918766.864 7
  23678293.820       -2169.294          46.050


 143658489.710 7                  27337300.660
      2443.634                          43.800                   107277461.660 7
  27337306.420        1824.866          42.750   110075993.355 6  27337301.820
      1872.558          41.850   108676720.661 7  27337305.000        1848.714
        45.700
 136127075.291 7                  25904110.140
     -1690.661                          46.850                   101653389.491 7
  25904115.280       -1262.563          47.050   104305206.246 8  25904112.560
     -1295.529          49.100   102979298.024 8  25904113.860       -1279.081
        51.300
 141312942.217 7                  26890953.140
       786.581                          46.100                   105525936.708 7
  26890955.680         587.317          44.850   108278769.223 7  26890954.880
       602.601          46.250   106902350.118 8  26890955.200         594.947
        48.800
 133263577.446 8                  25359199.160
      2091.141                          50.050                    99515080.541 8
  25359203.040        1561.567          50.500   102111103.118 8  25359199.520
      1602.334          49.750   100813092.482 8  25359201.060        1581.956
        53.400
 133118139.552 7                  25331536.420
      3040.021                          44.250                    99406423.052 7
  25331536.420        2270.150          42.950   101999622.445 7  25331533.980
      2329.267          43.200   100703021.901 7  25331535.080        2299.730
        46.350
 132733587.431 7                  25258346.200
       807.663                          46.200                    99119282.376 7
  25258346.400         603.068          46.250   101704989.341 7  25258345.000
       618.825          47.900   100412143.009 8  25258345.960         610.944
        50.400
 127490816.905 8                  24260669.860
     -1373.604                          51.250                    95204250.828 8
  24260672.720       -1025.806          52.750    97687838.969 8  24260669.860
     -1052.531          53.750    96446048.051 9  24260670.780       -1039.167
        56.350
 124768044.554 8                  23742547.140
      1062.083                          52.750                    93171062.545 8
  23742550.700         793.123          53.750    95601587.152 8  23742547.260
       813.771          53.500    94386319.503 9  23742549.200         803.450
        56.900
 143035605.841 7                  27218753.300
     -1961.940                          45.000                   106812370.570 7
  27218755.660       -1465.006          45.250   109598751.145 7  27218753.020
     -1503.201          44.800   108205563.517 8  27218754.280       -1484.206
        48.350
 23 12 27 16 18  0.0000000  0 20G06G11G12G18G20G25G26G28G29G31G32E02
                                E03E08E10E11E12E24E25E33
 130595502.504 6 101762781.26746  24851481.860                    24851483.080
     -2813.817       -2192.584          39.700          40.050    97522687.567 7
  24851484.580       -2101.452          42.500


 122478015.106 7  95437451.20947  23306771.860                    23306771.060
     -1119.312        -872.189          46.300          42.850    91460920.089 8
  23306776.740        -835.914          50.150


 118911595.114 8  92658437.75247  22628100.360                    22628096.820
     -2906.788       -2265.030          48.000          47.950



 135867224.319 6 105870538.79945  25854662.200                    25854670.440
      3683.938        2870.653          39.250          31.850   101459362.090 6
  25854676.880        2750.725          38.150


 134209921.029 6 104579146.06645  25539298.780                    25539297.480
      2297.848        1790.531          40.500          34.650



 105986023.854 8  82586553.36848  20168455.180                    20168455.420
     -1279.974        -997.383          50.600          50.750    79145608.604 9
  20168456.540        -955.939          55.600


 128637644.878 6 100237168.66846  24478918.940                    24478926.180
      3318.486        2585.847          39.200          39.300    96060629.519 7
  24478925.440        2478.229          44.750


 110255404.560 8  85913313.91448  20980886.840                    20980885.260
      1388.049        1081.599          49.250          48.400    82333648.290 9
  20980890.320        1036.473          54.600


 108782272.283 8  84765511.92048  20700533.600                    20700531.580
      1375.236        1071.614          50.500          50.350



 117395648.124 7  91477167.91347  22339630.460                    22339627.900
      2679.692        2088.075          47.200          46.000



 124517564.865 7  97026714.25146  23694897.580                    23694899.700
     -2913.232       -2270.054          46.100          41.100    92983933.203 7
  23694899.960       -2175.470          47.000


 143585179.836 7                  27323350.060
      2442.939                          44.350                   107222717.508 7
  27323356.200        1824.247          42.300   110019821.070 7  27323351.460
      1871.841          42.850   108621262.446 7  27323354.260        1847.989
        45.700
 136177963.849 7                  25913793.440
     -1702.363                          46.650                   101691390.673 7
  25913798.820       -1271.207          47.000   104344198.749 8  25913796.000
     -1304.343          48.900   103017794.861 8  25913797.560       -1287.801
        50.900
 141289550.691 7                  26886501.960
       772.419                          46.350                   105508469.037 7
  26886504.980         576.711          45.350   108260845.864 7  26886503.520
       591.749          46.300   106884654.602 8  26886503.880         584.256
        48.800
 133201004.580 8                  25347291.900
      2079.882                          50.550                    99468354.119 8
  25347295.560        1553.107          50.400   102063157.740 8  25347292.280
      1593.666          50.000   100765756.578 8  25347293.740        1573.391
        53.350
 133027011.433 7                  25314195.300
      3034.758                          44.200                    99338372.852 7
  25314195.620        2266.214          43.300   101929797.017 7  25314192.700
      2325.225          43.400   100634084.092 7  25314193.880        2295.649
        46.550
 132709573.272 7                  25253776.640
       792.795                          46.350                    99101349.768 7
  25253776.220         591.986          46.500   101686588.926 7  25253774.980
       607.405          47.850   100393976.503 8  25253776.260         599.662
        50.300
 127532100.409 8                  24268525.680
     -1379.135                          50.850                    95235079.434 8
  24268528.900       -1029.889          53.000    97719471.797 8  24268525.860
     -1056.763          53.650    96477278.769 9  24268526.760       -1043.331
        56.300
 124736260.570 8                  23736498.780
      1056.370                          52.250                    93147327.779 8
  23736502.540         788.821          53.950    95577233.215 8  23736498.960
       809.385          53.650    94362275.150 9  23736500.880         799.110
        56.900
 143094622.604 7                  27229984.200
     -1972.971                          45.350                   106856441.558 7
  27229986.400       -1473.453          45.250   109643971.801 7  27229983.080
     -1511.787          44.750   108250209.334 8  27229984.800       -1492.633
        48.100
 23 12 27 16 18 30.0000000  0 20G06G11G12G18G20G25G26G28G29G31G32E02
                                E03E08E10E11E12E24E25E33
 130680098.901 6 101828700.60146  24867579.860                    24867581.540
     -2826.097       -2202.152          39.050          38.950    97585860.261 7
  24867582.680       -2110.375          42.250


 122511878.115 7  95463838.01147  23313215.900                    23313215.060
     -1138.486        -887.129          46.050          42.400    91486207.445 8
  23313220.920        -850.153          50.150


 118998887.769 7  92726457.98747  22644711.440                    22644708.380
     -2913.085       -2269.937          47.200          47.200



 135756651.551 6 105784379.65346  25833619.880                    25833627.840
      3686.935        2872.981          38.150          36.400   101376793.246 6
  25833632.940        2753.376          37.800


 134141100.748 6 104525519.82446  25526202.940                    25526201.160
      2289.714        1784.189          41.650          36.400



 106024611.585 8  82616621.73048  20175798.260                    20175798.320
     -1292.827       -1007.397          51.350          51.250    79174424.106 9
  20175799.600        -965.359          55.550


 128538107.859 6 100159607.64746  24459977.440                    24459984.600
      3316.780        2584.513          39.200          38.850    95986300.307 7
  24459983.680        2476.788          44.700


 110214018.383 8  85881064.97848  20973011.280                    20973009.820
      1370.724        1068.097          48.900          48.550    82302743.067 9
  20973014.420        1023.639          54.350


 108741264.098 8  84733557.51948  20692730.000                    20692727.940
      1358.303        1058.419          50.450          50.400



 117315435.993 7  91414665.02547  22324366.400                    22324363.960
      2667.645        2078.686          47.400          45.550



 124605084.572 7  97094911.38046  23711552.040                    23711553.960
     -2921.657       -2276.618          45.900          41.100    93049288.748 7
  23711554.640       -2181.771          46.700


 143511902.072 7                  27309405.620
      2441.821                          44.300                   107167997.275 7
  27309411.740        1823.491          42.900   109963673.343 7  27309407.220
      1871.076          42.350   108565828.464 7  27309409.880        1847.270
        45.650
 136229203.427 7                  25923543.580
     -1714.133                          46.900                   101729653.980 7
  25923549.060       -1279.939          46.550   104383460.223 8  25923546.160
     -1313.331          48.300   103056557.255 8  25923548.080       -1296.634
        50.350
 141266589.024 7                  26882132.460
       758.030                          46.050                   105491322.359 7
  26882136.060         566.080          45.600   108243251.879 7  26882133.940
       580.868          45.950   106867284.274 8  26882134.340         573.448
        48.650
 133138779.090 8                  25335450.780
      2068.154                          50.300                    99421887.093 8
  25335454.140        1544.396          49.900   102015478.519 8  25335451.120
      1584.710          50.100   100718683.453 8  25335452.520        1564.554
        52.900
 132936039.738 7                  25296883.660
      3029.448                          44.200                    99270439.457 7
  25296884.240        2262.247          42.700   101860091.448 7  25296881.240
      2321.273          43.150   100565264.606 7  25296882.500        2291.681
        45.900
 132686010.744 7                  25249292.900
       777.779                          46.550                    99083754.427 7
  25249292.160         580.701          46.500   101668534.568 7  25249290.800
       595.940          47.300   100376151.647 8  25249292.500         588.354
        49.950
 127573554.940 8                  24276413.960
     -1384.719                          50.500                    95266035.751 8
  24276417.580       -1034.046          52.800    97751235.677 8  24276414.280
     -1061.061          53.100    96508638.867 9  24276415.280       -1047.562
        55.800
 124704654.953 8                  23730484.220
      1050.397                          52.000                    93123726.213 8
  23730488.280         784.354          53.950    95553015.952 8  23730484.600
       804.819          53.400    94338365.737 9  23730486.500         794.564
        56.650
 143153982.512 7                  27241280.180
     -1984.406                          45.250                   106900768.796 7
  27241282.540       -1482.052          44.800   109689455.403 7  27241278.560
     -1520.552          44.250   108295114.757 7  27241280.620       -1501.370
        47.500
 23 12 27 16 19  0.0000000  0 20G06G11G12G18G20G25G26G28G29G31G32E02
                                E03E08E10E11E12E24E25E33
 130765056.426 6 101894901.34846  24883746.660                    24883748.560
     -2837.393       -2210.957          38.850          38.750    97649302.667 7
  24883748.860       -2118.687          42.400


 122546312.006 7  95490669.64347  23319768.600                    23319767.540
     -1156.812        -901.410          46.550          42.200    91511921.090 8
  23319773.720        -863.813          50.000


 119086362.038 7  92794619.75347  22661357.020                    22661354.160
     -2918.317       -2274.013          47.150          47.200



 135645972.364 6 105698137.68245  25812557.100                    25812565.460
      3690.865        2876.044          37.200          35.250   101294144.936 6
  25812569.320        2756.745          40.350


 134072528.510 6 104472086.80945  25513154.120                    25513152.400
      2282.013        1778.186          39.700          35.150



 106063575.844 8  82646983.50048  20183213.120                    20183212.820
     -1304.505       -1016.497          51.350          51.050    79203520.814 9
  20183214.460        -974.182          55.550


 128438628.332 6 100082091.43846  24441046.980                    24441053.920
      3315.535        2583.545          39.100          38.350    95912013.987 7
  24441052.760        2475.854          44.650


 110173149.376 8  85849219.03848  20965234.120                    20965232.780
      1354.316        1055.313          49.300          48.250    82272224.053 9
  20965237.020        1011.249          54.450


 108700760.529 8  84701996.33348  20685022.420                    20685020.260
      1342.186        1045.860          50.700          50.600



 117235585.085 7  91352443.60247  22309171.220                    22309168.700
      2656.131        2069.714          47.950          46.500



 124692855.133 7  97163303.97046  23728254.320                    23728256.180
     -2929.113       -2282.429          45.900          40.000    93114831.654 7
  23728256.720       -2187.535          46.250


 143438657.201 7                  27295467.460
      2441.492                          44.700                   107113301.619 7
  27295473.940        1823.187          42.850   109907550.819 7  27295469.540
      1870.808          43.250   108510419.374 7  27295471.660        1846.962
        45.950
 136280793.035 7                  25933360.520
     -1724.864                          47.250                   101768178.680 7
  25933365.780       -1288.101          46.400   104422989.921 7  25933363.020
     -1321.740          47.950   103095584.455 8  25933365.240       -1304.904
        50.200
 141244058.343 7                  26877844.820
       744.382                          46.000                   105474497.523 7
  26877848.940         555.836          45.700   108225988.129 7  26877846.320
       570.330          45.950   106850239.978 8  26877846.820         563.073
        48.800
 133076903.118 8                  25323676.140
      2057.243                          50.700                    99375681.061 8
  25323679.200        1536.233          49.600   101968067.110 8  25323676.620
      1576.317          50.400   100671874.740 8  25323677.860        1556.271
        53.000
 132845227.002 7                  25279602.380
      3025.195                          44.050                    99202624.762 7
  25279603.160        2258.920          43.100   101790507.672 7  25279599.900
      2317.791          43.250   100496565.365 7  25279601.420        2288.367
        46.100
 132662901.003 7                  25244895.180
       763.346                          46.750                    99066497.196 7
  25244894.560         570.025          46.900   101650827.150 7  25244892.840
       584.874          47.400   100358669.324 8  25244894.840         577.457
        50.300
 127615180.912 8                  24284334.900
     -1389.851                          50.550                    95297120.090 8
  24284338.680       -1037.903          52.600    97783130.906 8  24284335.200
     -1064.950          53.050    96540128.652 9  24284336.460       -1051.431
        55.800
 124673228.545 8                  23724503.640
      1045.100                          51.850                    93100258.482 8
  23724508.100         780.443          53.950    95528936.011 8  23724504.380
       800.768          53.550    94314591.900 9  23724506.220         790.635
        56.750
 143213684.571 7                  27252641.120
     -1995.167                          45.450                   106945351.522 7
  27252643.600       -1489.932          44.800   109735201.169 7  27252639.260
     -1528.812          44.050   108340278.999 7  27252641.540       -1509.401
        47.400
 23 12 27 16 19 30.0000000  0 20G06G11G12G18G20G25G26G28G29G31G32E02
                                E03E08E10E11E12E24E25E33
 130850370.710 6 101961380.06646  24899981.460                    24899983.580
     -2850.245       -2220.975          38.700          38.600    97713011.431 6
  24899983.580       -2128.033          41.700


 122581313.926 7  95517943.89547  23326429.380                    23326428.240
     -1176.149        -916.479          45.900          43.050    91538058.919 8
  23326434.180        -878.329          49.600


 119174015.276 7  92862920.96747  22678036.620                    22678034.000
     -2924.797       -2279.062          47.100          47.050



 135535187.317 6 105611813.21346  25791474.240                    25791482.940
      3694.407        2878.809          38.000          36.100   101211417.616 6
  25791485.720        2759.019          40.900


 134004206.007 6 104418848.63445  25500152.680                    25500150.940
      2273.292        1771.399          37.950          35.800



 106102914.362 8  82677636.89148  20190699.160                    20190698.580
     -1317.576       -1026.683          51.350          51.650    79232896.976 9
  20190700.340        -983.847          55.300


 128339205.426 6 100004619.30346  24422127.360                    24422134.080
      3313.435        2581.904          39.250          39.300    95837769.925 7
  24422132.560        2474.279          45.100


 110132797.580 8  85817776.12948  20957555.360                    20957554.080
      1336.425        1041.372          49.250          48.900    82242091.261 9
  20957558.200         997.996          54.700


 108660760.192 8  84670827.27248  20677410.560                    20677408.280
      1324.867        1032.365          50.650          50.650



 117156095.931 8  91290504.06647  22294044.960                    22294042.380
      2643.557        2059.916          48.900          45.600



 124780871.756 7  97231888.32346  23745003.360                    23745005.100
     -2938.013       -2289.363          45.850          41.650    93180558.307 7
  23745005.720       -2193.896          46.650


 143365443.768 7                  27281535.320
      2439.921                          44.600                   107058629.405 7
  27281542.020        1822.026          43.550   109851452.356 7  27281537.740
      1869.622          43.300   108455034.034 7  27281539.560        1845.791
        46.250
 136332729.407 7                  25943243.640
     -1736.934                          47.700                   101806962.336 7
  25943248.500       -1297.001          46.250   104462785.317 8  25943245.940
     -1330.866          48.200   103134873.977 8  25943248.400       -1313.889
        49.950
 141221957.498 7                  26873638.940
       729.588                          46.050                   105457993.669 7
  26873643.320         544.819          45.650   108209053.727 7  26873640.400
       559.066          46.000   106833520.852 8  26873641.120         551.932
        48.400
 133015376.522 8                  25311967.840
      2045.051                          50.600                    99329735.920 8
  25311970.800        1527.222          49.400   101920923.409 8  25311968.660
      1566.978          51.000   100625330.317 8  25311969.740        1547.094
        52.950
 132754573.620 7                  25262351.340
      3019.269                          43.900                    99134929.047 7
  25262352.600        2254.626          42.900   101721045.970 7  25262349.140
      2313.416          43.950   100427986.656 7  25262350.580        2284.019
        46.150
 132640243.019 7                  25240583.520
       747.734                          46.850                    99049577.314 7
  25240583.200         558.442          47.300   101633465.874 7  25240580.940
       572.951          47.650   100341528.744 8  25240583.080         565.747
        50.300
 127656976.405 8                  24292288.220
     -1395.979                          51.000                    95328331.017 8
  24292291.860       -1042.432          52.300    97815156.035 8  24292288.500
     -1069.618          53.350    96571746.678 9  24292289.900       -1056.036
        55.550
 124641979.931 8                  23718557.060
      1038.670                          52.200                    93076923.514 8
  23718561.700         775.612          53.950    95504992.299 8  23718558.080
       795.902          53.850    94290952.558 9  23718559.740         785.791
        56.650
 143273725.382 7                  27264066.360
     -2006.999                          45.250                   106990187.230 7
  27264069.000       -1498.600          44.400   109781206.508 7  27264064.660
     -1537.805          44.000   108385699.522 7  27264066.960       -1518.189
        47.100
 23 12 27 16 20  0.0000000  0 20G06G11G12G18G20G25G26G28G29G31G32E02
                                E03E08E10E11E12E24E25E33
 130936041.706 6 102028136.73646  24916284.100                    24916286.240
     -2861.681       -2229.884          38.600          39.250    97776986.602 6
  24916286.040       -2136.966          41.650


 122616885.351 7  95545661.91147  23333198.400                    23333197.280
     -1195.247        -931.362          45.700          43.350    91564622.029 8
  23333202.760        -892.454          49.000


 119261849.274 7  92931363.05147  22694750.820                    22694748.420
     -2930.652       -2283.624          46.900          47.000



 135424301.628 6 105525410.03146  25770372.540                    25770380.080
      3698.036        2881.627          40.150          36.250   101128614.926 6
  25770383.100        2761.329          39.950


 133936138.129 6 104365808.71146  25487199.760                    25487197.960
      2264.855        1764.824          38.100          36.500



 106142629.082 8  82708583.42848  20198256.600                    20198255.920
     -1330.187       -1036.509          50.350          50.200    79262554.077 9
  20198257.720        -993.213          55.050


 128239842.768 6  99927194.14346  24403219.220                    24403225.240
      3311.071        2580.065          40.100          39.450    95763570.850 7
  24403223.880        2472.577          44.600


 110092967.380 8  85786739.64848  20949975.900                    20949974.540
      1318.961        1027.763          49.000          48.450    82212347.979 9
  20949978.800         984.974          54.750


 108621266.435 8  84640052.95948  20669895.040                    20669892.640
      1307.927        1019.165          50.100          50.200



 117076973.587 8  91228850.34847  22278988.460                    22278985.900
      2631.259        2050.334          48.300          46.100



 124869133.987 7  97300664.05646  23761799.140                    23761800.700
     -2946.234       -2295.768          45.950          41.300    93246468.355 7
  23761801.520       -2200.108          46.500


 143292264.601 7                  27267609.680
      2438.775                          44.650                   107003982.787 7
  27267616.660        1821.024          43.350   109795380.156 7  27267612.700
      1868.642          43.900   108399674.621 7  27267613.840        1844.913
        46.300
 136385013.670 7                  25953193.180
     -1748.517                          47.700                   101846005.762 7
  25953197.460       -1305.727          45.800   104502847.281 7  25953195.120
     -1339.815          47.750   103174426.673 8  25953197.800       -1322.744
        49.700
 141200289.696 7                  26869515.600
       714.993                          46.200                   105441813.181 7
  26869520.000         533.967          45.550   108192451.142 7  26869516.840
       547.896          45.650   106817129.315 8  26869517.840         540.922
        48.400
 132954203.505 8                  25300326.820
      2033.203                          50.200                    99284054.815 8
  25300329.640        1518.368          49.100   101874050.624 8  25300327.800
      1557.941          50.800   100579053.369 8  25300328.980        1538.198
        52.800
 132664084.080 7                  25245131.620
      3013.479                          43.550                    99067355.683 7
  25245132.900        2250.269          42.350   101651709.822 7  25245129.640
      2309.005          43.550   100359531.898 7  25245131.040        2279.688
        45.750
 132618039.948 7                  25236358.540
       732.550                          47.150                    99032997.144 7
  25236358.460         547.023          47.300   101616453.163 7  25236355.800
       561.250          47.700   100324732.308 8  25236357.860         554.157
        50.400
 127698943.933 8                  24300274.620
     -1401.746                          50.750                    95359670.424 8
  24300277.580       -1046.756          52.000    97847312.986 8  24300274.640
     -1074.045          53.050    96603494.860 9  24300276.080       -1060.394
        55.350
 124610912.085 8                  23712645.080
      1032.578                          52.550                    93053723.530 8
  23712649.620         771.101          53.700    95481187.092 8  23712646.140
       791.273          53.600    94267449.967 9  23712647.680         781.188
        56.500
 143334105.979 7                  27275556.320
     -2018.294                          44.550                   107035276.683 7
  27275558.800       -1507.236          44.150   109827472.202 7  27275554.740
     -1546.564          44.000   108431377.099 7  27275557.040       -1526.913
        46.950
 23 12 27 16 20 30.0000000  0 20G06G11G12G18G20G25G26G28G29G31G32E02
                                E03E08E10E11E12E24E25E33
 131022064.869 6 102095167.83546  24932653.840                    24932655.660
     -2873.193       -2238.852          38.750          39.800    97841224.772 6
  24932655.460       -2145.586          41.050


 122653023.307 7  95573821.38447  23340075.180                    23340074.060
     -1213.937        -945.927          46.400          42.250    91591608.193 8
  23340078.860        -906.537          48.750


 119349860.983 7  92999943.61247  22711498.960                    22711496.600
     -2936.497       -2288.180          47.000          47.050



 135313315.555 6 105438928.52845  25749251.580                    25749259.200
      3701.194        2884.082          39.200          35.900   101045737.058 6
  25749261.340        2763.937          38.350


 133868325.711 6 104312967.84645  25474295.360                    25474293.260
      2256.162        1758.052          38.100          33.350



 106182717.496 8  82739821.16148  20205885.060                    20205884.400
     -1342.467       -1046.077          51.100          51.050    79292490.243 9
  20205886.100       -1002.484          54.900


 128140539.477 6  99849815.20546  24384322.420                    24384328.040
      3309.142        2578.559          40.350          39.550    95689416.091 7
  24384326.500        2471.061          45.050


 110053658.669 8  85756109.52548  20942495.680                    20942494.140
      1301.572        1014.213          49.050          48.900    82182994.126 9
  20942498.780         971.956          55.100


 108582277.672 8  84609672.14048  20662475.640                    20662473.140
      1291.314        1006.220          50.050          50.200



 116998218.733 8  91167482.98047  22264001.880                    22263999.300
      2618.965        2040.754          48.750          45.800



 124957636.858 7  97369627.28847  23778640.740                    23778642.360
     -2954.087       -2301.887          45.750          42.200    93312558.126 7
  23778642.760       -2205.971          46.000


 143219118.230 7                  27253690.220
      2437.707                          43.900                   106949360.619 7
  27253697.260        1820.231          43.850   109739333.046 7  27253693.700
      1867.851          43.900   108344339.979 7  27253694.440        1844.154
        47.000
 136437642.470 8                  25963208.440
     -1760.016                          48.300                   101885306.475 7
  25963212.020       -1314.244          45.750   104543173.226 7  25963210.140
     -1348.583          47.700   103214240.000 8  25963212.760       -1331.405
        49.900
 141179053.675 7                  26865474.580
       700.730                          47.100                   105425955.123 7
  26865478.740         523.298          45.500   108176179.404 7  26865475.300
       536.887          45.050   106801064.415 8  26865476.760         530.090
        48.450
 132893383.843 8                  25288753.060
      2021.480                          50.350                    99238637.570 8
  25288755.980        1509.521          49.300   101827448.587 8  25288754.160
      1548.877          50.700   100533043.728 8  25288755.460        1529.212
        53.200
 132573758.641 7                  25227943.120
      3008.065                          43.650                    98999904.854 7
  25227944.440        2246.327          42.650   101582499.413 7  25227941.300
      2304.992          43.800   100291201.294 7  25227942.720        2275.577
        46.300
 132596290.578 7                  25232219.940
       717.396                          46.900                    99016755.774 7
  25232219.960         535.776          47.350   101599788.100 7  25232217.140
       549.680          47.800   100308279.091 8  25232218.980         542.712
        50.750
 127741081.474 8                  24308293.540
     -1407.385                          51.650                    95391136.793 8
  24308295.760       -1050.965          52.000    97879600.221 8  24308293.160
     -1078.415          53.100    96635371.660 9  24308294.580       -1064.708
        55.700
 124580023.481 8                  23706767.280
      1026.631                          52.400                    93030657.408 8
  23706771.500         766.656          53.650    95457519.243 8  23706768.160
       786.619          53.400    94244082.980 9  23706769.740         776.643
        56.800
 143394822.948 7                  27287110.160
     -2029.384                          44.600                   107080617.304 7
  27287112.660       -1515.558          43.900   109873995.612 7  27287109.020
     -1554.966          43.850   108477309.112 7  27287111.100       -1535.232
        47.100
 23 12 27 16 21  0.0000000  0 20G06G11G12G18G20G25G26G28G29G31G32E02
                                E03E08E10E11E12E24E25E33
 131108436.684 6 102162470.60546  24949089.820                    24949091.400
     -2884.605       -2247.739          40.400          40.400    97905723.288 6
  24949091.360       -2154.081          40.850


 122689725.626 7  95602420.63246  23347059.440                    23347058.300
     -1232.567        -960.441          46.650          41.800    91619015.802 8
  23347062.360        -920.452          48.850


 119438048.579 7  93068661.23647  22728280.680                    22728278.140
     -2942.307       -2292.706          47.600          47.550



 135202230.356 6 105352369.64645  25728111.700                    25728118.980
      3705.543        2887.475          37.050          34.150   100962785.014 6
  25728120.960        2766.574          36.650


 133800771.074 6 104260327.85445  25461440.220                    25461438.440
      2247.820        1751.547          36.900          35.350



 106223178.158 8  82771348.96248  20213584.460                    20213583.760
     -1354.621       -1055.549          51.150          51.000    79322704.394 9
  20213585.280       -1011.560          54.950


 128041295.560 6  99772482.53646  24365436.760                    24365442.120
      3307.267        2577.100          41.200          40.200    95615305.643 7
  24365440.460        2469.795          45.600


 110014872.243 8  85725886.36648  20935114.880                    20935113.200
      1284.424        1000.852          49.200          48.700    82154030.278 9
  20935118.120         959.155          55.250


 108543793.867 8  84579684.79448  20655152.380                    20655149.820
      1274.717         993.287          50.600          50.550



 116919832.758 8  91106403.05747  22249085.460                    22249082.860
      2606.963        2031.401          48.850          44.250



 125046376.396 7  97438774.95146  23795527.240                    23795528.460
     -2961.476       -2307.645          44.550          40.300    93378824.631 7
  23795529.060       -2211.643          46.250


 143146003.895 7                  27239776.880
      2436.900                          44.800                   106894762.389 7
  27239783.980        1819.772          43.950   109683310.496 7  27239780.840
      1867.204          44.100   108289029.596 7  27239781.060        1843.530
        47.050
 136490613.332 8                  25973288.920
     -1771.021                          49.050                   101924862.633 7
  25973291.700       -1322.634          45.800   104583761.283 7  25973290.220
     -1357.115          47.500   103254312.107 8  25973292.820       -1339.813
        49.750
 141158249.129 7                  26861515.700
       686.481                          46.950                   105410419.275 7
  26861519.620         512.700          45.650   108160238.266 7  26861515.920
       526.064          44.800   106785325.924 8  26861517.800         519.368
        48.400
 132832918.180 8                  25277246.720
      2009.811                          50.700                    99193484.669 8
  25277249.680        1500.904          49.750   101781117.785 8  25277247.760
      1539.962          50.350   100487301.879 8  25277249.280        1520.427
        53.150
 132483598.260 7                  25210786.140
      3003.218                          43.750                    98932577.321 7
  25210787.540        2242.494          42.550   101513415.513 7  25210784.620
      2300.966          43.900   100222995.562 7  25210785.780        2271.790
        46.200
 132574994.476 7                  25228167.500
       702.543                          46.850                    99000852.886 7
  25228167.620         524.636          47.350   101583470.342 7  25228164.760
       538.334          47.800   100292168.768 8  25228166.360         531.458
        50.700
 127783388.015 8                  24316344.540
     -1412.703                          51.950                    95422729.360 8
  24316346.300       -1054.980          52.150    97912016.939 8  24316343.880
     -1082.504          52.950    96667376.301 9  24316345.260       -1068.750
        55.600
 124549313.537 8                  23700923.460
      1020.992                          52.700                    93007724.709 8
  23700927.260         762.385          53.650    95433988.291 8  23700924.040
       782.262          53.100    94220851.152 9  23700925.780         772.347
        56.550
 143455873.701 7                  27298727.420
     -2040.172                          44.600                   107126207.174 7
  27298730.060       -1523.545          43.700   109920774.791 7  27298726.800
     -1563.374          43.750   108523493.638 7  27298728.640       -1543.459
        46.800
 23 12 27 16 21 30.0000000  0 20G06G11G12G18G20G25G26G28G29G31G32E02
                                E03E08E10E11E12E24E25E33
 131195155.356 6 102230043.65546  24965591.680                    24965593.180
     -2896.242       -2256.809          39.900          39.600    97970480.761 7
  24965593.640       -2162.748          42.350


 122726992.044 7  95631459.41647  23354151.080                    23354149.820
     -1251.611        -975.282          46.350          43.150    91646844.642 8
  23354153.400        -934.495          48.950


 119526411.977 7  93137515.82547  22745095.800                    22745093.440
     -2948.069       -2297.196          47.600          47.400



 135091049.463 6 105265736.17145  25706953.900                    25706961.040
      3708.169        2889.513          38.850          35.050   100879761.406 6
  25706962.960        2768.669          40.850


 133733477.812 6 104207891.61045  25448634.760                    25448632.700
      2238.385        1744.207          37.750          33.250



 106264011.097 8  82803166.84948  20221354.720                    20221354.060
     -1367.051       -1065.234          51.350          51.200    79353196.536 9
  20221355.600       -1020.905          55.100


 127942112.804 6  99695197.49046  24346562.940                    24346567.740
      3305.353        2575.607          41.650          40.550    95541240.854 7
  24346566.220        2468.181          45.850


 109976610.713 8  85696072.22648  20927833.900                    20927832.300
      1266.722         987.058          49.200          48.400    82125458.407 9
  20927837.200         945.965          55.350


 108505816.020 8  84550091.70248  20647925.460                    20647922.900
      1257.650         979.989          50.950          51.050



 116841818.998 8  91045613.16347  22234239.840                    22234237.180
      2594.362        2021.583          48.150          45.050



 125135350.437 7  97508105.31946  23812458.320                    23812459.680
     -2969.564       -2313.948          44.900          40.850    93445266.212 7
  23812460.240       -2217.506          46.700


 143072922.810 7                  27225869.940
      2435.644                          44.850                   106840188.999 7
  27225876.760        1818.766          44.050   109627313.444 7  27225874.220
      1866.215          44.100   108233744.376 7  27225874.080        1842.427
        47.000
 136543925.615 8                  25983434.320
     -1782.550                          49.250                   101964673.735 7
  25983436.540       -1331.200          46.100   104624610.930 7  25983435.440
     -1365.791          47.650   103294642.491 8  25983437.800       -1348.520
        49.750
 141137877.435 7                  26857639.180
       672.068                          46.500                   105395206.673 7
  26857642.700         501.893          45.650   108144628.816 7  26857638.940
       514.983          44.800   106769914.900 8  26857641.280         508.370
        48.150
 132772808.943 8                  25265808.280
      1997.885                          50.900                    99148597.952 8
  25265811.440        1491.877          50.050   101735060.090 8  25265809.060
      1530.826          50.300   100441829.673 8  25265810.860        1511.351
        53.100
 132393605.936 7                  25193661.100
      2997.029                          43.350                    98865375.282 7
  25193662.400        2238.061          42.600   101444460.391 7  25193659.800
      2296.269          43.950   100154916.990 7  25193660.880        2267.172
        46.050
 132554153.110 7                  25224201.440
       687.296                          46.450                    98985289.573 7
  25224201.620         513.193          47.200   101567501.024 8  25224198.900
       526.545          48.050   100276402.452 8  25224200.300         519.895
        50.500
 127825864.272 8                  24324427.600
     -1418.544                          51.000                    95454448.650 8
  24324429.200       -1059.290          52.150    97944563.690 8  24324426.840
     -1086.942          53.200    96699509.324 9  24324428.240       -1073.115
        55.450
 124518783.497 8                  23695113.860
      1014.797                          52.450                    92984926.353 8
  23695117.280         757.799          53.700    95410595.180 8  23695114.180
       777.626          53.250    94197755.419 9  23695116.040         767.706
        56.350
 143517257.576 7                  27310408.180
     -2051.537                          43.800                   107172045.805 7
  27310410.900       -1531.917          43.550   109967809.204 7  27310407.820
     -1571.975          43.700   108569930.163 7  27310409.540       -1551.938
        46.500
 23 12 27 16 22  0.0000000  0 20G06G11G12G18G20G25G26G28G29G31G32E02
                                E03E08E10E11E12E24E25E33
 131282218.067 6 102297884.79846  24982158.980                    24982160.400
     -2908.009       -2265.977          39.800          39.100    98035495.217 7
  24982161.300       -2171.411          42.100


 122764821.173 7  95660936.67847  23361349.700                    23361348.280
     -1270.477        -989.982          46.050          42.500    91675093.703 8
  23361351.740        -948.698          49.100


 119614950.207 7  93206506.66247  22761944.200                    22761941.780
     -2954.209       -2301.981          46.900          46.900



 134979775.198 6 105179029.82646  25685778.480                    25685785.180
      3710.578        2891.392          38.650          36.600   100796668.045 6
  25685788.300        2770.878          41.850


 133666448.681 6 104155661.31246  25435879.560                    25435877.340
      2229.230        1737.082          38.100          37.950



 106305215.660 8  82835274.31148  20229195.740                    20229195.180
     -1379.765       -1075.141          51.000          50.950    79383966.184 9
  20229196.680       -1030.322          55.200


 127842992.159 7  99617960.81546  24327700.740                    24327705.360
      3302.992        2573.766          42.050          40.250    95467222.415 7
  24327703.860        2466.431          46.050


 109938875.633 8  85666668.30448  20920653.100                    20920651.620
      1249.034         973.274          48.850          48.600    82097279.667 9
  20920656.340         932.680          55.400


 108468344.459 8  84520893.11348  20640794.980                    20640792.420
      1240.467         966.599          50.900          50.950



 116764179.574 7  90985114.95747  22219465.420                    22219462.700
      2581.516        2011.572          47.600          45.400



 125224555.749 7  97577615.90047  23829433.360                    23829434.760
     -2977.443       -2320.088          43.350          42.550    93511880.506 7
  23829435.540       -2223.283          46.300


 142999875.118 7                  27211969.520
      2434.310                          44.650                   106785640.537 7
  27211975.780        1817.724          44.100   109571341.951 7  27211973.880
      1865.165          44.550   108178484.390 7  27211973.400        1841.534
        46.850
 136597577.653 8                  25993644.360
     -1794.160                          48.650                   102004738.553 7
  25993646.280       -1339.812          46.350   104665720.926 7  25993645.260
     -1374.748          47.550   103335229.888 8  25993647.440       -1357.229
        49.750
 141117939.063 7                  26853845.040
       657.396                          46.050                   105380317.677 7
  26853848.420         490.774          45.700   108129351.419 7  26853844.500
       503.662          44.600   106754831.697 8  26853847.260         497.287
        48.000
 132713057.610 8                  25254437.960
      1985.658                          50.150                    99103978.488 8
  25254441.240        1482.819          50.350   101689276.632 8  25254438.420
      1521.521          50.250   100396628.216 8  25254440.480        1502.160
        53.100
 132303783.538 7                  25176568.420
      2991.035                          42.900                    98798300.161 7
  25176569.700        2233.585          43.050   101375635.473 7  25176567.180
      2291.822          44.250   100086966.977 7  25176568.260        2262.592
        46.200
 132533766.967 7                  25220321.840
       671.867                          46.100                    98970066.204 7
  25220322.040         501.681          47.150   101551880.519 8  25220319.680
       514.766          48.300   100260980.511 8  25220320.900         508.269
        50.400
 127868510.010 8                  24332542.620
     -1424.447                          50.250                    95486294.489 8
  24332544.320       -1063.667          52.250    97977240.289 8  24332542.060
     -1091.419          53.200    96731770.543 9  24332543.440       -1077.537
        55.350
 124488433.573 8                  23689338.520
      1008.576                          52.200                    92962262.498 8
  23689341.700         753.171          53.750    95387340.091 8  23689338.720
       772.810          53.350    94174795.948 9  23689340.540         762.995
        56.250
 143578972.794 7                  27322152.000
     -2062.913                          43.300                   107218131.882 7
  27322154.800       -1540.270          43.050   110015097.511 7  27322151.760
     -1580.581          43.550   108616617.358 7  27322153.480       -1560.473
        45.950
 23 12 27 16 22 30.0000000  0 20G06G11G12G18G20G25G26G28G29G31G32E02
                                E03E08E10E11E12E24E25E33
 131369624.244 6 102365993.53346  24998791.820                    24998793.200
     -2919.351       -2274.814          40.100          39.350    98100766.162 7
  24998793.920       -2180.089          42.500


 122803213.750 7  95690853.02147  23368655.460                    23368653.720
     -1289.177       -1004.552          46.000          42.100    91703763.543 8
  23368657.480        -962.668          49.450


 119703664.189 7  93275634.44047  22778826.000                    22778823.420
     -2960.088       -2306.562          47.300          47.150



 134868412.097 6 105092254.34145  25664586.200                    25664592.480
      3713.857        2893.946          37.750          33.400   100713508.406 6
  25664596.560        2773.024          41.000


 133599687.944 6 104103640.07145  25423175.400                    25423173.200
      2220.247        1730.067          39.000          34.350



 106346793.209 8  82867672.40948  20237107.680                    20237107.280
     -1392.264       -1084.880          51.050          51.050    79415014.374 9
  20237108.640       -1039.652          55.350


 127743936.611 7  99540774.84846  24308850.980                    24308855.220
      3300.724        2572.000          42.550          40.100    95393252.579 7
  24308854.000        2464.693          46.550


 109901670.720 8  85637677.50048  20913573.160                    20913571.600
      1231.383         959.520          48.650          48.200    82069496.820 9
  20913576.340         919.408          55.600


 108431381.740 8  84492091.02948  20633761.260                    20633758.800
      1223.531         953.402          50.850          50.950



 116686919.002 7  90924911.96747  22204763.080                    22204760.440
      2568.936        2001.770          47.800          45.000



 125313991.274 7  97647305.86946  23846452.220                    23846454.020
     -2985.035       -2326.003          43.600          41.950    93578666.733 7
  23846454.360       -2229.067          46.400


 142926863.138 7                  27198075.920
      2433.003                          44.550                   106731118.747 7
  27198081.380        1816.999          44.200   109515397.833 7  27198080.080
      1864.379          44.500   108123251.440 7  27198079.520        1840.697
        46.850
 136651569.924 8                  26003918.980
     -1805.409                          48.650                   102045057.449 7
  26003920.960       -1348.304          47.150   104707091.623 7  26003919.900
     -1383.466          47.650   103376074.686 8  26003921.820       -1365.861
        50.000
 141098436.549 7                  26850133.700
       642.774                          46.200                   105365754.121 7
  26850137.140         479.963          45.850   108114407.961 7  26850133.040
       492.521          44.900   106740078.196 8  26850136.180         486.262
        48.000
 132653667.740 8                  25243136.440
      1973.495                          50.150                    99059628.963 8
  25243139.820        1473.791          50.750   101643770.156 8  25243136.620
      1512.185          50.500   100351700.215 8  25243138.820        1492.962
        53.150
 132214134.995 7                  25159508.720
      2985.469                          43.400                    98731354.921 7
  25159510.140        2229.315          43.050   101306943.827 7  25159507.720
      2287.443          44.250   100019148.530 7  25159508.700        2258.350
        46.050
 132513838.527 7                  25216529.420
       656.557                          46.750                    98955184.626 7
  25216529.500         490.288          47.200   101536610.716 8  25216527.540
       503.104          48.600   100245904.819 8  25216528.620         496.699
        50.350
 127911327.080 8                  24340690.300
     -1430.118                          50.800                    95518268.285 8
  24340692.180       -1067.960          52.600    98010048.182 8  24340689.880
     -1095.820          53.300    96764161.387 9  24340691.240       -1081.925
        55.350
 124458266.112 8                  23683597.880
      1002.433                          52.700                    92939734.897 9
  23683600.940         748.607          54.000    95364224.808 8  23683598.180
       768.102          53.700    94151974.505 9  23683599.800         758.353
        56.300
 143641019.699 7                  27333958.980
     -2073.914                          43.350                   107264465.643 7
  27333961.820       -1548.542          42.850   110062639.977 7  27333958.580
     -1589.060          43.250   108663555.471 7  27333960.500       -1568.834
        45.550
 23 12 27 16 23  0.0000000  0 20G06G11G12G18G20G25G26G28G29G31G32E02
                                E03E08E10E11E12E24E25E33
 131457369.358 6 102434366.41846  25015489.200                    25015490.440
     -2930.197       -2283.271          39.000          38.850    98166290.148 7
  25015491.840       -2188.072          42.250


 122842166.900 7  95721206.14746  23376067.840                    23376066.200
     -1307.689       -1018.978          45.750          41.750    91732851.962 8
  23376069.880        -976.426          49.050


 119792550.894 7  93344896.81647  22795740.580                    22795737.980
     -2965.554       -2310.820          47.250          47.150



 134756961.064 6 105005410.31845  25643377.060                    25643383.060
      3716.675        2896.144          39.200          34.000   100630283.090 6
  25643388.360        2775.446          40.700


 133533196.610 6 104051828.59145  25410522.560                    25410520.160
      2212.200        1723.794          40.100          35.100



 106388741.353 8  82900359.29748  20245090.120                    20245089.820
     -1404.301       -1094.260          51.300          51.500    79446339.320 9
  20245091.120       -1048.640          54.950


 127644945.343 7  99463638.94846  24290013.440                    24290017.420
      3298.806        2570.503          42.850          38.100    95319330.687 7
  24290016.340        2463.463          45.850


 109864995.927 8  85609099.76048  20906594.180                    20906592.360
      1213.858         945.864          49.050          48.450    82042109.827 9
  20906597.140         906.454          55.300


 108394926.740 8  84463684.56648  20626824.140                    20626821.780
      1206.883         940.429          51.300          51.250



 116610037.881 8  90865004.65047  22190133.060                    22190130.420
      2556.586        1992.146          48.650          44.650



 125403652.179 7  97717171.50947  23863514.240                    23863516.120
     -2991.947       -2331.389          43.850          42.600    93645621.282 7
  23863516.060       -2234.423          46.300


 142853885.433 7                  27184188.720
      2432.326                          44.750                   106676622.599 7
  27184193.460        1816.321          43.600   109459480.026 7  27184192.800
      1863.754          44.550   108068044.459 7  27184192.120        1840.034
        46.850
 136705899.148 8                  26014257.560
     -1816.433                          48.450                   102085627.942 7
  26014259.860       -1356.328          47.300   104748720.480 7  26014258.520
     -1391.789          47.600   103417174.365 8  26014260.320       -1374.055
        50.250
 141079368.658 7                  26846505.000
       628.579                          46.250                   105351515.139 7
  26846508.460         469.405          45.350   108099797.527 7  26846504.440
       481.575          44.900   106725653.490 8  26846507.760         475.486
        48.100
 132594639.162 8                  25231903.600
      1961.836                          50.150                    99015549.245 8
  25231907.000        1464.990          50.250   101598540.515 8  25231903.620
      1503.207          50.750   100307045.530 8  25231905.920        1484.106
        53.350
 132124660.659 7                  25142482.280
      2979.975                          43.100                    98664539.757 7
  25142483.620        2225.234          43.150   101238385.652 7  25142481.200
      2283.362          44.100    99951461.857 7  25142482.280        2254.280
        46.350
 132494366.569 7                  25212824.040
       641.659                          47.050                    98940643.927 7
  25212823.820         479.146          46.800   101521690.692 8  25212822.060
       491.668          48.400   100231174.463 8  25212823.220         485.374
        50.350
 127954313.653 8                  24348870.340
     -1435.506                          51.250                    95550368.651 8
  24348872.400       -1071.929          52.400    98042985.945 8  24348870.060
     -1099.892          53.300    96796680.451 9  24348871.260       -1085.920
        55.650
 124428279.736 8                  23677891.680
       996.746                          52.950                    92917342.529 8
  23677894.760         744.330          53.700    95341248.281 8  23677892.180
       763.753          53.800    94129290.059 9  23677893.500         754.030
        56.550
 143703395.036 7                  27345828.620
     -2084.393                          43.350                   107311044.670 7
  27345831.200       -1556.550          42.400   110110434.094 7  27345827.880
     -1597.252          43.100   108710742.034 7  27345830.040       -1576.847
        45.550
 23 12 27 16 23 30.0000000  0 20G06G11G12G18G20G25G26G28G29G31G32E02
                                E03E08E10E11E12E24E25E33
 131545450.894 6 102503001.45346  25032250.300                    25032251.040
     -2941.494       -2292.075          37.500          37.800    98232065.388 7
  25032253.340       -2196.559          43.100


 122881679.270 7  95751995.03047  23383586.660                    23383585.280
     -1326.271       -1033.456          45.450          43.300    91762357.998 8
  23383588.720        -990.374          48.650


 119881609.783 7  93414293.35247  22812687.820                    22812685.280
     -2971.457       -2315.421          47.150          47.250



 134645424.460 6 104918499.67245  25622151.940                    25622157.480
      3719.336        2898.222          40.000          35.050   100546993.942 6
  25622163.380        2777.462          41.600


 133466977.759 6 104000229.44345  25397921.640                    25397919.300
      2203.060        1716.669          40.900          34.950



 106431059.444 8  82933334.45048  20253143.040                    20253142.740
     -1416.564       -1103.815          51.350          51.400    79477940.520 9
  20253143.920       -1057.873          54.700


 127546019.392 7  99386553.93146  24271188.360                    24271192.100
      3296.724        2568.880          43.300          38.300    95245457.581 7
  24271190.980        2461.757          45.100


 109828852.931 8  85580936.40548  20899716.440                    20899714.420
      1196.019         931.963          49.050          48.900    82015119.949 9
  20899719.200         893.146          55.250


 108358979.733 8  84435673.95048  20619983.580                    20619981.420
      1189.888         927.187          50.950          51.250



 116533538.653 8  90805394.90847  22175575.880                    22175573.140
      2543.640        1982.059          49.050          45.450



 125493535.428 7  97787210.35746  23880618.660                    23880620.900
     -2999.694       -2337.426          43.950          40.950    93712741.830 7
  23880620.440       -2239.913          46.550


 142780942.282 7                  27170307.980
      2430.833                          43.600                   106622152.257 7
  27170311.960        1815.453          43.300   109403588.694 7  27170311.820
      1862.662          44.900   108012863.624 7  27170311.300        1839.098
        46.950
 136760563.734 7                  26024659.760
     -1827.488                          47.650                   102126448.886 7
  26024662.780       -1364.763          47.700   104790606.320 7  26024660.940
     -1400.353          47.600   103458527.756 8  26024662.680       -1382.538
        50.600
 141060735.942 7                  26842959.120
       613.965                          46.050                   105337601.135 7
  26842962.540         458.399          44.900   108085520.543 7  26842958.820
       470.448          45.200   106711557.997 8  26842962.140         464.394
        48.050
 132535973.412 8                  25220739.880
      1949.634                          50.350                    98971740.480 8
  25220743.220        1455.890          50.100   101553588.907 8  25220739.960
      1493.858          50.950   100262665.349 8  25220742.120        1474.845
        53.400
 132035362.490 7                  25125489.120
      2973.524                          42.950                    98597856.183 7
  25125490.640        2220.720          43.050   101169962.501 7  25125488.060
      2278.513          44.050    99883908.496 7  25125489.300        2249.610
        46.550
 132475351.743 7                  25209205.740
       626.369                          47.000                    98926444.589 7
  25209205.140         467.719          46.600   101507120.937 8  25209203.460
       479.885          48.350   100216789.912 8  25209204.800         473.768
        50.400
 127997469.565 8                  24357082.680
     -1441.129                          51.300                    95582595.478 8
  24357084.860       -1076.130          52.250    98076053.470 8  24357082.360
     -1104.218          53.250    96829327.624 9  24357083.540       -1090.154
        55.600
 124398474.812 8                  23672220.100
       990.596                          53.150                    92895085.650 8
  23672223.040         739.739          53.400    95318410.780 9  23672220.720
       759.011          54.000    94106742.865 9  23672221.740         749.383
        56.600
 143766097.058 7                  27357760.360
     -2095.230                          43.650                   107357867.659 6
  27357762.540       -1564.726          41.700   110158478.543 7  27357759.220
     -1605.592          42.450   108758175.760 7  27357761.740       -1585.174
        45.000
 23 12 27 16 24  0.0000000  0 20G06G11G12G18G20G25G26G28G29G31G32E02
                                E03E08E10E11E12E24E25E33
 131633861.815 5 102571893.18745  25049074.460                    25049075.020
     -2952.545       -2300.689          35.700          34.750    98298086.692 6
  25049077.020       -2204.816          41.100


 122921745.390 7  95783215.40347  23391210.980                    23391209.920
     -1344.829       -1047.917          46.350          43.150    91792277.526 8
  23391213.120       -1004.246          48.150


 119970835.723 7  93483820.07447  22829667.080                    22829664.460
     -2977.062       -2319.787          47.800          47.850



 134533800.465 6 104831520.99846  25600909.920                    25600915.360
      3722.104        2900.378          39.800          36.050   100463639.593 6
  25600921.720        2779.509          41.900


 133401030.035 6 103948841.67046  25385372.280                    25385369.980
      2193.685        1709.364          40.300          38.700



 106473742.653 8  82966594.11348  20261265.380                    20261265.040
     -1429.004       -1113.509          51.300          51.000    79509814.368 9
  20261266.160       -1067.057          54.300


 127447155.575 7  99309517.30646  24252375.000                    24252378.560
      3294.234        2566.938          43.200          39.000    95171630.831 7
  24252377.500        2460.110          44.550


 109793239.175 8  85553185.44648  20892939.380                    20892937.440
      1178.104         918.003          49.350          49.200    81988525.283 9
  20892942.160         879.825          55.200


 108323537.062 8  84408056.31348  20613238.960                    20613236.960
      1172.876         913.931          50.700          50.600



 116457419.467 8  90746081.30747  22161091.000                    22161088.380
      2530.740        1972.008          49.550          46.500



 125583633.791 7  97857416.81746  23897763.780                    23897766.240
     -3006.956       -2343.082          44.950          41.250    93780023.015 7
  23897765.680       -2245.490          45.550


 142708029.784 7                  27156432.960
      2429.823                          43.500                   106567704.830 7
  27156436.220        1814.507          42.450   109347720.880 7  27156436.640
      1861.722          44.650   107957706.008 7  27156436.340        1838.071
        46.800
 136815557.925 7                  26035124.560
     -1838.599                          47.300                   102167515.956 7
  26035128.340       -1373.029          47.600   104832744.714 7  26035126.020
     -1408.854          47.550   103500130.488 8  26035127.780       -1390.960
        50.800
 141042534.672 7                  26839495.460
       599.361                          46.550                   105324009.301 7
  26839498.620         447.629          44.250   108071574.139 7  26839495.440
       459.322          45.350   106697788.878 8  26839498.600         453.504
        48.000
 132477667.856 8                  25209644.700
      1937.392                          50.150                    98928200.685 8
  25209647.740        1446.765          49.750   101508913.287 8  25209644.860
      1484.507          51.000   100218557.642 8  25209646.880        1465.606
        53.600
 131946238.210 7                  25108529.160
      2967.602                          43.000                    98531302.471 7
  25108530.700        2216.114          42.850   101101672.593 7  25108527.960
      2273.852          43.650    99816486.684 7  25108529.460        2245.008
        46.350
 132456790.283 7                  25205673.780
       610.948                          47.250                    98912583.809 7
  25205672.940         456.253          46.300   101492898.549 8  25205671.060
       468.213          48.100   100202748.334 8  25205672.620         462.237
        50.350
 128040790.546 8                  24365326.440
     -1446.947                          51.300                    95614945.578 8
  24365328.660       -1080.511          51.950    98109247.474 8  24365325.980
     -1108.635          52.850    96862099.682 9  24365327.200       -1094.619
        55.450
 124368847.505 8                  23666582.320
       984.497                          53.200                    92872961.392 8
  23666585.100         735.233          53.050    95295709.369 8  23666582.920
       754.354          53.850    94084330.031 9  23666583.820         744.806
        56.600
 143829120.062 7                  27369753.200
     -2106.248                          43.600                   107404930.340 6
  27369754.680       -1572.865          40.750   110206768.915 6  27369751.640
     -1613.684          41.800   108805852.282 7  27369754.540       -1593.288
        44.700
 23 12 27 16 24 30.0000000  0 20G06G11G12G18G20G25G26G28G29G31G32E02
                                E03E08E10E11E12E24E25E33
 131722607.832 6 102641046.03246  25065962.180                    25065962.720
     -2963.738       -2309.404          37.200          37.000    98364358.148 6
  25065965.440       -2213.407          40.650


 122962372.213 7  95814872.68046  23398942.080                    23398941.140
     -1363.702       -1062.625          46.750          41.600    91822615.752 8
  23398944.340       -1018.397          48.700


 120060235.971 7  93553482.61547  22846679.320                    22846676.920
     -2982.944       -2324.372          46.600          46.850



 134422099.573 6 104744482.39245  25579653.080                    25579658.680
      3724.486        2902.229          38.700          35.300   100380227.839 7
  25579664.480        2781.152          42.100


 133335364.087 6 103897673.44445  25372876.560                    25372874.200
      2183.897        1701.744          40.550          35.750



 106516798.569 8  83000144.19448  20269458.580                    20269458.320
     -1441.712       -1123.411          51.350          51.450    79541966.533 9
  20269459.340       -1076.530          54.900


 127348363.136 7  99232536.29646  24233575.300                    24233578.520
      3291.704        2564.967          42.350          38.350    95097857.396 7
  24233577.660        2458.069          44.750


 109758164.582 8  85525854.61848  20886264.920                    20886263.120
      1159.920         903.834          49.150          49.150    81962333.246 9
  20886267.880         866.209          55.950


 108288607.172 8  84380838.23848  20606591.920                    20606590.000
      1155.552         900.432          50.600          50.550



 116381691.006 8  90687072.16847  22146680.440                    22146678.000
      2517.556        1961.734          49.300          46.600



 125673952.325 7  97927794.85646  23914951.180                    23914953.200
     -3014.577       -2349.024          45.250          41.050    93847468.650 7
  23914952.600       -2251.138          46.150


 142635156.492 7                  27142565.400
      2428.308                          43.550                   106513286.694 7
  27142568.260        1813.308          43.100   109291883.098 7  27142568.820
      1860.621          44.600   107902578.048 7  27142568.840        1836.905
        47.050
 136870888.459 7                  26045653.260
     -1850.196                          46.700                   102208834.191 8
  26045657.960       -1381.641          48.700   104875140.819 7  26045655.160
     -1417.636          47.250   103541987.660 8  26045656.860       -1399.618
        51.250
 141024773.622 7                  26836115.660
       584.479                          46.000                   105310746.197 7
  26836118.460         436.447          44.750   108057965.043 7  26836115.960
       447.891          45.400   106684352.773 8  26836118.780         442.105
        48.400
 132419732.256 8                  25198619.900
      1924.794                          50.000                    98884937.171 8
  25198622.920        1437.347          50.400   101464521.149 8  25198620.300
      1474.857          50.850   100174729.814 8  25198622.080        1456.091
        53.800
 131857298.120 7                  25091604.080
      2961.358                          43.150                    98464886.325 7
  25091605.880        2211.499          43.750   101033523.814 7  25091602.820
      2269.321          43.500    99749204.228 7  25091604.560        2240.318
        46.850
 132438690.871 7                  25202229.640
       595.438                          47.050                    98899068.076 7
  25202228.720         444.527          47.000   101479030.229 7  25202226.580
       456.227          47.850   100189056.302 8  25202228.400         450.387
        50.700
 128084284.759 8                  24373603.140
     -1452.895                          51.850                    95647425.035 8
  24373605.420       -1084.926          52.600    98142574.226 8  24373602.360
     -1113.262          52.250    96895002.784 9  24373603.840       -1099.080
        55.650
 124339406.448 8                  23660979.900
       978.045                          53.150                    92850976.228 8
  23660982.600         730.375          53.550    95273150.671 8  23660980.360
       749.434          53.500    94062058.100 9  23660981.360         739.903
        56.700
 143892470.605 7                  27381808.520
     -2117.182                          43.400                   107452237.603 6
  27381809.280       -1581.183          41.500   110255310.285 6  27381806.360
     -1622.510          41.100   108853776.598 7  27381809.640       -1601.748
        44.800
 23 12 27 16 25  0.0000000  0 20G06G11G12G18G20G25G26G28G29G31G32E02
                                E03E08E10E11E12E24E25E33
 131811680.899 6 102710453.66146  25082911.980                    25082912.300
     -2974.555       -2317.836          37.500          37.350    98430873.813 7
  25082915.100       -2221.161          43.800


 123003552.907 7  95846961.55347  23406778.620                    23406777.660
     -1381.949       -1076.843          47.200          42.200    91853367.589 8
  23406780.840       -1032.001          48.100


 120149804.054 7  93623275.92447  22863723.280                    22863721.260
     -2988.378       -2328.606          46.050          46.350



 134310318.967 6 104657381.61245  25558381.160                    25558386.680
      3727.389        2904.480          40.650          32.600   100296756.475 7
  25558392.480        2783.390          43.350


 133269977.370 6 103846722.73346  25360433.940                    25360431.460
      2174.533        1694.443          39.750          36.350



 106560221.114 8  83033979.96048  20277721.560                    20277721.300
     -1453.561       -1132.644          51.300          51.250    79574392.476 9
  20277722.120       -1085.415          54.650


 127249637.670 7  99155607.48646  24214788.300                    24214791.440
      3289.729        2563.430          42.800          37.850    95024133.979 7
  24214790.700        2456.598          44.400


 109723625.284 8  85498940.89748  20879692.340                    20879690.600
      1142.367         890.157          49.300          48.750    81936540.931 9
  20879695.500         853.033          55.950


 108254184.948 8  84354015.75248  20600041.480                    20600039.540
      1138.904         887.459          50.800          50.800



 116306350.206 8  90628365.10247  22132343.460                    22132341.340
      2504.864        1951.845          48.850          46.700



 125764482.560 7  97998337.85646  23932178.680                    23932180.580
     -3021.232       -2354.208          44.900          41.300    93915072.330 7
  23932180.260       -2256.100          46.850


 142562317.215 7                  27128704.540
      2427.331                          44.500                   106458893.951 7
  27128706.800        1812.649          43.100   109236071.394 7  27128707.460
      1860.016          45.050   107847475.823 7  27128707.860        1836.298
        46.850
 136926548.215 7                  26056244.600
     -1860.883                          46.650                   102250398.281 8
  26056250.160       -1389.595          48.800   104917789.204 8  26056246.920
     -1425.908          48.000   103584093.898 8  26056248.620       -1407.786
        51.250
 141007447.777 7                  26832818.680
       570.255                          46.100                   105297808.098 7
  26832821.120         425.851          44.600   108044689.416 7  26832819.320
       436.947          46.050   106671245.908 8  26832821.740         431.427
        48.250
 132362162.620 8                  25187664.700
      1912.874                          50.250                    98841946.934 8
  25187667.620        1428.463          50.500   101420409.434 8  25187665.280
      1465.653          51.400   100131178.838 8  25187666.920        1447.060
        53.750
 131768538.760 7                  25074713.660
      2955.432                          43.100                    98398605.128 7
  25074715.320        2207.064          43.550   100965513.528 7  25074712.200
      2264.710          43.600    99682058.482 7  25074714.040        2235.905
        46.400
 132421048.582 7                  25198872.400
       580.359                          47.150                    98885893.686 7
  25198871.440         433.377          47.000   101465512.164 8  25198869.260
       444.713          48.400   100175710.076 8  25198871.180         439.030
        50.550
 128127946.560 8                  24381911.720
     -1458.105                          51.900                    95680029.644 8
  24381913.980       -1088.893          52.450    98176029.387 8  24381910.680
     -1117.305          52.550    96928032.669 9  24381912.380       -1103.087
        55.300
 124310146.555 8                  23655411.900
       972.243                          53.250                    92829126.339 8
  23655414.620         726.042          53.450    95250730.781 8  23655412.100
       744.968          53.900    94039923.213 9  23655413.380         735.493
        56.450
 143956141.606 7                  27393924.680
     -2127.748                          43.400                   107499784.168 6
  27393925.080       -1588.903          41.250   110304097.181 6  27393922.320
     -1630.430          41.100   108901943.336 7  27393925.780       -1609.780
        44.250
 23 12 27 16 25 30.0000000  0 20G06G11G12G18G20G25G26G28G29G31G32E02
                                E03E08E10E11E12E24E25E33
 131901080.290 6 102780115.61946  25099924.220                    25099924.780
     -2985.206       -2326.132          38.550          38.900    98497633.250 7
  25099926.800       -2229.495          42.400


 123045288.302 7  95879482.65247  23414720.760                    23414719.560
     -1400.600       -1091.376          46.450          42.350    91884533.644 7
  23414722.500       -1045.869          47.600


 120239541.205 7  93693200.95847  22880799.460                    22880797.740
     -2994.452       -2333.339          45.750          45.700



 134198462.983 6 104570222.03546  25537094.820                    25537100.260
      3729.617        2906.230          38.000          36.950   100213228.715 7
  25537106.060        2785.000          42.250


 133204874.995 6 103795993.63446  25348045.420                    25348042.580
      2165.162        1687.149          38.850          36.600



 106604011.666 8  83068102.49348  20286054.540                    20286054.260
     -1466.018       -1142.351          51.150          51.100    79607093.243 9
  20286054.980       -1094.747          54.650


 127150982.280 7  99078733.27546  24196014.700                    24196017.520
      3287.289        2561.532          42.000          37.600    94950462.907 7
  24196017.080        2454.731          43.700


 109689625.033 8  85472447.20848  20873222.400                    20873220.640
      1124.175         875.981          49.800          48.300    81911151.147 9
  20873225.620         839.455          55.800


 108220273.187 8  84327591.03448  20593588.240                    20593586.200
      1121.720         874.067          50.900          50.900



 116231401.437 8  90569963.51847  22118081.060                    22118079.200
      2491.613        1941.519          48.600          47.150



 125855223.510 7  98069045.00746  23949446.280                    23949447.980
     -3028.244       -2359.674          46.500          40.500    93982833.360 7
  23949447.700       -2261.457          45.750


 142489514.424 7                  27114850.760
      2426.030                          44.650                   106404528.470 7
  27114852.660        1811.592          43.200   109180287.660 7  27114853.080
      1858.867          45.350   107792401.217 7  27114853.800        1835.183
        46.950
 136982537.770 7                  26066898.780
     -1872.013                          46.250                   102292208.641 8
  26066904.980       -1397.945          48.700   104960690.265 8  26066901.440
     -1434.358          48.100   103626449.607 8  26066903.120       -1416.143
        51.300
 140990559.707 7                  26829605.080
       555.479                          46.200                   105285196.911 7
  26829607.200         414.885          44.450   108031749.237 7  26829606.000
       425.621          46.550   106658470.230 8  26829607.920         420.250
        48.300
 132304962.597 8                  25176779.820
      1900.333                          49.900                    98799232.716 8
  25176782.900        1419.082          50.600   101376580.918 8  25176780.560
      1456.093          51.300   100087907.469 8  25176782.080        1437.572
        53.750
 131679964.160 7                  25057858.260
      2949.065                          42.950                    98332461.913 7
  25057859.940        2202.141          43.550   100897644.818 7  25057856.500
      2259.710          43.150    99615052.526 7  25057858.680        2230.866
        46.350
 132403866.009 7                  25195602.620
       564.917                          47.050                    98873062.595 7
  25195601.780         421.821          47.150   101452346.353 8  25195599.560
       432.851          48.500   100162711.627 8  25195601.440         427.313
        50.550
 128171778.017 8                  24390252.660
     -1464.154                          51.650                    95712760.945 8
  24390254.800       -1093.332          52.350    98209614.546 8  24390251.360
     -1121.866          52.350    96961190.899 9  24390253.200       -1107.604
        55.200
 124281070.267 8                  23649878.720
       965.977                          52.900                    92807413.551 8
  23649881.480         721.381          53.200    95228451.574 9  23649878.840
       740.139          54.000    94017927.214 9  23649880.320         730.773
        56.400
 144020133.497 7                  27406101.940
     -2138.675                          43.400                   107547570.354 6
  27406102.320       -1597.054          41.450   110353129.957 6  27406099.240
     -1638.656          41.100   108950352.812 7  27406102.960       -1617.877
        44.250
 23 12 27 16 26  0.0000000  0 20G06G11G12G18G20G25G26G28G29G31G32E02
                                E03E08E10E11E12E24E25E33
 131990804.217 6 102850030.47146  25116997.980                    25116998.660
     -2995.882       -2334.446          38.750          37.900    98564634.918 6
  25117001.060       -2237.136          41.300


 123087577.895 7  95912435.60247  23422768.280                    23422766.740
     -1418.546       -1105.360          46.600          42.300    91916113.558 7
  23422769.380       -1059.320          47.350


 120329447.229 7  93763257.60347  22897907.860                    22897906.200
     -2999.503       -2337.274          45.300          45.400



 134086535.063 6 104483006.32645  25515794.880                    25515800.600
      3732.438        2908.421          40.500          35.350   100129647.147 7
  25515806.080        2787.040          43.000


 133140060.184 6 103745488.65245  25335711.200                    25335708.480
      2156.033        1680.019          38.000          35.450



 106648170.557 8  83102512.04248  20294457.580                    20294457.360
     -1477.932       -1151.634          50.850          51.000    79640069.061 9
  20294458.200       -1103.560          54.650


 127052398.979 7  99001915.28846  24177254.880                    24177257.900
      3285.192        2559.896          42.450          38.300    94876845.695 7
  24177256.960        2453.286          42.850


 109656166.333 8  85446375.50748  20866855.460                    20866853.740
      1106.575         862.269          49.300          49.200    81886165.764 9
  20866858.760         826.327          55.700


 108186872.521 8  84301564.57548  20587232.260                    20587230.200
      1105.067         861.093          50.750          50.600



 116156848.097 8  90511870.06147  22103893.860                    22103892.220
      2478.689        1931.448          48.400          47.500



 125946173.023 7  98139914.73946  23966753.740                    23966754.720
     -3034.833       -2364.806          45.800          40.300    94050750.158 7
  23966754.420       -2266.173          45.050


 142416749.319 7                  27101004.060
      2425.228                          45.400                   106350191.100 7
  27101005.880        1811.037          43.550   109124532.774 7  27101005.780
      1858.195          45.700   107737355.088 7  27101006.900        1834.604
        47.500
 137038856.395 7                  26077615.700
     -1882.460                          46.300                   102334264.745 8
  26077622.260       -1405.717          48.650   105003843.491 8  26077618.640
     -1442.370          48.600   103669054.269 8  26077620.240       -1424.009
        51.350
 140974110.847 7                  26826475.040
       541.249                          46.250                   105272913.717 7
  26826476.860         404.211          44.350   108019145.597 7  26826476.200
       414.805          46.850   106646026.810 8  26826477.680         409.491
        48.450
 132248134.606 8                  25165965.700
      1888.334                          50.100                    98756796.306 8
  25165968.820        1410.149          50.600   101333037.461 8  25165966.400
      1446.875          51.400   100044917.537 8  25165968.020        1428.521
        53.850
 131591577.251 7                  25041038.760
      2943.194                          43.650                    98266458.835 7
  25041040.260        2197.902          43.400   100829919.896 7  25041036.840
      2255.289          43.850    99548188.514 7  25041038.980        2226.649
        46.550
 132387144.391 7                  25192420.640
       550.022                          47.600                    98860575.722 7
  25192419.960         410.694          47.200   101439533.735 8  25192417.540
       421.471          48.450   100150061.884 8  25192419.440         416.043
        50.650
 128215779.885 8                  24398626.060
     -1469.303                          52.200                    95745619.508 8
  24398628.060       -1097.187          52.350    98243330.286 8  24398624.500
     -1125.838          52.600    96994478.048 9  24398626.460       -1111.494
        55.300
 124252178.931 8                  23644380.700
       960.180                          53.050                    92785838.883 8
  23644383.500         717.061          53.100    95206314.085 9  23644380.940
       735.736          54.450    93996071.136 9  23644382.500         726.408
        56.600
 144084445.622 7                  27418340.320
     -2148.850                          44.700                   107595595.678 6
  27418340.720       -1604.649          41.150   110402408.107 6  27418337.540
     -1646.402          41.250   108999004.543 7  27418341.200       -1625.461
        44.150
 23 12 27 16 26 30.0000000  0 20G06G11G12G18G20G25G26G28G29G31G32E02
                                E03E08E10E11E12E24E25E33
 132080845.369 6 102920192.45746  25134132.100                    25134132.740
     -3007.037       -2343.141          38.250          37.950    98631873.496 6
  25134134.800       -2245.272          41.950


 123130415.538 7  95945815.62147  23430919.980                    23430918.160
     -1437.109       -1119.824          46.150          42.350    91948102.745 7
  23430920.900       -1073.268          47.500


 120419516.642 7  93833441.54547  22915047.280                    22915045.840
     -3005.243       -2341.749          44.850          45.300



 133974532.961 6 104395732.61145  25494481.060                    25494486.080
      3734.563        2910.072          39.750          34.050   100046010.058 7
  25494492.180        2788.635          43.550


 133075531.436 6 103695206.66445  25323431.260                    25323429.020
      2145.979        1672.194          38.000          35.200



 106692692.329 8  83137204.35348  20302929.620                    20302929.480
     -1490.405       -1161.354          50.350          50.450    79673315.863 9
  20302930.440       -1112.916          54.450


 126953883.995 6  98925150.55946  24158507.880                    24158511.320
      3282.479        2557.783          41.900          37.700    94803279.559 7
  24158510.040        2451.137          42.550


 109623246.032 8  85420723.34948  20860590.860                    20860589.260
      1088.251         847.990          49.450          49.100    81861582.442 9
  20860594.360         812.527          55.600


 108153978.928 8  84275933.24248  20580972.840                    20580970.800
      1087.887         847.705          51.000          51.000



 116082687.856 8  90454082.92247  22089781.440                    22089779.960
      2465.172        1920.916          48.550          46.350



 126037323.269 7  98210940.85446  23984099.120                    23984100.160
     -3041.872       -2370.290          45.200          41.250    94118816.852 7
  23984099.480       -2271.528          45.050


 142344017.432 7                  27087163.600
      2423.637                          45.850                   106295878.529 7
  27087165.700        1809.873          44.050   109068803.343 7  27087164.920
      1857.049          45.800   107682334.086 7  27087166.340        1833.459
        47.700
 137095497.776 7                  26088394.220
     -1893.665                          46.350                   102376561.863 7
  26088400.840       -1414.119          47.950   105047244.010 8  26088397.220
     -1450.938          48.800   103711903.089 8  26088398.760       -1432.509
        51.150
 140958096.857 7                  26823427.800
       526.299                          46.850                   105260955.249 7
  26823429.620         393.051          44.550   108006875.169 7  26823428.840
       403.207          46.750   106633912.360 8  26823430.200         398.165
        48.450
 132191675.386 8                  25155221.840
      1875.562                          50.050                    98714635.272 8
  25155225.020        1400.579          50.650   101289776.562 8  25155222.540
      1437.107          51.350   100002206.569 8  25155224.100        1418.850
        53.850
 131503375.265 7                  25024254.420
      2936.878                          43.750                    98200593.831 7
  25024255.540        2193.049          43.050   100762336.653 7  25024252.180
      2250.335          43.150    99481464.397 7  25024254.540        2221.592
        46.100
 132370879.589 7                  25189325.600
       534.349                          47.550                    98848429.959 7
  25189324.940         399.008          47.150   101427071.120 8  25189322.400
       409.405          48.300   100137757.692 8  25189324.320         404.227
        50.550
 128259947.320 8                  24407030.760
     -1475.229                          51.450                    95778601.705 8
  24407032.740       -1101.627          52.200    98277172.883 8  24407029.180
     -1130.347          52.550    97027890.450 9  24407031.260       -1116.014
        55.150
 124223468.150 8                  23638917.180
       953.776                          53.250                    92764399.036 8
  23638920.060         712.242          53.050    95184314.935 9  23638917.560
       730.809          54.600    93974351.636 9  23638919.020         721.542
        56.550
 144149071.525 7                  27430638.560
     -2159.693                          45.100                   107643855.318 6
  27430638.980       -1612.864          41.050   110451926.679 6  27430635.740
     -1654.803          41.250   109047893.659 7  27430639.040       -1633.926
        44.100
 23 12 27 16 27  0.0000000  0 20G06G11G12G18G20G25G26G28G29G31G32E02
                                E03E08E10E11E12E24E25E33
 132171206.098 6 102990603.43346  25151327.200                    25151328.140
     -3017.466       -2351.274          40.050          39.950    98699350.754 7
  25151329.840       -2253.252          42.250


 123173804.895 7  95979625.53646  23439176.640                    23439174.780
     -1455.479       -1134.139          46.600          41.700    91980503.915 8
  23439177.720       -1086.831          48.100


 120509753.615 7  93903756.05747  22932218.720                    22932217.380
     -3010.806       -2346.082          45.250          45.700



 133862464.174 6 104308406.87745  25473154.560                    25473158.960
      3736.650        2911.697          40.950          35.450    99962323.031 7
  25473165.520        2790.427          42.750


 133011296.226 6 103645153.32946  25311207.260                    25311205.860
      2136.084        1664.484          37.650          36.550



 106737581.359 8  83172182.83248  20311471.640                    20311471.720
     -1502.455       -1170.744          50.450          50.400    79706836.918 9
  20311472.640       -1121.922          54.800


 126855443.468 7  98848443.87346  24139775.080                    24139778.940
      3279.989        2555.843          42.100          38.750    94729769.019 7
  24139777.160        2449.330          42.950


 109590870.744 8  85395495.84648  20854429.980                    20854428.480
      1070.115         833.859          48.650          48.650    81837406.100 9
  20854433.560         799.137          55.700


 108121597.920 8  84250701.32048  20574811.000                    20574808.980
      1070.861         834.438          50.850          50.950



 116008927.987 7  90396607.74847  22075745.160                    22075743.880
      2451.918        1910.587          47.700          47.200



 126128676.259 7  98282124.93846  24001483.080                    24001484.280
     -3048.570       -2375.510          44.700          41.650    94187034.914 7
  24001483.560       -2276.339          45.750


 142271324.088 7                  27073330.320
      2422.563                          46.150                   106241594.744 7
  27073332.900        1808.950          44.750   109013103.433 7  27073331.360
      1856.186          45.600   107627342.240 7  27073333.120        1832.618
        47.950
 137152465.351 7                  26099234.880
     -1904.359                          46.550                   102419102.563 7
  26099241.300       -1422.079          47.850   105090894.461 8  26099237.860
     -1459.107          48.350   103754998.665 8  26099239.300       -1440.618
        50.800
 140942523.207 7                  26820464.440
       511.854                          47.200                   105249325.619 7
  26820466.500         382.103          44.850   107994942.133 7  26820464.960
       392.181          46.400   106622131.029 8  26820466.500         387.138
        48.450
 132135591.482 8                  25144549.420
      1863.247                          49.700                    98672754.484 8
  25144552.480        1391.382          50.900   101246803.224 8  25144550.040
      1427.689          51.050    99959779.510 8  25144551.600        1409.508
        53.900
 131415365.292 7                  25007506.760
      2930.414                          44.000                    98134872.180 7
  25007507.500        2188.440          43.600   100694900.516 7  25007504.340
      2245.439          43.400    99414885.502 7  25007506.600        2216.921
        46.550
 132355076.912 7                  25186318.400
       519.125                          47.250                    98836629.302 7
  25186317.720         387.702          47.350   101414962.614 7  25186315.240
       397.820          47.800   100125803.115 8  25186317.140         392.694
        50.500
 128304285.274 8                  24415467.720
     -1480.763                          50.900                    95811711.226 8
  24415469.840       -1105.771          52.400    98311146.130 8  24415466.480
     -1134.580          52.250    97061431.832 9  24415468.500       -1120.183
        55.150
 124194943.363 8                  23633489.000
       947.798                          52.600                    92743098.074 8
  23633492.040         707.775          53.400    95162458.296 9  23633489.640
       726.229          54.400    93952772.838 9  23633490.920         717.000
        56.700
 144214014.549 7                  27442997.120
     -2170.035                          44.700                   107692351.745 6
  27442997.780       -1620.447          41.450   110501688.252 6  27442994.380
     -1662.650          40.800   109097022.650 7  27442997.200       -1641.533
        44.100
 23 12 27 16 27 30.0000000  0 20G06G11G12G18G20G25G26G28G29G31G32E02
                                E03E08E10E11E12E24E25E33
 132261878.718 6 103061257.57446  25168581.780                    25168582.160
     -3027.444       -2359.042          38.650          38.850    98767060.957 6
  25168583.900       -2260.938          41.550


 123217739.582 7  96013860.39046  23447537.100                    23447535.200
     -1473.538       -1148.211          46.100          41.500    92013312.321 8
  23447538.520       -1100.429          48.050


 120600152.233 7  93974196.54247  22949421.020                    22949419.580
     -3016.144       -2350.242          45.300          44.950



 133750326.386 6 104221027.25846  25451815.180                    25451819.340
      3738.901        2913.447          40.250          37.950    99878584.325 7
  25451825.820        2792.200          42.600


 132947352.227 6 103595326.87145  25299039.160                    25299037.760
      2126.420        1656.959          38.500          33.000



 106782832.147 8  83207443.20048  20320082.600                    20320082.740
     -1514.397       -1180.050          50.600          50.350    79740628.113 9
  20320083.640       -1130.850          54.350


 126757073.448 7  98771792.17346  24121055.660                    24121059.580
      3277.904        2554.220          42.650          39.550    94656311.154 7
  24121058.060        2447.871          43.200


 109559037.118 8  85370690.43448  20848372.060                    20848370.740
      1052.051         819.780          48.800          49.000    81813634.248 9
  20848375.740         785.658          55.400


 108089724.911 8  84225865.23548  20568745.840                    20568743.820
      1053.909         821.229          51.100          51.300



 115935566.112 7  90339442.71347  22061784.700                    22061783.500
      2438.614        1900.221          47.550          46.900



 126220223.951 7  98353460.76747  24018903.920                    24018905.280
     -3054.793       -2380.357          43.250          42.550    94255398.407 7
  24018904.680       -2281.166          45.050


 142198664.772 7                  27059503.480
      2421.437                          46.200                   106187336.345 7
  27059506.720        1808.186          45.050   108957429.575 7  27059504.440
      1855.275          45.900   107572376.115 8  27059506.380        1831.723
        48.200
 137209752.605 7                  26110136.520
     -1914.959                          46.550                   102461881.986 7
  26110142.620       -1429.964          47.250   105134789.878 8  26110139.180
     -1467.267          48.700   103798336.085 8  26110140.720       -1448.608
        50.600
 140927385.457 7                  26817584.060
       497.345                          46.750                   105238021.483 7
  26817586.500         371.337          45.100   107983343.090 7  26817584.200
       381.158          46.900   106610679.441 8  26817585.760         376.212
        48.650
 132079879.454 8                  25133947.760
      1850.910                          49.850                    98631151.401 8
  25133950.820        1382.153          50.700   101204114.839 8  25133948.400
      1418.218          51.400    99917633.770 8  25133949.880        1400.199
        53.750
 131327544.382 7                  24990795.100
      2923.982                          44.050                    98069291.703 7
  24990795.620        2183.616          43.050   100627609.240 7  24990792.560
      2240.430          43.500    99348449.625 7  24990794.720        2212.018
        46.100
 132339731.974 7                  25183398.260
       503.805                          46.750                    98825170.443 7
  25183397.540         376.311          47.100   101403204.833 7  25183395.160
       386.063          47.950   100114194.787 8  25183397.040         381.234
        50.300
 128348788.748 8                  24423936.260
     -1486.209                          50.900                    95844944.353 8
  24423938.320       -1109.803          52.100    98345246.213 8  24423935.460
     -1138.765          52.450    97095098.433 9  24423937.260       -1124.269
        55.000
 124166600.056 8                  23628095.320
       941.748                          52.000                    92721932.635 8
  23628098.500         703.240          53.150    95140740.712 9  23628096.260
       721.625          54.750    93931331.326 9  23628097.360         712.445
        56.550
 144279268.256 7                  27455414.740
     -2180.160                          44.800                   107741080.208 6
  27455415.320       -1628.164          41.750   110551687.886 6  27455412.260
     -1670.586          41.250   109146386.693 7  27455414.520       -1649.316
        44.300
 23 12 27 16 28  0.0000000  0 20G06G11G12G18G20G25G26G28G29G31G32E02
                                E03E08E10E11E12E24E25E33
 132352867.319 6 103132157.84046  25185896.380                    25185896.800
     -3038.296       -2367.496          38.550          38.300    98835007.086 6
  25185897.800       -2268.766          41.700


 123262224.784 7  96048524.20246  23456002.440                    23456000.420
     -1491.706       -1162.369          45.950          41.250    92046531.823 8
  23456004.200       -1114.116          48.650


 120690717.840 7  94044767.13947  22966655.160                    22966653.560
     -3021.641       -2354.525          45.550          45.200



 133638128.730 6 104133600.94746  25430464.280                    25430468.760
      3740.703        2914.849          39.500          36.700    99794800.852 7
  25430474.740        2793.594          44.200


 132883709.002 6 103545734.82845  25286928.160                    25286926.760
      2116.182        1648.974          37.750          35.000



 106828450.576 8  83242990.04948  20328763.560                    20328763.600
     -1526.737       -1189.665          50.800          50.750    79774693.843 9
  20328764.380       -1140.032          54.350


 126658781.561 7  98695201.35846  24102351.100                    24102354.680
      3275.214        2552.126          42.950          37.850    94582911.675 7
  24102353.900        2445.748          44.250


 109527753.293 8  85346313.43748  20842418.840                    20842417.620
      1033.741         805.515          48.650          48.050    81790272.960 9
  20842422.500         771.911          55.600


 108058366.545 8  84201430.17448  20562778.580                    20562776.540
      1036.727         807.840          51.200          51.250



 115862610.912 8  90282594.55847  22047901.680                    22047900.420
      2425.111        1889.699          48.100          46.150



 126311969.907 7  98424951.06146  24036362.200                    24036363.920
     -3061.532       -2385.611          43.600          41.750    94323909.948 7
  24036363.360       -2286.123          44.950


 142126046.325 7                  27045684.380
      2420.008                          46.200                   106133108.456 7
  27045688.360        1807.114          45.700   108901787.028 7  27045685.400
      1854.321          45.900   107517440.896 8  27045687.440        1830.726
        48.800
 137267364.476 7                  26121099.960
     -1925.596                          46.950                   102504903.818 7
  26121105.480       -1438.052          46.900   105178934.014 8  26121102.380
     -1475.492          48.600   103841919.065 8  26121103.880       -1456.784
        50.600
 140912690.544 7                  26814787.820
       482.607                          46.500                   105227048.050 7
  26814790.640         360.262          45.600   107972083.400 7  26814787.900
       369.653          47.050   106599562.875 8  26814789.320         364.980
        49.200
 132024547.317 8                  25123418.440
      1838.075                          50.300                    98589831.993 8
  25123421.440        1372.596          51.000   101161717.525 8  25123418.960
      1408.401          51.350    99875775.415 9  25123420.500        1390.474
        54.150
 131239921.066 7                  24974121.000
      2917.560                          44.250                    98003858.763 7
  24974120.980        2178.684          43.100   100560469.347 7  24974118.320
      2235.410          43.750    99282163.204 7  24974120.500        2207.155
        46.450
 132324851.768 7                  25180566.440
       488.337                          46.350                    98814058.627 7
  25180565.820         364.683          47.350   101391803.131 7  25180563.580
       374.160          47.900   100102938.032 8  25180565.380         369.411
        50.700
 128393464.219 8                  24432437.620
     -1492.028                          51.100                    95878305.928 8
  24432439.520       -1114.141          52.350    98379478.091 8  24432437.200
     -1143.213          52.700    97128895.161 9  24432438.720       -1128.698
        55.550
 124138445.200 8                  23622737.480
       935.450                          52.050                    92700907.926 8
  23622740.880         698.513          53.300    95119167.532 9  23622738.700
       716.731          54.800    93910032.380 9  23622739.640         707.624
        56.850
 144344837.474 7                  27467892.340
     -2190.856                          44.600                   107790044.266 6
  27467892.820       -1636.058          41.700   110601929.272 6  27467890.020
     -1678.752          40.750   109195989.414 7  27467891.960       -1657.332
        44.550
 23 12 27 16 28 30.0000000  0 20G06G11G12G18G20G25G26G28G29G31G32E02
                                E03E08E10E11E12E24E25E33
 132444160.034 6 103203295.14546  25203268.900                    25203269.440
     -3048.065       -2375.110          37.700          38.200    98903180.323 6
  25203269.860       -2276.039          40.500


 123307250.117 7  96083608.90246  23464570.380                    23464568.400
     -1509.795       -1176.463          45.650          41.000    92080154.647 8
  23464572.780       -1127.392          48.650


 120781440.773 7  94115460.31947  22983919.380                    22983917.460
     -3026.745       -2358.504          46.600          46.500



 133525864.795 6 104046122.97246  25409100.860                    25409105.240
      3743.313        2916.879          38.050          36.150    99710967.906 7
  25409111.320        2795.281          44.200


 132820360.487 6 103496372.41246  25274873.360                    25274871.720
      2106.555        1641.470          37.650          37.600



 106874427.029 8  83278815.87748  20337512.680                    20337512.620
     -1538.413       -1198.763          50.800          50.750    79809026.944 9
  20337513.280       -1148.792          54.250


 126560559.935 7  98618665.28746  24083659.920                    24083663.400
      3272.811        2550.249          43.350          39.600    94509564.668 7
  24083663.100        2444.096          44.400


 109497011.837 8  85322359.06848  20836569.020                    20836567.620
      1015.514         791.311          49.250          48.950    81767316.688 9
  20836572.520         758.518          55.550


 108027514.290 8  84177389.48248  20556907.620                    20556905.500
      1020.014         794.816          51.350          51.350



 115790056.104 8  90226058.38647  22034094.900                    22034093.480
      2411.921        1879.420          48.300          45.400



 126403902.007 7  98496586.42947  24053855.980                    24053857.960
     -3067.200       -2390.028          42.400          42.200    94392560.502 7
  24053857.760       -2290.593          45.100


 142053460.170 7                  27031871.480
      2419.146                          46.100                   106078904.649 7
  27031876.120        1806.554          46.000   108846169.198 7  27031872.540
      1853.624          45.950   107462530.080 8  27031874.640        1830.010
        48.900
 137325290.430 7                  26132123.180
     -1935.936                          47.050                   102548160.179 7
  26132128.180       -1445.689          46.400   105223318.802 8  26132125.320
     -1483.381          48.300   103885739.639 8  26132126.820       -1464.502
        50.250
 140898429.954 7                  26812074.000
       468.290                          46.050                   105216398.933 7
  26812077.340         349.735          45.400   107961156.482 7  26812074.280
       358.803          47.200   106588774.859 8  26812075.560         354.294
        49.250
 131969587.634 8                  25112960.040
      1825.868                          50.750                    98548790.717 8
  25112962.920        1363.475          50.900   101119605.603 8  25112960.400
      1399.062          51.050    99834198.809 9  25112961.980        1381.267
        54.000
 131152488.441 7                  24957483.180
      2911.430                          44.600                    97938568.209 7
  24957483.160        2174.177          43.300   100493475.543 7  24957480.680
      2230.862          44.300    99216021.028 7  24957482.620        2202.533
        46.800
 132310427.658 7                  25177821.280
       473.291                          46.000                    98803287.403 7
  25177820.880         353.449          47.250   101380750.910 7  25177818.900
       362.616          47.900   100092026.310 8  25177820.520         358.040
        50.700
 128438302.628 8                  24440970.120
     -1497.206                          51.750                    95911789.179 8
  24440971.840       -1118.007          52.400    98413834.816 8  24440970.060
     -1147.188          52.900    97162815.148 9  24440971.180       -1132.600
        55.650
 124110470.252 8                  23617413.880
       929.536                          52.200                    92680017.565 8
  23617417.520         694.188          53.100    95097732.201 9  23617415.340
       712.297          54.800    93888869.534 9  23617416.140         703.228
        56.850
 144410711.648 7                  27480427.680
     -2200.795                          44.250                   107839236.047 6
  27480428.180       -1643.446          41.350   110652404.310 6  27480425.460
     -1686.225          40.750   109245822.836 7  27480427.480       -1664.878
        44.350
 23 12 27 16 29  0.0000000  0 20G06G11G12G18G20G25G26G28G29G31G32E02
                                E03E08E10E11E12E24E25E33
 132535763.279 6 103274674.39146  25220700.300                    25220700.840
     -3058.664       -2383.366          36.750          36.850    98971585.409 6
  25220701.000       -2283.431          40.900


 123352822.975 7  96119120.24646  23473242.620                    23473240.540
     -1527.868       -1190.547          45.300          41.500    92114186.336 8
  23473245.560       -1140.854          48.850


 120872329.178 7  94186282.44547  23001215.240                    23001212.880
     -3031.962       -2362.568          46.850          46.600



 133413546.242 6 103958602.47846  25387727.140                    25387731.500
      3745.224        2918.373          38.250          36.250    99627094.186 7
  25387737.400        2796.792          44.150


 132757318.060 5 103447248.46045  25262876.960                    25262874.980
      2096.614        1633.725          35.900          34.850



 106920769.802 8  83314927.14548  20346331.440                    20346331.360
     -1550.470       -1208.157          50.650          50.650    79843633.572 9
  20346331.920       -1157.808          54.300


 126462418.485 7  98542191.68246  24064984.000                    24064987.040
      3270.617        2548.542          42.750          37.800    94436277.540 7
  24064987.380        2442.211          44.800


 109466823.177 8  85298835.45047  20830824.340                    20830822.740
       997.438         777.226          49.100          47.950    81744773.228 9
  20830827.860         744.854          55.750


 107997177.375 8  84153750.34448  20551134.640                    20551132.480
      1003.013         781.568          50.700          50.650



 115717912.872 8  90169842.92247  22020366.580                    22020364.760
      2398.295        1868.802          48.350          46.350



 126496026.239 6  98568371.47446  24071386.220                    24071388.720
     -3073.424       -2394.880          41.850          41.000    94461354.489 7
  24071388.800       -2295.104          45.750


 141980915.538 7                  27018066.480
      2417.905                          45.900                   106024731.843 7
  27018071.800        1805.548          46.450   108790583.176 7  27018067.680
      1852.606          45.900   107407650.657 8  27018069.700        1829.146
        48.950
 137383537.716 7                  26143207.480
     -1946.548                          47.200                   102591656.496 7
  26143211.900       -1453.543          46.150   105267949.819 7  26143209.300
     -1491.520          47.950   103929803.313 8  26143210.960       -1472.509
        49.800
 140884613.016 7                  26809444.520
       453.610                          45.050                   105206081.123 7
  26809448.200         338.806          45.700   107950569.510 7  26809445.140
       347.581          47.100   106578322.469 8  26809446.280         343.178
        49.100
 131915010.780 8                  25102574.580
      1813.233                          50.900                    98508035.317 8
  25102577.360        1354.054          51.100   101077787.006 8  25102574.500
      1389.376          50.850    99792911.816 8  25102576.280        1371.684
        53.850
 131065257.406 7                  24940883.700
      2904.578                          44.700                    97873428.168 7
  24940883.380        2169.176          43.100   100426636.211 7  24940881.140
      2225.701          44.150    99150031.338 7  24940883.100        2197.433
        46.600
 132296468.972 7                  25175164.620
       457.894                          45.650                    98792863.747 7
  25175164.480         341.891          47.150   101370055.320 7  25175162.740
       350.914          47.850   100081466.687 8  25175164.240         346.385
        50.400
 128483312.805 8                  24449535.400
     -1502.766                          51.550                    95945400.697 8
  24449537.040       -1122.241          52.650    98448323.154 8  24449535.560
     -1151.503          52.950    97196865.075 9  24449536.300       -1136.851
        55.600
 124082684.536 8                  23612126.420
       923.412                          52.100                    92659268.511 8
  23612129.940         689.587          52.900    95076441.867 9  23612127.940
       707.534          54.750    93867849.838 9  23612128.680         698.563
        56.550
 144476898.111 7                  27493022.200
     -2211.043                          43.150                   107888661.034 6
  27493022.960       -1651.067          41.700   110703118.665 6  27493020.140
     -1694.044          40.800   109295892.503 7  27493022.440       -1672.553
        44.200
 23 12 27 16 29 30.0000000  0 20G06G11G12G18G20G25G26G28G29G31G32E02
                                E03E08E10E11E12E24E25E33
 132627667.843 6 103346288.41346  25238189.020                    25238189.540
     -3068.984       -2391.410          36.400          36.850    99040215.531 6
  25238189.920       -2291.505          40.900


 123398935.407 7  96155052.03246  23482017.480                    23482015.240
     -1546.383       -1204.974          45.250          40.150    92148620.972 8
  23482020.880       -1154.781          48.950


 120963375.603 7  94257227.70247  23018540.980                    23018538.300
     -3037.885       -2367.184          46.600          46.800



 133301169.211 6 103871036.42746  25366342.180                    25366346.400
      3746.381        2919.274          39.050          38.000    99543176.838 7
  25366352.340        2797.727          44.250


 132694578.165 6 103398360.27745  25250938.020                    25250935.720
      2086.032        1625.476          36.650          35.800



 106967471.667 8  83351318.22148  20355218.540                    20355218.460
     -1563.044       -1217.956          50.500          50.650    79878508.353 9
  20355218.820       -1167.207          54.400


 126364351.791 7  98465776.34446  24046322.340                    24046325.000
      3267.399        2546.031          42.700          38.250    94363046.239 7
  24046325.820        2439.787          44.900


 109437182.355 8  85275738.72348  20825183.880                    20825182.100
       978.432         762.415          48.950          48.850    81722638.865 9
  20825187.500         730.752          55.850


 107967349.150 8  84130507.60248  20545458.380                    20545456.200
       985.447         767.882          50.500          50.600



 115646177.103 8  90113944.96147  22006715.860                    22006713.640
      2384.116        1857.755          48.700          46.450



 126588332.974 6  98640298.76246  24088951.420                    24088953.700
     -3080.190       -2400.149          41.800          40.900    94530284.807 7
  24088954.360       -2300.155          45.200


 141908406.314 7                  27004268.280
      2416.041                          45.700                   105970585.448 7
  27004274.200        1804.160          46.750   108735024.245 7  27004269.640
      1851.304          45.900   107352798.001 8  27004271.520        1827.692
        49.100
 137442098.231 7                  26154351.300
     -1957.544                          47.100                   102635386.729 7
  26154355.320       -1461.851          45.950   105312820.845 7  26154352.900
     -1499.995          47.800   103974103.941 8  26154354.720       -1480.928
        49.700
 140871233.595 7                  26806898.020
       438.346                          44.600                   105196090.023 7
  26806902.280         327.325          45.750   107940317.764 7  26806899.180
       335.891          47.100   106568201.048 8  26806900.280         331.574
        49.150
 131860811.673 8                  25092261.000
      1800.006                          51.200                    98467562.009 8
  25092263.620        1344.159          51.350   101036257.871 8  25092260.560
      1379.214          50.850    99751910.591 8  25092262.480        1361.704
        53.950
 130978223.432 7                  24924321.760
      2897.325                          44.250                    97808435.303 7
  24924321.320        2163.560          43.850   100359947.880 7  24924319.300
      2219.977          44.800    99084190.742 7  24924321.120        2191.772
        47.150
 132282969.624 7                  25172595.500
       442.009                          45.500                    98782783.092 7
  25172595.320         330.068          47.100   101359711.696 7  25172593.880
       338.692          47.900   100071254.546 8  25172595.400         334.392
        50.550
 128528488.159 8                  24458132.220
     -1508.861                          51.600                    95979135.564 8
  24458133.660       -1126.760          52.700    98482938.066 8  24458132.260
     -1156.191          52.900    97231039.964 9  24458132.880       -1141.455
        55.650
 124055081.952 8                  23606873.740
       916.739                          51.900                    92638656.208 8
  23606876.980         684.560          52.800    95055291.850 9  23606875.300
       702.431          54.700    93846968.678 9  23606876.100         693.489
        56.550
 144543388.564 7                  27505674.520
     -2221.692                          42.100                   107938313.064 6
  27505675.320       -1659.193          41.450   110754065.966 6  27505672.460
     -1702.340          41.400   109346192.164 7  27505675.320       -1680.765
        44.400
 23 12 27 16 30  0.0000000  0 20G06G11G12G18G20G25G26G28G29G31G32E02
                                E03E08E10E11E12E24E25E33
 132719873.662 6 103418137.18746  25255734.920                    25255735.840
     -3077.870       -2398.336          37.500          36.900    99109070.614 6
  25255736.060       -2298.596          40.000


 123445588.579 7  96191405.17146  23490895.280                    23490892.800
     -1563.683       -1218.454          46.150          40.800    92183459.401 8
  23490898.820       -1167.697          48.550


 121054581.785 7  94328297.43347  23035897.000                    23035894.040
     -3042.591       -2370.851          47.250          47.700



 133188738.889 6 103783428.91846  25344947.160                    25344951.200
      3748.753        2921.124          39.650          36.500    99459219.795 7
  25344957.260        2799.521          44.400


 132632145.766 6 103349711.68546  25239057.440                    25239055.080
      2076.380        1617.959          37.150          36.400



 107014534.659 8  83387990.69048  20364174.360                    20364174.280
     -1574.434       -1226.831          50.650          50.800    79913652.815 9
  20364174.360       -1175.740          54.050


 126266363.567 7  98389422.13446  24027675.580                    24027677.840
      3265.319        2544.411          43.150          37.300    94289873.499 7
  24027679.000        2438.411          44.200


 109408093.471 8  85253072.07548  20819648.420                    20819646.500
       960.837         748.704          48.900          48.800    81700916.676 9
  20819652.140         717.464          55.450


 107938033.049 8  84107663.91248  20539879.560                    20539877.340
       969.117         755.157          50.350          50.200



 115574853.796 8  90058368.40647  21993143.700                    21993141.120
      2370.972        1847.512          49.250          47.000



 126680821.834 6  98712367.96646  24106551.480                    24106553.380
     -3085.979       -2404.663          40.750          40.750    94599351.089 7
  24106554.400       -2304.251          44.500


 141835935.471 7                  26990477.460
      2415.341                          45.850                   105916467.695 7
  26990483.760        1803.756          46.750   108679494.710 7  26990478.860
      1850.839          46.150   107297974.356 8  26990480.640        1827.281
        49.250
 137500972.953 7                  26165554.780
     -1967.261                          47.400                   102679351.610 7
  26165558.660       -1469.105          45.400   105357932.639 7  26165556.260
     -1507.388          47.550   104018642.279 8  26165558.300       -1488.281
        49.400
 140858294.694 7                  26804435.320
       424.352                          44.500                   105186427.880 7
  26804439.920         316.879          45.200   107930403.568 7  26804436.960
       325.117          46.850   106558412.873 8  26804438.080         320.992
        48.950
 131806994.419 8                  25082020.080
      1787.953                          51.300                    98427373.853 8
  25082022.560        1335.167          51.000   100995021.320 8  25082019.400
      1369.937          50.950    99711198.237 8  25082021.320        1352.551
        53.950
 130891391.191 7                  24907798.160
      2891.392                          44.900                    97743593.098 7
  24907797.900        2159.141          43.300   100293414.127 7  24907795.740
      2215.450          44.700    99018502.762 7  24907797.520        2187.366
        47.000
 132269932.525 7                  25170114.580
       427.160                          45.650                    98773047.606 7
  25170114.000         318.952          46.750   101349722.239 7  25170112.800
       327.330          47.750   100061392.069 8  25170114.540         323.229
        50.250
 128573831.269 8                  24466761.020
     -1513.853                          52.400                    96012995.705 8
  24466762.260       -1130.470          52.450    98517681.510 8  24466760.640
     -1159.952          52.850    97265341.761 9  24466761.400       -1145.230
        55.600
 124027665.576 8                  23601656.540
       911.143                          52.000                    92618182.955 8
  23601659.400         680.385          52.550    95034284.518 9  23601657.880
       698.133          54.500    93826228.389 9  23601659.000         689.274
        56.400
 144610184.024 7                  27518384.660
     -2231.056                          42.650                   107988192.809 6
  27518385.920       -1666.068          41.650   110805246.941 6  27518382.860
     -1709.604          40.900   109396722.524 7  27518386.100       -1687.774
        44.400
 23 12 27 16 30 30.0000000  0 20G06G11G12G18G20G25G26G28G29G31G32E02
                                E03E08E10E11E12E24E25E33
 132812375.978 6 103490216.94946  25273337.380                    25273338.500
     -3088.410       -2406.557          36.700          36.650    99178147.152 6
  25273338.420       -2305.979          39.800


 123492778.753 7  96228176.74846  23499875.500                    23499872.840
     -1581.666       -1232.469          46.850          38.700    92218698.834 8
  23499878.740       -1181.070          48.700


 121145944.713 7  94399489.31447  23053282.820                    23053279.520
     -3047.792       -2374.903          47.500          47.400



 133076255.745 6 103695780.27246  25323542.120                    25323545.920
      3750.218        2922.266          40.500          37.550    99375223.323 7
  25323551.640        2800.657          42.350


 132570021.722 6 103301303.34745  25227235.560                    25227233.080
      2065.950        1609.829          37.800          35.600



 107061955.928 8  83424942.33948  20373198.280                    20373198.220
     -1586.422       -1236.172          50.750          50.850    79949064.815 9
  20373198.300       -1184.649          54.400


 126168452.847 7  98313128.31246  24009043.660                    24009045.760
      3262.783        2542.436          43.000          38.850    94216758.643 7
  24009047.000        2436.411          45.000


 109379555.867 8  85230834.99948  20814217.900                    20814215.960
       942.413         734.348          48.750          48.750    81679606.157 9
  20814221.600         703.672          55.600


 107909226.681 8  84085217.41848  20534397.800                    20534395.540
       952.010         741.827          50.600          50.700



 115503943.141 8  90003113.39547  21979650.020                    21979647.180
      2357.081        1836.688          49.300          46.300



 126773487.564 6  98784574.97646  24124185.240                    24124187.280
     -3091.362       -2408.853          41.150          39.700    94668549.473 7
  24124188.300       -2308.615          45.400


 141763501.210 7                  26976693.740
      2414.194                          46.250                   105862377.256 7
  26976700.240        1802.826          46.900   108623993.214 7  26976695.200
      1849.822          45.900   107243178.384 8  26976696.760        1826.285
        49.050
 137560158.157 7                  26176817.280
     -1977.705                          47.700                   102723548.319 7
  26176821.080       -1476.908          45.600   105403282.309 7  26176818.840
     -1515.351          47.100   104063415.469 8  26176820.940       -1496.106
        49.050
 140845794.497 7                  26802056.300
       409.656                          44.900                   105177093.313 7
  26802060.760         305.939          45.250   107920825.494 7  26802058.160
       313.901          46.400   106548956.555 8  26802059.380         309.947
        48.450
 131753558.336 8                  25071851.680
      1775.083                          51.250                    98387470.335 8
  25071854.020        1325.547          51.050   100954076.823 8  25071850.720
      1360.192          50.700    99670774.229 8  25071852.680        1342.860
        53.650
 130804760.523 7                  24891312.920
      2884.666                          44.850                    97678901.418 7
  24891312.520        2154.153          43.950   100227034.845 7  24891310.340
      2210.331          44.600    98952967.284 7  24891312.260        2182.306
        47.000
 132257355.919 7                  25167721.420
       411.862                          45.800                    98763656.008 7
  25167720.440         307.520          46.850   101340085.637 7  25167719.320
       315.522          47.550   100051877.976 8  25167721.280         311.528
        49.950
 128619339.900 8                  24475421.380
     -1519.419                          52.650                    96046979.442 8
  24475422.600       -1134.651          52.900    98552551.780 8  24475420.540
     -1164.192          53.000    97299768.762 9  24475421.440       -1149.424
        55.600
 124000433.682 8                  23596474.520
       904.989                          52.100                    92597847.460 8
  23596477.120         675.781          52.800    95013418.536 9  23596475.460
       693.417          54.300    93805627.651 9  23596477.020         684.597
        56.200
 144677280.648 7                  27531152.340
     -2241.239                          43.100                   108038297.478 7
  27531154.160       -1673.672          42.550   110856658.690 6  27531150.620
     -1717.442          40.950   109447480.744 7  27531154.260       -1695.581
        44.650
