     2.11           OBSERVATION DATA    M (MIXED)           RINEX VERSION / TYPE
RTKCONV 2.4.2                           20230702 205816 UTC PGM / RUN BY / DATE 
log: C:\Users\oo\Desktop\divers\terrain\reperes\mairie\log  COMMENT             
format: u-blox                                              COMMENT             
                                                            MARKER NAME         
                                                            MARKER NUMBER       
                                                            OBSERVER / AGENCY   
                                                            REC # / TYPE / VERS 
                                                            ANT # / TYPE        
  4202045.3126   178938.1349  4779000.1580                  APPROX POSITION XYZ 
        0.0000        0.0000        0.0000                  ANTENNA: DELTA H/E/N
     1     1                                                WAVELENGTH FACT L1/2
     4    C1    L1    D1    S1                              # / TYPES OF OBSERV 
  2023     7     2    19    38   25.0000000     GPS         TIME OF FIRST OBS   
  2023     7     2    20    11    2.0000000     GPS         TIME OF LAST OBS    
                                                            END OF HEADER       
 23  7  2 19 38 25.0000000  0  7G 5G11G13G20G 7G30G 6
  21541078.907   113199122.288        2216.329          48.000  
  22246303.390   116905112.349       -2717.800          43.000  
  22781992.792   119720189.054        2791.331          39.000  
  20277462.144   106558780.836         489.878          47.000  
  21060494.261   110673641.576       -1225.056          49.000  
  20692959.001   108742230.660         750.372          48.000  
  24489149.347   128691344.695       -4012.686          34.000  
 23  7  2 19 38 26.0000000  0  7G 5G11G13G20G 7G30G 6
  21540657.161   113196906.305        2215.466          48.000  
  22246819.572   116907830.399       -2718.676          42.000  
  22781461.895   119717397.654        2790.727          39.000  
  20277368.467   106558291.321         489.039          46.000  
  21060727.343   110674866.905       -1225.832          48.000  
  20692816.838   108741480.551         749.603          48.000  
  24489912.886   128695357.009       -4012.027          33.000  
 23  7  2 19 38 27.0000000  0  7G 5G11G13G20G 7G30G 6
  21540235.180   113194690.766        2215.057          48.000  
  22247336.003   116910548.975       -2719.105          42.000  
  22780930.288   119714606.502        2790.995          37.000  
  20277274.960   106557802.455         488.345          46.000  
  21060960.081   110676092.751       -1226.502          48.000  
  20692674.723   108740731.047         748.865          48.000  
  24490676.669   128699369.568       -4012.257          33.000  
 23  7  2 19 38 28.0000000  0  7G 5G11G13G20G 7G30G 6
  21539813.229   113192475.902        2214.634          48.000  
  22247853.742   116913268.246       -2719.425          43.000  
  22780398.671   119711815.787        2790.645          38.000  
  20277181.335   106557314.446         487.708          46.000  
  21061193.386   110677319.344       -1226.839          48.000  
  20692531.954   108739982.358         748.291          48.000  
  24491440.626   128703382.349       -4013.258          33.000  
 23  7  2 19 38 29.0000000  0  7G 5G11G13G20G 7G30G 6
  21539390.035   113190258.2833       2214.264          48.000  
  22248373.501   116915990.8763      -2719.741          44.000  
  22779867.678   119709012.0853       2790.367          40.000  
  20277088.548   106556819.3803        487.078          46.000  
  21061427.625   110678548.2443      -1227.201          48.000  
  20692389.094   108739238.5663        747.638          49.000  
  24492200.679   128707382.3833      -4012.302          32.000  
 23  7  2 19 38 30.0000000  0  7G 5G11G13G20G 7G30G 6
  21538972.469   113188044.8922       2212.509          49.000  
  22248891.445   116918711.7312      -2721.916          44.000  
  22779332.341   119706222.4042       2788.799          38.000  
  20276997.327   106556333.1802        485.282          46.000  
  21061659.992   110679776.4352      -1229.055          49.000  
  20692246.665   108738491.6102        745.935          49.000  
  24492967.049   128711395.7782      -4014.357          32.000  
 23  7  2 19 38 31.0000000  0  7G 5G11G13G20G 7G30G 6
  21538549.677   113185833.2202       2212.080          49.000  
  22249409.922   116921434.4422      -2722.390          44.000  
  22778803.014   119703434.2622       2788.802          38.000  
  20276904.802   106555848.9062        484.505          46.000  
  21061892.974   110681006.4342      -1229.762          49.000  
  20692105.113   108737746.5382        745.264          49.000  
  24493731.382   128715410.4762      -4013.766          33.000  
 23  7  2 19 38 32.0000000  0  7G 5G11G13G20G 7G30G 6
  21538129.532   113183622.5622       2210.143          49.000  
  22249928.595   116924158.2112      -2724.587          44.000  
  22778273.291   119700646.8642       2786.947          39.000  
  20276811.888   106555365.8242        482.432          46.000  
  21062128.264   110682237.4912      -1231.842          49.000  
  20691964.116   108737002.6532        743.201          49.000  
  24494493.293   128719425.7182      -4015.369          32.000  
 23  7  2 19 38 33.0000000  0  7G 5G11G13G20G 7G30G 6
  21537707.102   113181411.7452       2211.298          48.000  
  22250444.816   116926881.8082      -2722.950          44.000  
  22777737.430   119697859.1242       2788.907          35.000  
  20276718.848   106554882.7612        483.496          46.000  
  21062364.741   110683468.4402      -1230.404          49.000  
  20691822.320   108736258.7022        744.354          49.000  
  24495257.098   128723440.4562      -4014.708          31.000  
 23  7  2 19 38 34.0000000  0  7G 5G11G13G20G 7G30G 6
  21537285.085   113179200.5762       2210.990          48.000  
  22250963.467   116929605.1702      -2723.368          44.000  
  22777212.859   119695070.7672       2788.700          39.000  
  20276627.142   106554399.5452        483.154          46.000  
  21062598.460   110684699.1312      -1230.959          49.000  
  20691680.698   108735514.5662        743.903          49.000  
  24496019.489   128727454.3002      -4013.819          30.000  
 23  7  2 19 38 35.0000000  0  7G 5G11G13G20G 7G30G 6
  21536865.307   113176989.1372       2211.493          48.000  
  22251481.189   116932328.3182      -2722.880          44.000  
  22776688.127   119692281.9542       2789.281          41.000  
  20276534.128   106553916.2462        483.512          46.000  
  21062832.315   110685929.6272      -1230.372          49.000  
  20691539.072   108734770.3322        744.452          49.000  
  24496784.119   128731467.5362      -4012.787          31.000  
 23  7  2 19 38 36.0000000  0  7G 5G11G13G20G 7G30G 6
  21536445.311   113174777.7952       2210.446          49.000  
  22251999.957   116935051.6202      -2724.107          44.000  
  22776153.967   119689493.0442       2789.007          38.000  
  20276443.086   106553433.2382        482.249          46.000  
  21063066.885   110687160.2942      -1231.688          49.000  
  20691396.787   108734026.3292        743.298          49.000  
  24497545.507   128735480.4782      -4013.280          31.000  
 23  7  2 19 38 37.0000000  0  7G 5G11G13G20G 7G30G 6
  21536024.364   113172566.317        2210.728          48.000  
  22252518.460   116937774.806       -2723.806          43.000  
  22775623.018   119686703.721        2788.786          41.000  
  20276350.971   106552949.7451        482.101          46.000  
  21063301.578   110688390.837       -1231.336          49.000  
  20691255.423   108733281.8021        743.085          49.000  
  24498308.940   128739492.2691      -4012.793          31.000  
 23  7  2 19 38 38.0000000  0  7G 5G11G13G20G 7G30G 6
  21535603.421   113170356.244        2209.434          48.000  
  22253036.574   116940499.549       -2725.517          44.000  
  22775093.142   119683915.684        2787.846          40.000  
  20276259.174   106552468.377         480.649          45.000  
  21063535.873   110689622.887       -1232.840          49.000  
  20691114.438   108732539.342         741.565          49.000  
  24499072.401   128743505.668       -4013.905          30.000  
 23  7  2 19 38 39.0000000  0  7G 5G11G13G20G 7G30G 6
  21535182.627   113168147.794        2206.663          48.000  
  22253554.759   116943225.925       -2728.245          44.000  
  22774563.179   119681128.956        2785.037          41.000  
  20276168.276   106551988.809         478.037          46.000  
  21063770.002   110690856.636       -1235.348          48.000  
  20690973.406   108731798.649         738.879          48.000  
  24499836.467   128747520.243       -4015.834          31.000  
 23  7  2 19 38 40.0000000  0  7G 5G11G13G20G 7G30G 6
  21534762.966   113165942.278        2207.826          48.000  
  22254073.951   116945955.288       -2726.936          44.000  
  22774033.857   119678344.978        2786.341          41.000  
  20276077.290   106551512.365         478.758          46.000  
  21064005.393   110692093.385       -1234.426          48.000  
  20690833.677   108731061.038         739.783          49.000  
  24500601.149   128751537.324       -4013.975          32.000  
 23  7  2 19 38 41.0000000  0  7G 5G11G13G20G 7G30G 6
  21534342.926   113163735.144        2205.951          48.000  
  22254592.606   116948683.105       -2728.799          44.000  
  22773504.073   119675559.111        2784.740          41.000  
  20275986.650   106551034.470         476.682          46.000  
  21064240.146   110693328.580       -1236.493          48.000  
  20690693.050   108730321.957         737.799          49.000  
  24501365.795   128755552.330       -4015.582          33.000  
 23  7  2 19 38 42.0000000  0  7G 5G11G13G20G 7G30G 6
  21533923.148   113161529.394        2205.104          48.000  
  22255112.060   116951412.366       -2730.076          44.000  
  22772974.367   119672774.406        2784.366          41.000  
  20275896.428   106550558.122         475.732          46.000  
  21064475.061   110694565.184       -1237.332          48.000  
  20690552.895   108729584.363         736.713          49.000  
  24502130.063   128759568.402       -4017.530          32.000  
 23  7  2 19 38 43.0000000  0  7G 5G11G13G20G 7G30G 6
  21533503.047   113159324.283        2205.701          48.000  
  22255630.728   116954142.332       -2729.424          43.000  
  22772444.770   119669990.211        2784.708          40.000  
  20275806.419   106550082.662         475.917          46.000  
  21064710.678   110695802.572       -1236.926          48.000  
  20690411.190   108728847.617         737.158          48.000  
  24502894.072   128763584.487       -4014.862          31.000  
 23  7  2 19 38 44.0000000  0  7G 5G11G13G20G 7G30G 6
  21533083.889   113157119.104        2204.370          48.000  
  22256150.221   116956872.229       -2730.573          42.000  
  22771915.082   119667205.708        2783.793          41.000  
  20275716.206   106549607.288         474.505          46.000  
  21064945.624   110697039.929       -1238.340          47.000  
  20690271.436   108728110.937         735.779          48.000  
  24503658.606   128767600.208       -4016.247          33.000  
 23  7  2 19 38 45.0000000  0  7G 5G11G13G20G 7G30G 6
  21532664.464   113154914.848        2204.259          48.000  
  22256670.037   116959603.173       -2731.081          43.000  
  22771385.337   119664421.855        2784.106          41.000  
  20275625.775   106549133.048         474.087          46.000  
  21065181.154   110698278.277       -1238.391          47.000  
  20690131.380   108727375.327         735.504          49.000  
  24504423.183   128771616.472       -4015.847          32.000  
 23  7  2 19 38 46.0000000  0  7G 5G11G13G20G 7G30G 6
  21532245.410   113152710.888        2204.136          46.000  
  22257189.395   116962334.497       -2731.145          40.000  
  22770855.295   119661638.108        2783.707          39.000  
  20275535.797   106548659.252         473.754          45.000  
  21065417.443   110699516.964       -1238.789          47.000  
  20689992.346   108726640.140         735.077          48.000  
  24505188.702   128775632.612       -4016.946          31.000  
 23  7  2 19 38 47.0000000  0  8G 5G11G13G20G 7G30G 6G 9
  21531825.724   113150507.543        2202.317          46.000  
  22257709.333   116965066.405       -2732.483          41.000  
  22770324.630   119658854.772        2782.356          38.000  
  20275446.173   106548186.254         471.911          46.000  
  21065653.230   110700756.328       -1240.506          47.000  
  20689852.770   108725905.684         733.374          47.000  
  24505960.185   128779648.890       -4016.521          33.000  
  22853732.552   120097174.2632      -3161.717          33.000  
 23  7  2 19 38 48.0000000  0  8G 5G11G13G20G 7G30G 6G 9
  21531407.220   113148306.084        2200.552          47.000  
  22258230.038   116967800.362       -2735.060          42.000  
  22769794.654   119656073.086        2780.300          39.000  
  20275357.159   106547715.370         469.718          46.000  
  21065889.314   110701997.658       -1242.257          47.000  
  20689713.072   108725173.301         731.146          47.000  
  24506721.651   128783666.623       -4017.889          32.000  
  22854338.324   120100337.7822      -3164.848          33.000  
 23  7  2 19 38 49.0000000  0  8G 5G11G13G20G 7G30G 6G 9
  21530988.641   113146106.330        2199.801          46.000  
  22258750.461   116970535.999       -2735.707          41.000  
  22769265.101   119653292.871        2780.108          37.000  
  20275267.928   106547246.321         468.989          45.000  
  21066126.070   110703240.767       -1243.117          46.000  
  20689573.658   108724442.733         730.688          46.000  
  24507479.353   128787685.700       -4018.941          30.000  
  22854949.164   120103502.5722      -3164.096          34.000  
 23  7  2 19 38 50.0000000  0  9G 5G11G13G20G 7G30G 6G 9G14
  21530569.788   113143906.555        2199.233          46.000  
  22259270.599   116973271.660       -2736.096          41.000  
  22768735.774   119650512.356        2780.302          38.000  
  20275178.617   106546777.461         468.430          45.000  
  21066362.599   110704483.887       -1243.582          46.000  
  20689435.405   108723712.289         729.968          47.000  
  24508246.059   128791704.397       -4019.390          29.000  
  22855549.622   120106667.1202      -3164.379          35.000  
  24769992.502   130167189.1272       3166.552          30.000  
 23  7  2 19 38 51.0000000  0  9G 5G11G13G20G 7G30G 6G 9G14
  21530151.419   113141707.888        2197.979          46.000  
  22259791.632   116976008.518       -2737.653          41.000  
  22768206.671   119647732.806        2779.604          38.000  
  20275089.966   106546309.901         466.884          46.000  
  21066599.586   110705728.215       -1245.023          47.000  
  20689296.462   108722983.107         728.485          46.000  
  24509024.600   128795723.684       -4019.305          28.000  
  22856152.645   120109832.5722      -3166.340          31.000  
  24769384.052   130164023.1802       3165.510          29.000  
 23  7  2 19 38 52.0000000  0  9G 5G11G13G20G 7G30G 6G 9G14
  21529733.648   113139509.919        2198.379          47.000  
  22260313.176   116978746.158       -2737.012          41.000  
  22767678.012   119644953.784        2779.502          38.000  
  20275001.607   106545843.224         466.901          46.000  
  21066836.974   110706973.317       -1244.776          47.000  
  20689157.972   108722254.785         728.674          47.000  
  24509789.954   128799743.198       -4018.811          28.000  
  22856754.529   120112998.3862      -3165.114          33.000  
  24768778.599   130160857.5162       3166.250          29.000  
 23  7  2 19 38 53.0000000  0  9G 5G11G13G20G 7G30G 6G 9G14
  21529315.008   113137311.634        2199.210          46.000  
  22260835.068   116981483.531       -2736.688          42.000  
  22767148.638   119642174.179        2780.282          37.000  
  20274913.313   106545376.416         467.581          46.000  
  21067074.092   110708218.160       -1244.048          48.000  
  20689019.252   108721526.286         729.230          47.000  
  24510550.975   128803762.032       -4016.904          27.000  
  22857357.936   120116163.7222      -3164.430          35.000  
  24768183.110   130157691.0722       3166.605          31.000  
 23  7  2 19 38 54.0000000  0  9G 5G11G13G20G 7G30G 6G 9G14
  21528896.456   113135112.949        2198.896          45.000  
  22261356.550   116984220.508       -2736.708          41.000  
  22766619.508   119639393.912        2780.608          36.000  
  20274824.491   106544909.390         467.146          45.000  
  21067310.844   110709462.652       -1244.259          47.000  
  20688880.684   108720797.504         728.888          46.000  
  24511310.771                       -4020.077          26.000  
  22857961.460   120119328.3672      -3164.261          34.000  
  24767582.042   130154523.9212       3166.019          29.000  
 23  7  2 19 38 55.0000000  0  9G 5G11G13G20G 7G30G 6G 9G14
  21528478.467   113132914.319        2198.431          46.000  
  22261878.238   116986957.680       -2737.237          42.000  
  22766090.880   119636613.547        2779.888          37.000  
  20274735.801   106544442.667         466.287          45.000  
  21067548.101   110710707.292       -1244.976          47.000  
  20688741.632   108720068.982         728.363          46.000  
  24512082.755   128811863.2893      -4017.943          27.000  
  22858564.042   120122492.8602      -3164.741          33.000  
  24766972.270   130151356.2012       3167.804          29.000  
 23  7  2 19 38 56.0000000  0  9G 5G11G13G20G 7G30G 6G 9G14
  21528059.640   113130714.933        2200.560          45.000  
  22262399.271   116989694.136       -2735.515          42.000  
  22765562.116   119633832.219        2782.566          39.000  
  20274646.783   106543975.317         468.324          45.000  
  21067785.071   110711951.230       -1242.894          47.000  
  20688603.090   108719339.794         730.237          46.000  
  24512842.407   128815879.5672      -4014.233          27.000  
  22859166.136   120125656.3072      -3162.405          34.000  
  24766370.792   130148187.4322       3169.952          28.000  
 23  7  2 19 38 57.0000000  0  9G 5G11G13G20G 7G30G 6G 9G14
  21527640.786   113128515.464        2198.755          45.000  
  22262919.658   116992430.522       -2737.003          41.000  
  22765033.078   119631050.526        2781.488          38.000  
  20274557.451   106543508.030         466.400          44.000  
  21068021.866   110713195.126       -1244.656          47.000  
  20688464.269   108718610.665         728.619          46.000  
  24513602.774   128819895.5352      -4015.442          27.000  
  22859768.683   120128819.3572      -3163.682          35.000  
  24765769.126   130145018.0162       3168.722          28.000  
 23  7  2 19 38 58.0000000  0  9G 5G11G13G20G 7G30G 6G 9G14
  21527222.191   113126315.977        2199.893          46.000  
  22263440.682   116995166.984       -2736.385          41.000  
  22764503.268   119628268.616        2781.993          36.000  
  20274467.682   106543040.931         467.157          44.000  
  21068258.591   110714439.083       -1243.813          47.000  
  20688325.654   108717881.689         729.211          47.000  
  24514362.617   128823911.1722      -4015.043          26.000  
  22860371.344   120131982.2312      -3162.506          35.000  
  24765159.485   130141848.1692       3170.470          28.000  
 23  7  2 19 38 59.0000000  0  9G 5G11G13G20G 7G30G 6G 9G14
  21526803.411   113124116.626        2198.828          45.000  
  22263961.562   116997903.624       -2737.192          41.000  
  22763973.239   119625486.559        2782.145          36.000  
  20274379.105   106542574.140         466.223          45.000  
  21068495.386   110715683.201       -1244.442          47.000  
  20688186.868   108717152.926         728.436          47.000  
  24515123.970   128827926.2962      -4014.855          26.000  
  22860973.437   120135144.8812      -3162.734          32.000  
  24764558.953   130138677.9982       3170.937          33.000  
 23  7  2 19 39  0.0000000  0  9G 5G11G13G20G 7G30G 6G 9G14
  21526385.906   113121918.053        2198.486          46.000  
  22264481.950   117000641.081       -2737.494          41.000  
  22763444.192   119622705.160        2781.666          37.000  
  20274290.598   106542108.355         465.627          45.000  
  21068732.120   110716928.202       -1245.124          47.000  
  20688048.335   108716425.135         727.679          46.000  
  24515885.223   128831941.8262      -4015.140          26.000  
  22861575.801   120138308.1322      -3163.759          34.000  
  24763945.299   130135508.2182       3170.010          28.000  
 23  7  2 19 39  1.0000000  0  8G 5G11G13G20G 7G30G 6G 9
  21525967.834   113119720.072        2197.662          46.000  
  22265003.266   117003379.180       -2738.602          42.000  
  22762915.869   119619923.994        2781.467          37.000  
  20274202.640   106541643.289         464.853          45.000  
  21068968.885   110718173.824       -1245.781          47.000  
  20687910.356   108715698.044         726.746          47.000  
  24516646.650                       -4015.708          26.000  
  22862177.590   120141471.6272      -3164.606          33.000  
 23  7  2 19 39  2.0000000  0  8G 5G11G13G20G 7G30G 6G 9
  21525549.064   113117522.264        2198.116          46.000  
  22265524.382   117006117.489       -2738.375          42.000  
  22762385.928   119617142.908        2781.436          37.000  
  20274113.966   106541178.589         465.038          43.000  
  21069205.863   110719419.692       -1245.645          46.000  
  20687771.740   108714971.275         727.228          46.000  
  24517408.810                       -4014.387          25.000  
  22862778.680   120144635.1532      -3163.047          33.000  
 23  7  2 19 39  3.0000000  0  8G 5G11G13G20G 7G30G 6G 9
  21525130.843   113115325.297        2195.925          45.000  
  22266046.309   117008856.678       -2740.051          43.000  
  22761856.851   119614362.345        2779.667          36.000  
  20274025.463   106540714.914         462.518          45.000  
  21069442.671   110720666.444       -1247.718          46.000  
  20687634.097   108714245.502         724.451          47.000  
  24518182.854                       -4016.990          27.000  
  22863380.725   120147799.1322      -3164.724          34.000  
 23  7  2 19 39  4.0000000  0  8G 5G11G13G20G 7G30G 6G 9
  21524713.765   113113130.149        2194.440          46.000  
  22266568.027   117011597.775       -2741.647          43.000  
  22761327.498   119611583.444        2778.225          33.000  
  20273937.218   106540253.233         460.894          44.000  
  21069679.554   110721915.083       -1249.076          46.000  
  20687496.760   108713521.647         723.169          47.000  
  24518948.879                       -4017.181          24.000  
  22863982.723   120150964.7652      -3166.634          33.000  
 23  7  2 19 39  5.0000000  0  8G 5G11G13G20G 7G30G 6G 9
  21524295.663   113110936.170        2194.181          47.000  
  22267090.046   117014340.099       -2742.124          45.000  
  22760798.565   119608805.427        2778.150          40.000  
  20273848.854   106539792.941         460.601          46.000  
  21069916.968   110723164.970       -1249.614          49.000  
  20687358.733   108712799.144         722.827          49.000  
  24519710.341                       -4015.975          24.000  
  22864585.030   120154131.2982      -3166.211          35.000  
 23  7  2 19 39  6.0000000  0  8G 5G11G13G20G 7G30G 6G 9
  21523878.227   113108741.907        2193.945          48.000  
  22267611.275   117017082.182       -2742.288          45.000  
  22760269.439   119606026.954        2778.606          38.000  
  20273760.844   106539332.506         460.178          46.000  
  21070155.543   110724414.631       -1250.055          49.000  
  20687221.997   108712076.480         722.302          49.000  
  24520468.379   128855930.5863      -4017.718          26.000  
  22865186.382   120157297.4622      -3166.894          26.000  
 23  7  2 19 39  7.0000000  0  8G 5G11G13G20G 7G30G 6G 9
  21523461.647   113106549.317        2191.656          47.000  
  22268133.089   117019825.989       -2744.682          43.000  
  22759741.212   119603249.945        2775.820          37.000  
  20273673.440   106538873.956         457.658          45.000  
  21070394.363   110725666.009       -1252.309          48.000  
  20687085.196   108711355.632         719.788          47.000  
  24521239.212   128859949.1282      -4019.924          32.000  
  22865790.352   120160464.680       -3168.903          26.000  
 23  7  2 19 39  8.0000000  0  8G 5G11G13G20G 7G30G 6G 9
  21523044.700   113104358.504        2190.049          47.000  
  22268654.694   117022571.645       -2746.378          42.000  
  22759212.964   119600474.497        2774.335          38.000  
  20273586.660   106538417.373         455.756          45.000  
  21070632.671   110726919.264       -1253.955          48.000  
  20686948.142   108710636.757         718.146          48.000  
  24521999.264                       -4023.150          25.000  
  22866389.248   120163633.651       -3168.855          26.000  
 23  7  2 19 39  9.0000000  0  8G 5G11G13G20G 7G30G 6G 9
  21522627.173   113102168.315        2189.709          44.000  
  22269177.232   117025317.898       -2746.834          43.000  
  22758685.051   119597699.292        2774.865          39.000  
  20273500.050   106537961.569         454.990          45.000  
  21070870.963   110728173.143       -1254.422          48.000  
  20686810.438   108709918.567         717.450          47.000  
  24522764.871                       -4021.496          23.000  
  22866999.800   120166802.911       -3170.061          31.000  
 23  7  2 19 39 10.0000000  0  8G 5G11G13G20G 7G30G 6G 9
  21522209.445   113099979.171        2188.571          47.000  
  22269700.455   117028065.371       -2748.399          43.000  
  22758157.675   119594925.093        2773.788          40.000  
  20273414.261   106537507.019         454.056          46.000  
  21071109.979   110729428.204       -1255.643          47.000  
  20686673.751   108709201.565         716.608          48.000  
  24523534.923                       -4020.825          25.000  
  22867588.915   120169973.071       -3171.802          32.000  
 23  7  2 19 39 11.0000000  0  8G 5G11G13G20G 7G30G 6G 9
  21521793.659   113097791.217        2187.196          47.000  
  22270223.525   117030813.947       -2749.245          42.000  
  22757630.212   119592151.799        2772.748          39.000  
  20273327.503   106537053.825         452.332          44.000  
  21071349.378   110730684.458       -1257.012          48.000  
  20686538.058   108708485.918         714.777          49.000  
  24524313.752   128876066.8683      -4021.516          26.000  
  22868196.240                       -3175.505          24.000  
 23  7  2 19 39 12.0000000  0  8G 5G11G13G20G 7G30G 6G 9
  21521377.829   113095603.737        2187.045          47.000  
  22270747.778   117033563.174       -2749.931          44.000  
  22757102.766   119589378.762        2772.146          37.000  
  20273240.649   106536601.308         451.931          44.000  
  21071588.908   110731941.322       -1257.500          48.000  
  20686401.584   108707770.927         714.453          47.000  
  24525070.978   128880088.3992      -4020.629          25.000  
  22868801.199                       -3171.115          26.000  
 23  7  2 19 39 13.0000000  0  8G 5G11G13G20G 7G30G 6G 9
  21520961.973   113093417.327        2185.995          47.000  
  22271270.957   117036313.486       -2750.649          44.000  
  22756575.590   119586606.581        2772.028          36.000  
  20273154.401   106536150.001         450.701          44.000  
  21071828.339   110733199.271       -1258.346          49.000  
  20686265.437   108707057.105         713.196          49.000  
  24525844.930   128884110.5712      -4021.777          27.000  
  22869405.893   120179538.2613      -3172.486          27.000  
 23  7  2 19 39 14.0000000  0  8G 5G11G13G20G 7G30G 6G 9
  21520546.073   113091232.174        2184.976          47.000  
  22271794.847   117039065.122       -2751.736          44.000  
  22756047.817   119583835.522        2770.251          33.000  
  20273068.057   106535700.228         449.425          44.000  
  21072068.244   110734458.543       -1259.595          49.000  
  20686130.146   108706344.698         711.816          48.000  
  24526621.334                       -4025.293          25.000  
  22870015.774   120182711.3062      -3172.600          29.000  
 23  7  2 19 39 15.0000000  0  8G 5G11G13G20G 7G30G 6G 9
  21520129.619   113089046.440        2185.945          46.000  
  22272318.075   117041816.199       -2750.810          44.000  
  22755518.788   119581063.530        2771.554          35.000  
  20272981.966   106535249.987         449.859          44.000  
  21072307.495   110735717.287       -1258.756          49.000  
  20685994.784   108705631.857         712.701          48.000  
  24527378.765                       -4026.758          22.000  
  22870627.430                       -3172.683          29.000  
 23  7  2 19 39 16.0000000  0  8G 5G11G13G20G 7G30G 6G 9
  21519713.615   113086861.828        2184.103          47.000  
  22272841.948   117044568.471       -2753.135          44.000  
  22754991.612   119578292.415        2770.890          36.000  
  20272896.007   106534801.067         448.055          43.000  
  21072547.719   110736977.236       -1260.585          49.000  
  20685858.996   108704920.229         711.011          48.000  
  24528141.802                       -4024.242          23.000  
  22871257.719                       -3173.005          28.000  
 23  7  2 19 39 17.0000000  0  8G 5G11G13G20G 7G30G 6G 9
  21519298.766   113084678.660        2182.775          46.000  
  22273366.510   117047322.284       -2754.298          44.000  
  22754464.424   119575522.729        2769.074          37.000  
  20272811.452   106534353.781         446.998          45.000  
  21072787.647   110738238.706       -1261.676          49.000  
  20685723.346   108704210.262         709.729          47.000  
  24528912.609                       -4023.926          22.000  
  22871851.650                       -3169.178          19.000  
 23  7  2 19 39 18.0000000  0  8G 5G11G13G20G 7G30G 6G 9
  21518883.582   113082495.553        2183.175          47.000  
  22273891.583   117050076.147       -2754.007          45.000  
  22753937.205   119572752.702        2769.947          34.000  
  20272726.788   106533906.729         447.200          45.000  
  21073027.696   110739500.279       -1261.638          50.000  
  20685587.902   108703500.479         709.810          48.000  
  24529675.013                       -4020.139          23.000  
  22872469.623                       -3177.703          21.000  
 23  7  2 19 39 19.0000000  0  8G 5G11G13G20G 7G30G 6G 9
  21518468.219   113080313.177        2181.830          46.000  
  22274415.626   117052830.822       -2755.327          44.000  
  22753409.820   119569983.175        2768.813          36.000  
  20272641.831   106533460.629         445.238          45.000  
  21073268.147   110740762.656       -1262.953          49.000  
  20685453.396   108702791.565         708.303          48.000  
  24530437.479                       -4023.786          26.000  
  22873070.788                       -3177.272          20.000  
 23  7  2 19 39 20.0000000  0  8G 5G11G13G20G 7G30G 6G 9
  21518053.262   113078132.998        2180.096          47.000  
  22274940.236   117055587.713       -2756.812          44.000  
  22752882.867   119567215.666        2768.574          34.000  
  20272557.935   106533016.837         443.537          45.000  
  21073508.803   110742027.256       -1264.835          49.000  
  20685319.548   108702084.953         706.296          48.000  
  24531201.209                       -4031.141          24.000  
  22873685.262                       -3176.442          27.000  
 23  7  2 19 39 21.0000000  0  8G 5G11G13G20G 7G30G 6G 9
  21517638.666   113075953.477        2179.298          47.000  
  22275464.436   117058345.278       -2757.476          44.000  
  22752356.682   119564448.592        2767.495          37.000  
  20272473.838   106532573.889         442.861          45.000  
  21073749.202   110743292.536       -1265.442          48.000  
  20685185.068   108701379.106         705.950          48.000  
  24531969.839                       -4025.724          31.000  
  22874282.609                       -3184.229          24.000  
 23  7  2 19 39 22.0000000  0  8G 5G11G13G20G 7G30G 6G 9
  21517223.840   113073773.995        2178.499          47.000  
  22275988.933   117061103.018       -2758.748          44.000  
  22751830.976   119561681.379        2766.636          37.000  
  20272389.662   106532131.191         441.644          45.000  
  21073989.605   110744557.976       -1266.456          48.000  
  20685050.383   108700673.515         704.705          48.000  
  24532735.912   128920396.7803      -4025.925          30.000  
  22874880.135                       -3191.137          24.000  
 23  7  2 19 39 23.0000000  0  8G 5G11G13G20G 7G30G 6G 9
  21516809.580   113071596.092        2177.008          47.000  
  22276513.840   117063862.326       -2760.178          45.000  
  22751304.268   119558915.414        2765.558          37.000  
  20272305.077   106531690.200         440.165          44.000  
  21074230.963   110745825.030       -1268.015          49.000  
  20684915.628   108699969.607         703.175          47.000  
  24533495.642   128924423.1952      -4026.810          33.000  
  22875477.910                       -3178.395          26.000  
 23  7  2 19 39 24.0000000  0  8G 5G11G13G20G 7G30G 6G 9
  21516396.132   113069419.845        2175.234          48.000  
  22277038.982   117066623.323       -2761.939          45.000  
  22750777.969   119556150.991        2763.414          35.000  
  20272221.229   106531251.030         438.115          45.000  
  21074471.410   110747093.754       -1269.754          48.000  
  20684782.867   108699267.442         701.119          49.000  
  24534255.530   128928450.8882      -4028.903          30.000  
  22876057.986   120214626.8923      -3179.685          30.000  
 23  7  2 19 39 25.0000000  0  8G 5G11G13G20G 7G30G 6G 9
  21515982.230   113067243.657        2176.398          46.000  
  22277564.941   117069384.426       -2760.619          46.000  
  22750252.225   119553386.328        2764.777          39.000  
  20272138.515   106530812.163         439.090          45.000  
  21074712.890   110748362.647       -1268.691          48.000  
  20684649.508   108698565.533         702.352          48.000  
  24535021.900   128932478.1392      -4026.569          30.000  
  22876672.055   120217806.2842      -3178.821          31.000  
 23  7  2 19 39 26.0000000  0  8G 5G11G13G20G 7G30G 6G 9
  21515568.303   113065067.374        2176.105          48.000  
  22278090.947   117072145.582       -2761.436          45.000  
  22749726.620   119550621.445        2764.700          36.000  
  20272054.649   106530373.417         438.410          44.000  
  21074953.803   110749631.536       -1269.237          47.000  
  20684516.258   108697863.713         701.631          48.000  
  24535791.472   128936504.9472      -4027.286          33.000  
  22877275.134   120220984.8912      -3179.052          34.000  
 23  7  2 19 39 27.0000000  0  8G 5G11G13G20G 7G30G 6G 9
  21515154.414   113062892.343        2174.109          48.000  
  22278616.552   117074907.953       -2763.672          45.000  
  22749199.771   119547857.482        2762.276          36.000  
  20271970.591   106529936.064         436.420          44.000  
  21075195.249   110750901.714       -1271.444          49.000  
  20684383.091   108697163.219         699.597          48.000  
  24536556.550   128940532.4522      -4028.078          29.000  
  22877880.914   120224164.6592      -3180.229          33.000  
 23  7  2 19 39 28.0000000  0  8G 5G11G13G20G 7G30G 6G 9
  21514741.594   113060718.638        2173.877          48.000  
  22279142.414   117077671.693       -2763.680          45.000  
  22748673.900   119545094.684        2762.680          37.000  
  20271888.021   106529500.205         435.835          44.000  
  21075436.847   110752173.238       -1271.418          48.000  
  20684250.155   108696464.213         698.944          49.000  
  24537315.491   128944560.9272      -4027.790          29.000  
  22878485.734   120227345.3632      -3180.923          32.000  
 23  7  2 19 39 29.0000000  0  8G 5G11G13G20G 7G30G 6G 9
  21514328.290   113058546.000        2171.935          48.000  
  22279668.307   117080436.599       -2765.647          45.000  
  22748149.194   119542332.592        2761.516          39.000  
  20271805.102   106529065.570         433.856          44.000  
  21075679.039   110753445.933       -1273.483          48.000  
  20684117.119   108695766.377         696.908          48.000  
  24538077.633   128948589.9972      -4029.672          29.000  
  22879085.991   120230527.1602      -3183.851          25.000  
 23  7  2 19 39 30.0000000  0  8G 5G11G13G20G 7G30G 6G 9
  21513914.100   113056375.340        2170.033          47.000  
  22280194.920   117083203.484       -2767.545          45.000  
  22747624.122   119539572.412        2759.882          36.000  
  20271722.083   106528633.093         431.961          43.000  
  21075921.392   110754720.615       -1275.459          47.000  
  20683985.152   108695070.676         694.907          49.000  
  24538852.427   128952620.6722      -4030.844          31.000  
  22879711.167   120233710.5992      -3184.565          32.000  
 23  7  2 19 39 31.0000000  0  8G 5G11G13G20G 7G30G 6G 9
  21513500.412   113054205.478        2170.137          45.000  
  22280721.799   117085971.250       -2767.269          46.000  
  22747099.459   119536812.753        2760.984          38.000  
  20271639.739   106528201.645         431.840          43.000  
  21076164.085   110755996.207       -1275.182          47.000  
  20683852.923   108694375.950         694.948          48.000  
  24539621.315   128956651.745       -4030.968          30.000  
  22880299.841   120236893.7851      -3183.356          30.000  
 23  7  2 19 39 32.0000000  0  8G 5G11G13G20G 7G30G 6G 9
  21513087.523   113052035.345        2169.883          46.000  
  22281248.843   117088738.781       -2768.053          46.000  
  22746574.395   119534052.655        2759.999          38.000  
  20271558.234   106527770.092         431.011          44.000  
  21076406.477   110757271.544       -1275.824          47.000  
  20683719.752   108693681.044         694.619          48.000  
  24540387.479   128960682.127       -4029.825          30.000  
  22880900.474   120240077.210       -3182.911          30.000  
 23  7  2 19 39 33.0000000  0  8G 5G11G13G20G 7G30G 6G 9
  21512674.934   113049865.895        2168.699          47.000  
  22281775.238   117091507.030       -2769.094          45.000  
  22746049.270   119531292.933        2759.117          38.000  
  20271477.335   106527339.401         429.793          45.000  
  21076649.275   110758547.649       -1276.864          47.000  
  20683587.544   108692986.975         693.242          48.000  
  24541158.334   128964712.702       -4030.892          31.000  
  22881507.562   120243260.988       -3184.406          32.000  
 23  7  2 19 39 34.0000000  0  8G 5G11G13G20G 7G30G 6G 9
  21512262.075   113047697.673        2167.225          46.000  
  22282301.231   117094276.557       -2770.442          43.000  
  22745524.140   119528534.272        2758.158          40.000  
  20271396.592   106526910.098         428.509          46.000  
  21076892.549   110759825.019       -1278.076          48.000  
  20683456.057   108692294.264         691.830          48.000  
  24541925.110   128968744.074       -4031.797          30.000  
  22882113.521   120246445.670       -3185.766          34.000  
 23  7  2 19 39 35.0000000  0  8G 5G11G13G20G 7G30G 6G 9
  21511849.910   113045529.865        2167.759          47.000  
  22282828.550   117097046.577       -2769.804          45.000  
  22744998.736   119525775.742        2758.483          37.000  
  20271314.952   106526481.427         428.798          45.000  
  21077136.211   110761102.891       -1277.806          47.000  
  20683324.382   108691602.149         692.028          47.000  
  24542687.627   128972775.459       -4031.311          30.000  
  22882717.539   120249630.771       -3183.980          33.000  
 23  7  2 19 39 36.0000000  0  8G 5G11G13G20G 7G30G 6G 9
  21511438.181   113043362.501        2166.617          47.000  
  22283355.926   117099817.089       -2771.343          44.000  
  22744473.598   119523017.485        2757.818          39.000  
  20271234.345   106526053.387         427.127          46.000  
  21077379.929   110762381.288       -1279.382          48.000  
  20683192.812   108690910.591         690.648          49.000  
  24543457.679   128976806.787       -4032.009          33.000  
  22883306.379   120252815.755       -3186.076          30.000  
 23  7  2 19 39 37.0000000  0  8G 5G11G13G20G 7G30G 6G 9
  21511026.011   113041196.714        2165.149          46.000  
  22283883.372   117102589.178       -2772.610          45.000  
  22743950.353   119520260.573        2756.703          38.000  
  20271154.187   106525627.085         425.601          46.000  
  21077623.159   110763661.246       -1280.357          48.000  
  20683061.595   108690220.735         689.214          48.000  
  24544225.092   128980839.218       -4031.599          30.000  
  22883909.977                       -3187.188          28.000  
 23  7  2 19 39 38.0000000  0  8G 5G11G13G20G 7G30G 6G 9
  21510614.613   113039031.713        2164.965          47.000  
  22284410.565   117105362.132       -2772.733          44.000  
  22743426.179   119517504.178        2756.967          39.000  
  20271072.934   106525201.742         425.460          45.000  
  21077866.511   110764942.094       -1280.735          48.000  
  20682931.172   108689531.817         689.046          48.000  
  24544996.562   128984872.192       -4032.120          31.000  
  22884536.157   120259048.2263      -3187.198          28.000  
 23  7  2 19 39 39.0000000  0  8G 5G11G13G20G 7G30G 6G 9
  21510202.505   113036866.939        2164.376          47.000  
  22284938.186   117108135.345       -2773.680          44.000  
  22742902.996   119514747.850        2756.232          40.000  
  20270991.922   106524776.804         424.436          45.000  
  21078110.840   110766223.199       -1281.542          48.000  
  20682800.095   108688843.250         688.178          48.000  
  24545763.839   128988904.904       -4032.534          33.000  
  22885142.661   120262235.0432      -3187.849          28.000  
 23  7  2 19 39 40.0000000  0  8G 5G11G13G20G 7G30G 6G 9
  21509790.352   113034703.388        2162.983          48.000  
  22285466.862   117110909.821       -2775.052          46.000  
  22742378.926   119511992.567        2754.955          38.000  
  20270911.010   106524353.294         423.023          45.000  
  21078354.942   110767505.607       -1282.804          49.000  
  20682668.808   108688156.055         686.613          49.000  
  24546532.643   128992938.328       -4033.641          33.000  
  22885773.713                       -3186.466          17.000  
 23  7  2 19 39 41.0000000  0  8G 5G11G13G20G 7G30G 6G 9
  21509378.880   113032540.647        2162.887          48.000  
  22285994.251   117113685.163       -2775.240          45.000  
  22741855.346   119509237.795        2755.111          38.000  
  20270829.866   106523930.751         422.651          44.000  
  21078599.311   110768788.888       -1283.278          49.000  
  20682538.450   108687469.819         686.375          49.000  
  24547302.791   128996972.245       -4033.486          34.000  
  22886396.917                       -3190.561          20.000  
 23  7  2 19 39 42.0000000  0  8G 5G11G13G20G 7G30G 6G 9
  21508967.788   113030378.255        2161.763          49.000  
  22286522.740   117116460.901       -2776.632          46.000  
  22741330.286   119506483.137        2753.702          35.000  
  20270749.010   106523508.760         421.244          43.000  
  21078843.932   110770072.562       -1284.371          49.000  
  20682407.918   108686784.056         684.854          49.000  
  24548067.962   129001005.999       -4034.209          33.000  
  22886984.680                       -3189.014          30.000  
 23  7  2 19 39 43.0000000  0  8G 5G11G13G20G 7G30G 6G 9
  21508557.045   113028217.037        2160.680          48.000  
  22287051.398   117119237.854       -2777.324          45.000  
  22740806.108   119503729.426        2753.575          39.000  
  20270668.356   106523088.127         420.191          44.000  
  21079088.118   110771357.471       -1285.365          48.000  
  20682277.517   108686099.611         683.903          48.000  
  24548836.822   129005040.470       -4033.960          34.000  
  22887589.295                       -3187.989          22.000  
 23  7  2 19 39 44.0000000  0  8G 5G11G13G20G 7G30G 6G 9
  21508146.616   113026056.458        2161.289          49.000  
  22287580.153   117122015.561       -2777.425          46.000  
  22740282.357   119500976.183        2753.846          39.000  
  20270589.267   106522668.351         420.110          45.000  
  21079332.953   110772643.110       -1285.282          48.000  
  20682147.749   108685415.957         684.110          49.000  
  24549604.676   129009075.203       -4034.139          33.000  
  22888169.497                       -3188.856          30.000  
 23  7  2 19 39 45.0000000  0  8G 5G11G13G20G 7G30G 6G 9
  21507736.204   113023895.921        2159.915          48.000  
  22288108.524   117124793.281       -2778.255          46.000  
  22739758.104   119498222.732        2753.058          38.000  
  20270509.855   106522248.763         418.884          45.000  
  21079577.937   110773928.813       -1286.591          48.000  
  20682018.176   108684732.473         682.516          49.000  
  24550372.660   129013109.526       -4033.831          32.000  
  22888760.492   120281331.5093      -3190.130          30.000  
 23  7  2 19 39 46.0000000  0  8G 5G11G13G20G 7G30G 6G 9
  21507325.095   113021736.574        2158.882          47.000  
  22288637.802   117127572.252       -2779.278          46.000  
  22739233.751   119495470.241        2752.596          39.000  
  20270430.736   106521830.520         417.760          46.000  
  21079822.946   110775215.758       -1287.473          48.000  
  20681888.124   108684050.305         681.632          49.000  
  24551140.482   129017144.662       -4035.093          33.000  
  22889368.580                       -3193.244          20.000  
 23  7  2 19 39 47.0000000  0  8G 5G11G13G20G 7G30G 6G 9
  21506914.033   113019578.192        2158.356          47.000  
  22289167.172   117130352.265       -2780.112          46.000  
  22738711.004   119492718.526        2752.215          39.000  
  20270350.836   106521413.426         416.940          45.000  
  21080068.388   110776503.744       -1288.082          48.000  
  20681758.757   108683369.247         680.993          49.000  
  24551907.912   129021180.284       -4035.612          34.000  
  22890011.254                       -3191.875          25.000  
 23  7  2 19 39 48.0000000  0  8G 5G11G13G20G 7G30G 6G 9
  21506502.989   113017420.138        2157.710          47.000  
  22289696.149   117133132.603       -2780.677          45.000  
  22738187.013   119489966.861        2751.958          37.000  
  20270271.939   106520996.836         416.057          45.000  
  21080313.424   110777792.078       -1288.796          48.000  
  20681628.753   108682688.656         680.137          48.000  
  24552675.347   129025215.781       -4035.304          33.000  
  22890611.018   120291012.3553      -3191.330          32.000  
 23  7  2 19 39 49.0000000  0  8G 5G11G13G20G 7G30G 6G 9
  21506092.128   113015263.175        2156.221          47.000  
  22290225.728   117135914.089       -2782.222          46.000  
  22737663.262   119487216.055        2749.976          39.000  
  20270192.959   106520581.552         414.463          45.000  
  21080558.600   110779081.585       -1290.255          48.000  
  20681498.880   108682009.292         678.701          48.000  
  24553442.568   129029251.922       -4036.578          33.000  
  22891213.373   120294204.4832      -3192.873          33.000  
 23  7  2 19 39 50.0000000  0  8G 5G11G13G20G 7G30G 6G 9
  21505681.620   113013107.079        2156.189          47.000  
  22290755.128   117138696.535       -2782.362          44.000  
  22737139.725   119484465.978        2749.817          41.000  
  20270114.023   106520167.305         414.213          45.000  
  21080803.771   110780372.022       -1290.389          48.000  
  20681369.739   108681330.946         678.344          48.000  
  24554210.115   129033288.526       -4035.381          35.000  
  22891817.404   120297397.1602      -3192.335          34.000  
 23  7  2 19 39 51.0000000  0  8G 5G11G13G20G 7G30G 6G 9
  21505271.405   113010951.172        2155.809          48.000  
  22291283.626   117141479.151       -2782.869          45.000  
  22736615.974   119481715.805        2749.305          38.000  
  20270035.519   106519753.403         413.716          46.000  
  21081049.169   110781662.684       -1290.985          47.000  
  20681241.555   108680652.896         677.851          49.000  
  24554977.729   129037324.918       -4036.116          33.000  
  22892429.562   120300589.7652      -3192.383          35.000  
 23  7  2 19 39 52.0000000  0  8G 5G11G13G20G 7G30G 6G 9
  21504861.290   113008796.394        2154.136          48.000  
  22291813.227   117144262.976       -2784.563          45.000  
  22736092.049   119478966.516        2748.692          38.000  
  20269957.669   106519340.819         411.684          46.000  
  21081295.352   110782954.533       -1292.552          48.000  
  20681112.650   108679976.139         675.928          48.000  
  24555746.528   129041361.960       -4037.505          36.000  
  22893032.916   120303783.2722      -3193.963          34.000  
 23  7  2 19 39 53.0000000  0  8G 5G11G13G20G 7G30G 6G 9
  21504451.087   113006642.614        2153.467          47.000  
  22292342.854   117147047.815       -2785.042          45.000  
  22735568.381   119476218.004        2748.320          39.000  
  20269879.422   106518929.416         411.136          46.000  
  21081541.754   110784247.462       -1293.245          47.000  
  20680983.095   108679300.508         675.229          48.000  
  24556514.822   129045399.580       -4037.765          35.000  
  22893638.395   120306977.4862      -3194.516          29.000  
 23  7  2 19 39 54.0000000  0  8G 5G11G13G20G 7G30G 6G 9
  21504040.667   113004488.981        2153.430          47.000  
  22292872.128   117149832.837       -2785.217          44.000  
  22735044.744   119473469.408        2749.014          35.000  
  20269800.805   106518518.333         410.711          45.000  
  21081787.732   110785540.541       -1293.342          48.000  
  20680854.557   108678625.140         675.189          48.000  
  24557282.745   129049436.794       -4037.638          32.000  
  22894248.577   120310171.5302      -3194.774          34.000  
 23  7  2 19 39 55.0000000  0  8G 5G11G13G20G 7G30G 6G 9
  21503630.452   113002336.258        2152.190          47.000  
  22293401.899   117152618.844       -2786.448          45.000  
  22734521.783   119470721.528        2747.518          38.000  
  20269722.270   106518108.385         409.416          45.000  
  21082033.928   110786834.670       -1294.741          48.000  
  20680725.800   108677950.891         673.431          48.000  
  24558050.956   129053474.684       -4038.967          33.000  
  22894854.680   120313366.360       -3195.012          31.000  
 23  7  2 19 39 56.0000000  0  8G 5G11G13G20G 7G30G 6G 9
  21503220.214   113000184.598        2151.886          46.000  
  22293933.188   117155406.019       -2786.839          46.000  
  22734000.012   119467974.558        2747.219          41.000  
  20269644.708   106517699.688         408.804          46.000  
  21082280.011   110788129.883       -1294.729          48.000  
  20680597.101   108677277.809         673.311          47.000  
  24558819.429   129057513.097       -4037.783          34.000  
  22895467.296   120316562.016       -3195.040          35.000  
 23  7  2 19 39 57.0000000  0  8G 5G11G13G20G 7G30G 6G 9
  21502810.898   112998033.081        2150.730          47.000  
  22294464.129   117158193.294       -2788.036          46.000  
  22733478.787   119465227.416        2746.416          41.000  
  20269566.968   106517291.242         407.616          45.000  
  21082526.875   110789425.248       -1296.041          48.000  
  20680468.972   108676605.012         672.006          47.000  
  24559587.788   129061551.230       -4038.550          35.000  
  22896075.911   120319757.369       -3194.931          31.000  
 23  7  2 19 39 58.0000000  0  8G 5G11G13G20G 7G30G 6G 9
  21502401.734   112995882.758        2149.678          47.000  
  22294995.056   117160981.814       -2789.169          46.000  
  22732956.441   119462481.233        2745.663          37.000  
  20269489.489   106516884.182         406.176          45.000  
  21082773.783   110790721.881       -1297.427          48.000  
  20680340.818   108675933.469         671.001          47.000  
  24560356.483   129065590.094       -4039.551          35.000  
  22896684.204   120322953.706       -3196.802          33.000  
 23  7  2 19 39 59.0000000  0  8G 5G11G13G20G 7G30G 6G 9
  21501993.817   112993733.249        2149.075          48.000  
  22295526.585   117163771.188       -2789.693          46.000  
  22732433.083   119459735.677        2745.204          39.000  
  20269412.346   106516478.164         405.519          45.000  
  21083020.843   110792019.405       -1297.911          48.000  
  20680213.235   108675262.942         670.068          48.000  
  24561124.834   129069629.325       -4039.502          35.000  
  22897292.571   120326150.610       -3197.512          35.000  
 23  7  2 19 40  0.0000000  0  8G 5G11G13G20G 7G30G 6G 9
  21501585.596   112991584.463        2148.427          48.000  
  22296057.970   117166561.358       -2790.550          46.000  
  22731911.047   119456990.652        2744.629          39.000  
  20269334.893   106516073.019         404.859          45.000  
  21083268.282   110793317.702       -1298.633          48.000  
  20680086.049   108674593.269         669.445          48.000  
  24561893.385   129073668.908       -4039.777          35.000  
  22897900.689   120329347.988       -3197.642          34.000  
 23  7  2 19 40  1.0000000  0  8G 5G11G13G20G 7G30G 6G 9
  21501176.637   112989435.784        2148.611          48.000  
  22296588.854   117169351.679       -2790.469          46.000  
  22731387.937   119454245.435        2744.756          39.000  
  20269257.052   106515668.181         404.670          43.000  
  21083515.731   110794616.156       -1298.459          49.000  
  20679958.671   108673923.857         669.161          48.000  
  24562662.146   129077708.096       -4038.685          34.000  
  22898508.734   120332545.132       -3197.534          33.000  
 23  7  2 19 40  2.0000000  0  8G 5G11G13G20G 7G30G 6G 9
  21500768.585   112987287.975        2147.264          48.000  
  22297120.122   117172142.870       -2791.656          46.000  
  22730865.596   119451500.859        2744.420          37.000  
  20269178.788   106515264.367         403.339          43.000  
  21083763.171   110795915.516       -1299.797          50.000  
  20679831.254   108673255.423         667.808          47.000  
  24563430.540   129081747.769       -4039.918          34.000  
  22899117.519   120335742.848       -3198.261          34.000  
 23  7  2 19 40  3.0000000  0  8G 5G11G13G20G 7G30G 6G 9
  21500359.862   112985141.121        2146.470          47.000  
  22297651.136   117174935.051       -2792.616          46.000  
  22730342.412   119448756.961        2743.970          36.000  
  20269102.124   106514861.657         402.105          43.000  
  21084010.292   110797215.870       -1300.843          49.000  
  20679704.317   108672588.060         666.893          47.000  
  24564198.821   129085787.900       -4039.592          33.000  
  22899726.436   120338941.336       -3198.924          35.000  
 23  7  2 19 40  4.0000000  0  8G 5G11G13G20G 7G30G 6G 9
  21499951.784   112982995.022        2145.310          48.000  
  22298182.604   117177728.040       -2793.946          46.000  
  22729820.886   119446013.661        2742.468          38.000  
  20269026.355   106514459.878         401.012          45.000  
  21084257.780   110798517.027       -1302.064          49.000  
  20679577.227   108671921.578         665.577          47.000  
  24564967.669   129089828.421       -4040.549          33.000  
  22900334.986   120342140.290       -3199.148          34.000  
 23  7  2 19 40  5.0000000  0  8G 5G11G13G20G 7G30G 6G 9
  21499543.061   112980849.117        2146.017          48.000  
  22298714.181   117180521.263       -2792.951          46.000  
  22729299.931   119443270.356        2743.989          41.000  
  20268950.211   106514058.523         401.328          44.000  
  21084505.014   110799818.444       -1301.255          49.000  
  20679450.857   108671255.433         666.271          48.000  
  24565736.486   129093868.685       -4040.127          34.000  
  22900943.222   120345339.222       -3198.653          34.000  
 23  7  2 19 40  6.0000000  0  8G 5G11G13G20G 7G30G 6G 9
  21499134.525   112978703.596        2145.232          47.000  
  22299245.462   117183314.945       -2793.765          46.000  
  22728778.314   119440527.268        2743.024          39.000  
  20268874.403   106513657.704         400.562          45.000  
  21084752.519   110801120.324       -1302.127          49.000  
  20679324.788   108670589.862         665.208          48.000  
  24566505.347   129097908.836       -4039.873          35.000  
  22901552.344   120348538.276       -3199.738          35.000  
 23  7  2 19 40  7.0000000  0  8G 5G11G13G20G 7G30G 6G 9
  21498726.945   112976559.085        2144.015          48.000  
  22299776.699   117186109.669       -2795.259          45.000  
  22728256.862   119437784.917        2741.711          41.000  
  20268799.145   106513258.105         399.014          45.000  
  21085000.435   110802423.272       -1303.370          49.000  
  20679198.086   108669925.411         663.841          47.000  
  24567274.849   129101949.675       -4040.921          36.000  
  22902161.287   120351737.956       -3200.156          34.000  
 23  7  2 19 40  8.0000000  0  8G 5G11G13G20G 7G30G 6G 9
  21498318.941   112974415.263        2143.475          48.000  
  22300307.652   117188905.098       -2795.920          44.000  
  22727735.092   119435042.985        2741.519          37.000  
  20268723.494   106512859.349         398.117          45.000  
  21085248.917   110803726.950       -1304.228          49.000  
  20679071.703   108669261.777         663.082          47.000  
  24568044.617   129105990.703       -4041.450          37.000  
  22902770.107   120354938.206       -3200.728          34.000  
 23  7  2 19 40  9.0000000  0  8G 5G11G13G20G 7G30G 6G 9
  21497910.536   112972272.066        2142.635          48.000  
  22300839.958   117191701.224       -2796.746          45.000  
  22727212.445   119432301.525        2741.416          37.000  
  20268647.904   106512461.404         397.113          45.000  
  21085497.391   110805031.299       -1305.063          49.000  
  20678946.258   108668598.902         662.389          48.000  
  24568814.054   129110031.846       -4040.859          36.000  
  22903378.745   120358138.758       -3201.011          36.000  
 23  7  2 19 40 10.0000000  0  8G 5G11G13G20G 7G30G 6G 9
  21497502.192   112970129.774        2141.660          47.000  
  22301372.107   117194498.267       -2797.448          45.000  
  22726689.998   119429560.580        2740.595          39.000  
  20268572.488   106512064.541         396.432          45.000  
  21085745.729   110806336.600       -1305.837          48.000  
  20678820.712   108667937.059         661.509          48.000  
  24569582.946   129114073.559       -4041.547          35.000  
  22903988.041   120361339.921       -3201.696          35.000  
 23  7  2 19 40 11.0000000  0  8G 5G11G13G20G 7G30G 6G 9
  21497094.425   112967988.225        2140.962          47.000  
  22301905.172   117197296.113       -2798.239          46.000  
  22726166.919   119426820.266        2740.089          35.000  
  20268497.291   106511668.619         395.490          45.000  
  21085994.281   110807642.719       -1306.564          49.000  
  20678694.569   108667276.139         660.636          48.000  
  24570352.208   129118115.560       -4042.356          35.000  
  22904596.661   120364541.672       -3202.204          28.000  
 23  7  2 19 40 12.0000000  0  8G 5G11G13G20G 7G30G 6G 9
  21496687.424   112965847.009        2141.389          48.000  
  22302437.766   117200094.328       -2798.006          46.000  
  22725643.661   119424080.122        2740.856          34.000  
  20268422.085   106511273.208         395.485          45.000  
  21086243.348   110808949.200       -1306.249          49.000  
  20678568.945   108666615.653         660.558          48.000  
  24571121.235   129122157.434       -4041.601          35.000  
  22905203.811   120367743.332       -3201.634          30.000  
 23  7  2 19 40 13.0000000  0  8G 5G11G13G20G 7G30G 6G 9
  21496279.957   112963705.774        2140.690          47.000  
  22302970.905   117202892.572       -2798.819          46.000  
  22725120.971   119421339.678        2739.546          35.000  
  20268347.224   106510877.948         394.596          46.000  
  21086491.839   110810255.743       -1307.219          49.000  
  20678443.351   108665955.321         659.580          48.000  
  24571889.860   129126198.865       -4041.931          34.000  
  22905807.497   120370944.751       -3201.880          31.000  
 23  7  2 19 40 14.0000000  0  8G 5G11G13G20G 7G30G 6G 9
  21495871.910   112961565.928        2139.321          47.000  
  22303503.276   117205692.229       -2800.420          45.000  
  22724598.550   119418600.347        2738.105          34.000  
  20268272.336   106510484.239         393.065          46.000  
  21086740.640   110811563.690       -1308.534          49.000  
  20678317.914   108665296.462         658.220          48.000  
  24572659.140   129130241.189       -4043.154          35.000  
  22906411.898   120374147.391       -3202.842          31.000  
 23  7  2 19 40 15.0000000  0  8G 5G11G13G20G 7G30G 6G 9
  21495464.500   112959427.086        2138.706          46.000  
  22304036.358   117208492.962       -2800.801          46.000  
  22724074.333   119415861.798        2738.861          29.000  
  20268197.540   106510091.747         392.362          46.000  
  21086989.066   110812872.719       -1309.017          48.000  
  20678192.491   108664638.771         657.567          48.000  
  24573428.215   129134284.151       -4042.609          36.000  
  22907024.553   120377350.686       -3202.806          32.000  
 23  7  2 19 40 16.0000000  0  8G 5G11G13G20G 7G30G 6G 9
  21495056.845   112957287.944        2138.843          46.000  
  22304569.611   117211293.430       -2801.036          46.000  
  22723543.231   119413122.807        2738.616          33.000  
  20268123.206   106509699.115         391.905          46.000  
  21087237.779   110814181.528       -1309.285          48.000  
  20678067.150   108663980.927         657.401          48.000  
  24574198.075   129138326.367       -4042.467          37.000  
  22907640.973   120380553.357       -3203.209          33.000  
 23  7  2 19 40 17.0000000  0  8G 5G11G13G20G 7G30G 6G 9
  21494650.098   112955150.173        2137.023          46.000  
  22305102.950   117214095.314       -2802.618          46.000  
  22723016.304   119410384.906        2737.481          32.000  
  20268048.179   106509308.031         390.261          45.000  
  21087486.615   110815491.752       -1310.979          48.000  
  20677942.853   108663324.592         655.564          49.000  
  24574967.686   129142369.496       -4043.357          36.000  
  22908252.233   120383757.256       -3204.563          34.000  
 23  7  2 19 40 18.0000000  0  8G 5G11G13G20G 7G30G 6G 9
  21494244.180   112953013.596        2136.174          46.000  
  22305636.801   117216898.408       -2803.673          46.000  
  22722505.318   119407648.024        2736.457          33.000  
  20267973.876   106508918.353         388.996          45.000  
  21087735.826   110816803.239       -1312.059          48.000  
  20677818.943   108662669.580         654.300          49.000  
  24575736.966   129146413.399       -4043.992          35.000  
  22908858.733   120386962.064       -3204.482          33.000  
 23  7  2 19 40 19.0000000  0  8G 5G11G13G20G 7G30G 6G 9
  21493838.340   112950877.006        2136.877          46.000  
  22306170.140   117219701.581       -2802.721          46.000  
  22721999.031   119404910.904        2737.837          38.000  
  20267899.246   106508528.830         389.708          45.000  
  21087985.639   110818114.737       -1311.215          48.000  
  20677694.601   108662014.700         655.299          49.000  
  24576506.411   129150456.871       -4042.607          35.000  
  22909465.533   120390166.565       -3203.990          32.000  
 23  7  2 19 40 20.0000000  0  8G 5G11G13G20G 7G30G 6G 9
  21493431.960   112948740.824        2135.223          46.000  
  22306704.244   117222505.167       -2804.394          47.000  
  22721475.289   119402173.970        2736.053          38.000  
  20267825.580   106508139.898         388.140          46.000  
  21088235.932   110819426.694       -1312.761          48.000  
  20677569.431   108661360.366         653.520          48.000  
  24577275.564   129154500.262       -4043.910          35.000  
  22910078.930   120393371.273       -3205.411          31.000  
 23  7  2 19 40 21.0000000  0  8G 5G11G13G20G 7G30G 6G 9
  21493024.977   112946606.017        2134.088          45.000  
  22307237.348   117225310.182       -2805.683          46.000  
  22720961.694   119399438.125        2735.182          41.000  
  20267752.324   106507752.555         386.763          46.000  
  21088484.903   110820740.103       -1314.212          48.000  
  20677445.321   108660707.544         652.059          48.000  
  24578045.241   129158544.642       -4045.101          35.000  
  22910688.253   120396577.018       -3206.412          31.000  
 23  7  2 19 40 22.0000000  0  8G 5G11G13G20G 7G30G 6G 9
  21492618.570   112944472.042        2133.777          45.000  
  22307770.552   117228116.099       -2806.021          46.000  
  22720439.165   119396702.922        2735.302          40.000  
  20267678.208   106507366.213         386.236          45.000  
  21088734.620   110822054.413       -1314.514          47.000  
  20677321.206   108660055.713         651.794          48.000  
  24578814.674   129162589.450       -4044.714          35.000  
  22911294.334   120399783.334       -3205.263          31.000  
 23  7  2 19 40 23.0000000  0  8G 5G11G13G20G 7G30G 6G 9
  21492212.281   112942338.525        2132.917          46.000  
  22308305.650   117230922.478       -2806.993          47.000  
  22719918.812   119393967.983        2734.576          40.000  
  20267604.542   106506980.486         385.093          45.000  
  21088983.456   110823369.214       -1315.473          46.000  
  20677197.135   108659404.456         650.565          48.000  
  24579584.276   129166634.187       -4044.940          35.000  
  22911903.368   120402989.800       -3206.101          31.000  
 23  7  2 19 40 24.0000000  0  8G 5G11G13G20G 7G30G 6G 9
  21491806.498   112940206.010        2132.150          46.000  
  22308840.796   117233729.902       -2807.955          47.000  
  22719398.831   119391233.780        2734.001          41.000  
  20267531.487   106506595.959         383.975          45.000  
  21089232.784   110824685.067       -1316.261          46.000  
  20677073.116   108658754.339         649.614          48.000  
  24580354.049   129170679.517       -4045.541          36.000  
  22912513.502   120406197.126       -3207.815          31.000  
 23  7  2 19 40 25.0000000  0  8G 5G11G13G20G 7G30G 6G 9
  21491401.147   112938074.257        2131.302          45.000  
  22309375.122   117236538.142       -2808.650          47.000  
  22718877.959   119388500.080        2733.396          39.000  
  20267458.257   106506212.400         383.015          45.000  
  21089482.488   110826001.774       -1317.144          46.000  
  20676949.303   108658105.136         648.574          48.000  
  24581123.865   129174725.208       -4045.997          35.000  
  22913111.612   120409405.032       -3207.974          26.000  
 23  7  2 19 40 26.0000000  0  8G 5G11G13G20G 7G30G 6G 9
  21490996.062   112935942.950        2131.256          45.000  
  22309910.180   117239346.852       -2808.650          48.000  
  22718356.202   119385766.695        2733.458          37.000  
  20267385.581   106505829.429         383.061          45.000  
  21089733.091   110827318.931       -1317.032          46.000  
  20676825.842   108657456.499         648.588          48.000  
  24581894.070   129178770.849       -4044.785          35.000  
  22913715.372   120412612.804       -3206.821          27.000  
 23  7  2 19 40 27.0000000  0  8G 5G11G13G20G 7G30G 6G 9
  21490590.737   112933811.774        2130.580          46.000  
  22310444.532   117242155.753       -2809.594          47.000  
  22717835.801   119383033.137        2733.166          38.000  
  20267312.251   106505446.770         381.853          45.000  
  21089983.685   110828636.307       -1318.270          46.000  
  20676702.801   108656808.141         647.609          48.000  
  24582663.808   129182816.245       -4045.894          35.000  
  22914334.109   120415820.641       -3207.719          32.000  
 23  7  2 19 40 28.0000000  0  8G 5G11G13G20G 7G30G 6G 9
  21490185.752   112931681.665        2129.880          46.000  
  22310979.992   117244965.710       -2810.471          48.000  
  22717315.384   119380300.354        2732.566          39.000  
  20267239.793   106505065.353         380.863          45.000  
  21090234.505   110829954.748       -1318.956          46.000  
  20676579.943   108656160.950         646.561          48.000  
  24583434.017   129186862.163       -4046.020          35.000  
  22914940.941   120419029.289       -3209.398          30.000  
 23  7  2 19 40 29.0000000  0  8G 5G11G13G20G 7G30G 6G 9
  21489780.877   112929552.357        2129.038          47.000  
  22311514.858   117247776.531       -2811.157          47.000  
  22716794.586   119377568.297        2731.899          38.000  
  20267167.078   106504684.917         380.042          45.000  
  21090486.042   110831274.061       -1319.592          47.000  
  20676457.237   108655514.699         645.923          49.000  
  24584204.649   129190908.469       -4046.577          35.000  
  22915546.489   120422238.434       -3209.288          24.000  
 23  7  2 19 40 30.0000000  0  8G 5G11G13G20G 7G30G 6G 9
  21489376.224   112927423.695        2128.766          47.000  
  22312049.908   117250588.022       -2811.363          47.000  
  22716274.042   119374836.562        2731.688          39.000  
  20267094.232   106504305.306         379.595          44.000  
  21090737.914   110832594.071       -1320.119          47.000  
  20676334.169   108654869.244         645.330          48.000  
  24584974.587   129194955.069       -4046.427          35.000  
  22916163.320   120425447.793       -3209.202          26.000  
 23  7  2 19 40 31.0000000  0  8G 5G11G13G20G 7G30G 6G 9
  21488971.130   112925295.032        2128.202          46.000  
  22312585.015   117253399.584       -2812.270          47.000  
  22715754.091   119372104.682        2731.227          37.000  
  20267022.115   106503925.874         378.815          44.000  
  21090989.411   110833914.165       -1320.627          47.000  
  20676211.573   108654223.923         644.588          48.000  
  24585744.522   129199001.104       -4045.971          32.000  
  22916781.528   120428657.031       -3209.292          30.000  
 23  7  2 19 40 32.0000000  0  8G 5G11G13G20G 7G30G 6G 9
  21488566.163   112923167.510        2127.052          46.000  
  22313120.981   117256212.290       -2813.411          47.000  
  22715234.554   119369373.598        2730.741          38.000  
  20266950.194   106503547.775         377.480          44.000  
  21091241.187   110835235.406       -1321.730          47.000  
  20676089.068   108653579.875         643.412          48.000  
  24586514.770   129203047.889       -4047.116          32.000  
  22917401.700   120431867.061       -3210.290          31.000  
 23  7  2 19 40 33.0000000  0  8G 5G11G13G20G 7G30G 6G 9
  21488161.239   112921041.016        2126.071          46.000  
  22313656.580   117259026.038       -2814.181          47.000  
  22714714.612   119366643.344        2730.288          36.000  
  20266878.626   106503170.854         376.680          45.000  
  21091492.775   110836557.754       -1322.844          47.000  
  20675966.690   108652936.994         642.559          48.000  
  24587285.062   129207095.228       -4047.200          32.000  
  22918000.112   120435078.030       -3211.573          30.000  
 23  7  2 19 40 34.0000000  0  8G 5G11G13G20G 7G30G 6G 9
  21487756.617   112918915.209        2125.702          47.000  
  22314192.080   117261840.556       -2814.625          46.000  
  22714195.237   119363913.610        2729.264          36.000  
  20266806.971   106502794.813         375.860          44.000  
  21091744.612   110837880.821       -1323.149          46.000  
  20675844.333   108652294.926         642.030          47.000  
  24588057.365   129211142.837       -4046.812          30.000  
  22918623.015                       -3211.224          29.000  
 23  7  2 19 40 35.0000000  0  8G 5G11G13G20G 7G30G 6G 9
  21487352.404   112916788.839        2126.373          46.000  
  22314727.657   117264654.552       -2814.019          46.000  
  22713675.390   119361183.065        2730.782          36.000  
  20266735.587   106502418.381         376.318          44.000  
  21091996.711   110839203.384       -1322.479          47.000  
  20675722.094   108651652.440         642.448          47.000  
  24588818.879   129215189.546       -4046.254          30.000  
  22919227.534   120441387.2513      -3210.242          29.000  
 23  7  2 19 40 36.0000000  0  8G 5G11G13G20G 7G30G 6G 9
  21486948.240   112914663.217        2124.659          46.000  
  22315262.760   117267469.308       -2815.668          46.000  
  22713155.862   119358453.066        2729.158          36.000  
  20266664.726   106502042.873         374.301          44.000  
  21092248.889   110840526.742       -1324.269          47.000  
  20675599.685   108651010.815         640.611          47.000  
  24589589.415   129219236.437       -4047.276          29.000  
  22919844.133   120444598.0412      -3210.859          30.000  
 23  7  2 19 40 37.0000000  0  8G 5G11G13G20G 7G30G 6G 9
  21486544.634   112912538.845        2124.026          46.000  
  22315798.263   117270285.336       -2816.312          45.000  
  22712636.055   119355724.065        2729.243          35.000  
  20266593.446   106501668.799         373.589          44.000  
  21092500.940   110841851.388       -1324.976          46.000  
  20675477.721   108650370.585         639.962          46.000  
  24590359.066   129223284.184       -4046.537          29.000  
  22920457.775   120447810.0462      -3212.258          28.000  
 23  7  2 19 40 38.0000000  0  8G 5G11G13G20G 7G30G 6G 9
  21486141.494   112910414.830        2124.458          47.000  
  22316334.216   117273101.772       -2816.107          45.000  
  22712116.850   119352995.201        2729.485          36.000  
  20266523.000   106501295.237         373.954          44.000  
  21092752.943   110843176.441       -1324.649          46.000  
  20675355.640   108649730.816         640.021          46.000  
  24591116.733                       -4041.562          27.000  
  22921053.145   120451022.1792      -3211.729          27.000  
 23  7  2 19 40 39.0000000  0  8G 5G11G13G20G 7G30G 6G 9
  21485737.229   112908290.970        2123.271          46.000  
  22316869.754   117275918.399       -2817.275          45.000  
  22711597.850   119350266.320        2727.805          36.000  
  20266452.597   106500922.045         372.435          44.000  
  21093005.124   110844501.716       -1325.937          46.000  
  20675233.885   108649091.354         638.718          46.000  
  24591887.482                       -4048.145          26.000  
  22921660.902   120454234.0112      -3212.311          26.000  
 23  7  2 19 40 40.0000000  0  8G 5G11G13G20G 7G30G 6G 9
  21485333.148   112906168.467        2122.156          46.000  
  22317405.790   117278736.418       -2818.604          45.000  
  22711079.308   119347538.448        2728.011          37.000  
  20266381.984   106500550.374         371.060          44.000  
  21093257.620   110845828.386       -1327.260          46.000  
  20675112.545   108648453.400         637.620          46.000  
  24592664.672                       -4048.702          27.000  
  22922267.161   120457446.9642      -3213.699          26.000  
 23  7  2 19 40 41.0000000  0  8G 5G11G13G20G 7G30G 6G 9
  21484929.747   112904046.823        2121.840          47.000  
  22317942.179   117281555.300       -2818.812          45.000  
  22710559.955   119344811.220        2727.545          36.000  
  20266311.490   106500179.712         370.611          44.000  
  21093510.919   110847155.932       -1327.421          46.000  
  20674991.611   108647816.406         636.962          46.000  
  24593428.097   129239373.1063      -4048.312          27.000  
  22922890.444   120460660.4562      -3212.911          26.000  
 23  7  2 19 40 42.0000000  0  8G 5G11G13G20G 7G30G 6G 9
  21484526.328   112901924.785        2121.761          47.000  
  22318478.137   117284373.868       -2818.925          44.000  
  22710040.698   119342083.461        2727.601          36.000  
  20266240.995   106499808.885         370.391          44.000  
  21093763.912   110848483.175       -1327.515          46.000  
  20674870.524   108647179.194         636.907          46.000  
  24594199.091   129243421.0092      -4048.092          27.000  
  22923494.104   120463873.5272      -3212.751          26.000  
 23  7  2 19 40 43.0000000  0  8G 5G11G13G20G 7G30G 6G 9
  21484123.756   112899803.764        2120.618          47.000  
  22319014.452   117287193.483       -2820.089          45.000  
  22709521.794   119339356.434        2726.632          37.000  
  20266170.976   106499439.243         369.045          44.000  
  21094017.503   110849811.472       -1328.755          47.000  
  20674749.938   108646543.120         635.620          46.000  
  24594979.556   129247469.4132      -4048.499          27.000  
  22924106.135                       -3214.567          26.000  
 23  7  2 19 40 44.0000000  0  8G 5G11G13G20G 7G30G 6G 9
  21483721.005   112897683.785        2119.661          47.000  
  22319551.089   117290014.184       -2820.981          44.000  
  22709003.326   119336630.235        2725.600          37.000  
  20266100.525   106499070.839         367.862          44.000  
  21094271.112   110851140.890       -1329.854          47.000  
  20674628.904   108645908.238         634.403          46.000  
  24595741.420   129251518.4872      -4049.196          26.000  
  22924718.280   120470300.9361      -3214.545          27.000  
 23  7  2 19 40 45.0000000  0  8G 5G11G13G20G 7G30G 6G 9
  21483317.482   112895563.441        2120.433          47.000  
  22320087.418   117292834.553       -2820.530          44.000  
  22708484.731   119333903.363        2727.061          37.000  
  20266030.262   106498702.224         368.665          44.000  
  21094524.380   110852469.951       -1329.073          47.000  
  20674508.004   108645273.123         635.026          46.000  
  24596511.376   129255566.7232      -4048.299          27.000  
  22925329.086   120473514.865       -3214.372          27.000  
 23  7  2 19 40 46.0000000  0  8G 5G11G13G20G 7G30G 6G 9
  21482913.448   112893443.735        2118.381          47.000  
  22320624.265   117295655.568       -2822.229          45.000  
  22707965.771   119331177.024        2725.105          37.000  
  20265960.095   106498334.401         366.536          44.000  
  21094777.547   110853799.698       -1331.197          47.000  
  20674387.288   108644638.731         633.131          46.000  
  24597285.786   129259615.0332      -4048.802          27.000  
  22925950.143   120476728.880       -3214.924          29.000  
 23  7  2 19 40 47.0000000  0  8G 5G11G13G20G 7G30G 6G 9
  21482509.733   112891325.527        2117.640          46.000  
  22321161.548   117298478.136       -2823.280          45.000  
  22707446.627   119328451.883        2724.592          36.000  
  20265890.250   106497968.299         365.351          44.000  
  21095031.086   110855130.986       -1331.880          47.000  
  20674266.938   108644006.018         632.047          46.000  
  24598059.371   129263664.5982      -4049.505          28.000  
  22926570.485   120479944.255       -3215.902          31.000  
 23  7  2 19 40 48.0000000  0  8G 5G11G13G20G 7G30G 6G 9
  21482106.459   112889207.696        2118.379          46.000  
  22321698.631   117301301.134       -2822.315          44.000  
  22706928.216   119325726.966        2726.180          36.000  
  20265820.271   106497602.766         366.159          43.000  
  21095284.891   110856462.751       -1331.052          47.000  
  20674146.623   108643373.830         632.871          46.000  
  24598831.260   129267714.1272      -4049.054          28.000  
  22927190.466   120483159.750       -3215.029          32.000  
 23  7  2 19 40 49.0000000  0  8G 5G11G13G20G 7G30G 6G 9
  21481703.332   112887089.721        2117.220          46.000  
  22322235.504   117304123.988       -2823.483          44.000  
  22706408.801   119323001.533        2724.966          36.000  
  20265750.156   106497237.230         364.763          43.000  
  21095538.547   110857794.377       -1332.500          47.000  
  20674025.850   108642741.596         631.537          46.000  
  24599604.008   129271762.791       -4049.351          28.000  
  22927816.104   120486374.776       -3215.159          34.000  
 23  7  2 19 40 50.0000000  0  8G 5G11G13G20G 7G30G 6G 9
  21481300.276   112884973.238        2116.005          46.000  
  22322772.705   117306948.400       -2824.586          44.000  
  22705890.076   119320277.530        2723.359          36.000  
  20265680.682   106496873.415         363.130          43.000  
  21095792.308   110859127.571       -1333.683          47.000  
  20673906.129   108642111.024         630.091          46.000  
  24600377.074   129275812.649       -4050.141          28.000  
  22928433.122   120489591.137       -3217.264          30.000  
 23  7  2 19 40 51.0000000  0  8G 5G11G13G20G 7G30G 6G 9
  21480897.516   112882857.347        2116.237          46.000  
  22323309.893   117309773.419       -2824.617          44.000  
  22705372.040   119317553.837        2723.735          36.000  
  20265611.466   106496510.321         363.221          43.000  
  21096046.047   110860461.396       -1333.519          47.000  
  20673786.049   108641481.142         630.090          46.000  
  24601152.161   129279862.695       -4049.332          28.000  
  22929041.366   120492807.744       -3215.065          31.000  
 23  7  2 19 40 52.0000000  0  8G 5G11G13G20G 7G30G 6G 9
  21480494.224   112880740.961        2116.066          46.000  
  22323846.914   117312598.011       -2824.851          43.000  
  22704854.166   119314829.422        2724.547          38.000  
  20265542.014   106496146.954         363.184          43.000  
  21096299.176   110861794.813       -1333.713          47.000  
  20673666.306   108640850.921         630.234          46.000  
  24601922.810   129283911.820       -4049.578          28.000  
  22929661.835   120496023.670       -3216.224          32.000  
 23  7  2 19 40 53.0000000  0  8G 5G11G13G20G 7G30G 6G 9
  21480091.923   112878625.731        2114.406          46.000  
  22324384.412   117315423.806       -2826.533          42.000  
  22704336.632   119312106.017        2722.738          38.000  
  20265472.898   106495784.953         360.924          42.000  
  21096552.959   110863129.427       -1335.388          46.000  
  20673546.912   108640222.028         628.020          46.000  
  24602695.236   129287961.492       -4049.289          25.000  
  22930270.320   120499240.511       -3218.019          33.000  
 23  7  2 19 40 54.0000000  0  8G 5G11G13G20G 7G30G 6G 9
  21479689.276   112876511.536        2113.945          45.000  
  22324922.485   117318250.663       -2826.830          43.000  
  22703819.939   119309383.422        2722.273          39.000  
  20265404.380   106495424.145         360.371          43.000  
  21096807.174   110864465.137       -1336.028          47.000  
  20673427.753   108639594.288         627.675          46.000  
  24603464.703                       -4052.629          22.000  
  22930875.742   120502458.079       -3217.894          33.000  
 23  7  2 19 40 55.0000000  0  8G 5G11G13G20G 7G30G 6G 9
  21479286.818   112874397.428        2113.510          46.000  
  22325460.710   117321077.647       -2827.512          43.000  
  22703302.366   119306660.621        2722.440          38.000  
  20265335.726   106495063.602         359.890          43.000  
  21097061.689   110865800.996       -1336.241          46.000  
  20673307.918   108638966.792         626.944          46.000  
  24604234.672                       -4048.819          21.000  
  22931485.767   120505675.323       -3217.240          28.000  
 23  7  2 19 40 56.0000000  0  8G 5G11G13G20G 7G30G 6G 9
  21478884.647   112872284.046        2112.820          45.000  
  22325998.927   117323905.329       -2827.947          43.000  
  22702785.368   119303938.256        2722.118          38.000  
  20265267.256   106494703.915         358.978          42.000  
  21097316.135   110867137.571       -1337.201          46.000  
  20673188.410   108638340.092         626.350          46.000  
  24605007.163                       -4051.638          17.000  
  22932103.997   120508893.309       -3218.406          30.000  
 23  7  2 19 40 57.0000000  0  8G 5G11G13G20G 7G30G 6G 9
  21478482.851   112870171.398        2112.313          46.000  
  22326536.826   117326733.835       -2829.018          43.000  
  22702267.982   119301216.465        2721.747          35.000  
  20265199.161   106494345.192         358.289          43.000  
  21097570.686   110868474.921       -1337.872          46.000  
  20673069.273   108637714.304         625.369          46.000  
  24605778.868                       -4050.532          17.000  
  22932718.647   120512111.512       -3219.545          30.000  
 23  7  2 19 40 58.0000000  0  8G 5G11G13G20G 7G30G 6G 9
  21478081.239   112868059.468        2111.346          45.000  
  22327074.821   117329563.053       -2829.816          43.000  
  22701750.945   119298495.150        2720.597          38.000  
  20265130.778   106493987.344         357.160          42.000  
  21097824.918   110869813.055       -1338.848          46.000  
  20672950.568   108637089.348         624.405          46.000  
  24606549.286                       -4052.017          17.000  
  22933326.682   120515330.297       -3219.714          32.000  
 23  7  2 19 40 59.0000000  0  8G 5G11G13G20G 7G30G 6G 9
  21477678.867   112865947.793        2111.631          44.000  
  22327612.453   117332392.569       -2829.554          42.000  
  22701233.699   119295773.874        2721.006          38.000  
  20265063.197   106493629.902         357.298          43.000  
  21098079.129   110871151.476       -1338.637          46.000  
  20672831.431   108636464.756         624.635          46.000  
  24607324.259                       -4050.493          21.000  
  22933938.199   120518548.945       -3218.358          31.000  
 23  7  2 19 41  0.0000000  0  8G 5G11G13G20G 7G30G 6G 9
  21477276.688   112863836.344        2111.526          45.000  
  22328150.640   117335222.329       -2829.724          43.000  
  22700717.208   119293052.582        2721.711          36.000  
  20264995.717   106493272.917         356.777          43.000  
  21098333.841   110872490.185       -1338.747          46.000  
  20672711.975   108635840.569         624.176          45.000  
  24608094.704                       -4048.492          22.000  
  22934560.691   120521767.592       -3219.077          25.000  
 23  7  2 19 41  1.0000000  0  9G 5G11G13G20G 7G30G 6G 9G14
  21476875.006   112861725.158        2110.259          45.000  
  22328689.908   117338052.407       -2830.619          44.000  
  22700199.809   119290331.333        2720.309          37.000  
  20264927.413   106492916.328         355.838          43.000  
  21098588.662   110873829.181       -1339.317          46.000  
  20672593.205   108635216.742         623.200          45.000  
  24608870.135                       -4050.509          21.000  
  22935157.310   120524986.342       -3220.556          27.000  
  24691474.025   129754571.0413       3133.918          31.000  
 23  7  2 19 41  2.0000000  0  9G 5G11G13G20G 7G30G 6G 9G14
  21476473.144   112859614.746        2110.045          44.000  
  22329228.727   117340883.305       -2830.993          44.000  
  22699682.165   119287610.679        2720.275          36.000  
  20264859.867   106492560.711         355.431          43.000  
  21098843.304   110875169.013       -1339.983          46.000  
  20672474.783   108634593.842         622.807          46.000  
  24609644.056                       -4055.401          19.000  
  22935776.937   120528205.487       -3219.009          33.000  
  24690878.947   129751436.5422       3134.680          33.000  
 23  7  2 19 41  3.0000000  0  9G 5G11G13G20G 7G30G 6G 9G14
  21476071.026   112857504.584        2109.288          44.000  
  22329767.394   117343714.438       -2832.208          43.000  
  22699165.233   119284889.982        2720.330          36.000  
  20264792.082   106492205.507         354.093          43.000  
  21099098.234   110876509.142       -1341.462          46.000  
  20672356.388   108633971.272         621.509          46.000  
  24610421.359                       -4053.456          19.000  
  22936388.475   120531424.586       -3219.786          32.000  
  24690276.975   129748301.8322       3133.583          32.000  
 23  7  2 19 41  4.0000000  0  9G 5G11G13G20G 7G30G 6G 9G14
  21475669.409   112855396.117        2107.349          45.000  
  22330306.444   117346547.358       -2833.633          44.000  
  22698647.996   119282170.789        2718.300          35.000  
  20264724.589   106491852.207         352.206          42.000  
  21099353.509   110877851.033       -1342.673          46.000  
  20672239.179   108633350.597         619.767          46.000  
  24611193.788                       -4050.265          18.000  
  22936994.508   120534645.080       -3222.166          25.000  
  24689683.040   129745168.5082       3132.983          32.000  
 23  7  2 19 41  5.0000000  0  9G 5G11G13G20G 7G30G 6G 9G14
  21475268.517   112853288.327        2108.170          45.000  
  22330845.656   117349380.956       -2833.160          43.000  
  22698130.863   119279451.968        2719.172          38.000  
  20264657.296   106491499.747         352.758          42.000  
  21099609.024   110879193.644       -1342.140          45.000  
  20672121.416   108632730.726         620.199          46.000  
  24611966.244                       -4050.265          16.000  
  22937615.269   120537981.4773      -3220.178          26.000  
  24689090.775   129742035.2742       3133.832          33.000  
 23  7  2 19 41  6.0000000  0  9G 5G11G13G20G 7G30G 6G 9G14
  21474866.856   112851180.224        2107.739          43.000  
  22331385.330   117352214.253       -2833.735          44.000  
  22697613.896   119276732.643        2719.499          37.000  
  20264590.349   106491147.121         351.967          42.000  
  21099864.290   110880535.966       -1342.621          46.000  
  20672003.091   108632110.658         619.381          45.000  
  24612738.665                       -4052.529          16.000  
  22938221.014   120541201.8242      -3220.499          32.000  
  24688495.509   129738901.3312       3132.219          32.000  
 23  7  2 19 41  7.0000000  0  9G 5G11G13G20G 7G30G 6G 9G14
  21474466.147   112849073.239        2106.259          45.000  
  22331925.065   117355048.735       -2835.246          44.000  
  22697096.527   119274014.261        2717.772          36.000  
  20264524.191   106490795.850         350.390          43.000  
  21100120.311   110881879.501       -1344.296          46.000  
  20671885.293   108631491.867         618.108          46.000  
  24613509.698                       -4052.656          16.000  
  22938834.106   120544423.1292      -3221.610          31.000  
  24687899.187   129735768.1222       3132.643          32.000  
 23  7  2 19 41  8.0000000  0  9G 5G11G13G20G 7G30G 6G 9G14
  21474065.420   112846967.396        2105.786          46.000  
  22332463.998   117357884.336       -2835.983          42.000  
  22696578.282   119271296.713        2717.640          35.000  
  20264458.142   106490445.826         349.831          43.000  
  21100375.948   110883224.186       -1344.940          46.000  
  20671767.081   108630874.270         617.358          46.000  
  24614284.305                       -4049.005          19.000  
  22939443.001   120547645.1022      -3222.116          33.000  
  24687301.630   129732635.5732       3132.884          31.000  
 23  7  2 19 41  9.0000000  0  9G 5G11G13G20G 7G30G 6G 9G14
  21473665.409   112844861.447        2106.176          45.000  
  22333003.061   117360719.872       -2835.441          42.000  
  22696060.190   119268578.890        2718.126          35.000  
  20264391.722   106490095.924         349.956          43.000  
  21100631.293   110884568.780       -1344.364          46.000  
  20671650.060   108630256.727         617.681          45.000  
  24615057.506                       -4053.413          21.000  
  22940048.606                       -3222.718          25.000  
  24686699.908   129729502.5332       3133.841          31.000  
 23  7  2 19 41 10.0000000  0  9G 5G11G13G20G 7G30G 6G 9G14
  21473264.512   112842755.978        2104.647          44.000  
  22333542.207   117363555.927       -2836.505          43.000  
  22695528.673   119265861.279        2715.901          31.000  
  20264325.319   106489746.657         348.506          43.000  
  21100886.733   110885913.932       -1346.130          45.000  
  20671533.100   108629639.817         616.227          46.000  
  24615830.294                       -4059.385          21.000  
  22940660.546   120553983.9333      -3222.478          27.000  
  24686099.027   129726369.5022       3132.367          32.000  
 23  7  2 19 41 11.0000000  0  9G 5G11G13G20G 7G30G 6G 9G14
  21472863.994   112840651.739        2103.752          49.000  
  22334082.326   117366393.266       -2837.608          47.000  
  22695013.299   119263144.726        2715.277          38.000  
  20264259.436   106489398.819         347.138          47.000  
  21101142.658   110887260.360       -1347.051          49.000  
  20671415.930   108629024.284         614.823          49.000  
  24616601.127                       -4053.111          19.000  
  22941268.381   120557206.7952      -3224.333          28.000  
  24685512.726   129723237.1932       3131.998          35.000  
 23  7  2 19 41 12.0000000  0  9G 5G11G13G20G 7G30G 6G 9G14
  21472463.913   112838547.486        2104.387          48.000  
  22334622.332   117369230.647       -2837.179          46.000  
  22694500.742   119260427.829        2717.272          39.000  
  20264192.763   106489051.139         347.536          46.000  
  21101398.771   110888606.846       -1346.458          49.000  
  20671299.031   108628408.859         615.404          49.000  
  24617370.733                       -4054.020          20.000  
  22941888.871                       -3222.994          29.000  
  24684911.020   129720104.5702       3132.530          35.000  
 23  7  2 19 41 13.0000000  0  9G 5G11G13G20G 7G30G 6G 9G14
  21472064.622   112836443.970        2103.345          48.000  
  22335163.193   117372068.749       -2838.237          47.000  
  22693983.884   119257711.459        2716.004          37.000  
  20264126.919   106488704.393         346.553          47.000  
  21101654.844   110889954.064       -1347.230          48.000  
  20671181.617   108627794.306         614.429          49.000  
  24618143.407                       -4058.299          20.000  
  22942511.621   120563661.5993      -3221.890          34.000  
  24684315.043   129716972.2422       3132.773          34.000  
 23  7  2 19 41 14.0000000  0  9G 5G11G13G20G 7G30G 6G 9G14
  21471664.676   112834341.168        2102.273          49.000  
  22335703.020   117374907.568       -2839.402          46.000  
  22693474.085   119254995.614        2715.763          39.000  
  20264061.934   106488358.507         345.227          47.000  
  21101911.668   110891302.063       -1348.344          48.000  
  20671064.103   108627180.574         613.025          47.000  
  24618921.866                       -4060.318          22.000  
  22943108.707   120566885.3572      -3223.790          27.000  
  24683717.853   129713840.1152       3132.356          33.000  
 23  7  2 19 41 15.0000000  0  9G 5G11G13G20G 7G30G 6G 9G14
  21471263.556   112832238.942        2102.258          47.000  
  22336243.457   117377747.024       -2839.552          46.000  
  22692955.783   119252280.151        2715.793          39.000  
  20263997.709   106488013.378         345.180          47.000  
  21102168.823   110892650.669       -1348.307          49.000  
  20670947.457   108626567.574         612.859          49.000  
  24619690.400                       -4056.248          23.000  
  22943715.272   120570109.0732      -3222.840          28.000  
  24683123.115   129710708.1672       3132.665          34.000  
 23  7  2 19 41 16.0000000  0  9G 5G11G13G20G 7G30G 6G 9G14
  21470863.362   112830137.443        2101.061          47.000  
  22336783.075   117380587.240       -2840.602          45.000  
  22692435.797   119249565.164        2714.698          37.000  
  20263932.454   106487669.175         343.842          46.000  
  21102425.123   110894000.074       -1349.735          48.000  
  20670832.155   108625955.433         611.688          49.000  
  24620465.931                       -4053.788          22.000  
  22944351.695   120573333.1512      -3223.622          27.000  
  24682528.363   129707576.5682       3131.229          35.000  
 23  7  2 19 41 17.0000000  0  9G 5G11G13G20G 7G30G 6G 9G14
  21470463.612   112828036.854        2100.361          48.000  
  22337323.774   117383428.426       -2841.476          45.000  
  22691920.976   119246850.870        2714.043          39.000  
  20263866.924   106487326.021         342.923          46.000  
  21102682.919   110895350.409       -1350.605          49.000  
  20670716.168   108625344.318         610.810          48.000  
  24621235.944                       -4054.600          22.000  
  22944958.426                       -3226.747          27.000  
  24681933.629   129704445.4012       3130.933          35.000  
 23  7  2 19 41 18.0000000  0  9G 5G11G13G20G 7G30G 6G 9G14
  21470063.684   112825936.915        2099.734          47.000  
  22337865.106   117386270.182       -2841.979          46.000  
  22691405.409   119244136.865        2714.428          37.000  
  20263801.734   106486983.650         342.228          45.000  
  21102939.887   110896701.410       -1351.140          47.000  
  20670600.133   108624733.947         610.349          47.000  
  24622005.804                       -4051.961          20.000  
  22945591.332   120579895.8813      -3224.857          33.000  
  24681338.053   129701314.3732       3131.395          34.000  
 23  7  2 19 41 19.0000000  0  9G 5G11G13G20G 7G30G 6G 9G14
  21469664.462   112823837.168        2099.969          48.000  
  22338406.948   117389112.248       -2842.034          46.000  
  22690889.742   119241422.944        2714.734          39.000  
  20263736.213   106486641.714         342.090          45.000  
  21103197.347   110898052.724       -1351.095          48.000  
  20670484.001   108624123.968         610.194          48.000  
  24622779.647                       -4045.271          21.000  
  22946210.169   120583120.9492      -3224.508          31.000  
  24680742.408   129698182.6541       3131.457          35.000  
 23  7  2 19 41 20.0000000  0  9G 5G11G13G20G 7G30G 6G 9G14
  21469264.015   112821737.786        2098.538          47.000  
  22338948.551   117391954.680       -2843.198          47.000  
  22690374.302   119238709.166        2712.895          39.000  
  20263670.796   106486300.340         340.307          45.000  
  21103454.411   110899404.421       -1352.681          48.000  
  20670368.319   108623514.460         608.625          48.000  
  24623551.662                       -4049.618          19.000  
  22946798.355   120586346.3962      -3225.450          30.000  
  24680147.617   129695051.436        3130.585          34.000  
 23  7  2 19 41 21.0000000  0  9G 5G11G13G20G 7G30G 6G 9G14
  21468863.851   112819639.303        2098.274          46.000  
  22339490.751   117394798.073       -2843.532          47.000  
  22689858.343   119235996.072        2712.713          39.000  
  20263605.515   106485960.030         340.054          45.000  
  21103712.037   110900757.040       -1352.671          48.000  
  20670251.940   108622906.006         608.134          48.000  
  24624318.682                       -4054.331          23.000  
  22947416.311   120589572.4092      -3226.310          31.000  
  24679551.740   129691920.625        3131.029          32.000  
 23  7  2 19 41 22.0000000  0  9G 5G11G13G20G 7G30G 6G 9G14
  21468464.664   112817541.628        2097.147          47.000  
  22340032.929   117397642.248       -2844.689          47.000  
  22689341.577   119233283.460        2712.467          36.000  
  20263540.757   106485620.671         338.827          45.000  
  21103969.620   110902110.507       -1353.939          48.000  
  20670136.437   108622298.446         607.005          48.000  
  24625087.848                       -4053.116          24.000  
  22948020.878   120592798.8012      -3227.010          31.000  
  24678956.928   129688790.241        3130.052          38.000  
 23  7  2 19 41 23.0000000  0  9G 5G11G13G20G 7G30G 6G 9G14
  21468065.813   112815444.458        2097.211          46.000  
  22340574.130   117400486.966       -2844.290          44.000  
  22688826.306   119230571.237        2712.767          39.000  
  20263476.702   106485282.006         338.782          44.000  
  21104227.394   110903464.537       -1353.833          46.000  
  20670020.986   108621691.519         607.112          46.000  
  24625860.810                       -4053.638          23.000  
  22948637.507   120596025.3842      -3226.102          32.000  
  24678361.570   129685659.913        3130.778          32.000  
 23  7  2 19 41 24.0000000  0  9G 5G11G13G20G 7G30G 6G 9G14
  21467666.779   112813347.390        2096.792          46.000  
  22341114.882   117403331.836       -2845.289          45.000  
  22688309.610   119227858.785        2713.549          33.000  
  20263412.202   106484943.626         337.883          44.000  
  21104485.226   110904818.690       -1354.516          47.000  
  20669905.479   108621084.854         606.263          47.000  
  24626630.905                       -4053.690          23.000  
  22949251.476   120599251.8792      -3227.186          32.000  
  24677766.125   129682529.296        3130.224          33.000  
 23  7  2 19 41 25.0000000  0  9G 5G11G13G20G 7G30G 6G 9G14
  21467267.984   112811251.546        2095.170          46.000  
  22341656.214   117406177.938       -2846.661          44.000  
  22687792.425   119225147.382        2710.649          33.000  
  20263348.447   106484606.648         336.249          44.000  
  21104743.079   110906174.125       -1355.979          47.000  
  20669789.718   108620479.548         604.654          46.000  
  24627404.796                       -4051.292          20.000  
  22949866.203   120602478.8121      -3227.249          33.000  
  24677170.283   129679399.359        3129.663          31.000  
 23  7  2 19 41 26.0000000  0  9G 5G11G13G20G 7G30G 6G 9G14
  21466868.335   112809156.372        2095.200          46.000  
  22342197.192   117409024.762       -2846.542          46.000  
  22687277.573   119222436.355        2710.695          32.000  
  20263284.287   106484270.526         336.020          46.000  
  21105001.281   110907530.289       -1356.123          49.000  
  20669674.521   108619875.037         604.500          48.000  
  24628180.175                       -4052.458          18.000  
  22950471.909   120605706.741       -3228.206          30.000  
  24676574.602   129676269.751        3129.223          35.000  
 23  7  2 19 41 27.0000000  0  9G 5G11G13G20G 7G30G 6G 9G14
  21466469.209   112807061.462        2095.061          47.000  
  22342738.503   117411871.873       -2846.814          45.000  
  22686754.425   119219725.541        2711.376          38.000  
  20263219.918   106483934.874         336.003          45.000  
  21105259.610   110908886.773       -1356.315          47.000  
  20669558.211   108619270.920         604.105          47.000  
  24628951.352                       -4058.816          20.000  
  22951087.666   120608934.404       -3226.932          29.000  
  24675979.030   129673139.992        3129.924          31.000  
 23  7  2 19 41 28.0000000  0  9G 5G11G13G20G 7G30G 6G 9G14
  21466070.982   112804965.810        2095.457          47.000  
  22343279.682   117414718.279       -2846.588          46.000  
  22686227.533   119217013.616        2712.125          34.000  
  20263155.692   106483598.643         335.955          45.000  
  21105517.428   110910242.561       -1356.019          48.000  
  20669442.324   108618666.208         604.342          47.000  
  24629724.825                       -4049.890          21.000  
  22951714.600                       -3226.722          33.000  
  24675380.422   129670008.953        3131.598          31.000  
 23  7  2 19 41 29.0000000  0  9G 5G11G13G20G 7G30G 6G 9G14
  21465672.228   112802871.254        2093.929          46.000  
  22343821.345   117417565.849       -2848.479          45.000  
  22685710.047   119214302.645        2710.718          34.000  
  20263091.733   106483263.735         333.934          45.000  
  21105776.254   110911599.478       -1357.710          49.000  
  20669327.977   108618062.728         602.628          48.000  
  24630496.643                       -4053.614          19.000  
  22952341.748   120615301.4343      -3228.425          32.000  
  24674773.177                        3131.860          24.000  
 23  7  2 19 41 30.0000000  0  9G 5G11G13G20G 7G30G 6G 9G14
  21465273.970   112800778.122        2092.622          46.000  
  22344363.576   117420414.784       -2849.394          45.000  
  22685209.413   119211592.825        2708.873          37.000  
  20263027.948   106482930.312         332.791          45.000  
  21106034.726   110912957.837       -1358.772          49.000  
  20669214.337   108617460.770         601.508          49.000  
  24631269.295                       -4055.410          20.000  
  22952943.968   120618530.2542      -3229.144          35.000  
  24674186.479   129663678.7633       3129.315          27.000  
 23  7  2 19 41 31.0000000  0  9G 5G11G13G20G 7G30G 6G 9G14
  21464874.613   112798684.804        2093.190          45.000  
  22344905.475   117423263.587       -2849.190          45.000  
  22684696.525   119208882.551        2710.076          39.000  
  20262963.945   106482596.921         333.072          45.000  
  21106292.985   110914316.073       -1358.580          49.000  
  20669099.972   108616858.742         601.790          48.000  
  24632046.428                       -4054.423          24.000  
  22953558.085   120621758.5662      -3228.137          35.000  
  24673586.230   129660548.7402       3129.720          28.000  
 23  7  2 19 41 32.0000000  0  9G 5G11G13G20G 7G30G 6G 9G14
  21464477.023   112796592.252        2091.890          47.000  
  22345447.588   117426113.224       -2850.278          45.000  
  22684184.439   119206172.838        2709.301          39.000  
  20262900.247   106482264.527         331.479          44.000  
  21106551.746   110915675.161       -1359.762          49.000  
  20668985.791   108616257.695         600.283          48.000  
  24632823.281                       -4057.375          24.000  
  22954167.861   120624987.4032      -3228.918          36.000  
  24672996.797   129657419.1142       3129.677          28.000  
 23  7  2 19 41 33.0000000  0  9G 5G11G13G20G 7G30G 6G 9G14
  21464079.812   112794500.947        2090.881          47.000  
  22345989.164   117428964.086       -2851.265          45.000  
  22683671.791   119203464.129        2708.351          40.000  
  20262837.479   106481933.504         330.508          45.000  
  21106810.249   110917035.474       -1360.758          48.000  
  20668872.199   108615657.963         599.260          49.000  
  24633596.033                       -4056.083          26.000  
  22954781.694   120628217.1332      -3230.469          33.000  
  24672387.418   129654290.4712       3128.054          26.000  
 23  7  2 19 41 34.0000000  0  8G 5G11G13G20G 7G30G 6G 9
  21463681.681   112792410.150        2090.562          46.000  
  22346531.434   117431815.448       -2851.406          44.000  
  22683153.263   119200755.709        2708.487          37.000  
  20262774.479   106481603.144         330.157          44.000  
  21107068.901   110918396.328       -1361.006          48.000  
  20668758.964   108615058.834         599.002          49.000  
  24634366.312   129454475.9293      -4054.509          27.000  
  22955396.710   120631447.1182      -3230.249          36.000  
 23  7  2 19 41 35.0000000  0  8G 5G11G13G20G 7G30G 6G 9
  21463283.908   112790319.780        2089.976          47.000  
  22347074.585   117434667.329       -2852.233          45.000  
  22682636.413   119198047.508        2707.431          37.000  
  20262712.147   106481273.422         329.296          45.000  
  21107327.862   110919757.695       -1361.895          48.000  
  20668645.001   108614460.323         598.049          49.000  
  24635134.881                       -4056.494          25.000  
  22956013.069   120634677.3412      -3230.927          36.000  
 23  7  2 19 41 36.0000000  0  8G 5G11G13G20G 7G30G 6G 9
  21462886.841   112788230.348        2089.243          47.000  
  22347616.632   117437520.139       -2853.108          44.000  
  22682119.629   119195339.979        2707.214          34.000  
  20262650.268   106480944.802         328.466          46.000  
  21107587.098   110921120.004       -1362.493          49.000  
  20668531.348   108613862.834         597.228          49.000  
  24635914.443                       -4055.676          26.000  
  22956625.340   120637908.1382      -3230.727          35.000  
 23  7  2 19 41 37.0000000  0  8G 5G11G13G20G 7G30G 6G 9
  21462490.006   112786141.442        2088.760          48.000  
  22348159.404   117440373.514       -2853.740          44.000  
  22681604.377   119192632.669        2706.818          39.000  
  20262589.009   106480616.885         327.622          46.000  
  21107845.850   110922482.911       -1363.187          48.000  
  20668417.765   108613266.013         596.526          49.000  
  24636686.074   129466619.3862      -4057.218          26.000  
  22957238.672   120641138.6781      -3231.073          35.000  
 23  7  2 19 41 38.0000000  0  8G 5G11G13G20G 7G30G 6G 9
  21462093.781   112784052.748        2088.986          48.000  
  22348702.228   117443227.121       -2853.328          44.000  
  22681091.210   119189925.411        2707.481          38.000  
  20262527.009   106480289.354         327.678          46.000  
  21108105.308   110923846.051       -1362.957          48.000  
  20668304.849   108612669.540         596.790          49.000  
  24637459.088                       -4060.179          23.000  
  22957853.779   120644369.684       -3230.980          36.000  
 23  7  2 19 41 39.0000000  0  8G 5G11G13G20G 7G30G 6G 9
  21461697.024   112781964.121        2087.822          48.000  
  22349245.693   117446080.792       -2854.655          44.000  
  22680575.926   119187217.998        2706.760          38.000  
  20262464.969   106479962.064         326.265          46.000  
  21108365.155   110925209.284       -1364.219          48.000  
  20668191.165   108612073.246         595.281          49.000  
  24638230.916                       -4054.621          21.000  
  22958468.245   120647600.452       -3231.660          35.000  
 23  7  2 19 41 40.0000000  0  8G 5G11G13G20G 7G30G 6G 9
  21461299.857   112779876.487        2087.158          49.000  
  22349789.036   117448935.493       -2855.085          44.000  
  22680061.202   119184511.431        2705.997          40.000  
  20262402.981   106479635.943         325.490          46.000  
  21108624.967   110926573.552       -1364.717          49.000  
  20668077.472   108611478.085         594.714          49.000  
  24639004.746                       -4053.209          18.000  
  22959082.387   120650831.870       -3231.829          35.000  
 23  7  2 19 41 41.0000000  0  8G 5G11G13G20G 7G30G 6G 9
  21460903.720   112777789.738        2086.392          49.000  
  22350332.453   117451791.132       -2855.912          44.000  
  22679546.372   119181805.405        2706.036          39.000  
  20262341.605   106479310.912         324.595          46.000  
  21108884.875   110927938.778       -1365.517          49.000  
  20667964.364   108610883.945         593.903          49.000  
  24639779.195                       -4056.248          18.000  
  22959697.058   120654064.057       -3232.305          35.000  
 23  7  2 19 41 42.0000000  0  8G 5G11G13G20G 7G30G 6G 9
  21460506.169   112775703.741        2085.750          48.000  
  22350875.879   117454647.547       -2856.738          44.000  
  22679031.539   119179099.941        2705.285          39.000  
  20262279.456   106478986.787         323.914          46.000  
  21109144.757   110929304.798       -1366.359          49.000  
  20667851.413   108610290.704         592.998          48.000  
  24640550.918                       -4062.218          17.000  
  22960312.187   120657296.605       -3232.173          37.000  
 23  7  2 19 41 43.0000000  0  8G 5G11G13G20G 7G30G 6G 9
  21460109.146   112773618.131        2085.283          48.000  
  22351419.100   117457504.359       -2857.254          44.000  
  22678516.779   119176394.626        2705.362          39.000  
  20262217.630   106478663.246         323.120          46.000  
  21109404.695   110930671.231       -1366.759          49.000  
  20667738.271   108609697.964         592.383          48.000  
  24641322.030                       -4054.848          20.000  
  22960926.753   120660529.348       -3232.737          35.000  
 23  7  2 19 41 44.0000000  0  8G 5G11G13G20G 7G30G 6G 9
  21459712.817   112771533.057        2085.215          49.000  
  22351963.137   117460361.726       -2857.328          44.000  
  22678002.229   119173689.640        2704.886          39.000  
  20262155.921   106478340.415         322.820          46.000  
  21109665.118   110932038.264       -1367.086          49.000  
  20667625.883   108609105.908         592.055          48.000  
  24642094.542                       -4053.335          20.000  
  22961542.022   120663762.381       -3233.255          35.000  
 23  7  2 19 41 45.0000000  0  8G 5G11G13G20G 7G30G 6G 9
  21459316.064   112769448.467        2084.312          48.000  
  22352506.973   117463219.612       -2858.244          44.000  
  22677487.452   119170984.879        2704.737          39.000  
  20262093.558   106478018.232         321.854          45.000  
  21109926.029   110933405.797       -1367.945          49.000  
  20667512.857   108608514.433         591.105          48.000  
  24642863.364                       -4054.561          22.000  
  22962156.815   120666995.549       -3232.932          34.000  
 23  7  2 19 41 46.0000000  0  9G 5G11G13G20G 7G30G 6G 9G14
  21458919.429   112767364.360        2083.734          48.000  
  22353049.662   117466077.996       -2858.679          43.000  
  22676972.408   119168280.368        2704.000          38.000  
  20262031.571   106477696.710         321.145          46.000  
  21110186.836   110934773.872       -1368.573          49.000  
  20667400.378   108607923.570         590.398          48.000  
  24643635.231                       -4062.695          20.000  
  22962771.826   120670228.896       -3233.608          35.000  
  24664632.532                        3129.395          29.000  
 23  7  2 19 41 47.0000000  0  9G 5G11G13G20G 7G30G 6G 9G14
  21458522.559   112765280.582        2083.982          48.000  
  22353593.315   117468936.737       -2858.516          43.000  
  22676457.867   119165575.987        2704.469          39.000  
  20261970.177   106477375.716         320.911          45.000  
  21110447.730   110936142.300       -1368.308          50.000  
  20667287.104   108607333.196         590.386          48.000  
  24644408.014                       -4062.695          18.000  
  22963387.601   120673462.321       -3233.211          38.000  
  24664059.842   129610509.2663       3128.448          31.000  
 23  7  2 19 41 48.0000000  0  9G 5G11G13G20G 7G30G 6G 9G14
  21458124.489   112763197.017        2082.860          47.000  
  22354136.963   117471795.704       -2859.832          43.000  
  22675943.967   119162871.617        2703.956          41.000  
  20261908.804   106477055.115         319.754          45.000  
  21110707.838   110937510.998       -1369.461          49.000  
  20667175.178   108606743.141         589.315          48.000  
  24645171.120                       -4051.885          18.000  
  22964003.388   120676695.696       -3233.650          34.000  
  24663472.725   129607381.8422       3126.646          33.000  
 23  7  2 19 41 49.0000000  0  9G 5G11G13G20G 7G30G 6G 9G14
  21457727.183   112761114.480        2082.073          44.000  
  22354681.654   117474655.742       -2860.509          42.000  
  22675429.565   119160168.007        2703.290          39.000  
  20261847.659   106476735.735         318.796          43.000  
  21110968.584   110938880.777       -1370.198          47.000  
  20667063.645   108606154.290         588.316          47.000  
  24645938.433                       -4062.690          21.000  
  22964618.535   120679929.835       -3235.082          33.000  
  24662876.953   129604254.8992       3126.481          29.000  
 23  7  2 19 41 50.0000000  0  9G 5G11G13G20G 7G30G 6G 9G14
  21457330.373   112759032.831        2081.345          45.000  
  22355225.887   117477516.685       -2861.158          42.000  
  22674916.149   119157465.095        2702.596          39.000  
  20261787.281   106476417.384         318.129          43.000  
  21111229.696   110940251.472       -1371.028          47.000  
  20666952.060   108605566.417         587.406          47.000  
  24646704.423                       -4059.719          25.000  
  22965234.034   120683164.596       -3234.793          33.000  
  24662279.401   129601128.4122       3126.659          30.000  
 23  7  2 19 41 51.0000000  0  9G 5G11G13G20G 7G30G 6G 9G14
  21456934.227   112756951.896        2081.071          45.000  
  22355770.631   117480378.376       -2861.368          42.000  
  22674402.659   119154762.612        2702.479          39.000  
  20261727.287   106476099.942         317.369          43.000  
  21111490.860   110941622.923       -1371.498          48.000  
  20666840.575   108604979.406         586.826          47.000  
  24647465.924                       -4057.937          26.000  
  22965849.961   120686399.759       -3234.406          34.000  
  24661679.999   129598002.3092       3126.520          29.000  
 23  7  2 19 41 52.0000000  0  9G 5G11G13G20G 7G30G 6G 9G14
  21456538.046   112754870.830        2080.614          45.000  
  22356315.610   117483239.944       -2862.439          42.000  
  22673889.112   119152059.795        2702.059          39.000  
  20261667.271   106475782.546         316.732          43.000  
  21111751.662   110942994.303       -1372.051          47.000  
  20666729.522   108604392.405         586.165          48.000  
  24648232.303   129527334.9203      -4057.081          27.000  
  22966465.937   120689634.588       -3235.436          34.000  
  24661087.180   129594875.5362       3126.671          29.000  
 23  7  2 19 41 53.0000000  0  9G 5G11G13G20G 7G30G 6G 9G14
  21456142.053   112752790.437        2080.063          45.000  
  22356860.724   117486102.221       -2862.928          43.000  
  22673375.160   119149357.410        2701.697          37.000  
  20261607.334   106475466.019         315.937          43.000  
  21112012.395   110944366.389       -1372.754          47.000  
  20666618.255   108603806.201         585.519          47.000  
  24649002.830   129531392.5302      -4057.344          27.000  
  22967081.314   120692869.683       -3235.123          33.000  
  24660496.600   129591748.9932       3126.803          30.000  
 23  7  2 19 41 54.0000000  0  9G 5G11G13G20G 7G30G 6G 9G14
  21455747.072   112750710.916        2079.030          47.000  
  22357406.034   117488965.349       -2863.617          43.000  
  22672860.993   119146655.606        2701.505          38.000  
  20261547.057   106475150.478         314.838          44.000  
  21112273.594   110945739.345       -1373.480          48.000  
  20666507.153   108603220.955         584.746          49.000  
  24649773.868   129535450.5012      -4058.056          28.000  
  22967697.054   120696105.430       -3236.513          33.000  
  24659905.033   129588622.9202       3126.067          30.000  
 23  7  2 19 41 55.0000000  0  9G 5G11G13G20G 7G30G 6G 9G14
  21455351.113   112748631.671        2079.473          45.000  
  22357950.625   117491828.843       -2863.641          42.000  
  22672345.898   119143953.900        2702.143          37.000  
  20261487.530   106474835.424         315.098          44.000  
  21112534.776   110947112.638       -1373.006          48.000  
  20666396.222   108602636.139         585.003          48.000  
  24650536.691   129539508.3762      -4057.199          28.000  
  22968312.645   120699341.132       -3234.862          33.000  
  24659302.878   129585496.7662       3125.848          29.000  
 23  7  2 19 41 56.0000000  0  9G 5G11G13G20G 7G30G 6G 9G14
  21454954.993   112746552.323        2079.030          45.000  
  22358496.032   117494692.217       -2863.831          43.000  
  22671831.286   119141251.878        2701.815          37.000  
  20261428.020   106474520.454         314.505          45.000  
  21112795.962   110948485.883       -1373.662          48.000  
  20666285.008   108602051.369         584.256          48.000  
  24651303.986   129543565.6982      -4058.422          30.000  
  22968928.097   120702576.527       -3235.624          35.000  
  24658707.991   129582369.9362       3125.860          29.000  
 23  7  2 19 41 57.0000000  0  9G 5G11G13G20G 7G30G 6G 9G14
  21454559.837   112744473.793        2078.086          47.000  
  22359041.530   117497556.415       -2864.564          43.000  
  22671316.941   119138550.441        2701.381          38.000  
  20261368.236   106474206.467         313.597          44.000  
  21113057.226   110949859.975       -1374.457          48.000  
  20666173.915   108601467.521         583.694          47.000  
  24652080.220   129547623.2522      -4057.900          29.000  
  22969543.880   120705812.483       -3236.183          35.000  
  24658115.914   129579243.5712       3126.241          30.000  
 23  7  2 19 41 58.0000000  0  9G 5G11G13G20G 7G30G 6G 9G14
  21454165.279   112742396.012        2077.402          46.000  
  22359587.181   117500421.431       -2865.105          43.000  
  22670802.086   119135849.549        2700.016          36.000  
  20261308.748   106473893.415         312.586          44.000  
  21113318.857   110951234.853       -1375.157          47.000  
  20666062.910   108600884.567         582.616          47.000  
  24652851.044   129551681.1812      -4057.875          28.000  
  22970159.546   120709048.881       -3236.957          34.000  
  24657513.987   129576117.4392       3126.621          29.000  
 23  7  2 19 41 59.0000000  0  9G 5G11G13G20G 7G30G 6G 9G14
  21453770.455   112740318.669        2077.480          46.000  
  22360132.788   117503286.860       -2865.378          43.000  
  22670287.780   119133148.769        2700.655          36.000  
  20261249.164   106473580.941         312.436          44.000  
  21113580.310   110952610.201       -1375.204          47.000  
  20665951.573   108600302.147         582.645          46.000  
  24653616.773   129555739.1022      -4057.738          28.000  
  22970775.674   120712285.409       -3236.210          35.000  
  24656931.079   129572991.4602       3125.756          29.000  
 23  7  2 19 42  0.0000000  0  9G 5G11G13G20G 7G30G 6G 9G14
  21453374.540   112738240.798        2078.057          45.000  
  22360678.487   117506151.831       -2864.723          44.000  
  22669773.653   119130447.358        2701.802          37.000  
  20261189.777   106473268.132         312.883          44.000  
  21113842.037   110953985.103       -1374.750          47.000  
  20665840.442   108599719.396         582.896          46.000  
  24654370.195   129559796.0172      -4056.638          27.000  
  22971391.636   120715521.157       -3235.067          35.000  
  24656331.425   129569864.4482       3128.024          30.000  
 23  7  2 19 42  1.0000000  0  9G 5G11G13G20G 7G30G 6G 9G14
  21452979.476   112736163.495        2076.815          47.000  
  22361223.728   117509017.383       -2865.843          43.000  
  22669259.451   119127746.162        2700.356          37.000  
  20261130.647   106472956.044         311.549          44.000  
  21114103.550   110955360.573       -1375.812          47.000  
  20665729.742   108599137.295         581.670          47.000  
  24655134.841   129563853.009       -4056.878          27.000  
  22972007.847   120718757.182       -3236.117          35.000  
  24655740.237   129566737.6592       3126.069          31.000  
 23  7  2 19 42  2.0000000  0  8G 5G11G13G20G 7G30G 6G 9
  21452584.983   112734087.446        2075.183          46.000  
  22361768.890   117511884.157       -2867.510          43.000  
  22668745.844   119125046.072        2699.635          37.000  
  20261071.648   106472645.370         309.845          44.000  
  21114365.321   110956737.337       -1377.444          47.000  
  20665619.360   108598556.571         580.102          47.000  
  24655911.913   129567910.891       -4058.670          27.000  
  22972624.293   120721994.208       -3237.708          36.000  
 23  7  2 19 42  3.0000000  0  8G 5G11G13G20G 7G30G 6G 9
  21452189.884   112732011.589        2076.179          46.000  
  22362314.301   117514751.190       -2866.682          43.000  
  22668232.449   119122345.927        2700.566          38.000  
  20261012.771   106472335.115         310.812          44.000  
  21114626.882   110958114.381       -1376.644          47.000  
  20665508.460   108597976.224         580.737          46.000  
  24656686.803   129571968.447       -4057.343          28.000  
  22973241.062   120725231.152       -3236.324          36.000  
 23  7  2 19 42  4.0000000  0  9G 5G11G13G20G 7G30G 6G 9G14
  21451794.536   112729936.000        2074.900          46.000  
  22362860.218   117517618.529       -2868.265          43.000  
  22667718.366   119119645.808        2699.565          36.000  
  20260953.736   106472025.292         309.104          44.000  
  21114889.102   110959491.707       -1378.063          47.000  
  20665398.044   108597396.247         579.338          46.000  
  24657462.796   129576025.864       -4057.816          28.000  
  22973857.373   120728468.058       -3237.588          37.000  
  24653968.525   129557478.2923       3126.563          27.000  
 23  7  2 19 42  5.0000000  0  9G 5G11G13G20G 7G30G 6G 9G14
  21451400.606   112727861.588        2074.148          47.000  
  22363406.314   117520487.017       -2868.629          43.000  
  22667204.880   119116946.649        2698.985          38.000  
  20260895.182   106471716.807         308.063          44.000  
  21115151.130   110960870.235       -1378.992          47.000  
  20665287.606   108596817.555         578.241          46.000  
  24658237.442   129580083.896       -4058.563          29.000  
  22974474.029   120731705.916       -3238.152          37.000  
  24653382.726   129554352.6062       3125.975          27.000  
 23  7  2 19 42  6.0000000  0  9G 5G11G13G20G 7G30G 6G 9G14
  21451006.467   112725787.795        2074.238          47.000  
  22363952.571   117523356.148       -2868.889          43.000  
  22666691.543   119114247.901        2699.104          36.000  
  20260836.816   106471409.117         307.836          43.000  
  21115413.459   110962249.426       -1378.906          46.000  
  20665177.595   108596239.600         578.061          46.000  
  24659018.043   129584142.117       -4057.283          30.000  
  22975090.275   120734943.992       -3237.739          37.000  
  24652793.820   129551227.1312       3126.052          27.000  
 23  7  2 19 42  7.0000000  0  9G 5G11G13G20G 7G30G 6G 9G14
  21450612.149   112723714.204        2073.221          47.000  
  22364498.418   117526225.524       -2869.647          42.000  
  22666176.940   119111549.047        2698.919          33.000  
  20260777.747   106471101.816         306.643          43.000  
  21115675.767   110963628.836       -1379.519          46.000  
  20665067.179   108595661.973         577.070          46.000  
  24659790.873   129588200.099       -4057.804          31.000  
  22975706.769   120738182.046       -3237.973          36.000  
  24652195.780   129548101.3012       3126.440          28.000  
 23  7  2 19 42  8.0000000  0  9G 5G11G13G20G 7G30G 6G 9G14
  21450216.971   112721641.085        2072.710          46.000  
  22365044.239   117529095.372       -2870.083          43.000  
  22665662.975   119108850.446        2698.323          36.000  
  20260719.035   106470795.124         306.302          43.000  
  21115938.737   110965008.757       -1380.120          46.000  
  20664957.107   108595084.949         576.791          46.000  
  24660555.586   129592258.087       -4058.315          29.000  
  22976323.115   120741420.289       -3238.305          37.000  
  24651587.810   129544975.6312       3125.564          28.000  
 23  7  2 19 42  9.0000000  0  9G 5G11G13G20G 7G30G 6G 9G14
  21449822.068   112719568.618        2071.993          45.000  
  22365590.579   117531965.884       -2870.831          42.000  
  22665149.546   119106152.302        2698.309          36.000  
  20260660.778   106470489.295         305.335          43.000  
  21116201.489   110966389.383       -1381.174          46.000  
  20664847.171   108594508.706         575.810          45.000  
  24661328.486   129596316.320       -4058.177          29.000  
  22976939.841   120744658.920       -3239.043          36.000  
  24650993.787   129541850.1722       3125.126          27.000  
 23  7  2 19 42 10.0000000  0  9G 5G11G13G20G 7G30G 6G 9G14
  21449426.960   112717496.559        2072.321          45.000  
  22366136.823   117534836.854       -2870.836          42.000  
  22664636.671   119103454.335        2697.614          38.000  
  20260602.751   106470184.038         305.321          43.000  
  21116464.630   110967770.453       -1380.938          46.000  
  20664738.103   108593932.998         575.762          46.000  
  24662104.039   129600374.447       -4057.826          29.000  
  22977556.649   120747897.680       -3239.030          35.000  
  24650400.811                        3125.000          26.000  
 23  7  2 19 42 11.0000000  0  9G 5G11G13G20G 7G30G 6G 9G14
  21449032.529   112715424.427        2071.691          45.000  
  22366683.565   117537707.714       -2871.102          43.000  
  22664123.224   119100756.047        2698.426          37.000  
  20260544.834   106469878.854         304.779          43.000  
  21116726.985   110969151.462       -1381.327          46.000  
  20664629.218   108593357.344         575.255          46.000  
  24662874.266   129604431.998       -4057.462          29.000  
  22978172.852   120751136.080       -3238.105          34.000  
  24649806.029   129535604.4813       3125.942          29.000  
 23  7  2 19 42 12.0000000  0  9G 5G11G13G20G 7G30G 6G 9G14
  21448637.735   112713353.240        2070.563          45.000  
  22367230.616   117540579.566       -2872.331          42.000  
  22663609.080   119098058.446        2697.312          34.000  
  20260487.440   106469574.806         303.381          43.000  
  21116989.921   110970533.465       -1382.847          46.000  
  20664520.468   108592782.753         573.942          46.000  
  24663640.531   129608490.069       -4058.470          29.000  
  22978789.494   120754375.101       -3239.651          33.000  
  24649212.861   129532478.9812       3124.562          31.000  
 23  7  2 19 42 13.0000000  0  9G 5G11G13G20G 7G30G 6G 9G14
  21448242.605   112711282.711        2070.892          44.000  
  22367777.331   117543452.092       -2872.091          42.000  
  22663095.982   119095361.359        2697.458          38.000  
  20260429.863   106469271.638         303.216          44.000  
  21117252.996   110971916.186       -1382.617          46.000  
  20664411.439   108592208.975         573.996          46.000  
  24664420.408   129612548.376       -4057.987          30.000  
  22979406.229   120757614.606       -3239.367          34.000  
  24648618.917   129529353.7272       3125.041          30.000  
 23  7  2 19 42 14.0000000  0  9G 5G11G13G20G 7G30G 6G 9G14
  21447848.723   112709211.867        2070.408          45.000  
  22368323.733   117546324.351       -2872.225          41.000  
  22662582.414   119092663.712        2696.938          37.000  
  20260372.073   106468968.320         302.915          43.000  
  21117516.041   110973298.596       -1382.731          46.000  
  20664302.244   108591635.001         573.564          46.000  
  24665195.961   129616605.923       -4058.120          30.000  
  22980022.688   120760853.453       -3238.999          34.000  
  24648027.180   129526227.6822       3126.322          31.000  
 23  7  2 19 42 15.0000000  0  9G 5G11G13G20G 7G30G 6G 9G14
  21447454.615   112707142.111        2069.155          44.000  
  22368870.151   117549197.688       -2873.887          41.000  
  22662068.828   119089966.850        2696.919          37.000  
  20260314.526   106468666.228         301.593          44.000  
  21117779.168   110974682.139       -1384.146          46.000  
  20664193.839   108591062.230         572.093          47.000  
  24665962.745   129620664.081       -4058.859          30.000  
  22980639.108   120764093.137       -3239.870          34.000  
  24647427.813   129523102.2852       3124.794          31.000  
 23  7  2 19 42 16.0000000  0  9G 5G11G13G20G 7G30G 6G 9G14
  21447061.261   112705073.518        2068.456          45.000  
  22369416.566   117552072.227       -2874.693          41.000  
  22661555.215   119087270.950        2695.489          35.000  
  20260257.119   106468365.483         300.358          43.000  
  21118042.802   110976066.900       -1385.044          46.000  
  20664085.678   108590490.739         571.235          47.000  
  24666731.536   129624722.851       -4058.949          29.000  
  22981255.843   120767333.692       -3240.412          35.000  
  24646816.218   129519977.6432       3124.454          29.000  
 23  7  2 19 42 17.0000000  0  9G 5G11G13G20G 7G30G 6G 9G14
  21446668.583   112703004.668        2069.200          45.000  
  22369963.499   117554946.530       -2873.901          41.000  
  22661041.010   119084574.585        2696.844          36.000  
  20260199.678   106468064.690         300.888          43.000  
  21118306.016   110977451.443       -1384.188          45.000  
  20663977.116   108589919.143         571.900          46.000  
  24667513.171   129628781.034       -4057.569          30.000  
  22981872.215   120770573.742       -3240.073          35.000  
  24646242.908   129516852.3822       3125.259          28.000  
 23  7  2 19 42 18.0000000  0  9G 5G11G13G20G 7G30G 6G 9G14
  21446275.534   112700936.116        2068.212          45.000  
  22370510.245   117557821.156       -2875.467          41.000  
  22660526.952   119081878.373        2695.799          36.000  
  20260142.109   106467764.357         299.644          43.000  
  21118569.563   110978836.317       -1385.471          46.000  
  20663868.253   108589347.964         570.503          46.000  
  24668275.837   129632838.987       -4058.554          30.000  
  22982488.997   120773813.790       -3240.427          35.000  
  24645641.779   129513726.9392       3124.199          30.000  
 23  7  2 19 42 19.0000000  0  9G 5G11G13G20G 7G30G 6G 9G14
  21445882.285   112698869.040        2066.685          45.000  
  22371056.760   117560697.239       -2876.335          41.000  
  22660014.043   119079183.322        2694.935          36.000  
  20260085.645   106467465.675         298.130          43.000  
  21118833.597   110980222.703       -1386.670          46.000  
  20663759.202   108588778.396         569.054          46.000  
  24669059.330   129636897.957       -4059.406          31.000  
  22983105.400   120777055.038       -3242.698          32.000  
  24645040.959   129510601.9661       3123.967          29.000  
 23  7  2 19 42 20.0000000  0  9G 5G11G13G20G 7G30G 6G 9G14
  21445489.301   112696802.064        2067.096          45.000  
  22371603.178   117563573.438       -2876.014          41.000  
  22659501.591   119076488.163        2695.352          36.000  
  20260028.181   106467167.277         298.299          43.000  
  21119097.458   110981609.238       -1386.560          46.000  
  20663650.374   108588209.072         569.124          45.000  
  24669833.832   129640956.587       -4058.984          31.000  
  22983721.934   120780296.073       -3240.744          33.000  
  24644443.429   129507477.181        3125.624          28.000  
 23  7  2 19 42 21.0000000  0  9G 5G11G13G20G 7G30G 6G 9G14
  21445096.240   112694735.621        2066.096          45.000  
  22372150.448   117566450.201       -2876.989          41.000  
  22658988.855   119073793.192        2694.684          37.000  
  20259972.009   106466869.551         297.205          44.000  
  21119361.493   110982996.319       -1387.542          46.000  
  20663542.152   108587640.373         568.180          45.000  
  24670603.587   129645015.252       -4058.491          32.000  
  22984338.515   120783537.418       -3241.797          32.000  
  24643860.173   129504352.545        3124.679          28.000  
 23  7  2 19 42 22.0000000  0  9G 5G11G13G20G 7G30G 6G 9G14
  21444703.230   112692669.491        2065.839          45.000  
  22372697.966   117569327.317       -2877.522          41.000  
  22658476.233   119071098.337        2695.107          37.000  
  20259916.055   106466572.344         296.613          44.000  
  21119625.741   110984383.746       -1387.786          46.000  
  20663434.462   108587072.132         567.629          46.000  
  24671373.678   129649073.789       -4057.613          31.000  
  22984953.199   120786778.689       -3241.335          31.000  
  24643271.132   129501227.764        3125.138          28.000  
 23  7  2 19 42 23.0000000  0  9G 5G11G13G20G 7G30G 6G 9G14
  21444310.103   112690603.979        2066.029          45.000  
  22373245.737   117572205.059       -2876.843          41.000  
  22657963.467   119068403.954        2694.833          38.000  
  20259859.656   106466275.942         296.771          44.000  
  21119889.881   110985771.884       -1387.893          46.000  
  20663326.201   108586504.663         567.750          46.000  
  24672148.498   129653132.500       -4058.318          31.000  
  22985567.368   120790020.469       -3241.781          31.000  
  24642662.067   129498103.228        3125.346          27.000  
 23  7  2 19 42 24.0000000  0  9G 5G11G13G20G 7G30G 6G 9G14
  21443917.172   112688538.362        2064.581          45.000  
  22373793.543   117575082.669       -2878.265          42.000  
  22657450.872   119065709.152        2694.094          38.000  
  20259803.357   106465979.579         295.265          44.000  
  21120154.077   110987159.876       -1388.823          46.000  
  20663217.355   108585937.143         566.369          45.000  
  24672921.770   129657190.647       -4059.296          32.000  
  22986182.820   120793261.704       -3241.989          30.000  
  24642062.700   129494978.097        3124.724          27.000  
 23  7  2 19 42 25.0000000  0  9G 5G11G13G20G 7G30G 6G 9G14
  21443525.249   112686474.179        2063.934          45.000  
  22374341.349   117577961.782       -2879.646          41.000  
  22656939.127   119063015.573        2693.057          39.000  
  20259746.805   106465684.869         293.888          43.000  
  21120418.435   110988549.361       -1389.923          46.000  
  20663109.552   108585371.224         565.411          46.000  
  24673701.672   129661249.707       -4059.796          32.000  
  22986797.757   120796504.132       -3242.860          30.000  
  24641459.232                        3123.229          26.000  
 23  7  2 19 42 26.0000000  0  9G 5G11G13G20G 7G30G 6G 9G14
  21443133.151   112684410.612        2063.521          45.000  
  22374889.499   117580841.500       -2879.767          41.000  
  22656427.242   119060322.374        2693.248          39.000  
  20259690.280   106465390.910         293.684          43.000  
  21120682.714   110989939.504       -1390.328          46.000  
  20663002.098   108584806.049         564.902          46.000  
  24674467.619   129665308.944       -4059.335          32.000  
  22987423.360   120799746.876       -3242.479          32.000  
  24640862.535                        3125.264          25.000  
 23  7  2 19 42 27.0000000  0  9G 5G11G13G20G 7G30G 6G 9G14
  21442740.242   112682347.157        2063.279          45.000  
  22375438.282   117583721.348       -2880.280          43.000  
  22655915.414   119057629.063        2693.554          39.000  
  20259634.461   106465097.262         293.209          43.000  
  21120947.142   110991329.800       -1390.861          45.000  
  20662894.243   108584241.109         564.620          46.000  
  24675238.888   129669367.874       -4059.517          33.000  
  22988045.447   120802989.515       -3242.157          32.000  
  24640277.211   129485530.3683       3123.830          26.000  
 23  7  2 19 42 28.0000000  0  9G 5G11G13G20G 7G30G 6G 9G14
  21442347.695   112680284.550        2062.373          45.000  
  22375987.515   117586602.055       -2881.225          43.000  
  22655403.337   119054936.354        2692.664          38.000  
  20259578.816   106464804.597         292.224          43.000  
  21121211.818   110992720.954       -1391.462          46.000  
  20662786.418   108583677.127         563.552          45.000  
  24676010.314   129673427.144       -4059.000          33.000  
  22988652.641   120806232.621       -3244.022          31.000  
  24639681.408   129482406.4892       3124.087          27.000  
 23  7  2 19 42 29.0000000  0  9G 5G11G13G20G 7G30G 6G 9G14
  21441955.449   112678222.435        2061.945          45.000  
  22376536.390   117589483.214       -2881.280          43.000  
  22654891.230   119052243.904        2692.416          38.000  
  20259523.320   106464512.610         291.678          44.000  
  21121476.516   110994112.617       -1391.786          46.000  
  20662679.322   108583113.751         563.075          45.000  
  24676781.557   129677486.415       -4059.421          32.000  
  22989275.073   120809475.951       -3241.886          31.000  
  24639088.092   129479282.6752       3123.271          28.000  
 23  7  2 19 42 30.0000000  0  9G 5G11G13G20G 7G30G 6G 9G14
  21441563.037   112676160.810        2060.979          45.000  
  22377085.352   117592364.961       -2882.243          43.000  
  22654379.210   119049551.731        2691.464          39.000  
  20259468.322   106464221.313         290.585          44.000  
  21121741.284   110995504.846       -1392.855          46.000  
  20662572.648   108582551.014         562.116          46.000  
  24677554.109   129681545.751       -4059.713          33.000  
  22989894.425   120812719.582       -3244.078          32.000  
  24638492.394   129476158.9792       3123.794          29.000  
 23  7  2 19 42 31.0000000  0  9G 5G11G13G20G 7G30G 6G 9G14
  21441171.345   112674099.055        2061.742          46.000  
  22377634.183   117595246.575       -2881.791          43.000  
  22653866.671   119046859.187        2692.466          38.000  
  20259413.122   106463930.045         291.364          44.000  
  21122006.352   110996896.971       -1392.110          46.000  
  20662466.350   108581988.278         562.788          46.000  
  24678327.040   129685604.520       -4058.514          34.000  
  22990511.320   120815962.709       -3242.334          32.000  
  24637898.943   129473034.6902       3124.385          29.000  
 23  7  2 19 42 32.0000000  0  9G 5G11G13G20G 7G30G 6G 9G14
  21440779.043   112672037.836        2060.503          46.000  
  22378182.761   117598128.714       -2882.861          43.000  
  22653353.705   119044166.961        2691.735          37.000  
  20259357.731   106463639.481         289.555          44.000  
  21122271.186   110998289.661       -1393.363          46.000  
  20662359.669   108581426.212         561.256          46.000  
  24679099.574   129689663.340       -4059.216          34.000  
  22991127.527   120819206.129       -3243.355          32.000  
  24637307.537   129469910.5492       3123.070          30.000  
 23  7  2 19 42 33.0000000  0  9G 5G11G13G20G 7G30G 6G 9G14
  21440386.583   112669977.515        2060.129          45.000  
  22378731.823   117601011.775       -2883.341          43.000  
  22652842.117   119041475.396        2691.400          38.000  
  20259302.182   106463349.983         289.204          43.000  
  21122536.438   110999683.284       -1393.761          46.000  
  20662253.248   108580865.134         560.930          46.000  
  24679872.414   129693722.535       -4059.276          33.000  
  22991749.226   120822450.148       -3244.013          33.000  
  24636711.770   129466786.7762       3124.965          30.000  
 23  7  2 19 42 34.0000000  0  9G 5G11G13G20G 7G30G 6G 9G14
  21439994.140   112667917.531        2059.647          44.000  
  22379280.288   117603895.226       -2883.659          43.000  
  22652330.310   119038783.917        2692.019          38.000  
  20259246.822   106463061.040         288.581          43.000  
  21122802.008   111001077.301       -1394.228          46.000  
  20662146.619   108580304.570         560.251          46.000  
  24680645.232   129697781.689       -4058.685          33.000  
  22992363.626   120825694.293       -3244.035          33.000  
  24636111.495   129463663.0872       3122.317          29.000  
 23  7  2 19 42 35.0000000  0  9G 5G11G13G20G 7G30G 6G 9G14
  21439601.720   112665857.590        2059.867          45.000  
  22379829.058   117606778.730       -2883.806          43.000  
  22651817.728   119036092.295        2691.659          37.000  
  20259192.342   106462772.301         288.569          44.000  
  21123067.600   111002471.391       -1394.187          46.000  
  20662039.985   108579744.152         560.402          46.000  
  24681418.006   129701840.396       -4058.456          32.000  
  22992980.744   120828938.153       -3243.620          31.000  
  24635522.782   129460538.8522       3123.833          31.000  
 23  7  2 19 42 36.0000000  0  9G 5G11G13G20G 7G30G 6G 9G14
  21439209.404   112663798.473        2058.635          44.000  
  22380377.545   117609663.032       -2884.760          43.000  
  22651305.782   119033401.226        2690.797          37.000  
  20259138.063   106462484.553         287.333          44.000  
  21123333.044   111003866.317       -1395.273          46.000  
  20661933.787   108579184.698         558.816          46.000  
  24682190.627   129705899.460       -4059.211          31.000  
  22993597.278   120832182.561       -3245.036          32.000  
  24634928.274   129457415.0202       3124.233          31.000  
 23  7  2 19 42 37.0000000  0  9G 5G11G13G20G 7G30G 6G 9G14
  21438817.403   112661740.065        2058.025          45.000  
  22380925.861   117612548.103       -2885.774          43.000  
  22650794.168   119030710.667        2690.214          38.000  
  20259083.749   106462197.708         286.217          44.000  
  21123598.920   111005262.033       -1396.107          46.000  
  20661827.716   108578626.091         558.067          46.000  
  24682962.686   129709958.822       -4059.920          31.000  
  22994212.987   120835427.394       -3245.629          32.000  
  24634333.593   129454291.0421       3123.487          30.000  
 23  7  2 19 42 38.0000000  0  9G 5G11G13G20G 7G30G 6G 9G14
  21438425.567   112659682.360        2057.137          45.000  
  22381474.378   117615433.872       -2886.286          42.000  
  22650282.148   119028020.601        2689.762          37.000  
  20259029.601   106461911.713         285.593          44.000  
  21123864.238   111006658.451       -1396.960          46.000  
  20661721.806   108578068.308         557.163          46.000  
  24683733.065   129714018.368       -4059.690          31.000  
  22994830.096   120838672.630       -3245.931          31.000  
  24633746.114   129451167.889        3122.193          30.000  
 23  7  2 19 42 39.0000000  0  9G 5G11G13G20G 7G30G 6G 9G14
  21438033.273   112657624.761        2057.649          44.000  
  22382023.598   117618319.773       -2886.104          42.000  
  22649770.206   119025330.335        2690.120          39.000  
  20258975.680   106461626.028         285.721          44.000  
  21124130.314   111008055.022       -1396.571          46.000  
  20661615.648   108577510.729         557.400          46.000  
  24684509.779   129718077.617       -4059.399          31.000  
  22995447.237   120841917.701       -3245.523          31.000  
  24633151.458   129448044.287        3124.312          32.000  
 23  7  2 19 42 40.0000000  0  9G 5G11G13G20G 7G30G 6G 9G14
  21437641.951   112655567.557        2056.344          44.000  
  22382572.019   117621206.066       -2887.324          42.000  
  22649258.697   119022640.263        2689.461          39.000  
  20258921.336   106461340.906         284.232          44.000  
  21124396.107   111009452.020       -1397.889          46.000  
  20661509.616   108576953.680         556.217          46.000  
  24685288.093   129722136.690       -4058.185          31.000  
  22996056.790   120845162.897       -3245.997          31.000  
  24632561.680   129444920.704        3122.584          30.000  
 23  7  2 19 42 41.0000000  0  9G 5G11G13G20G 7G30G 6G 9G14
  21437251.141   112653511.247        2055.508          44.000  
  22383121.037   117624093.260       -2888.042          42.000  
  22648747.296   119019950.844        2688.929          38.000  
  20258867.860   106461056.857         283.240          44.000  
  21124662.241   111010849.940       -1398.511          46.000  
  20661403.349   108576397.653         555.271          46.000  
  24686059.367   129726196.237       -4058.351          30.000  
  22996676.085   120848408.607       -3246.148          31.000  
  24631962.915   129441797.521        3122.106          28.000  
 23  7  2 19 42 42.0000000  0  9G 5G11G13G20G 7G30G 6G 9G14
  21436859.453   112651455.527        2055.375          43.000  
  22383669.930   117626981.040       -2888.171          41.000  
  22648236.201   119017261.730        2688.810          40.000  
  20258814.034   106460773.524         282.709          45.000  
  21124928.675   111012248.455       -1398.896          46.000  
  20661298.071   108575842.312         554.737          46.000  
  24686828.760   129730256.005       -4060.883          28.000  
  22997288.457   120851654.690       -3246.372          32.000  
  24631355.587   129438674.544        3123.276          26.000  
 23  7  2 19 42 43.0000000  0  9G 5G11G13G20G 7G30G 6G 9G14
  21436468.088   112649399.736        2055.964          44.000  
  22384219.424   117629868.784       -2887.621          41.000  
  22647724.020   119014572.405        2689.642          39.000  
  20258760.013   106460490.341         283.141          44.000  
  21125194.546   111013646.971       -1398.314          46.000  
  20661192.301   108575287.065         555.354          46.000  
  24687595.291                       -4059.278          26.000  
  22997912.302   120854900.486       -3245.360          31.000  
  24630751.111                        3123.092          25.000  
 23  7  2 19 42 44.0000000  0  9G 5G11G13G20G 7G30G 6G 9G14
  21436077.195   112647344.509        2054.467          45.000  
  22384769.516   117632757.082       -2888.929          43.000  
  22647213.374   119011883.333        2688.460          41.000  
  20258705.852   106460207.840         282.001          44.000  
  21125461.142   111015046.043       -1399.612          46.000  
  20661086.963   108574732.475         553.855          47.000  
  24688367.450                       -4060.008          24.000  
  22998531.139   120858146.423       -3246.401          35.000  
  24630163.501                        3124.021          25.000  
 23  7  2 19 42 45.0000000  0  9G 5G11G13G20G 7G30G 6G 9G14
  21435686.663   112645289.853        2054.120          44.000  
  22385319.586   117635646.021       -2889.471          42.000  
  22646702.576   119009194.659        2688.304          40.000  
  20258652.332   106459926.119         281.423          44.000  
  21125727.925   111016445.753       -1400.375          46.000  
  20660981.856   108574178.589         553.552          47.000  
  24689139.191                       -4054.236          24.000  
  22999156.115   120861392.762       -3246.701          34.000  
  24629575.442   129429292.0393       3123.180          27.000  
 23  7  2 19 42 46.0000000  0  9G 5G11G13G20G 7G30G 6G 9G14
  21435295.150   112643235.892        2053.477          44.000  
  22385869.346   117638535.622       -2890.014          41.000  
  22646191.328   119006506.442        2688.016          40.000  
  20258599.048   106459645.296         279.924          45.000  
  21125994.774   111017846.194       -1400.959          47.000  
  20660875.894   108573625.554         552.666          47.000  
  24689913.753                       -4058.854          26.000  
  22999770.585   120864639.443       -3247.088          29.000  
  24628978.453   129426169.1442       3122.804          28.000  
 23  7  2 19 42 47.0000000  0  9G 5G11G13G20G 7G30G 6G 9G14
  21434903.986   112641182.175        2054.165          45.000  
  22386419.129   117641425.467       -2889.386          41.000  
  22645678.881   119003818.181        2688.604          38.000  
  20258545.807   106459364.846         280.548          45.000  
  21126261.187   111019246.856       -1400.063          46.000  
  20660770.682   108573072.848         553.164          47.000  
  24690682.178   129750409.9813      -4058.482          26.000  
  23000383.755   120867886.155       -3245.969          30.000  
  24628394.922   129423046.0152       3124.395          28.000  
 23  7  2 19 42 48.0000000  0  9G 5G11G13G20G 7G30G 6G 9G14
  21434513.468   112639128.402        2053.320          44.000  
  22386968.959   117644315.292       -2890.266          41.000  
  22645165.469   119001129.612        2688.428          35.000  
  20258493.086   106459084.497         279.698          45.000  
  21126527.446   111020647.535       -1401.255          46.000  
  20660665.296   108572520.217         551.986          46.000  
  24691451.680   129754468.7752      -4058.661          26.000  
  23001002.605   120871132.450       -3246.921          30.000  
  24627795.777   129419922.3332       3123.565          29.000  
 23  7  2 19 42 49.0000000  0  9G 5G11G13G20G 7G30G 6G 9G14
  21434122.487   112637075.491        2052.678          43.000  
  22387518.689   117647205.941       -2891.089          42.000  
  22644652.803   118998441.703        2688.119          37.000  
  20258440.129   106458805.204         278.897          45.000  
  21126793.789   111022049.102       -1401.792          46.000  
  20660560.385   108571968.560         551.231          46.000  
  24692222.112                       -4059.339          26.000  
  23001620.844   120874379.322       -3247.017          31.000  
  24627201.436   129416799.1752       3122.134          30.000  
 23  7  2 19 42 50.0000000  0  9G 5G11G13G20G 7G30G 6G 9G14
  21433731.401   112635023.383        2052.091          44.000  
  22388068.868   117650097.453       -2891.580          42.000  
  22644140.971   118995754.408        2686.950          39.000  
  20258386.775   106458526.902         278.025          44.000  
  21127060.446   111023451.514       -1402.719          46.000  
  20660455.536   108571417.838         550.426          47.000  
  24693000.392   129762592.6393      -4058.913          27.000  
  23002237.579   120877626.814       -3246.928          30.000  
  24626607.871   129413676.3602       3122.845          30.000  
 23  7  2 19 42 51.0000000  0  9G 5G11G13G20G 7G30G 6G 9G14
  21433340.765   112632971.434        2052.434          44.000  
  22388619.112   117652989.124       -2891.524          42.000  
  22643629.990   118993067.016        2687.869          39.000  
  20258333.229   106458248.923         278.294          44.000  
  21127327.212   111024854.117       -1402.011          46.000  
  20660350.180   108570867.400         550.823          46.000  
  24693774.130   129766651.9432      -4058.587          27.000  
  23002853.091   120880874.053       -3246.160          29.000  
  24626012.692   129410553.3502       3123.033          29.000  
 23  7  2 19 42 52.0000000  0  9G 5G11G13G20G 7G30G 6G 9G14
  21432950.988   112630919.659        2051.024          45.000  
  22389169.750   117655880.984       -2892.258          42.000  
  22643117.987   118990379.548        2687.245          39.000  
  20258280.599   106457971.286         277.082          44.000  
  21127593.799   111026256.952       -1403.358          46.000  
  20660245.762   108570317.288         549.515          46.000  
  24694548.597   129770710.8372      -4059.300          27.000  
  23003468.770   120884121.248       -3247.431          30.000  
  24625408.518   129407429.8852       3122.931          29.000  
 23  7  2 19 42 53.0000000  0  9G 5G11G13G20G 7G30G 6G 9G14
  21432560.867   112628868.908        2050.635          44.000  
  22389720.051   117658773.884       -2893.200          42.000  
  22642606.430   118987692.876        2686.514          36.000  
  20258227.581   106457694.865         276.292          43.000  
  21127860.512   111027660.829       -1404.093          46.000  
  20660140.886   108569768.321         548.860          46.000  
  24695325.755   129774770.3292      -4059.464          26.000  
  23004077.024   120887369.174       -3247.612          30.000  
  24624814.163   129404307.2092       3122.551          29.000  
 23  7  2 19 42 54.0000000  0  9G 5G11G13G20G 7G30G 6G 9G14
  21432170.292   112626818.615        2050.011          44.000  
  22390270.775   117661667.278       -2893.952          42.000  
  22642095.007   118985006.464        2686.322          39.000  
  20258174.623   106457419.066         275.349          43.000  
  21128127.391   111029065.172       -1404.656          45.000  
  20660036.464   108569219.959         547.730          46.000  
  24696099.952                       -4058.749          25.000  
  23004702.090   120890617.218       -3247.719          31.000  
  24624221.811   129401184.5002       3122.319          28.000  
 23  7  2 19 42 55.0000000  0  9G 5G11G13G20G 7G30G 6G 9G14
  21431780.153   112624768.905        2049.299          43.000  
  22390822.420   117664561.249       -2894.495          42.000  
  22641583.751   118982320.428        2685.336          37.000  
  20258121.898   106457144.058         274.442          43.000  
  21128394.886   111030470.189       -1405.207          46.000  
  20659932.369   108568672.283         547.412          46.000  
  24696872.647                       -4057.043          23.000  
  23005329.775   120893865.787       -3249.163          32.000  
  24623622.134   129398061.4011       3122.215          28.000  
 23  7  2 19 42 56.0000000  0  9G 5G11G13G20G 7G30G 6G 9G14
  21431389.887   112622719.440        2048.802          43.000  
  22391373.180   117667455.423       -2894.474          42.000  
  22641071.805   118979634.299        2685.579          36.000  
  20258069.665   106456869.377         274.233          44.000  
  21128661.861   111031875.381       -1405.696          45.000  
  20659828.183   108568124.929         546.804          46.000  
  24697647.323                       -4058.009          25.000  
  23005956.032   120897114.041       -3248.433          33.000  
  24623029.931   129394938.640        3122.431          27.000  
 23  7  2 19 42 57.0000000  0  9G 5G11G13G20G 7G30G 6G 9G14
  21430999.640   112620670.575        2048.699          43.000  
  22391924.262   117670350.274       -2894.844          42.000  
  22640561.033   118976948.649        2685.143          36.000  
  20258017.358   106456595.566         273.476          43.000  
  21128929.486   111033281.300       -1406.104          45.000  
  20659723.521   108567578.357         546.084          45.000  
  24698420.359                       -4059.553          26.000  
  23006567.492   120900362.829       -3248.630          31.000  
  24622437.775   129391816.049        3122.433          28.000  
 23  7  2 19 42 58.0000000  0  9G 5G11G13G20G 7G30G 6G 9G14
  21430610.583   112618622.283        2048.479          45.000  
  22392475.030   117673245.657       -2895.366          42.000  
  22640050.330   118974263.248        2685.961          37.000  
  20257965.343   106456322.432         273.013          44.000  
  21129196.784   111034687.747       -1406.570          45.000  
  20659618.889   108567032.424         545.928          45.000  
  24699192.030                       -4059.803          26.000  
  23007182.918   120903611.779       -3248.557          31.000  
  24621841.802   129388693.518        3123.097          28.000  
 23  7  2 19 42 59.0000000  0  9G 5G11G13G20G 7G30G 6G 9G14
  21430221.491   112616573.466        2048.370          44.000  
  22393025.825   117676140.534       -2895.500          42.000  
  22639538.978   118971577.076        2686.234          37.000  
  20257913.372   106456048.972         272.830          44.000  
  21129464.493   111036093.730       -1406.529          46.000  
  20659514.629   108566486.126         545.668          45.000  
  24699962.736                       -4058.455          26.000  
  23007803.600   120906859.819       -3248.077          30.000  
  24621234.582   129385570.168        3122.426          27.000  
 23  7  2 19 43  0.0000000  0  9G 5G11G13G20G 7G30G 6G 9G14
  21429832.172   112614525.721        2046.882          44.000  
  22393577.422   117679036.450       -2896.624          42.000  
  22639027.298   118968891.757        2684.246          36.000  
  20257861.933   106455776.743         271.598          44.000  
  21129732.031   111037500.806       -1407.911          45.000  
  20659411.114   108565940.985         544.197          45.000  
  24700736.557   129803238.8783      -4059.662          26.000  
  23008431.656   120910108.835       -3249.657          32.000  
  24620648.316   129382447.271        3122.483          28.000  
 23  7  2 19 43  1.0000000  0  9G 5G11G13G20G 7G30G 6G 9G14
  21429442.714   112612479.161        2046.252          44.000  
  22394129.119   117681933.623       -2897.518          42.000  
  22638516.338   118966207.325        2684.379          37.000  
  20257810.337   106455505.886         270.815          44.000  
  21129999.394   111038909.100       -1408.460          45.000  
  20659307.521   108565397.203         543.657          45.000  
  24701508.171   129807298.9672      -4059.898          25.000  
  23009042.221   120913358.629       -3248.935          31.000  
  24620053.892   129379325.280        3122.589          28.000  
 23  7  2 19 43  2.0000000  0  9G 5G11G13G20G 7G30G 6G 9G14
  21429053.225   112610432.125        2046.960          45.000  
  22394679.717   117684830.338       -2896.576          41.000  
  22638005.715   118963522.330        2685.032          38.000  
  20257758.584   106455234.749         270.944          44.000  
  21130267.089   111040316.988       -1407.986          45.000  
  20659204.316   108564853.068         543.807          46.000  
  24702282.027   129811357.8502      -4058.490          25.000  
  23009666.533   120916607.708       -3248.308          32.000  
  24619467.072   129376202.448        3122.437          28.000  
 23  7  2 19 43  3.0000000  0  9G 5G11G13G20G 7G30G 6G 9G14
  21428663.810   112608386.070        2045.409          44.000  
  22395230.311   117687728.023       -2898.351          41.000  
  22637495.387   118960838.013        2683.979          36.000  
  20257707.420   106454964.741         269.324          44.000  
  21130535.456   111041725.854       -1409.576          45.000  
  20659100.862   108564310.008         542.086          45.000  
  24703055.408                       -4060.813          24.000  
  23010280.436   120919857.431       -3249.751          27.000  
  24618866.405   129373079.960        3122.208          28.000  
 23  7  2 19 43  4.0000000  0  9G 5G11G13G20G 7G30G 6G 9G14
  21428275.172   112606341.023        2045.065          45.000  
  22395781.013   117690626.708       -2898.674          41.000  
  22636984.153   118958154.487        2683.781          36.000  
  20257656.775   106454695.913         268.657          45.000  
  21130803.862   111043135.755       -1409.951          45.000  
  20658997.330   108563768.072         541.827          46.000  
  24703826.747                       -4060.082          25.000  
  23010913.059   120923107.939       -3250.143          32.000  
  24618278.092   129369958.213        3122.223          28.000  
 23  7  2 19 43  5.0000000  0  9G 5G11G13G20G 7G30G 6G 9G14
  21427886.255   112604295.636        2045.258          44.000  
  22396332.414   117693525.133       -2898.401          42.000  
  22636473.058   118955470.342        2683.656          36.000  
  20257605.812   106454426.947         268.811          44.000  
  21131072.417   111044545.384       -1409.678          45.000  
  20658894.513   108563225.943         541.989          46.000  
  24704602.470                       -4058.537          26.000  
  23011524.907   120926357.844       -3249.156          32.000  
  24617671.309   129366835.639        3123.265          27.000  
 23  7  2 19 43  6.0000000  0  9G 5G11G13G20G 7G30G 6G 9G14
  21427497.468   112602250.901        2044.194          44.000  
  22396884.321   117696424.168       -2899.611          42.000  
  22635962.211   118952786.583        2683.526          35.000  
  20257554.752   106454158.796         267.472          44.000  
  21131341.137   111045955.664       -1410.759          45.000  
  20658792.046   108562684.595         540.685          47.000  
  24705375.942                       -4058.803          26.000  
  23012129.365   120929608.173       -3250.677          30.000  
  24617067.318   129363713.380        3122.385          27.000  
 23  7  2 19 43  7.0000000  0  9G 5G11G13G20G 7G30G 6G 9G14
  21427108.682   112600207.491        2042.848          45.000  
  22397436.228   117699324.509       -2900.833          42.000  
  22635451.230   118950104.039        2681.443          35.000  
  20257503.689   106453892.118         265.965          44.000  
  21131610.193   111047367.300       -1412.224          46.000  
  20658689.495   108562144.681         539.211          46.000  
  24706149.467                       -4062.506          24.000  
  23012735.660   120932859.450       -3250.827          28.000  
  24616477.657   129360592.023        3120.383          26.000  
 23  7  2 19 43  8.0000000  0  9G 5G11G13G20G 7G30G 6G 9G14
  21426720.035   112598164.188        2043.380          45.000  
  22397988.793   117702224.979       -2900.479          42.000  
  22634931.593   118947421.203        2683.235          30.000  
  20257452.581   106453625.714         266.596          44.000  
  21131879.345   111048779.049       -1411.525          46.000  
  20658586.949   108561604.988         539.805          46.000  
  24706919.279                       -4059.075          22.000  
  23013346.082   120936110.567       -3251.119          27.000  
  24615878.648                        3121.659          24.000  
 23  7  2 19 43  9.0000000  0  9G 5G11G13G20G 7G30G 6G 9G14
  21426332.051   112596121.079        2042.700          48.000  
  22398540.896   117705125.649       -2901.034          44.000  
  22634416.344   118944738.447        2682.847          36.000  
  20257401.618   106453359.694         265.557          46.000  
  21132148.497   111050191.053       -1412.417          49.000  
  20658484.311   108561065.633         538.927          48.000  
  24707690.543                       -4059.712          24.000  
  23013972.950                       -3251.013          26.000  
  24615286.794                        3121.865          25.000  
 23  7  2 19 43 10.0000000  0  9G 5G11G13G20G 7G30G 6G 9G14
  21425943.810   112594078.771        2042.021          48.000  
  22399093.719   117708027.181       -2902.074          45.000  
  22633919.733   118942056.295        2682.123          38.000  
  20257350.777   106453094.673         264.685          46.000  
  21132418.112   111051603.896       -1413.202          49.000  
  20658381.839   108560527.206         537.907          48.000  
  24708460.425   129843849.2723      -4058.965          25.000  
  23014592.952   120942501.5983      -3251.751          30.000  
  24614693.364                        3121.653          26.000  
 23  7  2 19 43 11.0000000  0  9G 5G11G13G20G 7G30G 6G 9G14
  21425554.561   112592037.035        2041.797          46.000  
  22399645.914   117710929.225       -2902.081          44.000  
  22633414.785   118939374.417        2681.848          40.000  
  20257300.040   106452830.381         264.292          45.000  
  21132686.989   111053017.321       -1413.206          49.000  
  20658279.441   108559989.468         537.910          48.000  
  24709229.827   129847909.3902      -4059.263          25.000  
  23015220.366   120945798.4423      -3251.617          29.000  
  24614100.912                        3121.704          27.000  
 23  7  2 19 43 12.0000000  0  9G 5G11G13G20G 7G30G 6G 9G14
  21425165.399   112589995.096        2041.512          47.000  
  22400199.112   117713831.113       -2902.372          46.000  
  22632900.854   118936692.051        2682.093          41.000  
  20257249.984   106452566.040         263.851          46.000  
  21132955.718   111054430.560       -1413.630          49.000  
  20658177.004   108559451.638         537.104          48.000  
  24710006.030   129851968.8592      -4058.746          26.000  
  23015858.289   120949049.8952      -3251.783          29.000  
  24613510.222   129344850.9683       3122.265          27.000  
 23  7  2 19 43 13.0000000  0  9G 5G11G13G20G 7G30G 6G 9G14
  21424777.171   112587954.481        2039.896          47.000  
  22400752.292   117716734.299       -2903.886          45.000  
  22632388.145   118934010.847        2680.383          39.000  
  20257200.059   106452303.219         262.156          45.000  
  21133224.478   111055845.186       -1415.249          48.000  
  20658076.277   108558915.243         535.698          49.000  
  24710783.917   129856029.0122      -4060.219          26.000  
  23016525.978   120952302.3502      -3251.733          30.000  
  24612930.425   129341821.7633       3120.874          29.000  
 23  7  2 19 43 14.0000000  0  9G 5G11G13G20G 7G30G 6G 9G14
  21424388.297   112585914.745        2039.675          45.000  
  22401304.670   117719638.401       -2904.269          44.000  
  22631878.847   118931330.244        2680.533          40.000  
  20257150.523   106452041.454         261.563          45.000  
  21133494.302   111057260.701       -1415.736          48.000  
  20657975.131   108558379.894         535.031          49.000  
  24711557.311   129860089.6562      -4060.582          26.000  
  23017150.234                       -3251.376          23.000  
  24612346.017   129338700.8902       3120.574          30.000  
 23  7  2 19 43 15.0000000  0  9G 5G11G13G20G 7G30G 6G 9G14
  21423999.633   112583874.877        2039.604          45.000  
  22401857.349   117722542.363       -2904.225          44.000  
  22631366.914   118928649.246        2680.881          39.000  
  20257100.833   106451779.701         261.258          44.000  
  21133763.367   111058676.111       -1415.795          47.000  
  20657873.575   108557844.484         534.899          49.000  
  24712331.651   129864149.7422      -4060.292          26.000  
  23017739.275                       -3253.955          23.000  
  24611756.074   129335579.6482       3120.532          32.000  
 23  7  2 19 43 16.0000000  0  9G 5G11G13G20G 7G30G 6G 9G14
  21423611.030   112581835.893        2038.743          46.000  
  22402410.504   117725447.238       -2905.242          44.000  
  22630856.352   118925968.927        2680.123          39.000  
  20257050.419   106451519.015         260.102          45.000  
  21134032.619   111060092.446       -1416.791          47.000  
  20657771.701   108557310.104         533.901          48.000  
  24713107.815   129868210.1882      -4059.865          26.000  
  23018331.531                       -3251.818          21.000  
  24611158.155   129332458.6952       3120.482          32.000  
 23  7  2 19 43 17.0000000  0  9G 5G11G13G20G 7G30G 6G 9G14
  21423223.766   112579797.786        2037.900          46.000  
  22402963.907   117728352.949       -2906.113          45.000  
  22630345.326   118923289.251        2679.312          37.000  
  20257000.656   106451259.370         259.220          45.000  
  21134302.679   111061509.660       -1417.551          48.000  
  20657670.673   108556776.719         532.969          49.000  
  24713881.121                       -4061.532          26.000  
  23018931.138                       -3259.452          21.000  
  24610559.826   129329338.2232       3120.642          31.000  
 23  7  2 19 43 18.0000000  0  9G 5G11G13G20G 7G30G 6G 9G14
  21422835.546   112577760.250        2037.803          46.000  
  22403517.149   117731259.264       -2906.169          44.000  
  22629835.304   118920609.932        2679.353          39.000  
  20256951.376   106451000.473         259.012          45.000  
  21134572.394   111062927.494       -1417.614          48.000  
  20657568.851   108556244.016         532.962          48.000  
  24714661.024   129876382.0913      -4060.293          27.000  
  23019558.835                       -3252.893          30.000  
  24609973.721   129326217.9362       3121.163          32.000  
 23  7  2 19 43 19.0000000  0  9G 5G11G13G20G 7G30G 6G 9G14
  21422447.078   112575722.806        2037.317          45.000  
  22404070.325   117734165.674       -2906.760          44.000  
  22629326.748   118917930.500        2679.359          41.000  
  20256902.843   106450741.865         258.271          45.000  
  21134842.423   111064345.434       -1418.273          48.000  
  20657467.378   108555711.559         532.134          48.000  
  24715434.344   129880442.7392      -4061.871          26.000  
  23020188.290   120971851.7873      -3254.384          30.000  
  24609383.572   129323097.3092       3120.208          32.000  
 23  7  2 19 43 20.0000000  0  9G 5G11G13G20G 7G30G 6G 9G14
  21422059.247   112573686.022        2035.809          46.000  
  22404623.279   117737072.785       -2908.093          44.000  
  22628817.486   118915251.458        2678.560          40.000  
  20256854.227   106450484.089         256.858          46.000  
  21135112.242   111065764.109       -1419.818          48.000  
  20657366.010   108555179.890         530.788          49.000  
  24716210.350   129884503.2372      -4061.196          25.000  
  23020801.757   120975105.8052      -3254.194          28.000  
  24608768.143   129319948.8943       3120.737          29.000  
 23  7  2 19 43 21.0000000  0  9G 5G11G13G20G 7G30G 6G 9G14
  21421672.341   112571650.271        2035.138          47.000  
  22405175.713   117739980.876       -2908.693          44.000  
  22628306.984   118912573.196        2677.415          39.000  
  20256805.815   106450227.493         255.920          46.000  
  21135381.783   111067183.797       -1420.267          47.000  
  20657265.226   108554649.362         529.947          49.000  
  24716983.491                       -4067.851          23.000  
  23021424.765   120978360.7532      -3255.179          33.000  
  24608187.622   129316829.0412       3120.135          29.000  
 23  7  2 19 43 22.0000000  0  9G 5G11G13G20G 7G30G 6G 9G14
  21421285.055   112569615.039        2035.227          47.000  
  22405729.535   117742889.566       -2908.861          44.000  
  22627796.657   118909895.277        2678.276          38.000  
  20256757.360   106449971.623         255.441          45.000  
  21135651.712   111068604.076       -1420.504          47.000  
  20657164.721   108554119.483         529.491          49.000  
  24717757.718                       -4062.696          25.000  
  23022046.856   120981615.7012      -3255.457          27.000  
  24607593.154   129313709.4462       3119.636          29.000  
 23  7  2 19 43 23.0000000  0  9G 5G11G13G20G 7G30G 6G 9G14
  21420897.281   112567579.772        2034.936          44.000  
  22406283.204   117745798.131       -2908.639          43.000  
  22627286.761   118907217.032        2677.988          37.000  
  20256708.539   106449715.870         255.474          44.000  
  21135921.374   111070024.318       -1420.636          45.000  
  20657063.514   108553589.673         529.374          46.000  
  24718533.419                       -4061.027          25.000  
  23022654.316   120984864.4773      -3255.559          26.000  
  24607008.044   129310589.1892       3120.998          32.000  
 23  7  2 19 43 24.0000000  0  9G 5G11G13G20G 7G30G 6G 9G14
  21420509.842   112565545.469        2033.649          44.000  
  22406836.607   117748707.728       -2910.188          43.000  
  22626777.141   118904539.532        2677.432          37.000  
  20256660.145   106449461.260         253.857          44.000  
  21136191.613   111071445.553       -1421.794          46.000  
  20656962.050   108553060.957         528.043          46.000  
  24719303.964                       -4060.519          25.000  
  23023278.235   120988120.1002      -3256.236          29.000  
  24606415.805   129307469.5802       3118.557          32.000  
 23  7  2 19 43 25.0000000  0  9G 5G11G13G20G 7G30G 6G 9G14
  21420122.976   112563512.051        2033.326          44.000  
  22407390.124   117751618.209       -2910.490          42.000  
  22626267.695   118901862.662        2677.096          37.000  
  20256611.765   106449207.700         253.495          44.000  
  21136462.069   111072867.685       -1422.186          46.000  
  20656861.532   108552533.259         527.706          47.000  
  24720075.779                       -4061.245          26.000  
  23023884.923   120991376.1492      -3256.380          28.000  
  24605822.053   129304350.3922       3119.215          32.000  
 23  7  2 19 43 26.0000000  0  9G 5G11G13G20G 7G30G 6G 9G14
  21419736.728   112561479.124        2032.960          47.000  
  22407944.160   117754529.223       -2910.799          44.000  
  22625758.750   118899186.105        2675.844          37.000  
  20256564.012   106448954.796         252.788          45.000  
  21136732.822   111074290.377       -1422.645          47.000  
  20656761.464   108552006.185         527.182          48.000  
  24720852.597                       -4077.714          24.000  
  23024506.897   120994632.4782      -3255.185          29.000  
  24605225.203   129301231.3352       3119.953          32.000  
 23  7  2 19 43 27.0000000  0  9G 5G11G13G20G 7G30G 6G 9G14
  21419350.367   112559446.233        2032.722          46.000  
  22408497.859   117757440.238       -2911.262          43.000  
  22625249.741   118896509.296        2676.282          38.000  
  20256515.801   106448702.088         252.321          45.000  
  21137003.645   111075713.103       -1422.893          47.000  
  20656661.230   108551479.248         526.701          48.000  
  24721624.215                       -4056.587          23.000  
  23025136.234   120997888.4322      -3255.088          28.000  
  24604622.202   129298111.7712       3120.010          32.000  
 23  7  2 19 43 28.0000000  0  9G 5G11G13G20G 7G30G 6G 9G14
  21418963.827   112557413.895        2031.749          46.000  
  22409051.564   117760351.794       -2912.113          44.000  
  22624741.285   118893832.877        2676.226          38.000  
  20256467.403   106448450.128         251.446          45.000  
  21137274.922   111077136.411       -1423.819          47.000  
  20656560.595   108550952.974         525.754          48.000  
  24722393.839                       -4070.826          21.000  
  23025764.538   121001144.8492      -3256.478          32.000  
  24604032.651   129294992.2962       3119.760          32.000  
 23  7  2 19 43 29.0000000  0  9G 5G11G13G20G 7G30G 6G 9G14
  21418576.978   112555382.104        2031.573          45.000  
  22409605.460   117763263.933       -2912.357          43.000  
  22624232.341   118891156.717        2675.721          38.000  
  20256419.673   106448198.911         250.823          44.000  
  21137546.443   111078560.298       -1423.876          47.000  
  20656459.842   108550427.401         525.333          47.000  
  24723168.891                       -4064.996          22.000  
  23026369.136   121004401.4312      -3255.654          30.000  
  24603437.747   129291873.1732       3119.121          33.000  
 23  7  2 19 43 30.0000000  0  9G 5G11G13G20G 7G30G 6G 9G14
  21418190.857   112553350.781        2030.968          45.000  
  22410159.443   117766176.556       -2912.737          43.000  
  22623723.689   118888480.835        2675.250          35.000  
  20256372.308   106447948.300         250.436          45.000  
  21137818.021   111079984.714       -1424.673          47.000  
  20656359.891   108549902.428         524.665          47.000  
  24723943.667                       -4062.049          22.000  
  23026995.097                       -3251.185          22.000  
  24602846.765   129288753.9042       3119.386          33.000  
 23  7  2 19 43 31.0000000  0  9G 5G11G13G20G 7G30G 6G 9G14
  21417804.156   112551319.557        2031.273          46.000  
  22410713.941   117769089.201       -2912.749          43.000  
  22623215.032   118885804.680        2676.026          38.000  
  20256324.634   106447697.958         250.236          45.000  
  21138089.442   111081409.203       -1424.422          47.000  
  20656260.111   108549377.607         524.754          47.000  
  24724715.757                       -4058.482          21.000  
  23027603.372                       -3256.426          24.000  
  24602253.243   129285634.218        3120.718          32.000  
 23  7  2 19 43 32.0000000  0  9G 5G11G13G20G 7G30G 6G 9G14
  21417418.017   112549288.498        2030.306          46.000  
  22411268.753   117772002.057       -2913.336          44.000  
  22622705.551   118883128.533        2676.146          38.000  
  20256277.248   106447447.923         249.268          45.000  
  21138360.666   111082833.885       -1425.485          47.000  
  20656159.724   108548853.105         523.950          46.000  
  24725486.005                       -4075.888          21.000  
  23028222.240                       -3256.478          25.000  
  24601661.568   129282514.441        3119.657          35.000  
 23  7  2 19 43 33.0000000  0  9G 5G11G13G20G 7G30G 6G 9G14
  21417031.822   112547258.308        2029.951          46.000  
  22411823.038   117774915.832       -2914.135          44.000  
  22622197.183   118880452.983        2675.720          40.000  
  20256229.461   106447198.987         248.489          43.000  
  21138632.169   111084259.476       -1425.925          47.000  
  20656059.106   108548329.617         523.013          46.000  
  24726256.279                       -4059.075          22.000  
  23028845.117                       -3257.198          26.000  
  24601067.505   129279395.100        3118.507          33.000  
 23  7  2 19 43 34.0000000  0  9G 5G11G13G20G 7G30G 6G 9G14
  21416646.421   112545228.917        2029.237          46.000  
  22412377.466   117777830.335       -2914.938          42.000  
  22621688.928   118877778.115        2674.478          37.000  
  20256181.734   106446950.935         247.715          44.000  
  21138903.398   111085685.879       -1426.673          47.000  
  20655959.806   108547806.999         522.302          46.000  
  24727028.578                       -4061.555          22.000  
  23029471.248                       -3264.500          25.000  
  24600473.762   129276276.080        3118.960          33.000  
 23  7  2 19 43 35.0000000  0  9G 5G11G13G20G 7G30G 6G 9G14
  21416260.147   112543199.575        2029.292          45.000  
  22412932.383   117780744.948       -2914.660          43.000  
  22621180.939   118875102.902        2675.551          39.000  
  20256134.292   106446703.169         247.631          43.000  
  21139175.076   111087112.375       -1426.592          47.000  
  20655860.571   108547284.585         522.405          46.000  
  24727796.671                       -4061.649          21.000  
  23030091.730                       -3261.585          25.000  
  24599880.498   129273156.652        3119.644          33.000  
 23  7  2 19 43 36.0000000  0  9G 5G11G13G20G 7G30G 6G 9G14
  21415873.808   112541170.446        2028.590          45.000  
  22413487.370   117783659.723       -2915.466          43.000  
  22620672.562   118872427.726        2674.950          40.000  
  20256086.875   106446455.754         246.878          43.000  
  21139446.379   111088539.078       -1427.251          47.000  
  20655761.318   108546762.461         521.629          46.000  
  24728565.881                       -4059.505          23.000  
  23030715.165                       -3258.352          25.000  
  24599286.855   129270037.016        3118.542          33.000  
 23  7  2 19 43 37.0000000  0  9G 5G11G13G20G 7G30G 6G 9G14
  21415487.884   112539142.155        2028.398          45.000  
  22414042.130   117786575.375       -2915.702          43.000  
  22620164.603   118869753.169        2674.500          41.000  
  20256039.764   106446209.395         246.215          43.000  
  21139717.953   111089966.653       -1427.651          47.000  
  20655663.462   108546241.339         521.039          47.000  
  24729337.198                       -4062.090          25.000  
  23031340.986                       -3258.431          27.000  
  24598691.842   129266917.776        3118.685          32.000  
 23  7  2 19 43 38.0000000  0  9G 5G11G13G20G 7G30G 6G 9G14
  21415101.514   112537114.264        2027.681          44.000  
  22414598.054   117789491.425       -2916.280          44.000  
  22619655.497   118867078.803        2674.300          39.000  
  20255993.063   106445963.598         245.430          43.000  
  21139989.840   111091394.686       -1428.091          47.000  
  20655564.650   108545720.757         520.237          47.000  
  24730108.493   129957604.2703      -4061.071          25.000  
  23031963.754   121033771.0463      -3258.164          32.000  
  24598084.168   129263798.562        3119.604          29.000  
 23  7  2 19 43 39.0000000  0  9G 5G11G13G20G 7G30G 6G 9G14
  21414715.524   112535086.643        2028.093          45.000  
  22415153.547   117792407.725       -2916.037          44.000  
  22619146.400   118864404.423        2675.204          39.000  
  20255945.873   106445718.206         245.493          43.000  
  21140261.680   111092822.996       -1428.040          47.000  
  20655465.903   108545200.530         520.511          47.000  
  24730880.574   129961665.1832      -4060.656          26.000  
  23032581.204   121037028.8502      -3257.548          31.000  
  24597502.710   129260679.128        3119.910          30.000  
 23  7  2 19 43 40.0000000  0  9G 5G11G13G20G 7G30G 6G 9G14
  21414329.311   112533059.288        2027.015          44.000  
  22415708.111   117795324.313       -2916.858          43.000  
  22618636.771   118861730.121        2674.000          37.000  
  20255899.281   106445473.264         244.705          43.000  
  21140533.654   111094251.611       -1428.854          46.000  
  20655367.349   108544680.716         519.562          48.000  
  24731651.472   129965725.9622      -4060.411          27.000  
  23033189.130   121040286.6212      -3257.959          29.000  
  24596906.593   129257559.540        3119.533          30.000  
 23  7  2 19 43 41.0000000  0  9G 5G11G13G20G 7G30G 6G 9G14
  21413943.705   112531032.865        2026.140          44.000  
  22416262.875   117798241.835       -2917.534          43.000  
  22618127.748   118859056.424        2673.705          39.000  
  20255852.964   106445229.456         243.513          43.000  
  21140805.930   111095681.166       -1429.803          46.000  
  20655269.335   108544161.924         518.562          48.000  
  24732423.448   129969787.1682      -4061.744          26.000  
  23033820.990   121043545.0542      -3257.759          29.000  
  24596311.021   129254440.540        3117.665          30.000  
 23  7  2 19 43 42.0000000  0  9G 5G11G13G20G 7G30G 6G 9G14
  21413558.976   112529007.013        2025.607          45.000  
  22416818.437   117801159.938       -2918.392          44.000  
  22617618.817   118856383.172        2673.125          39.000  
  20255806.607   106444986.364         242.927          43.000  
  21141077.787   111097111.329       -1430.393          46.000  
  20655170.916   108543643.834         517.812          48.000  
  24733196.135   129973848.3972      -4061.013          26.000  
  23034445.799   121046803.8702      -3260.082          29.000  
  24595718.905   129251321.532        3118.195          31.000  
 23  7  2 19 43 43.0000000  0  9G 5G11G13G20G 7G30G 6G 9G14
  21413174.233   112526981.253        2026.318          45.000  
  22417374.336   117804078.067       -2917.551          44.000  
  22617110.065   118853709.691        2673.649          41.000  
  20255760.831   106444743.509         242.889          43.000  
  21141350.054   111098541.563       -1429.965          46.000  
  20655073.212   108543125.928         518.310          48.000  
  24733968.054   129977909.2742      -4060.414          27.000  
  23035062.860                       -3259.438          27.000  
  24595120.039   129248202.199        3119.891          30.000  
 23  7  2 19 43 44.0000000  0  9G 5G11G13G20G 7G30G 6G 9G14
  21412789.159   112524955.639        2025.200          45.000  
  22417930.309   117806996.415       -2918.816          44.000  
  22616601.823   118851036.147        2673.380          39.000  
  20255715.116   106444501.002         242.049          44.000  
  21141622.295   111099972.019       -1430.935          46.000  
  20654975.142   108542608.338         517.232          48.000  
  24734740.401                       -4059.314          25.000  
  23035689.358   121053363.6603      -3257.995          32.000  
  24594528.656   129245082.563        3119.845          31.000  
 23  7  2 19 43 45.0000000  0  9G 5G11G13G20G 7G30G 6G 9G14
  21412403.898   112522930.969        2024.237          45.000  
  22418485.784   117809915.672       -2919.774          44.000  
  22616094.109   118848363.284        2672.626          41.000  
  20255669.012   106444259.609         240.834          43.000  
  21141894.859   111101403.396       -1431.739          47.000  
  20654876.841   108542091.750         516.240          48.000  
  24735511.639                       -4052.264          24.000  
  23036311.947                       -3252.468          25.000  
  24593940.108   129241963.524        3119.321          31.000  
 23  7  2 19 43 46.0000000  0  9G 5G11G13G20G 7G30G 6G 9G14
  21412018.479   112520906.865        2024.163          45.000  
  22419041.460   117812835.532       -2919.933          44.000  
  22615586.229   118845690.787        2672.531          40.000  
  20255623.676   106444018.952         240.278          44.000  
  21142167.453   111102835.402       -1432.107          46.000  
  20654778.967   108541575.935         515.612          48.000  
  24736281.355                       -4060.598          24.000  
  23036935.574                       -3258.059          23.000  
  24593337.055   129238844.604        3119.192          29.000  
 23  7  2 19 43 47.0000000  0  9G 5G11G13G20G 7G30G 6G 9G14
  21411633.811   112518883.045        2023.959          45.000  
  22419597.180   117815755.654       -2919.935          44.000  
  22615077.956   118843018.380        2672.581          40.000  
  20255578.341   106443778.749         240.169          44.000  
  21142439.537   111104267.710       -1432.063          46.000  
  20654681.171   108541060.489         515.520          48.000  
  24737049.998                       -4060.041          23.000  
  23037548.640                       -3253.136          21.000  
  24592751.373   129235725.603        3119.694          30.000  
 23  7  2 19 43 48.0000000  0  9G 5G11G13G20G 7G30G 6G 9G14
  21411248.536   112516859.390        2023.406          45.000  
  22420152.978   117818675.932       -2920.625          44.000  
  22614569.631   118840345.812        2672.391          42.000  
  20255533.158   106443538.907         239.439          44.000  
  21142711.585   111105700.218       -1433.038          46.000  
  20654583.306   108540545.309         514.682          48.000  
  24737825.394                       -4066.942          23.000  
  23038150.624                       -3250.541          19.000  
  24592158.589   129232606.271        3119.356          31.000  
 23  7  2 19 43 49.0000000  0  9G 5G11G13G20G 7G30G 6G 9G14
  21410863.017   112514836.466        2022.558          44.000  
  22420708.990   117821596.972       -2921.486          44.000  
  22614061.010   118837673.792        2671.688          40.000  
  20255488.036   106443299.958         238.536          44.000  
  21142984.084   111107133.477       -1433.674          46.000  
  20654484.874   108540031.002         513.798          47.000  
  24738595.267                       -4055.138          21.000  
  23038784.695                       -3254.766          21.000  
  24591565.945   129229487.316        3119.881          31.000  
 23  7  2 19 43 50.0000000  0  9G 5G11G13G20G 7G30G 6G 9G14
  21410477.734   112512814.364        2021.833          44.000  
  22421265.447   117824518.801       -2922.117          44.000  
  22613552.428   118835002.329        2671.180          40.000  
  20255442.936   106443061.958         237.792          44.000  
  21143257.009   111108567.563       -1434.316          46.000  
  20654387.118   108539517.610         513.017          48.000  
  24739364.355                       -4061.674          20.000  
  23039402.743                       -3260.650          23.000  
  24590970.761   129226368.692        3118.766          30.000  
 23  7  2 19 43 51.0000000  0  9G 5G11G13G20G 7G30G 6G 9G14
  21410093.075   112510792.622        2022.227          45.000  
  22421821.310   117827441.003       -2921.905          44.000  
  22613043.675   118832331.006        2671.781          40.000  
  20255398.015   106442824.548         237.544          44.000  
  21143529.643   111110002.076       -1434.285          46.000  
  20654289.017   108539004.721         513.209          47.000  
  24740137.395                       -4061.279          20.000  
  23040015.333                       -3260.123          23.000  
  24590360.929   129223250.062        3118.829          28.000  
 23  7  2 19 43 52.0000000  0  9G 5G11G13G20G 7G30G 6G 9G14
  21409708.437   112508770.847        2021.576          45.000  
  22422377.130   117830363.168       -2922.301          44.000  
  22612534.762   118829659.376        2671.226          40.000  
  20255352.958   106442587.221         237.003          45.000  
  21143802.503   111111436.521       -1434.644          46.000  
  20654190.903   108538491.889         512.486          47.000  
  24740914.663                       -4060.736          22.000  
  23040637.983                       -3259.916          25.000  
  24589766.954   129220130.801        3120.119          27.000  
 23  7  2 19 43 53.0000000  0  9G 5G11G13G20G 7G30G 6G 9G14
  21409324.458   112506750.006        2020.174          46.000  
  22422933.631   117833286.272       -2923.938          45.000  
  22612026.642   118826988.471        2670.292          41.000  
  20255307.937   106442351.026         235.467          44.000  
  21144076.223   111112871.961       -1436.205          46.000  
  20654093.221   108537980.154         510.829          47.000  
  24741686.778                       -4057.473          23.000  
  23041257.915                       -3256.728          24.000  
  24589167.329                        3117.798          25.000  
 23  7  2 19 43 54.0000000  0  9G 5G11G13G20G 7G30G 6G 9G14
  21408940.265   112504729.814        2020.034          46.000  
  22423489.826   117836210.054       -2923.861          44.000  
  22611518.998   118824317.988        2670.425          42.000  
  20255262.989   106442115.679         235.058          44.000  
  21144350.087   111114308.066       -1436.153          47.000  
  20653996.259   108537469.171         510.717          47.000  
  24742460.102                       -4060.670          24.000  
  23041878.340                       -3261.704          22.000  
  24588576.605                        3122.120          25.000  
 23  7  2 19 43 55.0000000  0  9G 5G11G13G20G 7G30G 6G 9G14
  21408556.090   112502710.019        2019.799          46.000  
  22424046.745   117839134.175       -2924.256          44.000  
  22611010.961   118821647.633        2670.654          42.000  
  20255217.989   106441880.854         234.523          44.000  
  21144623.750   111115744.583       -1436.730          46.000  
  20653898.804   108536958.677         510.344          47.000  
  24743233.614                       -4060.100          25.000  
  23042498.533                       -3260.576          19.000  
  24587984.471                        3124.872          24.000  
 23  7  2 19 43 56.0000000  0  9G 5G11G13G20G 7G30G 6G 9G14
  21408171.679   112500690.179        2019.587          46.000  
  22424603.590   117842058.288       -2924.432          44.000  
  22610503.129   118818977.052        2670.218          42.000  
  20255173.073   106441646.165         234.387          44.000  
  21144896.776   111117181.106       -1437.039          46.000  
  20653801.785   108536448.307         509.825          47.000  
  24744005.895                       -4060.763          25.000  
  23043120.743                       -3260.955          19.000  
  24587393.262                        3117.964          25.000  
 23  7  2 19 43 57.0000000  0  9G 5G11G13G20G 7G30G 6G 9G14
  21407786.959   112498671.025        2018.390          45.000  
  22425160.004   117844983.113       -2925.687          44.000  
  22609995.650   118816306.922        2669.386          42.000  
  20255128.688   106441412.359         233.060          44.000  
  21145169.959   111118618.321       -1437.807          46.000  
  20653704.766   108535938.717         508.938          47.000  
  24744778.006                       -4061.857          24.000  
  23043748.030                       -3264.575          21.000  
  24586798.301   129204496.6903       3118.090          27.000  
 23  7  2 19 43 58.0000000  0  9G 5G11G13G20G 7G30G 6G 9G14
  21407401.906   112496652.544        2018.160          44.000  
  22425716.146   117847908.605       -2925.916          44.000  
  22609487.177   118813637.244        2669.231          42.000  
  20255084.491   106441179.404         232.535          44.000  
  21145443.434   111120056.254       -1438.259          46.000  
  20653607.241   108535429.959         508.164          47.000  
  24745550.030                       -4064.406          22.000  
  23044375.352                       -3262.306          24.000  
  24586204.937                        3119.273          26.000  
 23  7  2 19 43 59.0000000  0  9G 5G11G13G20G 7G30G 6G 9G14
  21407017.469   112494634.689        2017.915          45.000  
  22426272.712   117850834.672       -2926.132          44.000  
  22608978.342   118810967.879        2669.940          41.000  
  20255040.547   106440947.225         232.167          44.000  
  21145717.255   111121494.824       -1438.713          46.000  
  20653510.257   108534921.908         508.100          47.000  
  24746321.731                       -4065.340          22.000  
  23044998.700                       -3261.813          23.000  
  24585613.283   129198260.0502       3118.905          27.000  
 23  7  2 19 44  0.0000000  0  9G 5G11G13G20G 7G30G 6G 9G14
  21406633.303   112492616.658        2017.355          45.000  
  22426829.400   117853760.565       -2926.221          44.000  
  22608470.087   118808298.129        2669.454          41.000  
  20254996.202   106440715.023         231.595          44.000  
  21145990.966   111122933.208       -1438.666          46.000  
  20653413.679   108534413.804         507.585          47.000  
  24747098.688                       -4056.504          23.000  
  23045622.188                       -3252.202          21.000  
  24585028.762   129195141.1732       3119.000          28.000  
 23  7  2 19 44  1.0000000  0  9G 5G11G13G20G 7G30G 6G 9G14
  21406249.066   112490599.203        2016.824          45.000  
  22427385.622   117856687.079       -2927.307          43.000  
  22607961.474   118805628.748        2668.937          41.000  
  20254951.913   106440483.631         230.436          44.000  
  21146264.860   111124372.251       -1439.884          46.000  
  20653316.782   108533906.413         506.674          47.000  
  24747874.551                       -4061.361          24.000  
  23046246.404                       -3269.022          23.000  
  24584443.521   129192022.5092       3119.258          30.000  
 23  7  2 19 44  2.0000000  0  9G 5G11G13G20G 7G30G 6G 9G14
  21405864.651   112488582.460        2016.664          44.000  
  22427942.410   117859614.290       -2927.498          44.000  
  22607453.302   118802959.854        2668.968          41.000  
  20254907.502   106440253.102         230.526          43.000  
  21146539.243   111125812.025       -1439.820          46.000  
  20653219.833   108533399.874         506.398          46.000  
  24748646.305                       -4060.503          25.000  
  23046866.380                       -3262.843          24.000  
  24583862.136   129188904.1802       3118.473          31.000  
 23  7  2 19 44  3.0000000  0  9G 5G11G13G20G 7G30G 6G 9G14
  21405480.537   112486566.229        2015.878          44.000  
  22428500.036   117862541.986       -2927.808          44.000  
  22606945.758   118800291.188        2668.451          41.000  
  20254863.576   106440023.228         229.456          44.000  
  21146813.185   111127252.295       -1440.494          46.000  
  20653123.569   108532893.934         505.601          47.000  
  24749414.014                       -4060.947          24.000  
  23047489.086                       -3263.124          24.000  
  24583262.198   129185785.8042       3118.132          30.000  
 23  7  2 19 44  4.0000000  0  9G 5G11G13G20G 7G30G 6G 9G14
  21405097.335   112484550.021        2015.742          45.000  
  22429057.244   117865469.745       -2928.240          44.000  
  22606437.738   118797622.331        2668.605          41.000  
  20254819.579   106439793.569         229.085          43.000  
  21147087.088   111128692.644       -1440.876          46.000  
  20653027.214   108532388.135         505.284          47.000  
  24750185.013                       -4059.725          23.000  
  23048111.819                       -3260.364          23.000  
  24582660.274   129182667.0372       3118.417          29.000  
 23  7  2 19 44  5.0000000  0  9G 5G11G13G20G 7G30G 6G 9G14
  21404714.551   112482534.429        2015.342          45.000  
  22429615.262   117868398.073       -2928.850          44.000  
  22605929.584   118794953.850        2667.987          40.000  
  20254775.469   106439564.665         228.548          42.000  
  21147361.301   111130133.587       -1441.377          46.000  
  20652930.989   108531883.070         504.692          46.000  
  24750954.872                       -4059.415          21.000  
  23048735.826                       -3266.941          21.000  
  24582059.598   129179548.4832       3118.489          28.000  
 23  7  2 19 44  6.0000000  0  9G 5G11G13G20G 7G30G 6G 9G14
  21404331.541   112480519.655        2014.226          45.000  
  22430172.356   117871327.205       -2929.582          44.000  
  22605421.015   118792285.904        2667.778          40.000  
  20254731.796   106439336.761         227.284          42.000  
  21147635.592   111131575.375       -1442.394          46.000  
  20652835.252   108531378.915         503.752          46.000  
  24751726.861                       -4060.504          20.000  
  23049368.942                       -3261.981          23.000  
  24581469.921   129176430.2932       3118.179          28.000  
 23  7  2 19 44  7.0000000  0  9G 5G11G13G20G 7G30G 6G 9G14
  21403949.250   112478505.299        2014.486          45.000  
  22430730.213   117874256.771       -2929.234          43.000  
  22604912.297   118789618.167        2668.049          39.000  
  20254688.484   106439109.447         227.324          42.000  
  21147909.909   111133017.611       -1442.194          46.000  
  20652739.717   108530875.326         503.484          46.000  
  24752500.508                       -4062.029          17.000  
  23049998.938                       -3262.290          26.000  
  24580876.831   129173312.108        3118.306          28.000  
 23  7  2 19 44  8.0000000  0  9G 5G11G13G20G 7G30G 6G 9G14
  21403565.960   112476491.037        2013.657          45.000  
  22431287.390   117877186.429       -2930.129          43.000  
  22604403.449   118786950.277        2667.461          39.000  
  20254645.164   106438882.396         226.465          42.000  
  21148183.987   111134459.968       -1442.906          45.000  
  20652644.504   108530371.935         502.725          46.000  
  24753276.746                       -4062.598          19.000  
  23050624.589   121131849.4002      -3263.576          25.000  
  24580283.677   129170193.599        3118.234          28.000  
 23  7  2 19 44  9.0000000  0  9G 5G11G13G20G 7G30G 6G 9G14
  21403182.601   112474477.653        2012.993          45.000  
  22431844.724   117880116.954       -2930.905          43.000  
  22603895.704   118784283.055        2666.883          39.000  
  20254602.403   106438656.388         225.344          43.000  
  21148458.330   111135903.201       -1443.716          45.000  
  20652549.108   108529869.552         501.854          46.000  
  24754050.436                       -4059.997          21.000  
  23051245.686   121135112.7912      -3263.383          26.000  
  24579694.884   129167075.526        3118.009          30.000  
 23  7  2 19 44 10.0000000  0  9G 5G11G13G20G 7G30G 6G 9G14
  21402800.035   112472464.836        2012.710          45.000  
  22432402.045   117883048.048       -2931.387          43.000  
  22603387.885   118781616.138        2666.767          39.000  
  20254559.863   106438431.113         225.083          43.000  
  21148732.495   111137347.044       -1444.095          45.000  
  20652453.555   108529367.852         501.557          46.000  
  24754822.203                       -4063.414          21.000  
  23051867.106                       -3260.662          25.000  
  24579110.385   129163957.653        3117.058          29.000  
 23  7  2 19 44 11.0000000  0  9G 5G11G13G20G 7G30G 6G 9G14
  21402417.343   112470452.346        2012.551          45.000  
  22432959.723   117885979.459       -2931.153          43.000  
  22602880.651   118778949.323        2667.057          39.000  
  20254517.224   106438206.351         224.688          43.000  
  21149007.044   111138791.238       -1443.937          45.000  
  20652357.849   108528866.614         501.165          46.000  
  24755595.501                       -4057.121          22.000  
  23052487.243                       -3259.164          23.000  
  24578516.628   129160839.625        3117.814          31.000  
 23  7  2 19 44 12.0000000  0  9G 5G11G13G20G 7G30G 6G 9G14
  21402033.975   112468439.819        2012.074          45.000  
  22433516.708   117888910.883       -2932.171          42.000  
  22602373.408   118776282.278        2666.817          40.000  
  20254474.863   106437981.739         224.069          43.000  
  21149282.495   111140235.446       -1444.765          46.000  
  20652262.384   108528365.471         500.620          46.000  
  24756367.359                       -4060.131          23.000  
  23053102.267                       -3260.356          23.000  
  24577926.999   129157721.118        3117.906          33.000  
 23  7  2 19 44 13.0000000  0  9G 5G11G13G20G 7G30G 6G 9G14
  21401650.864   112466428.054        2011.562          45.000  
  22434075.019   117891843.013       -2932.352          43.000  
  22601866.065   118773615.682        2666.725          40.000  
  20254432.882   106437758.021         223.644          43.000  
  21149557.930   111141680.373       -1444.824          46.000  
  20652167.433   108527865.165         500.268          46.000  
  24757138.737                       -4061.641          25.000  
  23053722.343                       -3267.755          23.000  
  24577330.786   129154602.955        3118.202          31.000  
 23  7  2 19 44 14.0000000  0  9G 5G11G13G20G 7G30G 6G 9G14
  21401267.793   112464416.795        2010.869          45.000  
  22434633.046   117894775.624       -2932.854          43.000  
  22601358.538   118770949.387        2666.246          39.000  
  20254390.740   106437534.994         222.662          43.000  
  21149832.875   111143125.877       -1445.897          45.000  
  20652072.975   108527365.495         499.285          46.000  
  24757910.224                       -4061.030          26.000  
  23054348.736                       -3269.494          21.000  
  24576738.709   129151484.862        3118.422          32.000  
 23  7  2 19 44 15.0000000  0  9G 5G11G13G20G 7G30G 6G 9G14
  21400885.140   112462406.124        2010.442          45.000  
  22435190.847   117897708.826       -2933.007          42.000  
  22600851.448   118768283.451        2665.939          40.000  
  20254348.349   106437312.717         222.043          43.000  
  21150107.786   111144571.962       -1446.215          45.000  
  20651978.316   108526866.523         498.828          46.000  
  24758680.394   130107742.9103      -4060.711          27.000  
  23054969.859                       -3269.494          19.000  
  24576144.987   129148366.932        3117.700          33.000  
 23  7  2 19 44 16.0000000  0  9G 5G11G13G20G 7G30G 6G 9G14
  21400502.400   112460395.349        2010.782          45.000  
  22435748.700   117900641.989       -2933.521          42.000  
  22600343.712   118765617.202        2666.047          40.000  
  20254306.613   106437090.547         221.953          43.000  
  21150382.836   111146018.004       -1446.077          45.000  
  20651883.400   108526367.595         498.884          46.000  
  24759450.005   130111802.8972      -4059.892          27.000  
  23055589.752                       -3267.024          21.000  
  24575552.561   129145248.517        3117.812          33.000  
 23  7  2 19 44 17.0000000  0  9G 5G11G13G20G 7G30G 6G 9G14
  21400119.830   112458385.284        2009.761          44.000  
  22436306.239   117903575.800       -2934.286          42.000  
  22599837.194   118762951.380        2665.442          40.000  
  20254264.571   106436869.213         220.629          43.000  
  21150657.974   111147464.750       -1446.981          45.000  
  20651788.623   108525869.478         497.779          46.000  
  24760223.961   130115863.1892      -4060.229          27.000  
  23056207.843                       -3264.249          23.000  
  24574958.520   129142130.293        3118.601          33.000  
 23  7  2 19 44 18.0000000  0  9G 5G11G13G20G 7G30G 6G 9G14
  21399737.321   112456376.056        2009.430          44.000  
  22436864.964   117906510.457       -2934.655          42.000  
  22599330.365   118760286.185        2665.117          41.000  
  20254223.096   106436648.894         220.247          44.000  
  21150933.434   111148912.363       -1447.701          45.000  
  20651694.109   108525372.325         496.893          46.000  
  24760993.276   130119923.7812      -4060.300          27.000  
  23056823.840                       -3270.888          24.000  
  24574365.588   129139012.547        3117.932          33.000  
 23  7  2 19 44 19.0000000  0  9G 5G11G13G20G 7G30G 6G 9G14
  21399355.192   112454367.293        2008.927          44.000  
  22437423.471   117909445.575       -2934.965          42.000  
  22598823.423   118757621.171        2665.175          41.000  
  20254181.499   106436429.220         219.740          44.000  
  21151208.847   111150360.442       -1447.994          45.000  
  20651599.467   108524875.726         496.693          46.000  
  24761764.781   130123984.4162      -4060.486          27.000  
  23057447.555                       -3268.468          22.000  
  24573772.346   129135894.822        3117.449          33.000  
 23  7  2 19 44 20.0000000  0  9G 5G11G13G20G 7G30G 6G 9G14
  21398972.531   112452358.570        2008.450          44.000  
  22437981.926   117912380.731       -2935.751          42.000  
  22598316.756   118754956.003        2664.385          40.000  
  20254139.693   106436209.742         218.916          44.000  
  21151484.203   111151808.597       -1448.717          45.000  
  20651504.625   108524379.298         495.771          46.000  
  24762537.328   130128044.5192      -4060.300          28.000  
  23058074.401                       -3264.345          21.000  
  24573178.655   129132776.707        3116.907          31.000  
 23  7  2 19 44 21.0000000  0  9G 5G11G13G20G 7G30G 6G 9G14
  21398590.306   112450350.644        2007.250          44.000  
  22438540.643   117915316.634       -2936.620          42.000  
  22597809.701   118752291.344        2664.494          40.000  
  20254098.327   106435991.198         218.014          44.000  
  21151759.720   111153257.528       -1449.383          45.000  
  20651409.962   108523883.776         494.777          46.000  
  24763305.744   130132104.9512      -4060.489          28.000  
  23058693.452                       -3264.345          18.000  
  24572585.055   129129658.942        3117.084          30.000  
 23  7  2 19 44 22.0000000  0  9G 5G11G13G20G 7G30G 6G 9G14
  21398208.259   112448343.323        2006.964          44.000  
  22439099.211   117918253.158       -2936.827          42.000  
  22597302.833   118749627.080        2663.902          40.000  
  20254056.926   106435773.499         217.089          44.000  
  21152035.416   111154707.119       -1449.955          45.000  
  20651315.552   108523388.983         494.384          46.000  
  24764078.431   130136165.5432      -4060.757          28.000  
  23059312.935                       -3265.379          17.000  
  24571991.311   129126541.327        3117.871          30.000  
 23  7  2 19 44 23.0000000  0  9G 5G11G13G20G 7G30G 6G 9G14
  21397826.047   112446336.500        2006.870          44.000  
  22439657.548   117921190.229       -2937.266          42.000  
  22596796.114   118746963.091        2663.849          40.000  
  20254015.451   106435556.453         216.689          44.000  
  21152311.731   111156157.256       -1450.336          45.000  
  20651221.421   108522894.822         493.747          45.000  
  24764847.034   130140226.1492      -4060.128          28.000  
  23059936.222                       -3262.449          18.000  
  24571400.936   129123423.827        3117.666          29.000  
 23  7  2 19 44 24.0000000  0  9G 5G11G13G20G 7G30G 6G 9G14
  21397443.944   112444329.738        2006.331          44.000  
  22440216.414   117924127.302       -2937.804          42.000  
  22596289.399   118744298.903        2664.043          40.000  
  20253973.510   106435339.608         216.666          43.000  
  21152587.501   111157607.421       -1450.395          45.000  
  20651127.256   108522400.801         493.522          45.000  
  24765617.483   130144286.3372      -4060.402          28.000  
  23060560.120                       -3267.196          21.000  
  24570813.871   129120305.910        3118.077          29.000  
 23  7  2 19 44 25.0000000  0  9G 5G11G13G20G 7G30G 6G 9G14
  21397062.395   112442323.494        2005.822          44.000  
  22440775.300   117927064.834       -2937.652          42.000  
  22595782.827   118741634.975        2663.708          41.000  
  20253931.974   106435123.452         215.826          43.000  
  21152863.494   111159058.124       -1450.950          45.000  
  20651032.894   108521907.427         492.887          46.000  
  24766391.291   130148346.0671      -4060.671          28.000  
  23061177.081                       -3267.355          23.000  
  24570222.989   129117188.036        3118.269          29.000  
 23  7  2 19 44 26.0000000  0  9G 5G11G13G20G 7G30G 6G 9G14
  21396680.951   112440318.129        2005.443          45.000  
  22441334.759   117930003.333       -2938.547          41.000  
  22595276.697   118738971.725        2663.187          41.000  
  20253890.407   106434908.389         214.940          43.000  
  21153139.705   111160509.774       -1451.580          45.000  
  20650939.264   108521415.092         492.095          46.000  
  24767175.461   130152406.598       -4059.295          30.000  
  23061796.271                       -3265.426          23.000  
  24569630.240   129114070.785        3117.123          29.000  
 23  7  2 19 44 27.0000000  0  9G 5G11G13G20G 7G30G 6G 9G14
  21396299.860   112438313.219        2005.026          45.000  
  22441894.082   117932942.273       -2939.069          42.000  
  22594769.812   118736308.708        2662.947          41.000  
  20253849.552   106434693.942         214.381          43.000  
  21153415.798   111161961.910       -1452.397          45.000  
  20650845.653   108520923.328         491.748          46.000  
  24767951.720   130156467.266       -4060.514          30.000  
  23062421.635                       -3265.475          23.000  
  24569036.156   129110953.388        3117.907          28.000  
 23  7  2 19 44 28.0000000  0  9G 5G11G13G20G 7G30G 6G 9G14
  21395918.289   112436308.283        2004.705          45.000  
  22442453.994   117935881.175       -2939.451          42.000  
  22594263.594   118733645.398        2663.046          42.000  
  20253808.640   106434479.636         213.710          43.000  
  21153692.069   111163414.007       -1452.482          45.000  
  20650752.098   108520431.628         491.135          45.000  
  24768727.588   130160527.266       -4059.994          30.000  
  23063043.085                       -3270.457          22.000  
  24568438.011                        3116.603          26.000  
 23  7  2 19 44 29.0000000  0  9G 5G11G13G20G 7G30G 6G 9G14
  21395536.592   112434304.068        2003.935          44.000  
  22443014.155   117938820.784       -2939.988          43.000  
  22593757.381   118730982.593        2662.814          42.000  
  20253768.108   106434266.192         213.177          43.000  
  21153968.442   111164866.871       -1453.045          45.000  
  20650658.255   108519940.768         490.626          45.000  
  24769506.387   130164587.597       -4060.518          30.000  
  23063666.010                       -3264.436          22.000  
  24567842.653                        3117.501          26.000  
 23  7  2 19 44 30.0000000  0  9G 5G11G13G20G 7G30G 6G 9G14
  21395154.868   112432300.318        2003.819          44.000  
  22443574.102   117941760.841       -2940.229          44.000  
  22593250.971   118728320.020        2662.827          41.000  
  20253727.715   106434053.404         212.770          43.000  
  21154245.067   111166320.185       -1453.027          45.000  
  20650564.421   108519450.510         490.392          45.000  
  24770276.805   130168647.870       -4059.863          29.000  
  23064286.614                       -3268.569          23.000  
  24567249.154                        3116.881          25.000  
 23  7  2 19 44 31.0000000  0  9G 5G11G13G20G 7G30G 6G 9G14
  21394773.398   112430296.969        2003.256          44.000  
  22444133.865   117944701.276       -2940.539          44.000  
  22592744.867   118725657.555        2662.473          42.000  
  20253687.418   106433841.151         212.135          43.000  
  21154521.583   111167773.925       -1453.779          45.000  
  20650470.700   108518960.739         489.451          45.000  
  24771039.864   130172708.064       -4060.257          29.000  
  23064909.373                       -3267.512          24.000  
  24566650.031   129098648.7473       3117.316          25.000  
 23  7  2 19 44 32.0000000  0  9G 5G11G13G20G 7G30G 6G 9G14
  21394392.224   112428293.764        2002.992          44.000  
  22444693.926   117947641.837       -2940.625          44.000  
  22592238.117   118722994.996        2662.708          41.000  
  20253646.959   106433629.240         211.643          43.000  
  21154798.928   111169227.830       -1454.251          45.000  
  20650377.298   108518471.235         489.441          45.000  
  24771813.327   130176767.898       -4059.655          29.000  
  23065532.991                       -3267.396          25.000  
  24566053.622   129095531.0172       3118.284          26.000  
 23  7  2 19 44 33.0000000  0  9G 5G11G13G20G 7G30G 6G 9G14
  21394010.976   112426290.978        2002.455          44.000  
  22445253.729   117950582.852       -2941.104          43.000  
  22591730.695   118720332.667        2662.322          40.000  
  20253607.003   106433417.927         211.126          43.000  
  21155076.208   111170682.178       -1454.601          46.000  
  20650284.087   108517982.282         488.709          45.000  
  24772593.758   130180827.703       -4060.825          31.000  
  23066155.907                       -3265.751          24.000  
  24565465.331   129092413.2852       3117.964          27.000  
 23  7  2 19 44 34.0000000  0  9G 5G11G13G20G 7G30G 6G 9G14
  21393630.352   112424288.934        2002.007          45.000  
  22445813.545   117953524.562       -2941.775          44.000  
  22591223.740   118717670.788        2662.279          40.000  
  20253567.007   106433207.482         210.247          43.000  
  21155353.640   111172137.277       -1455.319          46.000  
  20650191.732   108517494.173         487.970          45.000  
  24773369.040   130184887.714       -4060.075          32.000  
  23066775.948                       -3265.322          23.000  
  24564877.359   129089295.8872       3116.932          28.000  
 23  7  2 19 44 35.0000000  0  9G 5G11G13G20G 7G30G 6G 9G14
  21393249.758   112422287.540        2001.504          44.000  
  22446373.967   117956466.953       -2942.123          44.000  
  22590716.724   118715009.361        2661.771          39.000  
  20253527.050   106432997.900         209.689          43.000  
  21155630.933   111173593.041       -1455.583          46.000  
  20650099.420   108517006.849         487.465          46.000  
  24774139.808   130188947.916       -4059.930          31.000  
  23067400.461                       -3268.623          23.000  
  24564287.564   129086178.6252       3117.245          28.000  
 23  7  2 19 44 36.0000000  0  9G 5G11G13G20G 7G30G 6G 9G14
  21392868.362   112420285.907        2001.250          44.000  
  22446934.494   117959409.087       -2942.564          45.000  
  22590209.743   118712347.471        2661.412          39.000  
  20253486.932   106432788.232         209.109          43.000  
  21155907.793   111175048.581       -1455.973          46.000  
  20650006.406   108516519.380         487.058          46.000  
  24774912.333   130193007.385       -4059.101          31.000  
  23068023.408                       -3270.164          23.000  
  24563695.308   129083060.7012       3117.875          28.000  
 23  7  2 19 44 37.0000000  0  9G 5G11G13G20G 7G30G 6G 9G14
  21392486.974   112418285.160        2000.114          44.000  
  22447495.004   117962352.080       -2943.624          45.000  
  22589702.648   118709686.194        2660.979          39.000  
  20253447.416   106432579.606         207.940          43.000  
  21156184.615   111176505.026       -1456.998          46.000  
  20649913.741   108516032.912         485.708          45.000  
  24775681.499   130197067.255       -4059.650          31.000  
  23068644.788                       -3275.452          22.000  
  24563103.440   129079942.7411       3117.250          28.000  
 23  7  2 19 44 38.0000000  0  9G 5G11G13G20G 7G30G 6G 9G14
  21392106.690   112416285.059        1999.691          44.000  
  22448056.011   117965295.697       -2944.022          45.000  
  22589196.531   118707025.314        2660.585          39.000  
  20253407.996   106432371.790         207.529          43.000  
  21156461.829   111177962.141       -1457.509          46.000  
  20649821.456   108515547.205         485.487          45.000  
  24776452.594   130201127.266       -4059.295          30.000  
  23069263.695                       -3264.801          22.000  
  24562511.175   129076825.510        3117.281          28.000  
 23  7  2 19 44 39.0000000  0  9G 5G11G13G20G 7G30G 6G 9G14
  21391726.659   112414285.502        1999.384          44.000  
  22448616.756   117968239.852       -2944.463          45.000  
  22588690.889   118704364.729        2660.903          40.000  
  20253367.978   106432164.701         206.864          43.000  
  21156739.449   111179419.800       -1457.903          46.000  
  20649728.717   108515062.169         484.875          45.000  
  24777226.149   130205187.346       -4060.053          30.000  
  23069881.101                       -3267.680          25.000  
  24561914.509   129073708.406        3117.208          28.000  
 23  7  2 19 44 40.0000000  0  9G 5G11G13G20G 7G30G 6G 9G14
  21391346.607   112412286.102        1999.016          44.000  
  22449177.314   117971184.161       -2944.813          45.000  
  22588184.562   118701704.095        2660.293          40.000  
  20253328.602   106431957.933         206.497          43.000  
  21157017.235   111180877.643       -1458.149          46.000  
  20649636.501   108514577.401         484.476          45.000  
  24778001.995   130209247.101       -4059.749          31.000  
  23070502.481                       -3268.104          24.000  
  24561319.788   129070590.996        3117.503          27.000  
 23  7  2 19 44 41.0000000  0  9G 5G11G13G20G 7G30G 6G 9G14
  21390966.061   112410287.238        1997.919          44.000  
  22449737.985   117974128.983       -2945.613          44.000  
  22587677.995   118699043.756        2659.546          40.000  
  20253289.531   106431751.885         205.140          43.000  
  21157294.789   111182336.035       -1459.260          46.000  
  20649544.525   108514093.294         483.345          45.000  
  24778771.968   130213306.965       -4061.443          30.000  
  23071124.241                       -3270.365          22.000  
  24560730.791   129067473.768        3116.646          27.000  
 23  7  2 19 44 42.0000000  0  9G 5G11G13G20G 7G30G 6G 9G14
  21390585.891   112408289.080        1997.887          44.000  
  22450298.277   117977074.539       -2945.892          44.000  
  22587172.048   118696383.887        2659.396          40.000  
  20253250.155   106431546.721         204.609          42.000  
  21157572.784   111183795.155       -1459.470          46.000  
  20649452.920   108513610.011         482.692          45.000  
  24779541.361   130217366.952       -4060.092          29.000  
  23071746.660                       -3270.365          19.000  
  24560139.900   129064356.677        3117.263          28.000  
 23  7  2 19 44 43.0000000  0  9G 5G11G13G20G 7G30G 6G 9G14
  21390205.572   112406291.343        1997.735          44.000  
  22450858.839   117980020.492       -2946.146          44.000  
  22586666.485   118693724.181        2659.849          40.000  
  20253210.913   106431342.146         204.306          42.000  
  21157851.028   111185254.715       -1459.620          46.000  
  20649361.547   108513127.254         482.566          45.000  
  24780322.210   130221426.910       -4059.900          30.000  
  23072362.740                       -3270.285          20.000  
  24559541.480   129061239.776        3116.661          30.000  
 23  7  2 19 44 44.0000000  0  9G 5G11G13G20G 7G30G 6G 9G14
  21389825.048   112404293.554        1997.601          44.000  
  22451419.253   117982966.389       -2946.210          44.000  
  22586160.572   118691064.212        2659.990          41.000  
  20253171.524   106431137.670         204.089          42.000  
  21158128.835   111186714.246       -1459.633          46.000  
  20649269.610   108512644.582         482.371          45.000  
  24781091.486   130225486.330       -4059.461          31.000  
  23072979.679                       -3265.760          22.000  
  24558946.754   129058122.239        3117.543          30.000  
 23  7  2 19 44 45.0000000  0  9G 5G11G13G20G 7G30G 6G 9G14
  21389445.296   112402296.384        1996.544          44.000  
  22451980.164   117985912.888       -2947.218          44.000  
  22585654.660   118688404.604        2658.667          40.000  
  20253133.051   106430933.972         203.004          42.000  
  21158407.018   111188174.410       -1460.892          47.000  
  20649177.997   108512162.612         481.271          45.000  
  24781861.690   130229545.899       -4060.838          30.000  
  23073594.791                       -3265.986          21.000  
  24558347.243   129055004.971        3116.687          29.000  
 23  7  2 19 44 46.0000000  0  9G 5G11G13G20G 7G30G 6G 9G14
  21389065.876   112400300.011        1996.161          45.000  
  22452540.608   117988860.164       -2947.459          44.000  
  22585148.512   118685745.553        2658.894          40.000  
  20253094.302   106430731.266         202.475          42.000  
  21158684.904   111189635.399       -1461.154          47.000  
  20649086.640   108511681.591         480.703          45.000  
  24782639.695   130233605.779       -4060.225          31.000  
  23074221.677                       -3258.236          20.000  
  24557751.716   129051888.006        3117.935          28.000  
 23  7  2 19 44 47.0000000  0  9G 5G11G13G20G 7G30G 6G 9G14
  21388686.596   112398304.149        1995.712          45.000  
  22453101.113   117991807.955       -2948.022          44.000  
  22584642.360   118683086.783        2658.521          40.000  
  20253055.785   106430529.226         201.715          42.000  
  21158963.021   111191096.905       -1461.611          47.000  
  20648995.319   108511201.183         480.210          45.000  
  24783406.807   130237665.648       -4059.654          31.000  
  23074852.227                       -3265.636          20.000  
  24557152.296   129048771.205        3116.959          28.000  
 23  7  2 19 44 48.0000000  0  9G 5G11G13G20G 7G30G 6G 9G14
  21388306.792   112396308.400        1995.369          45.000  
  22453661.802   117994755.834       -2948.153          44.000  
  22584135.976   118680427.882        2658.633          40.000  
  20253017.421   106430327.461         201.475          43.000  
  21159241.121   111192558.539       -1461.947          47.000  
  20648904.434   108510720.988         479.912          46.000  
  24784173.574   130241725.133       -4059.605          31.000  
  23075490.871                       -3277.010          23.000  
  24556571.344   129045654.034        3117.303          28.000  
 23  7  2 19 44 49.0000000  0  9G 5G11G13G20G 7G30G 6G 9G14
  21387926.927   112394313.110        1995.341          44.000  
  22454222.399   117997704.168       -2948.224          44.000  
  22583629.959   118677769.177        2659.018          40.000  
  20252979.209   106430126.332         201.167          42.000  
  21159518.898   111194020.641       -1461.972          46.000  
  20648813.553   108510241.380         479.675          46.000  
  24784944.625   130245784.611       -4059.204          31.000  
  23076118.158                       -3267.579          23.000  
  24555980.710   129042536.907        3117.193          28.000  
 23  7  2 19 44 50.0000000  0  9G 5G11G13G20G 7G30G 6G 9G14
  21387547.027   112392318.460        1994.464          44.000  
  22454783.349   118000653.132       -2949.378          43.000  
  22583123.484   118675110.899        2657.995          39.000  
  20252940.719   106429925.985         199.911          42.000  
  21159796.919   111195483.387       -1463.071          46.000  
  20648723.139   108509762.516         478.502          46.000  
  24785715.841   130249844.248       -4060.426          31.000  
  23076736.873                       -3271.601          22.000  
  24555385.038   129039419.954        3117.041          28.000  
 23  7  2 19 44 51.0000000  0  9G 5G11G13G20G 7G30G 6G 9G14
  21387167.611   112390324.418        1993.981          44.000  
  22455344.797   118003602.682       -2949.841          43.000  
  22582617.436   118672452.981        2657.841          40.000  
  20252902.564   106429726.439         199.293          42.000  
  21160075.342   111196946.781       -1463.641          46.000  
  20648632.738   108509284.382         477.881          46.000  
  24786489.807   130253903.972       -4059.125          32.000  
  23077355.950                       -3263.721          20.000  
  24554793.009   129036303.199        3116.603          28.000  
 23  7  2 19 44 52.0000000  0  9G 5G11G13G20G 7G30G 6G 9G14
  21386788.065   112388330.346        1993.799          44.000  
  22455905.765   118006552.211       -2949.943          43.000  
  22582111.118   118669794.785        2657.986          39.000  
  20252864.801   106429527.039         199.112          42.000  
  21160353.934   111198410.151       -1463.662          46.000  
  20648542.604   108508806.344         477.943          47.000  
  24787262.441   130257963.239       -4059.640          32.000  
  23077969.875                       -3267.472          21.000  
  24554193.778   129033186.060        3116.833          29.000  
 23  7  2 19 44 53.0000000  0  9G 5G11G13G20G 7G30G 6G 9G14
  21386408.653   112386336.942        1992.771          44.000  
  22456467.077   118009502.357       -2950.765          43.000  
  22581604.512   118667137.019        2657.385          39.000  
  20252827.654   106429328.455         197.899          43.000  
  21160632.475   111199874.181       -1464.639          46.000  
  20648452.294   108508329.059         476.700          46.000  
  24788035.224   130262022.604       -4060.257          32.000  
  23078589.623                       -3270.883          25.000  
  24553590.842   129030069.068        3116.888          28.000  
 23  7  2 19 44 54.0000000  0  9G 5G11G13G20G 7G30G 6G 9G14
  21386029.608   112384344.359        1992.179          44.000  
  22457028.944   118012453.326       -2951.285          43.000  
  22581098.853   118664479.796        2656.807          40.000  
  20252790.110   106429130.845         197.204          42.000  
  21160911.438   111201339.048       -1465.328          47.000  
  20648361.510   108507852.724         475.927          46.000  
  24788807.793   130266082.345       -4060.018          33.000  
  23079210.651   121282077.7043      -3270.765          27.000  
  24552996.741   129026952.421        3116.543          28.000  
 23  7  2 19 44 55.0000000  0  9G 5G11G13G20G 7G30G 6G 9G14
  21385650.590   112382352.228        1992.213          44.000  
  22457590.745   118015404.750       -2951.516          42.000  
  22580592.666   118661822.852        2656.657          39.000  
  20252752.178   106428933.899         196.782          42.000  
  21161190.114   111202804.399       -1465.329          47.000  
  20648271.157   108507376.970         475.629          46.000  
  24789580.807   130270142.033       -4059.305          33.000  
  23079827.127   121285348.7152      -3270.968          28.000  
  24552391.554   129023836.073        3114.889          27.000  
 23  7  2 19 44 56.0000000  0  9G 5G11G13G20G 7G30G 6G 9G14
  21385271.514   112380360.211        1991.672          44.000  
  22458151.848   118018356.270       -2951.939          42.000  
  22580086.815   118659165.734        2656.843          40.000  
  20252714.529   106428737.206         196.280          42.000  
  21161469.095   111204269.868       -1465.721          47.000  
  20648180.612   108506901.435         475.139          46.000  
  24790353.259   130274201.306       -4059.149          32.000  
  23080443.469   121288619.4792      -3270.728          28.000  
  24551789.622   129020719.095        3116.687          26.000  
 23  7  2 19 44 57.0000000  0  9G 5G11G13G20G 7G30G 6G 9G14
  21384892.718   112378368.804        1991.035          45.000  
  22458713.487   118021308.398       -2952.352          43.000  
  22579581.888   118656509.006        2656.603          41.000  
  20252677.020   106428541.303         195.781          42.000  
  21161748.573   111205735.965       -1466.402          47.000  
  20648090.124   108506426.633         474.320          46.000  
  24791126.028   130278260.779       -4059.504          32.000  
  23081061.333   121291890.4932      -3270.896          29.000  
  24551191.385   129017602.372        3117.500          25.000  
 23  7  2 19 44 58.0000000  0  9G 5G11G13G20G 7G30G 6G 9G14
  21384513.952   112376377.897        1990.627          45.000  
  22459275.533   118024261.017       -2952.730          42.000  
  22579076.469   118653852.548        2656.464          41.000  
  20252640.078   106428346.075         194.839          42.000  
  21162028.196   111207202.592       -1466.940          47.000  
  20648000.055   108505952.444         473.605          46.000  
  24791898.484   130282320.225       -4059.712          33.000  
  23081677.121   121295161.7782      -3271.629          28.000  
  24550600.965   129014485.854        3116.125          25.000  
 23  7  2 19 44 59.0000000  0  9G 5G11G13G20G 7G30G 6G 9G14
  21384134.933   112374387.546        1990.056          45.000  
  22459837.264   118027214.152       -2953.084          42.000  
  22578571.132   118651196.354        2656.319          41.000  
  20252602.952   106428151.559         194.252          42.000  
  21162307.630   111208669.757       -1467.237          47.000  
  20647909.732   108505478.912         473.298          46.000  
  24792671.215   130286379.696       -4058.733          33.000  
  23082310.058   121298433.2722      -3271.852          27.000  
  24550016.357   129011369.408        3116.679          26.000  
 23  7  2 19 45  0.0000000  0  9G 5G11G13G20G 7G30G 6G 9G14
  21383756.128   112372397.309        1989.943          45.000  
  22460398.476   118030167.421       -2953.526          42.000  
  22578065.796   118648540.075        2656.233          41.000  
  20252566.158   106427957.329         193.759          43.000  
  21162586.437   111210137.085       -1467.780          47.000  
  20647819.192   108505005.607         473.020          46.000  
  24793443.910   130290438.842       -4058.923          33.000  
  23082940.046   121301704.5222      -3271.150          27.000  
  24549424.895                        3117.034          25.000  
 23  7  2 19 45  1.0000000  0  9G 5G11G13G20G 7G30G 6G 9G14
  21383377.302   112370407.680        1989.371          44.000  
  22460959.919   118033121.214       -2953.787          42.000  
  22577560.411   118645884.124        2655.903          41.000  
  20252529.373   106427763.842         193.382          42.000  
  21162865.653   111211605.004       -1468.131          47.000  
  20647728.673   108504532.994         472.313          46.000  
  24794216.951   130294498.043       -4058.248          34.000  
  23083560.183                       -3271.559          25.000  
  24548836.469                        3116.603          26.000  
 23  7  2 19 45  2.0000000  0  9G 5G11G13G20G 7G30G 6G 9G14
  21382998.139   112368418.786        1988.633          44.000  
  22461521.219   118036075.771       -2954.994          41.000  
  22577055.345   118643228.638        2655.534          41.000  
  20252492.588   106427571.253         192.007          43.000  
  21163145.162   111213073.653       -1469.023          47.000  
  20647638.255   108504061.223         471.652          45.000  
  24794989.947   130298557.537       -4059.274          34.000  
  23084188.024                       -3275.767          22.000  
  24548247.786                        3116.843          26.000  
 23  7  2 19 45  3.0000000  0  9G 5G11G13G20G 7G30G 6G 9G14
  21382619.539   112366430.273        1988.638          44.000  
  22462082.348   118039030.665       -2954.762          40.000  
  22576550.362   118640573.362        2655.615          41.000  
  20252456.113   106427379.223         192.131          43.000  
  21163424.497   111214542.724       -1469.122          47.000  
  20647547.858   108503589.978         471.425          45.000  
  24795763.070   130302616.951       -4059.175          34.000  
  23084813.008                       -3276.708          22.000  
  24547658.370                        3116.977          26.000  
 23  7  2 19 45  4.0000000  0  9G 5G11G13G20G 7G30G 6G 9G14
  21382240.913   112364441.785        1988.247          45.000  
  22462644.166   118041985.573       -2955.073          40.000  
  22576045.157   118637917.832        2655.496          41.000  
  20252419.180   106427187.396         191.658          42.000  
  21163703.512   111216011.834       -1469.446          47.000  
  20647457.706   108503118.873         470.842          45.000  
  24796535.984   130306675.850       -4058.686          35.000  
  23085433.677                       -3272.878          23.000  
  24547066.537                        3116.353          26.000  
 23  7  2 19 45  5.0000000  0  9G 5G11G13G20G 7G30G 6G 9G14
  21381862.871   112362454.065        1987.567          44.000  
  22463206.369   118044941.265       -2955.943          40.000  
  22575540.610   118635262.866        2654.816          41.000  
  20252383.088   106426996.508         190.627          43.000  
  21163983.348   111217481.707       -1469.947          47.000  
  20647367.654   108502648.631         470.183          45.000  
  24797308.859   130310735.007       -4058.964          34.000  
  23086054.552                       -3269.791          21.000  
  24546474.643                        3116.407          26.000  
 23  7  2 19 45  6.0000000  0  9G 5G11G13G20G 7G30G 6G 9G14
  21381484.538   112360466.864        1986.959          44.000  
  22463768.680   118047897.464       -2956.738          40.000  
  22575035.753   118632608.153        2654.359          41.000  
  20252347.080   106426806.296         189.893          43.000  
  21164263.298   111218952.144       -1470.793          47.000  
  20647277.716   108502179.037         469.324          44.000  
  24798081.951   130314794.241       -4059.238          35.000  
  23086673.755                       -3267.556          20.000  
  24545880.324                        3115.857          25.000  
 23  7  2 19 45  7.0000000  0  9G 5G11G13G20G 7G30G 6G 9G14
  21381106.117   112358480.220        1986.713          44.000  
  22464331.428   118050854.193       -2956.810          42.000  
  22574530.801   118629953.800        2654.196          41.000  
  20252311.490   106426616.840         189.424          43.000  
  21164543.378   111220423.153       -1471.009          47.000  
  20647188.148   108501710.142         468.898          45.000  
  24798854.726   130318853.528       -4058.859          35.000  
  23087288.273                       -3270.307          20.000  
  24545292.147                        3114.912          23.000  
 23  7  2 19 45  8.0000000  0  9G 5G11G13G20G 7G30G 6G 9G14
  21380727.582   112356493.723        1986.373          44.000  
  22464894.324   118053811.068       -2957.240          41.000  
  22574025.639   118627299.300        2654.528          41.000  
  20252276.131   106426427.695         188.894          43.000  
  21164823.690   111221894.319       -1471.479          47.000  
  20647099.156   108501241.480         468.351          45.000  
  24799627.412   130322912.444       -4059.029          35.000  
  23087902.006                       -3276.368          21.000  
  24544701.025                        3110.204          23.000  
 23  7  2 19 45  9.0000000  0  9G 5G11G13G20G 7G30G 6G 9G14
  21380350.125   112354507.831        1985.242          45.000  
  22465456.627   118056768.506       -2958.050          41.000  
  22573520.241   118624645.227        2653.334          40.000  
  20252240.659   106426239.297         187.825          42.000  
  21165103.456   111223366.104       -1472.360          47.000  
  20647009.654   108500773.546         467.215          45.000  
  24800399.742   130326971.514       -4059.885          34.000  
  23088519.015                       -3268.141          22.000  
  24544113.952                        3116.179          23.000  
 23  7  2 19 45 10.0000000  0  9G 5G11G13G20G 7G30G 6G 9G14
  21379973.253   112352522.581        1984.744          45.000  
  22466020.286   118059726.601       -2958.705          42.000  
  22573014.918   118621991.487        2653.494          38.000  
  20252205.358   106426051.729         187.168          43.000  
  21165383.480   111224838.556       -1473.007          47.000  
  20646920.392   108500306.381         466.580          44.000  
  24801171.604   130331030.703       -4058.975          34.000  
  23089141.421                       -3267.273          19.000  
  24543521.634                        3117.093          23.000  
 23  7  2 19 45 11.0000000  0  9G 5G11G13G20G 7G30G 6G 9G14
  21379595.613   112350537.832        1984.557          45.000  
  22466583.557   118062685.117       -2958.656          41.000  
  22572509.014   118619338.029        2653.307          38.000  
  20252169.751   106425864.822         186.521          43.000  
  21165664.110   111226311.490       -1473.226          46.000  
  20646831.632   108499839.793         466.382          45.000  
  24801943.890   130335089.894       -4059.578          35.000  
  23089763.137                       -3276.248          20.000  
  24542931.464                        3115.147          20.000  
 23  7  2 19 45 12.0000000  0  9G 5G11G13G20G 7G30G 6G 9G14
  21379217.981   112348553.034        1984.274          45.000  
  22467146.536   118065643.656       -2958.976          41.000  
  22572004.371   118616684.297        2653.521          41.000  
  20252133.829   106425678.050         186.138          43.000  
  21165943.942   111227784.416       -1473.302          46.000  
  20646742.897   108499373.312         466.038          45.000  
  24802716.511   130339148.565       -4058.355          36.000  
  23090382.681                       -3263.276          22.000  
  24542337.109                        3121.509          20.000  
 23  7  2 19 45 13.0000000  0  9G 5G11G13G20G 7G30G 6G 9G14
  21378840.930   112346569.104        1983.522          45.000  
  22467710.257   118068603.052       -2959.902          41.000  
  22571500.012   118614031.248        2652.598          41.000  
  20252098.266   106425492.312         185.191          43.000  
  21166224.489   111229258.236       -1474.228          47.000  
  20646654.774   108498907.833         464.953          46.000  
  24803489.604   130343207.634       -4059.079          36.000  
  23091008.856                       -3275.202          25.000  
  24541739.963                        3115.513          24.000  
 23  7  2 19 45 14.0000000  0  9G 5G11G13G20G 7G30G 6G 9G14
  21378464.075   112344585.889        1983.218          46.000  
  22468272.917   118071563.109       -2960.113          40.000  
  22570995.208   118611378.606        2652.942          41.000  
  20252062.615   106425307.467         184.749          43.000  
  21166505.062   111230732.762       -1474.453          47.000  
  20646567.099   108498443.153         464.890          46.000  
  24804261.994   130347266.925       -4058.881          35.000  
  23091633.351                       -3273.266          25.000  
  24541144.954   128964597.2463       3115.617          27.000  
 23  7  2 19 45 15.0000000  0  9G 5G11G13G20G 7G30G 6G 9G14
  21378087.177   112342603.079        1982.486          46.000  
  22468836.023   118074523.547       -2960.696          41.000  
  22570490.787   118608726.130        2652.189          40.000  
  20252027.523   106425123.158         183.870          43.000  
  21166785.683   111232207.710       -1475.189          46.000  
  20646478.779   108497978.987         463.890          46.000  
  24805034.310   130351326.046       -4058.746          35.000  
  23092263.265   121350625.6303      -3273.898          27.000  
  24540548.375   128961481.4782       3115.835          26.000  
 23  7  2 19 45 16.0000000  0  9G 5G11G13G20G 7G30G 6G 9G14
  21377710.518   112340620.379        1982.322          46.000  
  22469399.804   118077484.104       -2960.916          42.000  
  22569985.425   118606073.574        2652.084          40.000  
  20251992.923   106424939.170         183.328          43.000  
  21167066.715   111233682.807       -1475.472          46.000  
  20646390.656   108497515.102         463.431          46.000  
  24805806.574   130355384.868       -4058.630          35.000  
  23092891.006   121353899.6732      -3273.284          27.000  
  24539953.510   128958365.3552       3116.055          28.000  
 23  7  2 19 45 17.0000000  0  9G 5G11G13G20G 7G30G 6G 9G14
  21377334.243   112338638.227        1981.671          46.000  
  22469963.311   118080445.180       -2961.688          41.000  
  22569480.489   118603421.249        2651.893          41.000  
  20251957.717   106424755.877         182.684          43.000  
  21167347.188   111235158.429       -1476.006          46.000  
  20646302.441   108497051.803         462.790          45.000  
  24806579.152   130359443.737       -4059.846          35.000  
  23093517.286                       -3273.514          24.000  
  24539355.447   128955249.3692       3114.962          27.000  
 23  7  2 19 45 18.0000000  0  9G 5G11G13G20G 7G30G 6G 9G14
  21376957.257   112336656.680        1981.499          46.000  
  22470527.184   118083406.814       -2961.777          41.000  
  22568975.969   118600769.352        2651.680          41.000  
  20251922.616   106424573.344         182.410          42.000  
  21167628.023   111236634.694       -1476.451          46.000  
  20646214.697   108496589.263         462.120          46.000  
  24807351.629   130363502.662       -4058.780          35.000  
  23094142.038                       -3275.127          21.000  
  24538754.719                        3115.487          25.000  
 23  7  2 19 45 19.0000000  0  9G 5G11G13G20G 7G30G 6G 9G14
  21376579.923   112334675.695        1980.879          46.000  
  22471089.832   118086369.059       -2962.169          39.000  
  22568471.906   118598117.726        2651.708          42.000  
  20251888.065   106424391.573         181.528          43.000  
  21167909.128   111238111.523       -1476.854          46.000  
  20646127.110   108496127.355         461.687          46.000  
  24808124.067   130367561.657       -4058.517          35.000  
  23094764.941                       -3275.693          19.000  
  24538149.725                        3115.835          25.000  
 23  7  2 19 45 20.0000000  0  9G 5G11G13G20G 7G30G 6G 9G14
  21376202.605   112332694.682        1980.762          46.000  
  22471652.728   118089331.234       -2962.492          40.000  
  22567967.905   118595465.871        2651.768          42.000  
  20251853.461   106424209.934         180.924          43.000  
  21168189.985   111239588.345       -1477.162          46.000  
  20646039.409   108495665.566         461.425          46.000  
  24808896.484   130371620.187       -4058.448          35.000  
  23095384.175                       -3279.577          21.000  
  24537553.874                        3116.594          25.000  
 23  7  2 19 45 21.0000000  0  9G 5G11G13G20G 7G30G 6G 9G14
  21375826.182   112330714.532        1979.786          46.000  
  22472216.457   118092294.262       -2963.244          41.000  
  22567463.183   118592814.605        2651.380          40.000  
  20251819.237   106424029.277         180.203          42.000  
  21168471.195   111241066.029       -1478.158          46.000  
  20645951.181   108495204.731         460.479          45.000  
  24809669.079   130375679.061       -4059.396          35.000  
  23096005.360                       -3284.077          21.000  
  24536965.243                        3114.716          25.000  
 23  7  2 19 45 22.0000000  0  9G 5G11G13G20G 7G30G 6G 9G14
  21375449.576   112328735.028        1979.214          46.000  
  22472780.863   118095257.880       -2964.153          41.000  
  22566958.043   118590163.774        2650.612          40.000  
  20251784.725   106423849.482         179.453          42.000  
  21168752.676   111242544.355       -1478.771          46.000  
  20645863.982   108494744.663         459.586          46.000  
  24810441.522   130379738.037       -4058.682          35.000  
  23096623.835                       -3281.718          23.000  
  24536378.414                        3114.379          22.000  
 23  7  2 19 45 23.0000000  0  9G 5G11G13G20G 7G30G 6G 9G14
  21375072.843   112326755.863        1979.246          45.000  
  22473345.381   118098221.815       -2963.452          41.000  
  22566452.449   118587513.025        2651.163          39.000  
  20251750.177   106423670.162         179.333          42.000  
  21169034.441   111244023.035       -1478.552          47.000  
  20645776.173   108494285.022         459.650          45.000  
  24811214.121   130383796.913       -4058.547          35.000  
  23097243.326                       -3282.621          24.000  
  24535790.534                        3116.410          22.000  
 23  7  2 19 45 24.0000000  0  9G 5G11G13G20G 7G30G 6G 9G14
  21374695.670   112324776.752        1978.818          44.000  
  22473909.761   118101185.823       -2964.307          42.000  
  22565947.178   118584862.093        2650.717          39.000  
  20251715.582   106423491.066         178.909          42.000  
  21169315.607   111245501.781       -1478.934          47.000  
  20645688.459   108493825.585         459.154          45.000  
  24811986.477   130387855.316       -4058.761          35.000  
  23097867.067                       -3275.570          25.000  
  24535204.856                        3118.859          23.000  
 23  7  2 19 45 25.0000000  0  9G 5G11G13G20G 7G30G 6G 9G14
  21374319.003   112322798.351        1977.972          45.000  
  22474474.389   118104150.523       -2965.144          42.000  
  22565441.737   118582211.623        2650.251          39.000  
  20251681.397   106423312.879         177.853          43.000  
  21169596.883   111246981.281       -1479.868          47.000  
  20645601.304   108493366.977         458.189          45.000  
  24812758.832   130391913.955       -4058.837          35.000  
  23098491.235                       -3277.586          26.000  
  24534604.525                        3115.983          23.000  
 23  7  2 19 45 26.0000000  0  9G 5G11G13G20G 7G30G 6G 9G14
  21373941.856   112320820.331        1977.363          44.000  
  22475039.100   118107115.556       -2965.552          42.000  
  22564936.941   118579561.318        2650.038          40.000  
  20251647.505   106423135.223         177.166          43.000  
  21169878.643   111248461.144       -1480.305          47.000  
  20645514.437   108492908.847         457.623          46.000  
  24813531.096   130395972.489       -4058.833          35.000  
  23099117.676                       -3276.661          26.000  
  24534006.921                        3125.001          22.000  
 23  7  2 19 45 27.0000000  0  9G 5G11G13G20G 7G30G 6G 9G14
  21373564.826   112318842.946        1977.574          45.000  
  22475603.924   118110081.267       -2965.576          42.000  
  22564432.787   118576911.437        2650.052          40.000  
  20251614.057   106422958.413         176.853          43.000  
  21170160.363   111249941.700       -1480.569          47.000  
  20645427.570   108492451.492         457.362          46.000  
  24814303.512   130400031.196       -4058.516          36.000  
  23099737.712   121389957.9493      -3275.325          28.000  
  24533412.619                        3120.837          24.000  
 23  7  2 19 45 28.0000000  0  9G 5G11G13G20G 7G30G 6G 9G14
  21373188.874   112316865.675        1977.132          45.000  
  22476168.530   118113047.055       -2966.228          41.000  
  22563928.572   118574261.396        2649.843          40.000  
  20251581.028   106422781.851         176.305          43.000  
  21170442.141   111251422.349       -1480.732          47.000  
  20645340.772   108491994.342         456.921          46.000  
  24815076.051   130404089.494       -4057.938          36.000  
  23100360.441   121393233.8782      -3276.420          27.000  
  24532826.400                        3115.555          26.000  
 23  7  2 19 45 29.0000000  0  9G 5G11G13G20G 7G30G 6G 9G14
  21372812.717   112314889.121        1976.481          45.000  
  22476733.420   118116013.556       -2966.823          41.000  
  22563424.195   118571611.812        2649.506          40.000  
  20251548.649   106422606.174         175.270          44.000  
  21170724.132   111252903.741       -1481.591          46.000  
  20645254.306   108491538.021         455.974          46.000  
  24815848.651   130408148.013       -4057.982          36.000  
  23100979.008   121396510.1642      -3276.878          27.000  
  24532246.739   128917757.3113       3115.894          29.000  
 23  7  2 19 45 30.0000000  0  9G 5G11G13G20G 7G30G 6G 9G14
  21372437.250   112312913.252        1975.922          45.000  
  22477298.449   118118980.655       -2967.388          41.000  
  22562919.783   118568962.636        2649.332          39.000  
  20251515.660   106422431.321         174.688          43.000  
  21171006.289   111254385.801       -1481.967          46.000  
  20645167.731   108491082.467         455.462          46.000  
  24816620.984   130412206.719       -4059.011          36.000  
  23101607.935   121399786.8812      -3275.849          25.000  
  24531657.681   128914642.0412       3115.751          29.000  
 23  7  2 19 45 31.0000000  0  9G 5G11G13G20G 7G30G 6G 9G14
  21372061.547   112310937.832        1975.585          46.000  
  22477862.431   118121948.220       -2967.395          40.000  
  22562414.953   118566313.728        2649.048          38.000  
  20251481.981   106422257.080         174.319          43.000  
  21171288.795   111255868.342       -1482.289          47.000  
  20645081.711   108490627.496         455.167          46.000  
  24817393.558   130416265.363       -4058.287          36.000  
  23102228.055                       -3276.849          27.000  
  24531067.650   128911526.7562       3116.155          30.000  
 23  7  2 19 45 32.0000000  0  9G 5G11G13G20G 7G30G 6G 9G14
  21371685.425   112308962.449        1975.170          45.000  
  22478426.239   118124915.769       -2967.474          39.000  
  22561910.092   118563664.533        2649.012          38.000  
  20251448.245   106422083.066         173.349          43.000  
  21171571.388   111257350.894       -1482.828          47.000  
  20644994.874   108490172.668         454.527          46.000  
  24818165.573   130420323.530       -4057.853          36.000  
  23102865.559   121406303.6963      -3276.813          29.000  
  24530473.064   128908411.1002       3116.092          29.000  
 23  7  2 19 45 33.0000000  0  9G 5G11G13G20G 7G30G 6G 9G14
  21371309.351   112306987.751        1974.440          45.000  
  22478990.610   118127883.996       -2968.086          40.000  
  22561406.548   118561015.813        2648.411          40.000  
  20251415.430   106421909.864         173.068          43.000  
  21171853.427   111258834.168       -1483.411          46.000  
  20644907.832   108489718.635         453.888          45.000  
  24818937.675   130424381.911       -4058.165          36.000  
  23103483.982   121409580.5672      -3276.873          28.000  
  24529884.660   128905295.7152       3115.265          30.000  
 23  7  2 19 45 34.0000000  0  9G 5G11G13G20G 7G30G 6G 9G14
  21370933.887   112305013.535        1973.947          45.000  
  22479555.377   118130852.705       -2968.853          40.000  
  22560902.154   118558367.310        2648.663          39.000  
  20251382.462   106421737.352         172.178          43.000  
  21172135.763   111260317.947       -1484.170          46.000  
  20644820.834   108489265.225         453.119          45.000  
  24819709.834   130428440.308       -4058.939          36.000  
  23104104.721   121412857.6442      -3277.572          27.000  
  24529285.044   128902180.4462       3115.444          31.000  
 23  7  2 19 45 35.0000000  0  9G 5G11G13G20G 7G30G 6G 9G14
  21370559.371   112303039.858        1973.680          46.000  
  22480119.556   118133821.922       -2969.333          40.000  
  22560398.223   118555719.127        2648.346          39.000  
  20251349.835   106421565.520         171.825          43.000  
  21172417.693   111261802.238       -1484.115          46.000  
  20644734.390   108488812.438         452.684          45.000  
  24820482.133   130432498.668       -4058.188          36.000  
  23104734.944   121416134.9912      -3276.148          27.000  
  24528693.945   128899065.2262       3115.303          30.000  
 23  7  2 19 45 36.0000000  0  9G 5G11G13G20G 7G30G 6G 9G14
  21370183.990   112301066.274        1973.148          46.000  
  22480684.603   118136791.170       -2970.032          40.000  
  22559894.570   118553070.736        2648.207          39.000  
  20251317.041   106421393.962         171.097          43.000  
  21172699.907   111263286.643       -1484.795          46.000  
  20644648.033   108488359.855         452.367          45.000  
  24821254.427   130436556.625       -4057.781          36.000  
  23105358.358                       -3286.456          24.000  
  24528106.548   128895949.6792       3115.748          31.000  
 23  7  2 19 45 37.0000000  0  9G 5G11G13G20G 7G30G 6G 9G14
  21369808.867   112299093.272        1972.522          46.000  
  22481249.680   118139761.071       -2970.959          40.000  
  22559391.336   118550422.794        2647.496          40.000  
  20251284.261   106421223.159         170.144          42.000  
  21172982.382   111264771.681       -1485.502          46.000  
  20644562.283   108487908.005         451.176          45.000  
  24822026.979   130440614.746       -4058.064          36.000  
  23105985.750                       -3283.169          22.000  
  24527514.449   128892833.7811       3114.389          32.000  
 23  7  2 19 45 38.0000000  0  9G 5G11G13G20G 7G30G 6G 9G14
  21369433.238   112297121.085        1971.915          46.000  
  22481814.360   118142731.678       -2970.747          40.000  
  22558888.194   118547775.359        2647.012          40.000  
  20251252.092   106421053.308         169.492          43.000  
  21173264.478   111266257.478       -1486.088          45.000  
  20644476.986   108487457.022         450.664          45.000  
  24822799.814   130444673.064       -4057.754          35.000  
  23106611.868                       -3269.952          21.000  
  24526920.130   128889718.744        3114.565          31.000  
 23  7  2 19 45 39.0000000  0  9G 5G11G13G20G 7G30G 6G 9G14
  21369057.404   112295149.169        1971.877          45.000  
  22482379.822   118145702.663       -2970.915          42.000  
  22558384.947   118545127.984        2647.028          41.000  
  20251220.703   106420883.962         169.338          44.000  
  21173547.097   111267743.633       -1486.386          46.000  
  20644391.411   108487006.497         450.526          45.000  
  24823572.082   130448731.393       -4059.064          33.000  
  23107233.624                       -3279.357          22.000  
  24526316.213   128886603.571        3115.531          24.000  
 23  7  2 19 45 40.0000000  0  9G 5G11G13G20G 7G30G 6G 9G14
  21368682.517   112293177.250        1971.965          46.000  
  22482945.470   118148673.543       -2970.744          40.000  
  22557881.417   118542480.394        2647.791          41.000  
  20251188.704   106420714.752         168.923          43.000  
  21173829.704   111269229.760       -1486.427          45.000  
  20644305.425   108486556.044         450.415          45.000  
  24824344.036   130452789.019       -4057.891          34.000  
  23107857.609                       -3273.319          22.000  
  24525729.899   128883488.075        3114.844          31.000  
 23  7  2 19 45 41.0000000  0  9G 5G11G13G20G 7G30G 6G 9G14
  21368307.281   112291205.999        1971.224          46.000  
  22483512.197   118151645.112       -2971.646          42.000  
  22557377.616   118539833.207        2647.166          41.000  
  20251156.565   106420546.385         168.215          43.000  
  21174112.528   111270716.546       -1486.815          45.000  
  20644219.967   108486106.381         449.226          45.000  
  24825115.663   130456846.875       -4057.802          34.000  
  23108483.552                       -3276.797          24.000  
  24525133.114   128880372.744        3115.760          32.000  
 23  7  2 19 45 42.0000000  0  9G 5G11G13G20G 7G30G 6G 9G14
  21367932.882   112289235.322        1970.404          46.000  
  22484076.916   118154617.196       -2971.970          38.000  
  22556873.911   118537186.328        2646.292          39.000  
  20251124.670   106420378.721         167.322          43.000  
  21174395.261   111272203.926       -1487.461          46.000  
  20644135.015   108485657.339         448.908          46.000  
  24825887.905   130460904.763       -4057.989          34.000  
  23109108.048   121439181.7193      -3278.566          27.000  
  24524544.928   128877257.539        3115.037          32.000  
 23  7  2 19 45 43.0000000  0  9G 5G11G13G20G 7G30G 6G 9G14
  21367557.746   112287265.153        1970.121          46.000  
  22484642.412   118157589.770       -2972.393          40.000  
  22556370.547   118534539.736        2646.857          38.000  
  20251093.264   106420211.725         167.029          43.000  
  21174678.382   111273691.842       -1487.811          46.000  
  20644049.644   108485209.008         448.292          46.000  
  24826660.007   130464962.717       -4057.812          34.000  
  23109734.427                       -3277.345          25.000  
  24523955.294   128874142.398        3114.486          31.000  
 23  7  2 19 45 44.0000000  0  9G 5G11G13G20G 7G30G 6G 9G14
  21367183.487   112285295.067        1970.237          46.000  
  22485208.951   118160562.426       -2972.490          42.000  
  22555867.090   118531892.960        2646.959          40.000  
  20251061.588   106420045.000         166.302          43.000  
  21174960.892   111275179.808       -1488.085          45.000  
  20643964.657   108484760.820         447.911          46.000  
  24827431.599   130469020.185       -4056.995          33.000  
  23110364.271                       -3276.761          25.000  
  24523365.525   128871026.987        3114.965          32.000  
 23  7  2 19 45 45.0000000  0  9G 5G11G13G20G 7G30G 6G 9G14
  21366807.783   112283325.644        1969.287          46.000  
  22485774.059   118163535.683       -2973.789          38.000  
  22555363.865   118529246.627        2646.011          40.000  
  20251029.719   106419879.077         165.234          43.000  
  21175244.205   111276668.453       -1489.044          45.000  
  20643879.378   108484313.393         446.835          45.000  
  24828203.575   130473077.905       -4057.888          33.000  
  23110987.200   121449056.8933      -3277.833          27.000  
  24522771.533   128867911.690        3115.221          30.000  
 23  7  2 19 45 46.0000000  0  9G 5G11G13G20G 7G30G 6G 9G14
  21366431.997   112281356.924        1968.779          45.000  
  22486339.228   118166509.605       -2974.101          39.000  
  22554860.832   118526600.703        2646.086          41.000  
  20250998.662   106419714.047         164.455          43.000  
  21175527.920   111278157.819       -1489.731          45.000  
  20643794.015   108483866.822         446.054          44.000  
  24828975.455   130477135.725       -4058.257          34.000  
  23111603.420                       -3277.505          25.000  
  24522170.242   128864796.644        3114.370          28.000  
 23  7  2 19 45 47.0000000  0  9G 5G11G13G20G 7G30G 6G 9G14
  21366056.905   112279388.692        1968.196          45.000  
  22486905.221   118169484.051       -2974.249          40.000  
  22554357.472   118523955.051        2645.984          40.000  
  20250967.544   106419549.673         164.284          44.000  
  21175811.747   111279647.694       -1489.734          46.000  
  20643708.331   108483420.811         445.873          44.000  
  24829747.566   130481193.554       -4057.210          35.000  
  23112223.130                       -3278.060          25.000  
  24521581.026   128861681.671        3116.811          29.000  
 23  7  2 19 45 48.0000000  0  9G 5G11G13G20G 7G30G 6G 9G14
  21365682.275   112277420.347        1967.992          45.000  
  22487471.455   118172458.334       -2974.174          40.000  
  22553853.527   118521309.100        2645.660          40.000  
  20250936.613   106419385.369         163.815          44.000  
  21176095.549   111281137.497       -1490.192          46.000  
  20643623.671   108482974.862         445.667          45.000  
  24830519.856   130485250.889       -4057.245          35.000  
  23112846.569                       -3274.024          23.000  
  24520987.287   128858566.353        3115.895          28.000  
 23  7  2 19 45 49.0000000  0  9G 5G11G13G20G 7G30G 6G 9G14
  21365308.352   112275452.917        1966.885          45.000  
  22488036.829   118175433.537       -2975.653          39.000  
  22553350.468   118518663.778        2645.256          41.000  
  20250905.085   106419222.112         162.781          43.000  
  21176379.015   111282628.213       -1491.272          46.000  
  20643538.880   108482529.901         444.357          46.000  
  24831292.115   130489308.522       -4057.690          35.000  
  23113462.173                       -3279.370          24.000  
  24520397.081   128855451.403        3114.701          32.000  
 23  7  2 19 45 50.0000000  0  9G 5G11G13G20G 7G30G 6G 9G14
  21364933.905   112273486.092        1966.537          45.000  
  22488603.751   118178409.280       -2975.953          41.000  
  22552846.876   118516018.801        2645.319          41.000  
  20250874.360   106419059.614         162.136          44.000  
  21176663.501   111284119.461       -1491.464          46.000  
  20643454.203   108482085.651         444.284          45.000  
  24832064.331   130493366.298       -4058.029          34.000  
  23114084.631                       -3289.086          22.000  
  24519806.226   128852336.669        3114.958          32.000  
 23  7  2 19 45 51.0000000  0  9G 5G11G13G20G 7G30G 6G 9G14
  21364560.653   112271519.685        1966.372          46.000  
  22489169.165   118181385.395       -2976.340          39.000  
  22552344.472   118513374.009        2644.715          42.000  
  20250843.159   106418897.714         162.186          42.000  
  21176948.175   111285611.177       -1491.885          46.000  
  20643370.198   108481641.900         443.739          46.000  
  24832836.974   130497423.962       -4057.332          34.000  
  23114731.197                       -3285.280          23.000  
  24519220.771   128849221.829        3115.328          33.000  
 23  7  2 19 45 52.0000000  0  9G 5G11G13G20G 7G30G 6G 9G14
  21364187.131   112269553.509        1965.677          45.000  
  22489735.791   118184361.787       -2976.952          40.000  
  22551841.290   118510729.189        2644.697          42.000  
  20250811.984   106418736.221         161.167          43.000  
  21177232.418   111287103.156       -1492.213          46.000  
  20643286.232   108481198.522         443.036          46.000  
  24833608.902   130501481.316       -4057.651          34.000  
  23115353.576                       -3273.246          22.000  
  24518621.888   128846106.818        3115.256          33.000  
 23  7  2 19 45 53.0000000  0  9G 5G11G13G20G 7G30G 6G 9G14
  21363812.314   112267587.806        1965.676          45.000  
  22490303.603   118187338.609       -2976.392          41.000  
  22551338.541   118508084.632        2644.579          41.000  
  20250781.088   106418575.409         160.543          44.000  
  21177516.019   111288595.626       -1492.785          45.000  
  20643201.864   108480755.732         442.671          45.000  
  24834380.860   130505538.769       -4057.692          33.000  
  23115982.068                       -3278.948          23.000  
  24518033.327   128842991.933        3114.769          34.000  
 23  7  2 19 45 54.0000000  0  9G 5G11G13G20G 7G30G 6G 9G14
  21363438.526   112265622.841        1964.688          45.000  
  22490870.827   118190316.112       -2977.271          41.000  
  22550835.054   118505440.598        2644.189          40.000  
  20250750.450   106418415.444         159.617          43.000  
  21177800.304   111290088.802       -1493.314          47.000  
  20643117.174   108480313.807         441.607          45.000  
  24835152.374   130509596.298       -4056.953          32.000  
  23116601.415                       -3280.764          25.000  
  24517437.891   128839877.362        3114.548          35.000  
 23  7  2 19 45 55.0000000  0  9G 5G11G13G20G 7G30G 6G 9G14
  21363064.515   112263658.434        1964.270          45.000  
  22491437.815   118193294.221       -2978.240          41.000  
  22550331.510   118502796.900        2643.738          40.000  
  20250719.851   106418256.234         159.080          44.000  
  21178084.612   111291582.582       -1493.758          47.000  
  20643032.981   108479872.529         441.136          45.000  
  24835924.188   130513654.073       -4057.224          33.000  
  23117225.230                       -3290.455          22.000  
  24516841.792   128836762.874        3115.320          33.000  
 23  7  2 19 45 56.0000000  0  9G 5G11G13G20G 7G30G 6G 9G14
  21362690.055   112261693.900        1964.370          44.000  
  22492005.091   118196272.112       -2978.042          41.000  
  22549828.089   118500152.722        2643.920          40.000  
  20250689.606   106418097.039         158.630          43.000  
  21178369.020   111293076.217       -1494.087          47.000  
  20642949.503   108479431.227         440.904          46.000  
  24836696.382   130517711.132       -4058.088          34.000  
  23117853.329                       -3283.493          22.000  
  24516250.142   128833647.845        3114.924          33.000  
 23  7  2 19 45 57.0000000  0  9G 5G11G13G20G 7G30G 6G 9G14
  21362315.993   112259730.190        1963.197          45.000  
  22492572.616   118199250.841       -2979.229          39.000  
  22549324.519   118497509.164        2643.381          39.000  
  20250660.276   106417938.833         157.829          44.000  
  21178653.214   111294570.695       -1495.187          46.000  
  20642865.358   108478990.869         439.812          46.000  
  24837468.855   130521768.481       -4057.790          33.000  
  23118480.621                       -3282.882          19.000  
  24515657.580   128830533.148        3114.397          33.000  
 23  7  2 19 45 58.0000000  0  9G 5G11G13G20G 7G30G 6G 9G14
  21361942.850   112257767.126        1962.727          46.000  
  22493139.635   118202230.136       -2979.541          41.000  
  22548822.110   118494866.013        2643.134          42.000  
  20250630.572   106417781.434         156.920          43.000  
  21178938.063   111296065.773       -1495.452          47.000  
  20642781.100   108478551.232         439.453          45.000  
  24838240.822   130525825.971       -4057.430          33.000  
  23119104.222                       -3281.090          22.000  
  24515064.592   128827418.746        3114.127          32.000  
 23  7  2 19 45 59.0000000  0  9G 5G11G13G20G 7G30G 6G 9G14
  21361569.904   112255804.298        1962.794          46.000  
  22493706.086   118205209.695       -2979.326          40.000  
  22548319.862   118492222.853        2642.866          41.000  
  20250600.745   106417624.443         156.961          43.000  
  21179222.244   111297561.152       -1495.367          46.000  
  20642696.885   108478112.010         439.007          45.000  
  24839012.698   130529883.167       -4056.501          32.000  
  23119727.255                       -3278.395          21.000  
  24514473.653   128824304.129        3113.258          32.000  
 23  7  2 19 46  0.0000000  0  9G 5G11G13G20G 7G30G 6G 9G14
  21361196.312   112253841.868        1962.342          45.000  
  22494273.035   118208189.576       -2979.934          40.000  
  22547816.572   118489579.792        2643.271          41.000  
  20250571.315   106417467.964         156.367          44.000  
  21179507.045   111299056.876       -1496.015          47.000  
  20642614.006   108477673.173         438.708          45.000  
  24839784.626   130533940.322       -4057.431          31.000  
  23120358.107                       -3278.446          22.000  
  24513874.958   128821189.516        3114.059          31.000  
 23  7  2 19 46  1.0000000  0  9G 5G11G13G20G 7G30G 6G 9G14
  21360822.232   112251880.019        1961.630          44.000  
  22494838.993   118211170.039       -2980.776          38.000  
  22547313.822   118486937.141        2642.490          42.000  
  20250541.706   106417312.305         155.230          42.000  
  21179792.242   111300553.251       -1496.894          47.000  
  20642529.965   108477235.139         437.490          44.000  
  24840556.065   130537997.648       -4059.118          32.000  
  23120980.966                       -3312.593          22.000  
  24513281.179   128818074.959        3114.822          30.000  
 23  7  2 19 46  2.0000000  0  9G 5G11G13G20G 7G30G 6G 9G14
  21360448.584   112249918.818        1961.168          44.000  
  22495404.812   118214151.204       -2981.670          38.000  
  22546811.243   118484294.959        2642.079          41.000  
  20250512.041   106417157.463         154.507          43.000  
  21180077.017   111302050.297       -1497.348          46.000  
  20642446.383   108476797.884         436.926          44.000  
  24841326.924   130542054.929       -4057.113          31.000  
  23121604.519                       -3284.053          22.000  
  24512684.822   128814960.747        3114.686          30.000  
 23  7  2 19 46  3.0000000  0  9G 5G11G13G20G 7G30G 6G 9G14
  21360075.646   112247958.036        1960.548          45.000  
  22495972.075   118217132.666       -2981.340          39.000  
  22546308.542   118481652.896        2641.743          42.000  
  20250483.012   106417003.149         154.111          44.000  
  21180361.333   111303547.707       -1497.477          45.000  
  20642363.756   108476361.035         436.576          45.000  
  24842096.806   130546112.235       -4057.250          30.000  
  23122216.010                       -3282.359          22.000  
  24512093.522   128811846.404        3114.715          30.000  
 23  7  2 19 46  4.0000000  0  9G 5G11G13G20G 7G30G 6G 9G14
  21359702.705   112245997.265        1960.773          44.000  
  22496539.508   118220114.139       -2981.296          39.000  
  22545804.968   118479010.513        2642.601          41.000  
  20250454.049   106416849.040         153.797          45.000  
  21180646.727   111305045.145       -1497.603          47.000  
  20642281.099   108475924.412         436.352          45.000  
  24842864.742   130550169.010       -4057.467          30.000  
  23122812.484   121511199.3063      -3281.312          30.000  
  24511501.562   128808731.759        3114.885          27.000  
 23  7  2 19 46  5.0000000  0  9G 5G11G13G20G 7G30G 6G 9G14
  21359329.567   112244037.364        1959.244          45.000  
  22497106.985   118223096.467       -2983.045          39.000  
  22545301.843   118476368.836        2641.237          41.000  
  20250424.973   106416695.947         152.323          44.000  
  21180931.249   111306543.455       -1498.641          46.000  
  20642199.083   108475488.676         435.350          46.000  
  24843642.105   130554226.187       -4058.077          33.000  
  23123429.725   121514481.1712      -3283.287          30.000  
  24510902.278   128805617.387        3114.698          27.000  
 23  7  2 19 46  6.0000000  0  9G 5G11G13G20G 7G30G 6G 9G14
  21358957.393   112242078.078        1959.124          46.000  
  22497674.279   118226079.395       -2982.651          38.000  
  22544799.844   118473727.517        2641.115          43.000  
  20250395.849   106416543.684         152.012          44.000  
  21181216.464   111308042.460       -1499.097          46.000  
  20642116.583   108475053.785         434.545          46.000  
  24844415.726   130558283.501       -4058.108          32.000  
  23124049.351   121517763.5182      -3283.267          29.000  
  24510309.097   128802503.339        3114.591          27.000  
 23  7  2 19 46  7.0000000  0  9G 5G11G13G20G 7G30G 6G 9G14
  21358584.442   112240119.135        1958.871          44.000  
  22498241.869   118229062.671       -2983.634          39.000  
  22544296.828   118471086.304        2641.838          42.000  
  20250366.964   106416391.923         151.694          43.000  
  21181502.159   111309541.786       -1499.384          47.000  
  20642034.562   108474619.318         434.430          46.000  
  24845186.851   130562340.612       -4057.332          32.000  
  23124662.543                       -3276.939          20.000  
  24509724.310   128799389.218        3115.234          27.000  
 23  7  2 19 46  8.0000000  0  9G 5G11G13G20G 7G30G 6G 9G14
  21358211.684   112238160.405        1958.667          45.000  
  22498809.219   118232046.060       -2983.666          39.000  
  22543794.288   118468445.036        2641.443          43.000  
  20250338.197   106416240.516         151.260          43.000  
  21181787.653   111311041.294       -1499.590          47.000  
  20641952.210   108474185.149         433.925          46.000  
  24845962.064   130566397.387       -4056.022          33.000  
  23125304.310                       -3282.837          29.000  
  24509144.269   128796274.954        3114.257          29.000  
 23  7  2 19 46  9.0000000  0  9G 5G11G13G20G 7G30G 6G 9G14
  21357839.562   112236202.239        1958.214          46.000  
  22499377.359   118235030.094       -2983.847          39.000  
  22543292.018   118465804.159        2641.064          42.000  
  20250308.942   106416089.864         150.353          42.000  
  21182072.536   111312541.399       -1500.372          46.000  
  20641869.928   108473751.646         433.258          46.000  
  24846736.797   130570454.352       -4056.505          32.000  
  23125948.668                       -3281.129          21.000  
  24508555.983   128793160.616        3115.562          31.000  
 23  7  2 19 46 10.0000000  0  9G 5G11G13G20G 7G30G 6G 9G14
  21357467.668   112234244.529        1957.475          45.000  
  22499945.499   118238014.460       -2985.274          38.000  
  22542789.217   118463163.465        2640.017          42.000  
  20250280.027   106415939.828         149.672          42.000  
  21182357.699   111314041.977       -1501.092          46.000  
  20641787.546   108473318.730         432.308          46.000  
  24847502.992   130574511.205       -4057.158          31.000  
  23126572.003                       -3280.384          21.000  
  24507957.567   128790046.472        3114.426          30.000  
 23  7  2 19 46 11.0000000  0  9G 5G11G13G20G 7G30G 6G 9G14
  21357095.031   112232287.307        1956.923          45.000  
  22500514.241   118240999.260       -2984.567          40.000  
  22542287.021   118460523.008        2640.416          42.000  
  20250251.431   106415790.425         149.127          43.000  
  21182643.320   111315543.000       -1501.128          46.000  
  20641705.294   108472886.409         432.048          46.000  
  24848274.706   130578568.092       -4056.991          31.000  
  23127191.102                       -3289.163          21.000  
  24507362.393   128786932.392        3114.193          31.000  
 23  7  2 19 46 12.0000000  0  9G 5G11G13G20G 7G30G 6G 9G14
  21356723.119   112230330.093        1956.670          45.000  
  22501082.703   118243984.122       -2985.347          40.000  
  22541784.594   118457882.258        2640.389          42.000  
  20250222.969   106415641.175         148.435          43.000  
  21182928.993   111317044.028       -1501.342          46.000  
  20641622.785   108472454.155         431.684          46.000  
  24849048.846   130582624.411       -4057.560          31.000  
  23127814.271                       -3278.886          22.000  
  24506766.695   128783817.826        3114.336          32.000  
 23  7  2 19 46 13.0000000  0  9G 5G11G13G20G 7G30G 6G 9G14
  21356350.832   112228373.612        1956.161          44.000  
  22501651.593   118246969.661       -2985.781          42.000  
  22541281.492   118455242.057        2640.630          39.000  
  20250194.944   106415492.791         148.277          43.000  
  21183214.697   111318545.804       -1501.843          46.000  
  20641540.106   108472022.744         430.961          46.000  
  24849821.402   130586680.911       -4055.817          31.000  
  23128437.108   121540756.4983      -3282.564          30.000  
  24506172.109   128780703.543        3113.348          31.000  
 23  7  2 19 46 14.0000000  0  9G 5G11G13G20G 7G30G 6G 9G14
  21355978.623   112226417.849        1955.510          45.000  
  22502220.265   118249955.822       -2986.395          39.000  
  22540778.179   118452602.273        2639.566          39.000  
  20250167.233   106415345.348         147.427          43.000  
  21183501.003   111320048.293       -1502.714          46.000  
  20641457.916   108471592.189         430.444          46.000  
  24850591.323   130590737.665       -4056.617          31.000  
  23129061.900                       -3278.265          22.000  
  24505586.344   128777589.585        3113.292          31.000  
 23  7  2 19 46 15.0000000  0  9G 5G11G13G20G 7G30G 6G 9G14
  21355606.650   112224462.327        1955.608          44.000  
  22502788.340   118252942.247       -2986.405          41.000  
  22540275.892   118449962.480        2639.952          41.000  
  20250139.649   106415198.243         147.032          43.000  
  21183787.195   111321551.030       -1502.789          46.000  
  20641376.201   108471161.947         430.260          46.000  
  24851369.485   130594794.141       -4056.775          31.000  
  23129683.023                       -3282.461          27.000  
  24504987.806   128774475.351        3114.552          31.000  
 23  7  2 19 46 16.0000000  0  9G 5G11G13G20G 7G30G 6G 9G14
  21355234.768   112222506.957        1954.447          45.000  
  22503355.882   118255928.791       -2987.404          39.000  
  22539774.150   118447322.653        2638.940          43.000  
  20250111.637   106415051.520         145.516          42.000  
  21184072.724   111323053.941       -1503.444          46.000  
  20641294.682   108470731.993         429.097          46.000  
  24852134.359   130598850.275       -4055.931          30.000  
  23130309.643                       -3282.510          26.000  
  24504393.722   128771360.946        3114.516          30.000  
 23  7  2 19 46 17.0000000  0  9G 5G11G13G20G 7G30G 6G 9G14
  21354862.389   112220552.311        1954.369          44.000  
  22503923.660   118258916.117       -2987.854          39.000  
  22539272.766   118444683.269        2639.327          42.000  
  20250083.782   106414905.714         145.458          43.000  
  21184358.380   111324557.627       -1503.883          45.000  
  20641213.220   108470302.911         428.694          46.000  
  24852907.674   130602906.651       -4056.142          31.000  
  23130931.285                       -3280.256          23.000  
  24503790.673   128768246.768        3114.081          28.000  
 23  7  2 19 46 18.0000000  0  9G 5G11G13G20G 7G30G 6G 9G14
  21354490.556   112218598.101        1953.826          44.000  
  22504491.826   118261903.732       -2987.620          40.000  
  22538771.164   118442044.060        2639.399          41.000  
  20250056.080   106414760.433         145.051          43.000  
  21184644.328   111326061.690       -1504.091          46.000  
  20641131.793   108469874.333         428.314          46.000  
  24853682.276   130606963.024       -4056.338          30.000  
  23131558.821                       -3285.856          24.000  
  24503205.397   128765132.766        3112.996          28.000  
 23  7  2 19 46 19.0000000  0  9G 5G11G13G20G 7G30G 6G 9G14
  21354118.413   112216644.233        1953.711          44.000  
  22505060.733   118264891.733       -2988.115          41.000  
  22538268.533   118439405.066        2638.769          42.000  
  20250028.779   106414615.687         144.809          43.000  
  21184930.791   111327566.124       -1504.623          46.000  
  20641050.126   108469446.205         427.848          46.000  
  24854453.741   130611019.171       -4056.720          31.000  
  23132187.291                       -3304.973          24.000  
  24502627.603   128762018.503        3114.807          29.000  
 23  7  2 19 46 20.0000000  0  9G 5G11G13G20G 7G30G 6G 9G14
  21353747.508   112214690.901        1953.011          46.000  
  22505630.095   118267880.209       -2988.708          40.000  
  22537765.923   118436766.265        2638.296          41.000  
  20250001.382   106414471.634         143.815          43.000  
  21185217.266   111329071.076       -1505.082          46.000  
  20640968.419   108469018.727         427.283          46.000  
  24855229.486   130615075.375       -4056.636          31.000  
  23132813.588                       -3284.687          21.000  
  24502030.614   128758904.413        3113.385          30.000  
 23  7  2 19 46 21.0000000  0  9G 5G11G13G20G 7G30G 6G 9G14
  21353375.919   112212737.815        1953.048          45.000  
  22506199.814   118270868.896       -2988.668          42.000  
  22537263.291   118434127.464        2638.482          41.000  
  20249973.972   106414328.060         143.198          43.000  
  21185503.555   111330576.341       -1505.603          46.000  
  20640887.302   108468591.612         426.891          46.000  
  24855997.326   130619131.277       -4056.102          31.000  
  23133438.816                       -3287.918          22.000  
  24501450.608   128755790.133        3113.462          32.000  
 23  7  2 19 46 22.0000000  0  9G 5G11G13G20G 7G30G 6G 9G14
  21353004.007   112210785.475        1951.766          45.000  
  22506768.560   118273858.287       -2989.851          41.000  
  22536760.995   118431489.160        2638.086          43.000  
  20249946.536   106414185.299         142.595          43.000  
  21185790.131   111332082.248       -1506.161          46.000  
  20640805.836   108468165.343         425.674          46.000  
  24856763.094   130623187.369       -4055.620          31.000  
  23134068.499                       -3287.130          22.000  
  24500860.886   128752676.193        3113.556          32.000  
 23  7  2 19 46 23.0000000  0  9G 5G11G13G20G 7G30G 6G 9G14
  21352631.187   112208833.518        1951.613          43.000  
  22507337.734   118276848.099       -2989.686          41.000  
  22536259.319   118428851.016        2638.193          41.000  
  20249919.362   106414043.137         141.987          43.000  
  21186077.270   111333588.625       -1506.329          47.000  
  20640724.675   108467739.549         425.753          45.000  
  24857532.727   130627243.434       -4056.807          31.000  
  23134694.338                       -3284.800          26.000  
  24500254.422   128749562.228        3114.690          32.000  
 23  7  2 19 46 24.0000000  0  9G 5G11G13G20G 7G30G 6G 9G14
  21352259.685   112206881.711        1951.287          44.000  
  22507906.829   118279838.006       -2990.367          41.000  
  22535757.416   118426212.787        2637.581          41.000  
  20249891.926   106413901.274         141.276          41.000  
  21186364.003   111335095.134       -1507.120          46.000  
  20640643.758   108467314.029         424.947          45.000  
  24858304.891   130631299.130       -4056.074          31.000  
  23135332.043   121576922.6022      -3284.159          35.000  
  24499661.175   128746447.942        3113.542          30.000  
 23  7  2 19 46 25.0000000  0  9G 5G11G13G20G 7G30G 6G 9G14
  21351888.685   112204930.658        1950.509          45.000  
  22508475.628   118282828.620       -2991.074          41.000  
  22535256.664   118423575.064        2637.299          43.000  
  20249865.135   106413760.345         140.098          43.000  
  21186651.011   111336602.395       -1507.648          46.000  
  20640562.920   108466889.370         424.052          45.000  
  24859082.669   130635354.998       -4055.452          32.000  
  23135953.371   121580207.1432      -3284.348          28.000  
  24499069.547   128743333.911        3113.102          32.000  
 23  7  2 19 46 26.0000000  0  9G 5G11G13G20G 7G30G 6G 9G14
  21351518.025   112202980.090        1950.790          45.000  
  22509045.207   118285819.768       -2991.543          41.000  
  22534755.669   118420937.589        2637.711          43.000  
  20249838.995   106413620.093         140.253          43.000  
  21186937.535   111338110.177       -1507.547          46.000  
  20640482.636   108466465.373         424.179          47.000  
  24859858.776   130639410.915       -4055.325          32.000  
  23136577.268   121583492.0092      -3284.476          28.000  
  24498477.562   128740220.043        3114.433          33.000  
