     2.10           OBSERVATION DATA    M (MIXED)           RINEX VERSION / TYPE
RTKCONV 2.4.2                           20240206 104915 UTC PGM / RUN BY / DATE 
log: C:\Users\adminlocal\Desktop\verniquet\verniquet\micro  COMMENT             
format: u-blox                                              COMMENT             
                                                            MARKER NAME         
                                                            MARKER NUMBER       
                                                            OBSERVER / AGENCY   
                                                            REC # / TYPE / VERS 
                                                            ANT # / TYPE        
  4202023.3972   178629.0514  4779030.1664                  APPROX POSITION XYZ 
        0.0000        0.0000        0.0000                  ANTENNA: DELTA H/E/N
     1     1                                                WAVELENGTH FACT L1/2
     4    C1    L1    D1    S1                              # / TYPES OF OBSERV 
  2024     2     6    19    39   26.0060000     GPS         TIME OF FIRST OBS   
  2024     2     6    20    16   38.0060000     GPS         TIME OF LAST OBS    
                                                            END OF HEADER       
 24  2  6 19 39 26.0060000  0 14G 7G 8G10G21G23G27E10E25E24E11E12G16
                                G32G 1
  27106497.032   142445644.6072      -1678.878          28.000  
  22351677.512                        1115.979          40.000  
  23051956.739   121138829.386        -371.086          48.000  
  23272591.595                        1937.831          28.000  
  24778050.401   130209526.535       -2543.650          45.000  
  22540358.445   118450378.612       -1508.740          43.000  
  25374953.560   133346299.765         399.974          36.000  
  26466670.409   139083304.703         335.093          35.000  
  27268490.036                       -2340.424          29.000  
  25141386.801                        1679.922          29.000  
  25809463.100   135629659.135        -815.531          38.000  
  25786482.142   135508848.878       -3564.277          29.000  
  26648978.288   140041289.027        3100.229          37.000  
  26529604.027                        3762.686          24.000  
 24  2  6 19 39 27.0060000  0 15G 7G 8G10G21G23G27E10E25E24G 2E11E12
                                G16G32G 1
  27106822.749   142447324.0352      -1679.033          27.000  
  22351460.309   117457741.2762       1118.202          47.000  
  23052026.828   121139199.950        -368.310          49.000  
  23272226.885   122296377.3462       1913.994          45.000  
  24778534.636   130212069.794       -2540.800          45.000  
  22540645.265   118451886.755       -1505.847          48.000  
  25374877.904   133345900.600         400.971          42.000  
  26466606.419   139082971.080         335.062          46.000  
  27268917.601   143299139.513       -2341.921          26.000  
  24861255.945                        2663.450          41.000  
  25141065.848   132117203.050        1682.197          38.000  
  25809618.451   135630474.227        -813.173          41.000  
  25787163.565   135512413.147       -3562.154          34.000  
  26648388.375   140038188.527        3103.504          37.000  
  26528886.021                        3764.950          20.000  
 24  2  6 19 39 28.0060000  0 15G 7G 8G10G21G23G27E10E25E24G 2E11E12
                                G16G32G 1
  27107140.421   142449001.6162      -1677.989          30.000  
  22351251.063   117456623.9272       1116.598          47.000  
  23052097.187   121139569.064        -370.088          50.000  
  23271860.858   122294464.1092       1912.443          45.000  
  24779018.487   130214611.468       -2542.512          43.000  
  22540931.850   118453393.329       -1507.318          49.000  
  25374801.629   133345499.621         400.328          43.000  
  26466542.350   139082635.986         334.311          46.000  
  27269364.440                       -2341.752          26.000  
  24860760.202   130644176.1772       2664.471          43.000  
  25140746.710   132115521.423        1680.727          39.000  
  25809772.885   135631287.520        -814.041          41.000  
  25787840.136   135515975.310       -3562.782          37.000  
  26647797.772   140035086.160        3101.427          40.000  
  26528167.203                        3764.448          20.000  
 24  2  6 19 39 29.0060000  0 15G 7G 8G10G21G23G27E10E25E24G 2E11E12
                                G16G32G 1
  27107465.458   142450683.2702      -1681.637          31.000  
  22351037.918   117455510.8342       1113.691          47.000  
  23052167.799   121139942.599        -372.884          48.000  
  23271499.220   122292554.9292       1909.757          43.000  
  24779502.678   130217157.364       -2545.583          43.000  
  22541219.378   118454904.113       -1510.211          50.000  
  25374726.236   133345102.694         397.737          44.000  
  26466479.111   139082305.152         331.517          45.000  
  27269806.838                       -2344.221          29.000  
  24860251.144   130641514.7592       2662.403          42.000  
  25140429.447   132113843.664        1678.200          38.000  
  25809928.890   135632104.832        -816.622          41.000  
  25788513.200   135519541.424       -3565.000          37.000  
  26647208.383   140031987.681        3098.750          39.000  
  26527452.032                        3761.802          22.000  
 24  2  6 19 42 59.0060000  0 15G 8G10G16G21G23G27E10E25E24G 2E11G14
                                E12G30G 1
  22308891.733   117234021.2071       1007.548          42.000  
  23070107.129   121234237.7891       -503.817          47.000  
  25931953.684                       -3593.311          27.000  
  23196882.054   121900438.1231       1832.306          39.000  
  24883328.254   130762748.0281      -2628.169          30.000  
  22603961.042   118784626.7833      -1610.040          42.000  
  25360242.154   133268947.179         341.359          40.000  
  26455518.550   139024668.312         225.068          39.000  
  27365031.490   143804217.364       -2406.085          26.000  
  24754985.786   130088337.3451       2612.157          41.000  
  25074532.208   131767563.531        1628.714          32.000  
  27045475.007   142124900.6492       3478.714          30.000  
  25843881.089   135810513.753        -864.033          41.000  
  27216142.552                        -823.614          18.000  
  26377550.648   138614955.3281       3740.891          28.000  
 24  2  6 19 43  0.0060000  0 15G 8G10G16G21G23G27E10E25E24G 2G32E11
                                E12G30G 1
  22308699.955   117233013.390        1017.401          46.000  
  23070202.669   121234741.210        -493.640          51.000  
  25932655.148                       -3587.797          27.000  
  23196533.137   121898605.007        1843.082          45.000  
  24883827.034                       -2617.242          30.000  
  22604267.703   118786236.4882      -1599.982          43.000  
  25360177.169   133268605.568         351.117          43.000  
  26455475.762   139024443.027         234.650          44.000  
  27365492.708                       -2399.324          27.000  
  24754488.646   130085724.682        2622.654          42.000  
  26524055.207                        3060.882          16.000  
  25074218.017   131765915.4211       1638.785          36.000  
  25844047.277   135811377.365        -853.925          42.000  
  27216299.456                        -823.614          18.000  
  26376840.319                        3744.597          27.000  
 24  2  6 19 43  1.0060000  0 14G 8G10G16G21G23G27E10E25E24G 2E11E12
                                G30G 1
  22308509.154   117232009.470        1003.528          42.000  
  23070299.099   121235248.672        -507.596          50.000  
  25933310.665                       -3595.735          28.000  
  23196185.275   121896775.781        1828.981          41.000  
  24884337.348   130768074.7233      -2632.047          32.000  
  22604572.725   118787850.0772      -1613.843          46.000  
  25360112.926   133268267.494         337.998          39.000  
  26455433.803   139024221.673         221.665          40.000  
  27365950.261                       -2410.784          26.000  
  24753992.127   130083115.274        2609.023          35.000  
  25073911.024   131764290.025        1626.302          36.000  
  25844211.963   135812244.504        -866.809          44.000  
  27216457.851                        -823.614          19.000  
  26376135.165   138607525.1163       3737.240          37.000  
 24  2  6 19 43  2.0060000  0 16G 8G10G16G21G23G27E10E25E24G 2G32E11
                                G14E12G30G 1
  22308317.848                        1003.048          43.000  
  23070395.171                        -508.522          50.000  
  25933980.719                       -3597.528          28.000  
  23195836.794                        1827.804          39.000  
  24884840.019                       -2632.767          32.000  
  22604881.305                       -1614.160          45.000  
  25360047.810                         336.819          38.000  
  26455390.832                         219.062          38.000  
  27366404.918                       -2406.167          23.000  
  24753495.554                        2609.268          36.000  
  26522875.669                        3051.273          27.000  
  25073603.673                        1624.218          35.000  
  27043478.842                        3476.176          32.000  
  25844376.100                        -868.496          44.000  
  27216616.360                        -823.614          19.000  
  26375422.890                        3736.958          36.000  
 24  2  6 19 43  3.0060000  0 16G 8G10G16G21G23G27E10E25E24G 2G32E11
                                G14E12G30G 1
  22308127.213   117230001.148        1002.036          43.000  
  23070492.046   121236263.442        -509.635          50.000  
  25934658.921                       -3597.419          28.000  
  23195488.828   121893117.0493       1827.279          44.000  
  24885333.546   130773338.3532      -2634.130          35.000  
  22605188.962   118791076.5272      -1614.948          43.000  
  25359984.074   133267624.3131        336.965          41.000  
  26455348.733   139023807.2981        219.406          42.000  
  27366872.400                       -2414.014          22.000  
  24752999.357   130077896.016        2607.338          42.000  
  26522320.359                        3059.051          28.000  
  25073295.005   131761062.6651       1624.098          38.000  
  27042821.754   142110987.1733       3473.896          31.000  
  25844541.353   135813991.4901       -867.995          41.000  
  27216772.845                        -823.614          18.000  
  26374701.114   138600049.1152       3734.555          27.000  
 24  2  6 19 43  4.0060000  0 15G 8G10G16G21G23G27E10E25E24G 2G32E11
                                E12G30G 1
  22307936.473   117228999.270        1001.584          48.000  
  23070589.087   121236773.240        -509.812          50.000  
  25935324.534   136291148.4173      -3595.587          36.000  
  23195140.644   121891289.3562       1827.676          47.000  
  24885838.983   130775972.3542      -2633.975          35.000  
  22605496.112   118792691.9852      -1615.808          49.000  
  25359920.110   133267287.600         336.740          46.000  
  26455307.219   139023587.963         219.296          44.000  
  27367325.949                       -2410.960          39.000  
  24752503.143   130075288.119        2607.708          43.000  
  26521732.252   139372677.9393       3054.592          42.000  
  25072985.813   131759438.479        1624.038          42.000  
  25844706.703   135814859.813        -868.125          43.000  
  27216927.576                        -823.614          18.000  
  26373994.738   138596312.4742       3736.382          38.000  
 24  2  6 19 43  5.0060000  0 15G 8G10G16G21G23G27E10E25E24G 2G32E11
                                E12G30G 1
  22307746.074   117227997.847        1001.179          48.000  
  23070686.328   121237283.621        -510.718          51.000  
  25936006.986   136294745.5102      -3596.883          36.000  
  23194792.757   121889461.9062       1827.234          47.000  
  24886339.508   130778606.5812      -2634.393          35.000  
  22605803.445   118794307.8622      -1616.168          49.000  
  25359856.111   133266951.098         336.366          45.000  
  26455265.260   139023368.999         218.631          42.000  
  27367783.459   143818689.5571      -2411.586          41.000  
  24752006.632   130072680.424        2607.581          44.000  
  26521148.106   139369622.6032       3054.808          37.000  
  25072677.956   131757814.385        1623.845          42.000  
  25844872.096   135815728.336        -868.759          43.000  
  27217084.262                        -823.614          17.000  
  26373278.538   138592576.1642       3736.237          36.000  
 24  2  6 19 43  6.0060000  0 14G 8G10G16G21G23G27E10E25E24G 2G32E11
                                E12G 1
  22307555.666   117226996.843        1000.651          48.000  
  23070783.604   121237794.488        -511.219          50.000  
  25936691.139   136298342.6642      -3596.623          36.000  
  23194445.017   121887634.6852       1826.844          47.000  
  24886839.727   130781241.0852      -2634.366          35.000  
  22606111.171   118795924.0432      -1616.437          49.000  
  25359792.086   133266614.763         336.250          45.000  
  26455223.991   139023150.436         218.368          43.000  
  27368244.066   143821101.130       -2411.810          37.000  
  24751510.453   130070072.830        2607.432          44.000  
  26520569.500   139366567.2572       3055.359          39.000  
  25072368.651   131756190.412        1623.658          42.000  
  25845037.350   135816596.902        -868.659          42.000  
  26372565.190   138588839.8562       3736.837          36.000  
 24  2  6 19 43  7.0060000  0 14G 8G10G16G21G23G27E10E25E24G 2G32E11
                                E12G 1
  22307365.441   117225996.479        1000.036          45.000  
  23070881.020   121238306.097        -511.928          49.000  
  25937377.081   136301939.9022      -3597.163          31.000  
  23194097.427   121885807.9582       1826.194          44.000  
  24887340.190   130783876.1132      -2634.902          34.000  
  22606419.088   118797540.3831      -1617.193          49.000  
  25359728.559   133266278.804         335.619          43.000  
  26455182.817   139022932.505         217.606          42.000  
  27368709.516   143823513.301       -2412.099          31.000  
  24751014.561   130067465.528        2607.124          45.000  
  26519984.604   139363512.2972       3055.180          39.000  
  25072060.096   131754566.811        1623.270          38.000  
  25845202.734   135817465.850        -869.147          42.000  
  26371855.778   138585103.7752       3735.581          28.000  
 24  2  6 19 43  8.0060000  0 13G 8G10G16G21G27E10E25E24G 2G32E11E12
                                G 1
  22307175.199   117224996.453         999.598          44.000  
  23070978.488   121238818.101        -512.366          49.000  
  25938062.953   136305537.2842      -3597.361          34.000  
  23193749.748   121883981.3992       1826.391          45.000  
  22606727.050   118799157.406       -1617.316          49.000  
  25359664.639   133265942.976         335.684          42.000  
  26455141.826   139022714.886         217.437          43.000  
  27369163.204                       -2411.521          30.000  
  24750518.364   130064858.396        2606.771          46.000  
  26519403.468   139360457.4672       3054.712          38.000  
  25071750.783   131752943.223        1623.332          39.000  
  25845368.249   135818334.782        -869.147          41.000  
  26371134.238   138581367.5592       3737.440          31.000  
 24  2  6 19 43  9.0060000  0 14G 8G10G16G21G23G27E10E25E24G 2G32E11
                                E12G 1
  22306985.428   117223997.163         999.092          44.000  
  23071076.498   121239331.019        -513.139          49.000  
  25938742.674   136309011.8713      -3596.658          30.000  
  23193402.559   121882155.5072       1825.837          42.000  
  24888345.358   130789137.2703      -2636.708          32.000  
  22607034.907   118800775.267       -1618.036          48.000  
  25359600.509   133265607.600         335.541          41.000  
  26455100.958   139022498.065         216.664          41.000  
  27369619.998   143828346.1461      -2412.617          29.000  
  24750022.254   130062251.664        2606.582          44.000  
  26518822.725   139357353.3603       3054.240          39.000  
  25071442.123   131751320.167        1623.121          36.000  
  25845533.800   135819204.250        -869.382          41.000  
  26370431.291   138577631.8532       3735.387          29.000  
 24  2  6 19 43 10.0060000  0 14G 8G10G16G21G23G27E10E25E24G 2G32E11
                                E12G 1
  22306795.150   117222998.333         998.729          44.000  
  23071174.018   121239844.491        -513.856          49.000  
  25939430.108   136312609.5992      -3597.695          31.000  
  23193054.828   121880329.9422       1825.415          42.000  
  24888850.550   130791773.4102      -2636.120          33.000  
  22607342.720   118802393.526       -1618.451          49.000  
  25359537.034   133265272.464         335.231          41.000  
  26455059.880   139022281.672         216.523          41.000  
  27370084.724   143830759.061       -2412.918          29.000  
  24749526.022   130059645.165        2606.415          44.000  
  26518242.610   139354299.0452       3054.011          40.000  
  25071133.193   131749697.298        1622.778          37.000  
  25845699.646   135820073.887        -869.567          41.000  
  26369719.959   138573896.1482       3735.865          31.000  
 24  2  6 19 43 11.0060000  0 14G 8G10G16G21G23G27E10E25E24G 2G32E11
                                E12G 1
  22306604.987   117221999.640         998.618          43.000  
  23071271.835   121240358.233        -514.062          49.000  
  25940112.280   136316207.0072      -3597.589          32.000  
  23192707.194   121878504.3312       1825.786          42.000  
  24889346.913   130794409.6782      -2636.704          33.000  
  22607650.847   118804011.904       -1618.683          47.000  
  25359473.018   133264937.239         335.188          41.000  
  26455018.741   139022065.458         216.104          41.000  
  27370535.149   143833171.860       -2412.568          28.000  
  24749030.262   130057038.560        2606.276          43.000  
  26517660.462   139351244.5892       3054.297          41.000  
  25070824.132   131748074.287        1622.927          36.000  
  25845865.214   135820943.371        -869.253          41.000  
  26369015.284   138570160.2522       3736.124          31.000  
 24  2  6 19 43 12.0060000  0 14G 8G10G16G21G23G27E10E25E24G 2G32E11
                                E12G 1
  22306415.006   117221001.492         997.838          46.000  
  23071369.906   121240872.643        -514.640          48.000  
  25940798.353   136319804.5712      -3597.921          35.000  
  23192359.751   121876679.1962       1824.897          46.000  
  24889847.045   130797046.3982      -2637.273          32.000  
  22607959.175   118805630.785       -1619.171          47.000  
  25359409.700   133264602.302         334.773          42.000  
  26454977.768   139021849.807         215.511          43.000  
  27371002.038   143835585.087       -2413.650          33.000  
  24748534.248   130054432.304        2606.149          41.000  
  26517081.219   139348190.3342       3054.106          39.000  
  25070515.255   131746451.537        1622.491          40.000  
  25846030.799   135821813.160        -869.850          41.000  
  26368307.843   138566424.4832       3735.741          30.000  
 24  2  6 19 43 13.0060000  0 14G 8G10G16G21G23G27E10E25E24G 2G32E11
                                E12G 1
  22306225.008   117220004.156         997.605          46.000  
  23071468.081   121241387.947        -515.433          47.000  
  25941482.759   136323402.5572      -3597.312          36.000  
  23192012.431   121874854.683        1824.619          46.000  
  24890349.123   130799683.702       -2637.667          32.000  
  22608267.224   118807250.410       -1619.647          47.000  
  25359346.216   133264267.933         334.575          44.000  
  26454936.751   139021634.933         214.871          42.000  
  27371461.066   143837998.779       -2413.820          34.000  
  24748038.479   130051826.491        2606.121          39.000  
  26516498.094   139345136.5402       3054.097          37.000  
  25070206.787   131744829.346        1622.188          40.000  
  25846196.786   135822683.412        -870.113          39.000  
  26367605.655   138562689.181        3735.034          29.000  
 24  2  6 19 43 14.0060000  0 14G 8G10G16G21G23G27E10E25E24G 2G32E11
                                E12G 1
  22306035.298   117219007.240         996.704          45.000  
  23071565.976   121241903.798        -516.131          49.000  
  25942167.192   136327000.7462      -3596.963          32.000  
  23191665.477   121873030.466        1824.177          47.000  
  24890853.268   130802321.360       -2637.091          32.000  
  22608575.482   118808870.447       -1620.178          46.000  
  25359282.400   133263933.777         333.949          42.000  
  26454895.831   139021420.491         214.026          42.000  
  27371914.335   143840412.764       -2414.426          31.000  
  24747542.779   130049220.842        2605.489          42.000  
  26515918.241   139342082.9022       3053.688          40.000  
  25069897.953   131743207.306        1621.768          40.000  
  25846362.092   135823553.819        -870.536          40.000  
  26366889.376   138558953.844        3734.698          29.000  
 24  2  6 19 43 15.0060000  0 14G 8G10G16G21G23G27E10E25E24G 2G32E11
                                E12G 1
  22305845.920   117218011.046         995.737          44.000  
  23071664.326   121242420.480        -517.284          49.000  
  25942851.685   136330599.3462      -3597.933          31.000  
  23191318.837   121871206.828        1823.073          46.000  
  24891355.206   130804959.641       -2638.601          32.000  
  22608883.914   118810491.137       -1621.136          46.000  
  25359218.480   133263600.100         333.542          41.000  
  26454855.477   139021206.753         213.115          42.000  
  27372382.795   143842827.204       -2415.105          30.000  
  24747046.975   130046615.659        2604.703          44.000  
  26515338.370   139339029.6272       3053.016          40.000  
  25069589.721   131741585.719        1620.938          40.000  
  25846528.104   135824424.677        -871.364          40.000  
  26366183.401   138555218.934        3734.670          31.000  
 24  2  6 19 43 16.0060000  0 14G 8G10G16G21G23G27E10E25E24G 2G32E11
                                E12G 1
  22305656.541   117217015.597         995.418          46.000  
  23071763.146   121242938.023        -517.785          49.000  
  25943536.859   136334197.9732      -3598.302          31.000  
  23190972.250   121869383.804        1822.960          46.000  
  24891856.490   130807598.537       -2639.026          32.000  
  22609192.417   118812112.603       -1621.600          47.000  
  25359155.197   133263266.917         333.094          44.000  
  26454814.888   139020993.753         212.940          42.000  
  27372838.708   143845242.088       -2414.455          36.000  
  24746551.022   130044010.944        2604.640          41.000  
  26514757.469   139335976.8832       3052.982          37.000  
  25069281.315   131739964.637        1621.205          40.000  
  25846693.715   135825296.001        -871.529          40.000  
  26365474.547   138551484.373        3733.979          32.000  
 24  2  6 19 43 17.0060000  0 14G 8G10G16G21G23G27E10E25E24G 2G32E11
                                E12G 1
  22305467.433   117216022.533         989.024          46.000  
  23071862.211   121243458.098        -524.493          49.000  
  25944221.955   136337798.7622      -3604.608          33.000  
  23190625.662   121867562.987        1816.437          47.000  
  24892358.559   130810239.750       -2645.559          32.000  
  22609501.495   118813736.358       -1627.850          47.000  
  25359091.957   133262935.855         327.008          44.000  
  26454774.796   139020783.132         206.208          43.000  
  27373299.630   143847659.224       -2421.790          34.000  
  24746056.064   130041408.299        2598.562          42.000  
  26514176.482   139332926.2152       3046.586          38.000  
  25068973.458   131738345.592        1614.964          40.000  
  25846859.981   135826169.444        -877.655          40.000  
  26364761.645   138547751.735        3728.220          32.000  
 24  2  6 19 43 18.0060000  0 14G 8G10G16G21G23G27E10E25E24G 2G32E11
                                E12G 1
  22305278.596   117215031.296         992.460          45.000  
  23071961.712   121243980.089        -520.790          49.000  
  25944907.879   136341400.9962      -3601.202          33.000  
  23190279.537   121865743.853        1820.446          46.000  
  24892861.108   130812882.691       -2641.541          32.000  
  22609810.469   118815361.933       -1624.384          47.000  
  25359029.041   133262606.408         331.136          43.000  
  26454734.992   139020574.342         210.254          43.000  
  27373756.319   143850077.914       -2417.476          34.000  
  24745561.150   130038807.229        2602.356          42.000  
  26513595.904   139329877.0422       3050.790          38.000  
  25068665.506   131736728.137        1619.123          40.000  
  25847026.491   135827044.427        -873.259          40.000  
  26364046.701   138544020.553        3732.328          32.000  
 24  2  6 19 43 19.0060000  0 14G 8G10G16G21G23G27E10E25E24G 2G32E11
                                E12G 1
  22305089.697   117214039.588         990.763          45.000  
  23072061.196   121244501.694        -522.552          49.000  
  25945593.359   136345002.3012      -3601.723          32.000  
  23189933.124   121863924.123        1818.868          47.000  
  24893361.327   130815495.9273      -2643.061          32.000  
  22610119.468   118816986.978       -1625.964          47.000  
  25358966.420   133262276.234         329.265          43.000  
  26454695.074   139020365.098         208.370          43.000  
  27374216.525   143852495.947       -2418.698          33.000  
  24745066.454   130036205.456        2600.926          42.000  
  26513015.196   139326827.0662       3048.873          38.000  
  25068357.509   131735109.936        1617.738          40.000  
  25847192.800   135827918.613        -875.036          40.000  
  26363341.215   138540288.582        3730.482          33.000  
 24  2  6 19 43 20.0060000  0 14G 8G10G16G21G23G27E10E25E24G 2G32E11
                                E12G 1
  22304901.418   117213049.306         990.476          45.000  
  23072160.811   121245024.822        -522.910          49.000  
  25946280.697   136348604.7562      -3603.153          32.000  
  23189587.147   121862105.694        1818.654          46.000  
  24893862.750   130818139.4892      -2643.714          32.000  
  22610428.817   118818613.408       -1626.141          47.000  
  25358903.931   133261947.237         329.220          43.000  
  26454655.471   139020157.290         207.659          43.000  
  27374680.404   143854915.193       -2419.288          33.000  
  24744571.347   130033604.830        2600.932          42.000  
  26512435.343   139323778.1702       3049.365          38.000  
  25068049.862   131733492.913        1617.312          40.000  
  25847359.232   135828793.945        -875.118          41.000  
  26362629.324   138536557.607        3731.117          34.000  
 24  2  6 19 43 21.0060000  0 14G 8G10G16G21G23G27E10E25E24G 2G32E11
                                E12G 1
  22304712.799   117212057.995         991.458          44.000  
  23072260.120   121245547.063        -522.323          49.000  
  25946965.522   136352205.7062      -3600.353          32.000  
  23189240.621   121860286.079        1819.805          46.000  
  24894361.111   130820781.8832      -2642.031          31.000  
  22610738.427   118820238.797       -1625.385          46.000  
  25358841.076   133261616.976         330.559          42.000  
  26454615.589   139019948.436         208.825          43.000  
  27375136.841   143857333.178       -2417.620          32.000  
  24744076.258   130031002.910        2602.037          42.000  
  26511855.027   139320728.0242       3050.122          38.000  
  25067741.778   131731874.585        1618.608          39.000  
  25847525.681   135829667.970        -873.930          40.000  
  26361921.509   138532825.238        3732.515          34.000  
 24  2  6 19 43 22.0060000  0 14G 8G10G16G21G23G27E10E25E24G 2G32E11
                                E12G 1
  22304524.031   117211065.842         991.518          44.000  
  23072359.254   121246068.526        -521.841          49.000  
  25947652.964   136355805.4902      -3600.432          32.000  
  23188894.156   121858465.465        1820.381          46.000  
  24894865.012   130823423.3412      -2641.887          31.000  
  22611047.244   118821863.268       -1624.817          46.000  
  25358777.914   133261285.622         330.958          42.000  
  26454575.706   139019738.695         209.557          42.000  
  27375598.076   143859750.153       -2417.401          32.000  
  24743580.698   130028399.819        2603.029          42.000  
  26511274.432   139317676.6532       3050.668          39.000  
  25067433.695   131730255.120        1618.794          39.000  
  25847692.261   135830540.832        -873.054          40.000  
  26361210.177   138529091.637        3733.038          34.000  
 24  2  6 19 43 23.0060000  0 14G 8G10G16G21G23G27E10E25E24G 2G32E11
                                E12G 1
  22304335.019   117210074.375         990.867          43.000  
  23072458.485   121246590.781        -522.623          48.000  
  25948334.160   136359405.5932      -3599.298          32.000  
  23188548.100   121856645.405        1819.907          45.000  
  24895369.873   130826065.3072      -2642.001          31.000  
  22611356.497   118823488.374       -1625.543          47.000  
  25358715.006   133260954.705         330.779          41.000  
  26454536.051   139019529.686         208.675          41.000  
  27376055.979   143862167.571       -2417.652          30.000  
  24743085.548   130025797.265        2601.967          44.000  
  26510693.584   139314625.6262       3050.931          38.000  
  25067125.742   131728636.057        1618.708          39.000  
  25847858.326   135831414.099        -873.439          40.000  
  26360499.229   138525358.283        3733.036          35.000  
 24  2  6 19 43 24.0060000  0 14G 8G10G16G21G23G27E10E25E24G 2G32E11
                                E12G 1
  22304146.382   117209083.620         990.496          46.000  
  23072557.829   121247113.873        -523.436          48.000  
  25949021.018   136363005.7672      -3600.677          36.000  
  23188201.897   121854825.942        1819.248          45.000  
  24895869.979   130828707.9092      -2643.292          31.000  
  22611666.046   118825114.223       -1626.233          47.000  
  25358651.985   133260624.274         330.386          43.000  
  26454496.508   139019321.391         207.876          41.000  
  27376515.181   143864585.392       -2418.294          35.000  
  24742590.320   130023195.068        2601.735          41.000  
  26510113.321   139311575.0932       3050.519          37.000  
  25066817.885   131727017.447        1618.412          40.000  
  25848024.591   135832287.782        -873.791          39.000  
  26359790.950   138521625.323        3732.448          35.000  
 24  2  6 19 43 25.0060000  0 14G 8G10G16G21G23G27E10E25E24G 2G32E11
                                E12G 1
  22303958.164   117208093.340         989.945          45.000  
  23072657.444   121247637.568        -523.998          48.000  
  25949708.068   136366606.280       -3600.708          33.000  
  23187855.641   121853006.828        1818.691          45.000  
  24896373.732   130831350.9132      -2643.479          31.000  
  22611975.500   118826740.452       -1626.324          46.000  
  25358589.304   133260294.085         329.873          43.000  
  26454457.097   139019113.573         207.500          39.000  
  27376980.605   143867003.506       -2418.156          35.000  
  24742095.214   130020593.141        2601.813          41.000  
  26509532.517   139308524.2511       3050.380          36.000  
  25066509.549   131725399.085        1618.096          40.000  
  25848190.630   135833161.711        -873.845          39.000  
  26359080.683   138517892.455        3732.907          36.000  
 24  2  6 19 43 26.0060000  0 14G 8G10G16G21G23G27E10E25E24G 2G32E11
                                E12G 1
  22303769.806   117207103.689         989.595          45.000  
  23072757.084   121248161.981        -524.693          48.000  
  25950391.994   136370207.071       -3600.536          29.000  
  23187509.568   121851188.149        1818.536          43.000  
  24896879.762   130833994.3602      -2643.610          31.000  
  22612285.241   118828367.321       -1627.124          47.000  
  25358526.692   133259964.290         329.832          43.000  
  26454417.686   139018906.368         206.923          41.000  
  27377442.259   143869422.016       -2419.057          35.000  
  24741600.029   130017991.468        2601.818          38.000  
  26508951.808   139305474.214        3050.186          38.000  
  25066201.692   131723781.032        1618.182          39.000  
  25848357.123   135834035.955        -874.036          39.000  
  26358369.892   138514159.882        3732.523          38.000  
 24  2  6 19 43 27.0060000  0 14G 8G10G16G21G23G27E10E25E24G 2G32E11
                                E12G 1
  22303581.300   117206114.322         988.828          45.000  
  23072857.292   121248686.773        -525.179          48.000  
  25951075.702   136373807.663       -3600.547          29.000  
  23187163.827   121849369.615        1818.425          43.000  
  24897381.046   130836637.9652      -2644.173          32.000  
  22612594.974   118829994.411       -1627.460          47.000  
  25358463.723   133259634.513         329.643          42.000  
  26454378.205   139018699.439         206.712          40.000  
  27377903.346   143871840.601       -2418.943          36.000  
  24741105.045   130015389.860        2601.751          37.000  
  26508370.969   139302424.128        3049.800          36.000  
  25065893.792   131722162.998        1618.043          39.000  
  25848523.493   135834910.196        -874.333          39.000  
  26357659.371   138510427.179        3732.540          37.000  
 24  2  6 19 43 28.0060000  0 13G 8G10G21G23G27E10E25E24G 2G32E11E12
                                G 1
  22303393.196   117205125.525         988.499          45.000  
  23072957.195   121249212.271        -525.941          48.000  
  23186817.641   121847551.550        1817.933          43.000  
  24897885.514   130839282.0262      -2643.705          32.000  
  22612904.706   118831622.048       -1627.869          47.000  
  25358400.972   133259305.080         329.365          42.000  
  26454339.195   139018493.103         206.135          40.000  
  27378364.390   143874259.551       -2418.892          36.000  
  24740609.467   130012788.584        2601.368          38.000  
  26507790.322   139299374.306        3049.845          36.000  
  25065585.813   131720545.299        1617.788          39.000  
  25848689.907   135835784.749        -875.015          39.000  
  26356948.406   138506694.680        3732.297          38.000  
 24  2  6 19 43 29.0060000  0 13G 8G10G21G23G27E10E25E24G 2G32E11E12
                                G 1
  22303205.414   117204137.296         987.697          45.000  
  23073057.350   121249738.454        -526.711          48.000  
  23186471.908   121845733.923        1817.362          43.000  
  24898390.357   130841926.5832      -2645.524          32.000  
  22613214.491   118833250.230       -1628.650          47.000  
  25358338.579   133258975.998         328.598          43.000  
  26454299.801   139018287.339         205.505          40.000  
  27378821.638   143876678.912       -2419.671          35.000  
  24740114.160   130010187.629        2600.952          37.000  
  26507209.962   139296324.785        3048.597          36.000  
  25065278.226   131718927.894        1617.114          39.000  
  25848856.452   135836659.570        -875.189          39.000  
  26356238.182   138502962.359        3732.114          37.000  
 24  2  6 19 43 30.0060000  0 13G 8G10G21G23G27E10E25E24G 2G32E11E12
                                G 1
  22303017.292   117203149.660         987.285          45.000  
  23073157.384   121250265.321        -527.248          47.000  
  23186126.062   121843916.711        1817.113          44.000  
  24898895.463   130844571.5632      -2645.628          32.000  
  22613524.346   118834878.942       -1628.943          47.000  
  25358275.994   133258647.227         328.350          43.000  
  26454260.773   139018082.165         204.652          40.000  
  27379282.088   143879098.585       -2419.524          36.000  
  24739618.967   130007586.983        2600.578          38.000  
  26506629.655   139293275.497        3048.792          36.000  
  25064970.710   131717310.795        1616.899          39.000  
  25849022.779   135837534.682        -875.242          39.000  
  26355527.993   138499230.247        3732.144          37.000  
 24  2  6 19 43 31.0060000  0 13G 8G10G21G23G27E10E25E24G 2G32E11E12
                                G 1
  22302829.719   117202162.574         986.816          46.000  
  23073257.574   121250792.829        -527.904          47.000  
  23185780.487   121842099.895        1816.697          44.000  
  24899397.026   130847216.929       -2645.401          32.000  
  22613834.253   118836508.143       -1629.388          47.000  
  25358213.348   133258318.744         328.281          43.000  
  26454222.235   139017877.515         204.282          40.000  
  27379742.974   143881518.610       -2420.458          35.000  
  24739123.983   130004986.565        2600.428          38.000  
  26506049.348   139290226.452        3048.679          37.000  
  25064663.045   131715693.954        1616.491          39.000  
  25849189.105   135838410.053        -875.502          39.000  
  26354817.350   138495498.299        3731.917          36.000  
 24  2  6 19 43 32.0060000  0 13G 8G10G21G23G27E10E25E24G 2G32E11E12
                                G 1
  22302641.894   117201175.888         986.419          46.000  
  23073357.878   121251320.847        -528.113          47.000  
  23185434.868   121840283.307        1816.330          45.000  
  24899901.162   130849862.609       -2645.580          32.000  
  22614144.108   118838137.730       -1629.706          47.000  
  25358151.033   133257990.425         328.142          43.000  
  26454183.129   139017673.254         203.793          40.000  
  27380203.913   143883938.767       -2420.350          35.000  
  24738629.190   130002386.265        2601.434          40.000  
  26505469.216   139287177.476        3048.967          37.000  
  25064355.607   131714077.209        1616.710          39.000  
  25849355.877   135839285.537        -875.538          39.000  
  26354106.891   138491766.422        3731.838          36.000  
 24  2  6 19 43 33.0060000  0 14G 8G10G16G21G23G27E10E25E24G 2G32E11
                                E12G 1
  22302454.557   117200189.837         985.612          45.000  
  23073458.697   121251849.568        -529.296          48.000  
  25955188.029   136395432.7391      -3602.188          36.000  
  23185089.362   121838467.226        1815.599          44.000  
  24900404.662   130852508.778       -2646.371          32.000  
  22614454.521   118839767.885       -1630.713          46.000  
  25358088.544   133257662.487         327.403          43.000  
  26454144.476   139017469.607         203.092          40.000  
  27380664.529   143886359.229       -2421.270          39.000  
  24738134.747   129999786.296        2599.589          38.000  
  26504889.144   139284128.833        3048.101          35.000  
  25064047.558   131712460.870        1615.954          39.000  
  25849522.527   135840161.327        -876.046          39.000  
  26353396.309   138488034.625        3731.371          35.000  
 24  2  6 19 43 34.0060000  0 14G 8G10G16G21G23G27E10E25E24G 2G32E11
                                E12G 1
  22302267.238   117199204.436         984.954          43.000  
  23073559.472   121252379.064        -530.112          46.000  
  25955871.057   136399034.555       -3601.603          29.000  
  23184743.831   121836651.603        1815.229          44.000  
  24900908.127   130855155.485       -2647.548          32.000  
  22614765.048   118841398.653       -1631.024          42.000  
  25358026.089   133257334.959         326.667          40.000  
  26454106.069   139017266.577         202.684          41.000  
  27381124.430   143888780.055       -2419.897          29.000  
  24737640.452   129997186.709        2599.613          43.000  
  26504308.358   139281080.672        3048.208          35.000  
  25063739.911   131710844.830        1615.549          38.000  
  25849689.307   135841037.428        -876.586          39.000  
  26352685.675   138484303.183        3731.837          37.000  
 24  2  6 19 43 35.0060000  0 15G 7G 8G10G16G21G23G27E10E25E24G 2G32
                                E11E12G 1
  27188201.830                       -1764.125          11.000  
  22302079.927   117198219.690         984.633          40.000  
  23073660.447   121252909.322        -530.280          44.000  
  25956558.918   136402636.899       -3601.774          27.000  
  23184398.648   121834836.497        1814.841          45.000  
  24901419.183   130857802.702       -2647.515          31.000  
  22615076.822   118843030.170       -1631.329          29.000  
  25357963.836   133257007.830         327.100          39.000  
  26454067.477   139017064.209         202.001          43.000  
  27381586.904   143891201.732       -2421.363          29.000  
  24737145.974   129994587.542        2598.911          42.000  
  26503729.307   139278032.692        3048.128          33.000  
  25063432.438   131709229.128        1615.452          39.000  
  25849855.451   135841914.012        -876.572          35.000  
  26351974.745   138480572.110        3731.486          32.000  
 24  2  6 19 43 36.0060000  0 14G 8G10G16G21G23G27E10E25E24G 2G32E11
                                E12G 1
  22301892.294   117197235.328         984.553          46.000  
  23073761.231   121253440.077        -530.482          52.000  
  25957242.880   136406238.724       -3601.820          35.000  
  23184052.758   121833021.676        1814.987          48.000  
  24901918.896   130860450.185       -2647.711          35.000  
  22615384.365   118844661.672       -1631.628          50.000  
  25357901.154   133256680.794         327.586          44.000  
  26454028.703   139016862.284         201.872          45.000  
  27382047.328   143893623.276       -2420.714          29.000  
  24736651.453   129991988.497        2599.393          46.000  
  26503146.923   139274984.674        3048.409          39.000  
  25063125.114   131707613.704        1615.488          41.000  
  25850022.065   135842790.634        -876.440          43.000  
  26351263.230   138476840.868        3732.021          34.000  
 24  2  6 19 43 37.0060000  0 14G 8G10G16G21G23G27E10E25E24G 2G32E11
                                E12G 1
  22301704.957   117196251.412         983.383          46.000  
  23073862.076   121253971.379        -531.920          48.000  
  25957929.240   136409841.055       -3602.611          31.000  
  23183707.157   121831207.224        1813.949          48.000  
  24902420.939   130863097.936       -2648.198          33.000  
  22615691.305   118846293.918       -1632.971          42.000  
  25357838.700   133256354.049         326.471          43.000  
  26453990.374   139016660.822         200.882          43.000  
  27382507.447   143896044.933       -2422.787          30.000  
  24736156.695   129989389.701        2598.311          43.000  
  26502568.178   139271937.054        3047.064          40.000  
  25062817.449   131705998.400        1614.896          42.000  
  25850188.977   135843667.387        -877.258          41.000  
  26350552.578   138473109.774        3730.756          37.000  
 24  2  6 19 43 38.0060000  0 14G 8G10G16G21G23G27E10E25E24G 2G32E11
                                E12G 1
  22301517.873   117195268.159         983.216          41.000  
  23073963.086   121254503.289        -532.057          38.000  
  25958603.709   136413443.641       -3602.708          26.000  
  23183361.739   121829393.051        1814.101          48.000  
  24902928.784   130865746.294       -2648.327          30.000  
  22616001.055   118847926.376       -1633.215          29.000  
  25357776.621   133256027.674         326.451          41.000  
  26453951.721   139016459.800         200.802          45.000  
  27382969.013   143898467.205       -2421.769          34.000  
  24735661.886   129986791.033        2598.730          43.000  
  26501987.103   139268889.592        3047.204          35.000  
  25062509.819   131704383.302        1614.856          42.000  
  25850356.080   135844544.569        -877.237          37.000  
  26349841.962   138469378.997        3730.694          39.000  
 24  2  6 19 43 39.0060000  0 16G 7G 8G10G16G21G23G27E10E25E24G 2G32
                                E11G14E12G 1
  27189542.260                       -1764.125          10.000  
  22301330.554   117194285.498         981.106          39.000  
  23074064.542   121255035.995        -534.378          39.000  
  25959292.172   136417046.214       -3603.853          25.000  
  23183016.530   121827579.444        1811.916          47.000  
  24903426.447   130868395.070       -2650.655          31.000  
  22616316.224   118849559.622       -1634.729          34.000  
  25357714.394   133255701.616         324.496          41.000  
  26453913.401   139016259.474         198.642          44.000  
  27383428.574   143900889.843       -2424.703          32.000  
  24735166.675   129984192.812        2596.628          42.000  
  26501408.454   139265842.455        3045.846          37.000  
  25062202.591   131702768.608        1613.178          40.000  
  27019078.866                        3460.809          28.000  
  25850522.258   135845421.967        -878.978          35.000  
  26349131.389   138465648.362        3728.855          40.000  
 24  2  6 19 43 40.0060000  0 16G 7G 8G10G16G21G23G27E10E25E24G 2G32
                                E11G14E12G 1
  27189874.678                       -1764.125          15.000  
  22301143.269   117193303.595         981.031          40.000  
  23074165.692   121255569.633        -534.722          39.000  
  25959977.242   136420649.185       -3603.588          26.000  
  23182671.277   121825766.499        1812.015          47.000  
  24903928.908   130871044.529       -2650.775          31.000  
  22616627.675   118851193.684       -1635.388          35.000  
  25357652.358   133255376.104         324.924          41.000  
  26453874.687   139016059.957         198.596          45.000  
  27383889.390   143903312.952       -2424.490          32.000  
  24734672.214   129981595.124        2596.875          43.000  
  26500829.238   139262795.821        3045.813          37.000  
  25061895.196   131701154.474        1613.563          40.000  
  27018414.798   141982755.6802       3461.042          30.000  
  25850688.995   135846299.894        -878.647          35.000  
  26348421.279   138461918.131        3729.348          40.000  
 24  2  6 19 43 41.0060000  0 17G 7G 8G10G16G21G23G27E10E25E24G 2G32
                                E11G14E12G30G 1
  27190210.455                       -1764.125          16.000  
  22300956.159   117192320.953         982.130          40.000  
  23074267.279   121256102.572        -533.436          41.000  
  25960662.180   136424251.037       -3603.667          25.000  
  23182326.024   121823952.630        1813.561          47.000  
  24904432.591   130873693.003       -2648.364          32.000  
  22616943.376   118852826.905       -1633.618          36.000  
  25357590.576   133255049.607         326.277          42.000  
  26453836.611   139015859.663         200.138          45.000  
  27384349.142   143905735.052       -2422.848          32.000  
  24734177.727   129978996.380        2598.507          43.000  
  26500248.905   139259748.107        3047.636          39.000  
  25061587.950   131699539.307        1614.727          41.000  
  27017755.075   141979292.7252       3462.436          30.000  
  25850855.078   135847176.769        -877.443          36.000  
  27222929.090                        -857.000          14.000  
  26347711.002   138458186.718        3730.926          41.000  
 24  2  6 19 43 42.0060000  0 17G 7G 8G10G16G21G23G27E10E25E24G 2G32
                                E11G14E12G30G 1
  27190545.927                       -1764.125          15.000  
  22300769.529   117191340.721         980.380          38.000  
  23074369.345   121256638.059        -535.125          41.000  
  25961347.747                       -3603.697          23.000  
  23181981.060   121822141.046        1811.872          45.000  
  24904939.136   130876343.828       -2649.926          30.000  
  22617251.110   118854462.494       -1635.425          36.000  
  25357528.880   133254725.229         325.215          40.000  
  26453798.980   139015661.792         198.383          43.000  
  27384815.892   143908159.378       -2424.156          31.000  
  24733683.615   129976399.807        2596.801          42.000  
  26499669.540   139256702.513        3045.644          38.000  
  25061281.079   131697926.253        1613.762          38.000  
  27017094.296   141975831.9232       3461.451          29.000  
  25851022.294   135848055.733        -878.236          35.000  
  27223077.391                        -857.000          15.000  
  26347001.363   138454457.363        3729.801          39.000  
 24  2  6 19 43 43.0060000  0 17G 7G 8G10G16G21G23G27E10E25E24G 2G32
                                E11G14E12G30G 1
  27190882.193                       -1764.125          16.000  
  22300583.484   117190362.302         977.622          39.000  
  23074471.621   121257175.492        -538.185          43.000  
  25962035.791                       -3604.202          23.000  
  23181636.435   121820331.153        1809.064          47.000  
  24905445.568   130878996.362       -2652.883          30.000  
  22617563.356   118856099.891       -1638.141          37.000  
  25357467.438   133254402.480         322.228          41.000  
  26453761.654   139015465.759         195.301          44.000  
  27385272.259   143910585.273       -2426.340          31.000  
  24733189.792   129973804.776        2594.471          44.000  
  26499090.385   139253658.417        3043.216          38.000  
  25060974.566   131696314.767        1611.166          39.000  
  27016434.914   141972372.8142       3458.385          29.000  
  25851189.860   135848936.302        -881.499          35.000  
  27223230.141                        -857.000          16.000  
  26346291.881   138450729.479        3727.257          39.000  
 24  2  6 19 43 44.0060000  0 17G 7G 8G10G16G21G23G27E10E25E24G 2G32
                                E11G14E12G30G 1
  27191217.341                       -1764.125          17.000  
  22300396.836   117189380.672         976.911          40.000  
  23074573.530   121257709.794        -538.814          44.000  
  25962720.808                       -3604.063          24.000  
  23181291.323   121818517.871        1808.701          47.000  
  24905948.579   130881645.523       -2653.565          30.000  
  22617871.701   118857734.020       -1638.940          37.000  
  25357405.446   133254076.244         321.847          42.000  
  26453723.411   139015266.469         194.923          45.000  
  27385734.864   143913007.748       -2427.019          31.000  
  24732695.628   129971206.270        2593.896          44.000  
  26498510.409   139250610.776        3043.257          40.000  
  25060666.945   131694699.758        1611.111          40.000  
  27015775.836   141968859.7253       3457.467          30.000  
  25851356.981   135849813.314        -881.364          36.000  
  27223382.464                        -857.000          18.000  
  26345581.849   138446997.971        3727.195          41.000  
 24  2  6 19 43 45.0060000  0 16G 8G10G16G21G23G27E10E25E24G 2G32E11
                                G14E12G30G 1
  22300210.669   117188402.758         973.048          41.000  
  23074675.736   121258247.917        -543.085          45.000  
  25963407.475                       -3609.239          24.000  
  23180946.969   121816708.178        1804.872          47.000  
  24906454.391   130884298.319       -2657.581          30.000  
  22618184.549   118859371.792       -1642.694          38.000  
  25357344.004   133253753.482         318.101          42.000  
  26453686.181   139015070.916         190.853          45.000  
  27386192.296   143915433.701       -2431.108          31.000  
  24732201.839   129968611.182        2590.491          44.000  
  26497931.237   139247566.575        3039.571          39.000  
  25060359.996   131693088.224        1607.026          40.000  
  27015114.325                        3454.581          30.000  
  25851524.686   135850693.785        -885.258          36.000  
  27223539.586                        -857.000          19.000  
  26344872.899   138443269.783        3723.746          41.000  
 24  2  6 19 43 46.0060000  0 16G 8G10G16G21G23G27E10E25E24G 2G32E11
                                G14E12G30G 1
  22300025.173   117187428.049         972.743          40.000  
  23074778.841   121258789.351        -543.324          45.000  
  25964091.104                       -3609.677          24.000  
  23180603.304   121814901.528        1805.001          47.000  
  24906959.374                       -2657.728          30.000  
  22618496.838   118861012.744       -1642.639          39.000  
  25357283.260   133253433.695         318.105          42.000  
  26453649.501   139014878.569         190.830          44.000  
  27386654.430   143917862.650       -2430.530          30.000  
  24731708.827   129966019.053        2590.237          44.000  
  26497352.491   139244525.249        3039.797          39.000  
  25060054.006   131691479.614        1607.408          39.000  
  27014457.542   141961927.5012       3453.820          31.000  
  25851692.653   135851577.162        -885.010          37.000  
  27223699.508                        -857.000          20.000  
  26344164.080   138439544.424        3723.728          41.000  
 24  2  6 19 43 47.0060000  0 15G 8G10G16G21G23G27E10E25E24G 2G32E11
                                G14E12G 1
  22299839.014   117186449.829         978.501          44.000  
  23074881.247   121259327.428        -538.294          48.000  
  25964774.542                       -3606.408          26.000  
  23180259.029   121813091.266        1810.167          48.000  
  24907462.420                       -2652.164          33.000  
  22618808.673   118862650.143       -1636.578          40.000  
  25357221.800   133253110.187         322.457          44.000  
  26453612.681   139014682.781         194.282          46.000  
  27387113.405                       -2429.571          30.000  
  24731214.855   129963423.136        2596.384          46.000  
  26496773.284   139241480.197        3044.677          41.000  
  25059747.293   131689867.282        1611.230          40.000  
  27013792.916                        3455.603          29.000  
  25851860.393   135852456.752        -880.813          38.000  
  26343454.929   138435815.230        3729.155          42.000  
 24  2  6 19 43 48.0060000  0 14G 8G10G16G21G23G27E10E25E24G 2G32E11
                                E12G 1
  22299652.933   117185470.327         980.453          43.000  
  23074983.244   121259864.316        -535.689          49.000  
  25965459.821                       -3625.437          23.000  
  23179914.570   121811279.552        1812.959          47.000  
  24907968.354   130892257.1463      -2648.363          31.000  
  22619120.177   118864286.332       -1634.723          37.000  
  25357159.861   133252785.069         326.085          43.000  
  26453575.547   139014485.585         198.131          44.000  
  27387580.347   143922715.6691      -2422.551          31.000  
  24730720.734   129960825.691        2598.629          45.000  
  26496193.579   139238433.473        3048.085          42.000  
  25059440.396   131688253.323        1615.084          37.000  
  25852027.636   135853334.727        -876.708          40.000  
  26342744.950   138432084.316        3732.227          42.000  
 24  2  6 19 43 49.0060000  0 15G 8G10G16G21G23G27E10E25E24G 2G32E11
                                G14E12G 1
  22299467.385   117184493.216         979.865          42.000  
  23075086.052   121260403.661        -536.015          46.000  
  25966146.635                       -3596.296          22.000  
  23179570.530   121809470.060        1812.585          45.000  
  24908471.043                       -2649.824          30.000  
  22619431.742                       -1635.840          31.000  
  25357098.453   133252462.130         326.108          41.000  
  26453538.439   139014290.802         198.170          43.000  
  27388039.846                       -2422.615          30.000  
  24730226.684   129958230.325        2598.327          43.000  
  26495614.502   139235388.861        3047.741          40.000  
  25059133.507   131686641.485        1615.197          36.000  
  27012489.315                        3452.000          29.000  
  25852195.150   135854214.814        -876.496          37.000  
  26342035.589   138428355.369        3732.578          39.000  
 24  2  6 19 43 50.0060000  0 14G 8G10G16G21G23G27E10E25E24G 2G32E11
                                E12G 1
  22299281.471   117183515.566         977.806          44.000  
  23075188.772   121260942.614        -538.882          49.000  
  25966832.542                       -3591.122          21.000  
  23179226.752   121807659.922        1810.597          46.000  
  24908985.693   130897550.6192      -2651.896          30.000  
  22619743.377   118867553.6043      -1638.025          36.000  
  25357036.845   133252138.401         324.244          43.000  
  26453501.183   139014095.529         195.553          43.000  
  27388500.549   143927555.640       -2424.772          31.000  
  24729732.843   129955634.162        2596.550          45.000  
  26495034.998   139232343.407        3045.783          41.000  
  25058826.855   131685028.873        1612.722          36.000  
  25852362.611   135855094.103        -879.056          39.000  
  26341326.160   138424625.580        3730.325          40.000  
 24  2  6 19 43 51.0060000  0 13G 8G10G21G23G27E10E25E24G 2G32E11E12
                                G 1
  22299096.018   117182541.987         973.346          44.000  
  23075292.479   121261485.769        -543.714          48.000  
  23178883.629   121805853.782        1805.416          43.000  
  24909485.241   130900207.0792      -2657.179          30.000  
  22620056.975   118869195.4022      -1642.377          40.000  
  25356976.459   133251818.525         319.349          41.000  
  26453465.157   139013904.340         190.353          42.000  
  27388958.679   143929984.499       -2430.354          30.000  
  24729239.691   129953041.772        2592.073          46.000  
  26494456.828   139229301.811        3041.394          39.000  
  25058520.403   131683420.138        1607.874          35.000  
  25852530.613   135855977.167        -883.219          39.000  
  26340617.340   138420899.440        3725.669          41.000  
 24  2  6 19 43 52.0060000  0 13G 8G10G21G23G27E10E25E24G 2G32E11E12
                                G 1
  22298910.880   117181567.663         973.688          46.000  
  23075395.348   121262028.248        -543.636          51.000  
  23178540.130   121804046.581        1806.434          42.000  
  24909992.885   130902895.3903      -2655.613          33.000  
  22620370.136   118870847.0173      -1641.174          43.000  
  25356915.409   133251499.5931        320.512          43.000  
  26453428.799   139013716.3021        190.556          40.000  
  27389422.924                       -2429.237          30.000  
  24728746.181   129950437.3273       2593.011          45.000  
  26493878.258   139226269.8813       3043.074          37.000  
  25058213.785   131681812.2091       1608.955          35.000  
  25852699.077   135856860.1811       -882.547          42.000  
  26339907.989   138417150.1183       3727.340          41.000  
 24  2  6 19 43 53.0060000  0 14G 8G10G16G21G23G27E10E25E24G 2G32E11
                                E12G 1
  22298725.768   117180594.373         973.826          45.000  
  23075498.732   121262571.884        -544.232          48.000  
  25968886.590                       -3609.156          25.000  
  23178196.334   121802240.425        1805.839          45.000  
  24910500.756   130905551.9582      -2657.519          33.000  
  22620680.837   118872489.0032      -1640.900          42.000  
  25356854.639   133251179.488         320.630          43.000  
  26453392.826   139013525.396         190.590          43.000  
  27389886.463   143934827.1511      -2427.957          33.000  
  24728253.082   129947844.8562       2592.147          46.000  
  26493300.106   139223227.9892       3041.445          38.000  
  25057907.577   131680203.081        1608.751          36.000  
  25852867.044   135857742.979        -882.788          39.000  
  26339199.336   138413423.6112       3726.110          39.000  
 24  2  6 19 43 54.0060000  0 14G 8G10G16G21G23G27E10E25E24G 2G32E11
                                E12G 1
  22298540.107   117179619.794         971.468          44.000  
  23075602.212   121263114.319        -545.429          49.000  
  25969588.760                       -3608.902          27.000  
  23177852.050   121800432.767        1804.879          45.000  
  24911002.380                       -2658.538          29.000  
  22620992.638   118874129.8412      -1643.939          43.000  
  25356793.554   133250857.861         319.273          40.000  
  26453356.049   139013333.162         189.384          43.000  
  27390351.817                       -2430.184          29.000  
  24727759.450   129945250.6432       2591.320          46.000  
  26492720.994   139220184.3422       3041.666          37.000  
  25057600.890   131678592.428        1607.898          39.000  
  25853034.732   135858624.170        -884.047          40.000  
  26338490.377   138409695.2712       3725.598          39.000  
 24  2  6 19 43 55.0060000  0 13G 8G10G21G23G27E10E25E24G 2G32E11E12
                                G 1
  22298355.283   117178649.550         967.172          45.000  
  23075706.302   121263661.126        -550.041          50.000  
  23177508.412   121798629.205        1800.325          44.000  
  24911513.829                       -2660.993          29.000  
  22621306.122   118875774.9212      -1648.273          39.000  
  25356732.793   133250540.323         314.440          42.000  
  26453320.015   139013145.163         184.460          43.000  
  27390812.215   143939711.8251      -2433.943          31.000  
  24727266.786   129942660.4582       2587.166          45.000  
  26492142.738   139217144.6292       3036.789          39.000  
  25057295.729   131676985.712        1603.366          36.000  
  25853203.676   135859509.385        -888.653          40.000  
  26337781.898   138405970.8952       3721.461          38.000  
 24  2  6 19 43 56.0060000  0 13G 8G10G21G23G27E10E25E24G 2G32E11E12
                                G 1
  22298171.209   117177680.803         969.835          45.000  
  23075810.428   121264209.584        -547.510          50.000  
  23177165.044   121796827.077        1803.020          44.000  
  24912018.960                       -2657.110          29.000  
  22621619.066   118877421.3922      -1645.135          38.000  
  25356672.642   133250224.017         317.768          42.000  
  26453284.861   139012958.720         187.574          43.000  
  27391274.767   143942144.463       -2431.301          31.000  
  24726774.193   129940071.5462       2590.173          45.000  
  26491564.568   139214106.2142       3039.602          40.000  
  25056990.464   131675380.307        1606.593          36.000  
  25853372.193   135860395.800        -885.087          40.000  
  26337073.437   138402247.6782       3724.413          38.000  
 24  2  6 19 43 57.0060000  0 13G 8G10G21G23G27E10E25E24G 2G32E11E12
                                G 1
  22297985.679   117176706.749         967.463          40.000  
  23075913.968   121264752.814        -550.003          44.000  
  23176821.039   121795019.490        1800.706          45.000  
  24912520.156                       -2660.360          28.000  
  22621932.323   118879062.5402      -1647.253          33.000  
  25356611.156   133249902.202         315.383          41.000  
  26453248.469   139012766.954         185.071          43.000  
  27391736.561   143944571.639       -2433.047          31.000  
  24726280.518   129937477.0542       2587.760          43.000  
  26490985.221   139211062.1232       3037.126          38.000  
  25056684.020   131673769.331        1604.107          36.000  
  25853539.776   135861276.693        -887.447          36.000  
  26336363.859   138398518.7722       3722.572          39.000  
 24  2  6 19 43 58.0060000  0 13G 8G10G21G23G27E10E25E24G 2G32E11E12
                                G 1
  22297801.125   117175737.020         973.647          40.000  
  23076018.364   121265300.513        -544.001          45.000  
  23176477.776   121793216.105        1807.141          45.000  
  24913026.352                       -2654.137          28.000  
  22622245.363   118880707.9852      -1641.724          32.000  
  25356550.525   133249584.451         321.622          41.000  
  26453212.801   139012579.545         191.213          43.000  
  27392197.116   143947002.853       -2427.560          31.000  
  24725787.654   129934886.6392       2594.306          43.000  
  26490406.310   139208022.1012       3044.191          40.000  
  25056378.275   131672162.420        1610.676          37.000  
  25853707.822   135862161.577        -880.878          36.000  
  26335654.865   138394793.8192       3729.192          39.000  
 24  2  6 19 43 59.0060000  0 13G 8G10G21G23G27E10E25E24G 2G32E11E12
                                G 1
  22297616.807   117174765.335         968.584          42.000  
  23076122.132   121265846.363        -549.474          46.000  
  23176133.937   121791410.630        1802.257          46.000  
  24913532.444                       -2659.157          28.000  
  22622558.167   118882351.4552      -1647.461          33.000  
  25356489.423   133249264.480         317.020          41.000  
  26453176.687   139012390.193         186.044          44.000  
  27392658.325   143949431.801       -2431.744          31.000  
  24725294.292   129932293.9992       2589.530          45.000  
  26489827.085   139204979.8772       3039.090          39.000  
  25056071.989   131670553.281        1605.991          37.000  
  25853875.571   135863044.185        -885.517          36.000  
  26334945.077   138391066.5652       3724.103          39.000  
 24  2  6 19 44  0.0060000  0 13G 8G10G21G23G27E10E25E24G 2G32E11E12
                                G 1
  22297431.992   117173795.739         968.232          42.000  
  23076226.607   121266394.414        -549.913          47.000  
  23175790.735   121789607.099        1801.854          45.000  
  24914039.582                       -2661.953          27.000  
  22622871.206   118883996.9082      -1646.649          34.000  
  25356428.993   133248946.382         316.087          41.000  
  26453141.124   139012202.916         185.227          43.000  
  27393119.648   143951862.723       -2432.306          31.000  
  24724801.280   129929703.1542       2589.617          44.000  
  26489248.663   139201939.3842       3039.455          39.000  
  25055765.895   131668945.973        1605.105          35.000  
  25854043.826   135863928.653        -886.707          37.000  
  26334235.770   138387340.9622       3724.247          39.000  
 24  2  6 19 44  1.0060000  0 13G 8G10G21G23G27E10E25E24G 2G32E11E12
                                G 1
  22297247.028   117172826.269         973.169          42.000  
  23076330.793   121266942.681        -544.327          46.000  
  23175447.271   121787803.516        1807.640          45.000  
  24914542.453                       -2656.720          27.000  
  22623184.350   118885642.0391      -1641.339          34.000  
  25356368.676   133248628.152         321.856          41.000  
  26453105.883   139012015.749         190.737          43.000  
  27393586.503   143954293.496       -2426.575          31.000  
  24724308.189   129927112.163        2595.088          44.000  
  26488670.013   139198898.712        3044.657          39.000  
  25055459.826   131667338.460        1611.310          36.000  
  25854211.967   135864812.928        -880.346          37.000  
  26333526.427   138383615.073        3730.378          38.000  
 24  2  6 19 44  2.0060000  0 13G 8G10G21G23G27E10E25E24G 2G32E11E12
                                G 1
  22297062.798   117171857.599         969.125          42.000  
  23076435.503   121267491.881        -548.909          46.000  
  23175103.929   121786000.626        1803.551          45.000  
  24915050.813                       -2658.454          27.000  
  22623496.945   118887288.385       -1645.691          32.000  
  25356307.880   133248310.460         318.319          41.000  
  26453070.154   139011829.373         186.806          43.000  
  27394053.872   143956724.894       -2431.530          31.000  
  24723814.941   129924521.723        2591.121          44.000  
  26488091.172   139195858.533        3041.152          39.000  
  25055153.994   131665731.485        1607.990          36.000  
  25854380.475   135865697.730        -884.097          37.000  
  26332817.145   138379889.659        3726.135          38.000  
 24  2  6 19 44  3.0060000  0 13G 8G10G21G23G27E10E25E24G 2G32E11E12
                                G 1
  22296878.645   117170889.531         967.250          43.000  
  23076539.986   121268041.704        -551.056          48.000  
  23174761.338   121784198.184        1801.831          44.000  
  24915556.547   130932158.9802      -2659.786          27.000  
  22623809.714   118888935.265       -1647.998          35.000  
  25356247.546   133247993.107         316.838          41.000  
  26453034.712   139011643.614         185.380          43.000  
  27394510.989   143959156.566       -2432.291          32.000  
  24723322.069   129921931.608        2589.516          44.000  
  26487512.732   139192818.669        3039.007          39.000  
  25054848.336   131664124.889        1606.023          37.000  
  25854549.097   135866582.730        -885.485          37.000  
  26332108.126   138376164.465        3724.773          38.000  
 24  2  6 19 44  4.0060000  0 13G 8G10G21G23G27E10E25E24G 2G32E11E12
                                G 1
  22296695.601   117169926.473         966.091          44.000  
  23076645.630   121268596.604        -552.276          50.000  
  23174419.008   121782400.804        1801.519          37.000  
  24916062.743   130934824.1482      -2661.252          28.000  
  22624123.774   118890587.021       -1649.146          44.000  
  25356188.625   133247680.516         315.315          40.000  
  26453000.449   139011462.989         184.302          37.000  
  27394976.072   143961593.053       -2434.547          30.000  
  24722830.531   129919346.277        2588.988          42.000  
  26486935.104   139189783.549        3035.115          30.000  
  25054543.594   131662523.188        1605.452          35.000  
  25854718.512   135867472.495        -887.349          41.000  
  26331400.423   138372443.978        3723.935          41.000  
 24  2  6 19 44  5.0060000  0 13G 8G10G21G23G27E10E25E24G 2G32E11E12
                                G 1
  22296511.502   117168960.035         965.860          43.000  
  23076750.445   121269148.763        -552.990          46.000  
  23174076.460   121780599.519        1800.398          45.000  
  24916566.042   130937486.4842      -2663.181          30.000  
  22624440.426   118892235.949       -1650.012          36.000  
  25356128.736   133247364.423         316.010          41.000  
  26452965.487   139011278.708         183.989          42.000  
  27395434.515                       -2433.961          30.000  
  24722337.911   129916757.153        2588.659          46.000  
  26486359.561   139186745.061        3037.717          37.000  
  25054237.831   131660917.385        1605.237          37.000  
  25854887.509   135868359.019        -886.673          38.000  
  26330691.177   138368719.532        3723.983          37.000  
 24  2  6 19 44  6.0060000  0 13G 8G10G21G23G27E10E25E24G 2G32E11E12
                                G 1
  22296326.826   117167989.991         969.872          45.000  
  23076854.666   121269697.225        -548.722          48.000  
  23173733.232   121778794.473        1804.679          47.000  
  24917074.785   130940144.7652      -2658.661          31.000  
  22624751.022   118893880.978       -1645.233          39.000  
  25356068.149   133247044.451         319.922          42.000  
  26452929.723   139011090.795         187.398          43.000  
  27395897.522   143966418.8021      -2429.071          35.000  
  24721844.437   129914163.997        2592.791          47.000  
  26485776.078   139183702.713        3042.563          39.000  
  25053931.807   131659307.844        1608.918          40.000  
  25855055.554   135869241.468        -882.294          39.000  
  26329981.250   138364990.796        3728.228          36.000  
 24  2  6 19 44  7.0060000  0 14G 8G10G16G21G23G27E10E25E24G 2G32E11
                                E12G 1
  22296142.621   117167020.872         968.419          45.000  
  23076959.812   121270246.556        -549.991          49.000  
  25978531.578                       -3597.656          28.000  
  23173390.230   121776990.371        1803.472          47.000  
  24917572.274   130942803.0741      -2659.172          31.000  
  22625066.112   118895526.769       -1646.460          38.000  
  25356007.500   133246725.100         318.851          43.000  
  26452894.334   139010903.923         185.969          44.000  
  27396362.893   143968848.618       -2430.593          36.000  
  24721351.468   129911571.691        2591.553          48.000  
  26485199.881   139180660.658        3041.347          40.000  
  25053626.035   131657699.020        1608.208          39.000  
  25855224.010   135870124.438        -883.737          40.000  
  26329271.296   138361262.922        3727.511          36.000  
 24  2  6 19 44  8.0060000  0 14G 8G10G21G23G27E10E25E24G 2G32E11G14
                                E12G 1
  22295958.478   117166052.563         968.393          44.000  
  23077064.775   121270796.736        -550.329          48.000  
  23173047.264   121775186.943        1803.212          48.000  
  24918082.885   130945462.582       -2660.552          31.000  
  22625378.863   118897173.241       -1646.674          39.000  
  25355947.001   133246406.308         318.844          43.000  
  26452858.561   139010717.863         185.745          44.000  
  27396828.517   143971278.959       -2430.271          37.000  
  24720858.438   129908979.924        2591.503          47.000  
  26484622.296   139177619.087        3041.365          41.000  
  25053320.185   131656090.744        1608.058          41.000  
  26999987.045                        3452.832          31.000  
  25855392.614   135871007.858        -883.352          39.000  
  26328561.500   138357535.532        3726.844          35.000  
 24  2  6 19 44  9.0060000  0 15G 8G10G21G23G27E10E25E24G 2G32E11G14
                                E12G30G 1
  22295774.369   117165085.046         967.555          44.000  
  23077169.590   121271347.668        -550.284          50.000  
  23172704.001   121773384.165        1802.782          47.000  
  24918570.854   130948122.581       -2659.862          30.000  
  22625691.947   118898820.314       -1646.411          40.000  
  25355886.352   133246088.011         318.627          43.000  
  26452823.574   139010532.612         185.354          44.000  
  27397293.470   143973709.796       -2430.557          37.000  
  24720365.871   129906388.704        2591.368          47.000  
  26484041.622   139174577.806        3042.223          40.000  
  25053014.597   131654482.970        1607.989          40.000  
  26999321.171   141882389.6373       3454.456          32.000  
  25855560.764   135871891.684        -882.993          40.000  
  27227485.185                        -861.712          21.000  
  26327852.105   138353808.540        3727.322          36.000  
 24  2  6 19 44 10.0060000  0 14G 8G10G21G23G27E10E25E24G 2G32E11E12
                                G30G 1
  22295590.392   117164117.015         968.310          45.000  
  23077274.134   121271897.828        -550.438          49.000  
  23172360.580   121771581.093        1803.690          48.000  
  24919094.290   130950781.361       -2659.139          31.000  
  22626005.431   118900466.547       -1646.576          44.000  
  25355825.861   133245768.889         319.318          43.000  
  26452788.115   139010347.200         185.904          45.000  
  27397753.990   143976140.087       -2429.643          37.000  
  24719872.423   129903797.103        2592.372          44.000  
  26483462.048   139171534.955        3042.649          39.000  
  25052708.311   131652874.776        1609.016          43.000  
  25855728.923   135872774.434        -882.745          40.000  
  27227647.480                        -874.042          19.000  
  26327143.068   138350081.065        3728.792          33.000  
 24  2  6 19 44 11.0060000  0 14G 8G10G21G23G27E10E25E24G 2G32E11E12
                                G30G 1
  22295406.789   117163150.830         963.913          45.000  
  23077379.377   121272450.413        -554.990          48.000  
  23172017.640   121769779.325        1799.235          49.000  
  24919599.457   130953442.507       -2664.161          30.000  
  22626319.456   118902115.010       -1650.830          41.000  
  25355764.969   133245451.472         315.457          43.000  
  26452752.935   139010163.208         181.904          45.000  
  27398218.122   143978571.817       -2433.335          37.000  
  24719378.852   129901206.605        2588.261          45.000  
  26482884.935   139168494.571        3038.159          40.000  
  25052403.281   131651267.763        1605.134          44.000  
  25855897.196   135873659.079        -886.598          40.000  
  27227814.182                        -862.079          19.000  
  26326433.428   138346354.609        3723.701          34.000  
 24  2  6 19 44 12.0060000  0 14G 8G10G21G23G27E10E25E24G 2G32E11E12
                                G30G 1
  22295223.475   117162187.083         964.750          43.000  
  23077484.697   121272999.9153       -554.204          47.000  
  23171675.066   121767973.8613       1800.558          48.000  
  24920106.822                       -2662.279          28.000  
  22626633.717   118903765.730       -1649.835          40.000  
  25355705.132   133245140.2411        315.991          42.000  
  26452718.357   139009982.7301        182.375          44.000  
  27398681.469   143981052.8401      -2433.386          36.000  
  24718885.866   129898618.344        2589.329          44.000  
  26482306.338   139165456.104        3039.547          39.000  
  25052097.588   131649670.9501       1605.879          43.000  
  25856065.495   135874550.7841       -885.774          40.000  
  27227980.474                        -862.079          18.000  
  26325724.147   138342613.8523       3724.994          33.000  
 24  2  6 19 44 13.0060000  0 14G 8G10G21G23G27E10E25E24G 2G32E11E12
                                G30G 1
  22295039.724   117161223.158         962.722          40.000  
  23077590.193   121273554.8892       -556.524          43.000  
  23171332.719   121766174.0692       1798.534          46.000  
  24920622.938                       -2665.142          26.000  
  22626947.943   118905416.231       -1651.477          36.000  
  25355645.129   133244824.520         314.921          40.000  
  26452683.754   139009800.997         180.566          44.000  
  27399144.624   143983486.401       -2434.393          33.000  
  24718393.150   129896029.610        2587.272          44.000  
  26481728.299   139162417.297        3037.041          38.000  
  25051792.332   131648065.653        1604.028          40.000  
  25856233.837   135875437.059        -887.286          36.000  
  27228145.117                        -862.079          10.000  
  26325015.310   138338889.0452       3723.536          35.000  
 24  2  6 19 44 14.0060000  0 14G 8G10G16G21G23G27E10E25E24G 2G32E11
                                E12G 1
  22294856.296   117160259.843         963.196          42.000  
  23077695.985   121274110.6432       -556.074          46.000  
  25983331.610                       -3607.731          29.000  
  23170990.354   121764374.7662       1799.049          47.000  
  24921135.067                       -2664.571          27.000  
  22627262.152   118907067.409       -1651.733          40.000  
  25355585.031   133244509.252         315.041          42.000  
  26452649.543   139009619.939         180.741          44.000  
  27399607.543   143985920.386       -2434.339          34.000  
  24717900.164   129893441.202        2588.390          45.000  
  26481150.086   139159378.756        3038.502          38.000  
  25051486.682   131646460.734        1604.518          40.000  
  25856402.842   135876323.686        -886.638          37.000  
  26324306.657   138335164.3402       3724.741          35.000  
 24  2  6 19 44 15.0060000  0 14G 8G10G16G21G23G27E10E25E24G 2G32E11
                                E12G 1
  22294672.886   117159297.345         962.686          43.000  
  23077801.969   121274667.3562       -556.566          47.000  
  25984009.455   136546937.1403      -3608.666          30.000  
  23170647.859   121762576.1482       1798.567          46.000  
  24921646.952   130964112.8433      -2664.442          28.000  
  22627576.832   118908719.400       -1651.825          35.000  
  25355525.456   133244194.531         314.785          42.000  
  26452615.139   139009439.681         180.227          44.000  
  27400070.890   143988354.960       -2434.278          34.000  
  24717407.475   129890853.370        2587.875          45.000  
  26480572.083   139156340.770        3038.401          38.000  
  25051181.495   131644856.360        1604.323          40.000  
  25856571.307   135877210.882        -886.761          38.000  
  26323597.812   138331440.0512       3724.688          35.000  
 24  2  6 19 44 16.0060000  0 14G 8G10G16G21G23G27E10E25E24G 2G32E11
                                E12G 1
  22294489.615   117158335.180         961.967          40.000  
  23077907.612   121275224.3892       -557.580          42.000  
  25984698.756   136550545.4452      -3608.020          30.000  
  23170305.808   121760777.6422       1798.341          46.000  
  24922159.971   130966777.3972      -2664.761          28.000  
  22627891.730   118910371.439       -1652.435          36.000  
  25355465.532   133243879.897         314.581          41.000  
  26452580.981   139009259.676         179.657          44.000  
  27400534.167   143990789.579       -2434.807          29.000  
  24716915.117   129888265.504        2587.833          43.000  
  26479993.844   139153302.762        3038.241          38.000  
  25050876.021   131643251.986        1604.219          39.000  
  25856739.937   135878098.058        -887.191          35.000  
  26322889.664   138327715.7292       3724.425          38.000  
 24  2  6 19 44 17.0060000  0 15G 8G10G16G21G23G27E10E25E24G 2G32E11
                                G14E12G 1
  22294306.160   117157373.493         961.689          40.000  
  23078013.753   121275782.0812       -557.914          42.000  
  25985388.214   136554153.9992      -3608.683          29.000  
  23169963.549   121758979.5362       1797.850          45.000  
  24922673.609   130969442.2432      -2664.398          26.000  
  22628206.436   118912024.074       -1653.009          36.000  
  25355405.625   133243565.492         314.364          40.000  
  26452546.848   139009080.213         179.313          43.000  
  27400995.734   143993224.505       -2435.191          29.000  
  24716422.820   129885677.921        2587.450          43.000  
  26479415.875   139150264.996        3037.817          37.000  
  25050570.511   131641647.854        1604.195          37.000  
  26994053.378                        3448.338          27.000  
  25856909.230   135878985.469        -887.829          35.000  
  26322181.273   138323991.5142       3724.426          38.000  
 24  2  6 19 44 18.0060000  0 15G 8G10G16G21G23G27E10E25E24G 2G32E11
                                E12G30G 1
  22294123.099   117156412.695         959.766          40.000  
  23078120.034   121276340.7452       -559.663          43.000  
  25986072.402   136557763.0092      -3609.309          30.000  
  23169621.638   121757182.1672       1796.401          46.000  
  24923183.583   130972107.8792      -2666.237          27.000  
  22628521.037   118913677.587       -1654.364          38.000  
  25355345.762   133243251.710         313.154          42.000  
  26452513.143   139008901.631         177.587          43.000  
  27401453.654   143995660.045       -2435.851          29.000  
  24715930.532   129883090.978        2585.835          44.000  
  26478837.592   139147227.846        3036.006          38.000  
  25050265.350   131640044.325        1602.861          37.000  
  25857078.314   135879873.435        -889.039          36.000  
  27228966.569                        -862.079          10.000  
  26321472.715   138320267.8392       3722.623          39.000  
 24  2  6 19 44 19.0060000  0 16G 8G10G16G21G23G27E10E25E24G 2G32E11
                                G14E12G30G 1
  22293940.133   117155453.481         958.709          41.000  
  23078226.785   121276900.5801       -560.873          43.000  
  25986772.828   136561373.2102      -3610.804          29.000  
  23169279.709   121755386.222        1795.414          46.000  
  24923691.829   130974774.9472      -2667.665          26.000  
  22628835.629   118915332.642       -1655.609          38.000  
  25355286.161   133242939.278         311.935          42.000  
  26452479.586   139008724.633         176.386          43.000  
  27401919.906   143998096.948       -2437.420          29.000  
  24715438.741   129880505.316        2585.128          44.000  
  26478259.868   139144191.917        3035.439          37.000  
  25049960.251   131638442.123        1601.970          37.000  
  26992745.946                        3446.580          28.000  
  25857247.485   135880762.665        -889.448          36.000  
  27229131.639                        -862.079          11.000  
  26320764.655   138316544.8221       3722.181          39.000  
 24  2  6 19 44 20.0060000  0 16G 8G10G16G21G23G27E10E25E24G 2G32E11
                                G14E12G30G 1
  22293758.058   117154495.131         958.202          41.000  
  23078333.860   121277461.927        -561.754          43.000  
  25987461.239   136564983.9082      -3610.885          29.000  
  23168938.113   121753591.040        1794.827          45.000  
  24924195.766   130977442.7522      -2668.409          26.000  
  22629150.580   118916988.523       -1656.354          38.000  
  25355226.848   133242627.487         311.368          42.000  
  26452446.082   139008548.518         175.751          43.000  
  27402380.199   144000534.492       -2437.616          30.000  
  24714946.889   129877920.275        2584.629          44.000  
  26477682.161   139141156.594        3034.689          37.000  
  25049655.666   131636840.536        1601.585          37.000  
  26992093.718   141844389.3802       3446.780          29.000  
  25857416.883   135881652.568        -890.247          36.000  
  27229294.694                        -862.079          12.000  
  26320056.874   138312822.824        3721.877          39.000  
 24  2  6 19 44 21.0060000  0 16G 8G10G16G21G23G27E10E25E24G 2G32E11
                                G14E12G30G 1
  22293576.026   117153537.444         957.477          41.000  
  23078440.987   121278023.988        -562.373          44.000  
  25988150.889   136568594.8642      -3610.865          28.000  
  23168597.179   121751796.365        1794.677          46.000  
  24924703.009   130980111.0612      -2668.383          27.000  
  22629465.739   118918645.133       -1656.726          40.000  
  25355167.726   133242316.090         311.244          42.000  
  26452412.848   139008373.065         174.956          43.000  
  27402845.911   144002972.488       -2438.219          30.000  
  24714454.941   129875335.634        2584.652          45.000  
  26477104.402   139138121.563        3034.747          37.000  
  25049350.845   131635239.322        1601.333          38.000  
  26991433.053   141840942.4802       3446.236          29.000  
  25857586.307   135882542.795        -890.616          36.000  
  27229460.785                        -862.079          13.000  
  26319349.120   138309101.103        3721.530          39.000  
 24  2  6 19 44 22.0060000  0 15G 8G10G16G21G23G27E10E25E24G 2G32E11
                                G14E12G 1
  22293393.828   117152580.325         956.667          41.000  
  23078548.122   121278586.710        -563.268          44.000  
  25988838.104   136572205.8652      -3610.734          28.000  
  23168255.792   121750002.057        1793.879          46.000  
  24925209.876   130982779.7452      -2668.532          27.000  
  22629780.873   118920302.086       -1657.397          39.000  
  25355108.762   133242004.978         311.019          42.000  
  26452379.439   139008198.085         174.637          43.000  
  27403306.474   144005410.818       -2438.427          29.000  
  24713963.194   129872751.215        2584.080          44.000  
  26476526.930   139135086.833        3034.180          38.000  
  25049046.025   131633638.356        1600.738          38.000  
  26990776.427   141837495.8462       3445.575          29.000  
  25857755.723   135883433.258        -890.336          36.000  
  26318641.287   138305379.522        3721.052          39.000  
 24  2  6 19 44 23.0060000  0 15G 8G10G16G21G23G27E10E25E24G 2G32E11
                                G14E12G 1
  22293211.700   117151623.397         956.694          40.000  
  23078655.467   121279149.828        -563.617          46.000  
  25989525.198   136575816.8272      -3610.604          29.000  
  23167914.701   121748207.895        1793.882          46.000  
  24925716.020   130985448.6162      -2668.788          28.000  
  22630095.753   118921959.415       -1657.385          37.000  
  25355049.283   133241693.872         311.072          41.000  
  26452346.197   139008023.409         174.379          44.000  
  27403768.356   144007849.030       -2438.545          28.000  
  24713471.691   129870166.821        2584.034          45.000  
  26475949.232   139132051.957        3034.843          37.000  
  25048741.528   131632037.390        1600.805          38.000  
  26990121.713                        3447.199          28.000  
  25857925.225   135884323.736        -890.714          38.000  
  26317933.209   138301657.801        3721.653          39.000  
 24  2  6 19 44 24.0060000  0 15G 8G10G16G21G23G27E10E25E24G 2G32E11
                                G14E12G 1
  22293029.756   117150666.974         956.330          41.000  
  23078762.821   121279713.476        -563.782          45.000  
  25990209.849   136579427.8322      -3611.095          29.000  
  23167573.802   121746414.047        1793.781          47.000  
  24926218.141   130988117.8602      -2669.392          28.000  
  22630411.454   118923617.038       -1657.983          36.000  
  25354989.743   133241383.022         310.524          41.000  
  26452313.067   139007849.203         173.938          44.000  
  27404237.609   144010287.547       -2438.336          29.000  
  24712980.154   129867582.593        2584.375          45.000  
  26475371.866   139129017.365        3034.753          37.000  
  25048437.126   131630436.626        1600.483          39.000  
  26989464.058                        3447.325          27.000  
  25858094.772   135885214.360        -890.904          38.000  
  26317225.533   138297936.189        3721.676          38.000  
 24  2  6 19 44 25.0060000  0 14G 8G10G16G21G23G27E10E25E24G 2G32E11
                                E12G 1
  22292848.221   117149711.266         955.747          41.000  
  23078870.009   121280277.947        -564.569          45.000  
  25990892.300   136583039.1932      -3611.163          30.000  
  23167232.520   121744620.767        1793.432          47.000  
  24926722.863   130990787.651       -2670.341          28.000  
  22630727.059   118925275.320       -1658.368          36.000  
  25354930.796   133241072.626         310.351          41.000  
  26452280.252   139007675.701         173.297          44.000  
  27404695.817   144012726.640       -2439.633          28.000  
  24712488.502   129864998.843        2583.899          45.000  
  26474794.272   139125983.172        3033.940          38.000  
  25048132.934   131628836.280        1600.205          39.000  
  25858264.213   135886105.398        -891.005          38.000  
  26316517.438   138294214.924        3721.254          38.000  
 24  2  6 19 44 26.0060000  0 14G 8G10G16G21G23G27E10E25E24G 2G32E11
                                E12G 1
  22292666.713   117148756.478         953.937          42.000  
  23078977.642   121280843.501        -566.338          46.000  
  25991577.178   136586651.0862      -3613.603          29.000  
  23166891.063   121742828.274        1791.885          46.000  
  24927227.793   130993458.251       -2671.418          28.000  
  22631043.099   118926934.664       -1660.815          32.000  
  25354871.989   133240762.899         309.119          42.000  
  26452247.315   139007503.112         171.995          43.000  
  27405163.771   144015166.409       -2440.321          30.000  
  24711997.043   129862415.755        2582.252          45.000  
  26474216.975   139122949.530        3033.150          39.000  
  25047828.366   131627236.599        1599.123          38.000  
  25858433.908   135886997.107        -892.440          38.000  
  26315809.300   138290494.187        3719.838          39.000  
 24  2  6 19 44 27.0060000  0 14G 8G10G16G21G23G27E10E25E24G 2G32E11
                                E12G 1
  22292485.544   117147802.634         953.531          43.000  
  23079085.537   121281410.140        -566.634          43.000  
  25992266.706   136590263.4242      -3611.241          21.000  
  23166549.771   121741036.717        1791.383          46.000  
  24927727.044   130996129.734       -2671.533          33.000  
  22631357.971   118928588.4473      -1660.327          39.000  
  25354812.885   133240453.912         308.896          40.000  
  26452214.674   139007331.600         171.427          44.000  
  27405630.608   144017606.781       -2439.832          31.000  
  24711505.924   129859833.449        2582.369          45.000  
  26473639.862   139119916.600        3033.948          32.000  
  25047524.235   131625637.713        1598.882          41.000  
  25858603.419   135887889.470        -892.019          35.000  
  26315101.737   138286774.055        3719.880          39.000  
 24  2  6 19 44 28.0060000  0 13G 8G10G16G21G27E10E25E24G 2G32E11E12
                                G 1
  22292304.237   117146849.165         953.417          48.000  
  23079193.170   121281977.214        -567.000          48.000  
  25992932.091   136593875.2482      -3611.280          31.000  
  23166208.541   121739245.282        1791.644          46.000  
  22631674.475   118930248.7612      -1660.382          47.000  
  25354754.618   133240144.980         309.151          45.000  
  26452181.763   139007160.345         171.456          42.000  
  27406096.721   144020047.470       -2440.257          37.000  
  24711014.500   129857251.137        2582.356          43.000  
  26473062.600   139116883.667        3033.106          39.000  
  25047219.912   131624038.819        1599.195          41.000  
  25858773.472   135888781.896        -892.158          41.000  
  26314394.139   138283053.859        3720.259          38.000  
 24  2  6 19 44 29.0060000  0 14G 8G10G16G21G27E10E25E24G 2G32E11G14
                                E12G 1
  22292122.894   117145896.098         953.108          47.000  
  23079301.248   121282544.791        -567.576          48.000  
  25993619.141   136597487.7822      -3613.119          30.000  
  23165867.546   121737454.070        1791.344          46.000  
  22631989.006   118931909.5752      -1660.767          48.000  
  25354695.890   133239836.246         308.750          45.000  
  26452149.393   139006989.489         170.827          42.000  
  27406559.352   144022488.319       -2440.696          36.000  
  24710523.180   129854668.921        2582.484          44.000  
  26472485.242   139113850.891        3033.070          40.000  
  25046915.921   131622440.031        1599.070          41.000  
  26986202.656                        3444.824          31.000  
  25858944.082   135889674.465        -892.330          40.000  
  26313686.786   138279333.694        3720.487          39.000  
 24  2  6 19 44 30.0060000  0 14G 8G10G16G21G27E10E25E24G 2G32E11G14
                                E12G 1
  22291941.778   117144943.510         952.344          46.000  
  23079409.387   121283112.927        -568.284          48.000  
  25994306.436   136601100.2432      -3613.133          33.000  
  23165526.490   121735663.195        1790.788          46.000  
  22632306.364   118933570.7922      -1661.377          48.000  
  25354637.292   133239527.725         308.485          44.000  
  26452116.718   139006819.081         170.203          42.000  
  27407026.529   144024929.317       -2440.996          35.000  
  24710031.904   129852086.922        2581.971          44.000  
  26471907.709   139110818.226        3032.961          40.000  
  25046612.008   131620841.441        1598.582          42.000  
  26985556.238                        3443.389          30.000  
  25859113.995   135890567.178        -892.622          41.000  
  26312979.084   138275613.638        3719.917          39.000  
 24  2  6 19 44 31.0060000  0 14G 8G10G16G21G27E10E25E24G 2G32E11G14
                                E12G 1
  22291760.497   117143991.352         951.745          46.000  
  23079517.543   121283681.588        -568.803          48.000  
  25994996.077   136604712.2181      -3612.838          33.000  
  23165185.906   121733872.590        1790.471          46.000  
  22632623.016   118935232.4482      -1661.951          48.000  
  25354578.336   133239219.411         308.154          44.000  
  26452084.522   139006649.097         169.598          42.000  
  27407491.019   144027370.583       -2441.611          34.000  
  24709540.733   129849505.073        2581.647          45.000  
  26471330.439   139107785.777        3032.595          40.000  
  25046307.746   131619243.023        1598.012          41.000  
  26984901.506   141806610.9153       3443.162          30.000  
  25859283.803   135891460.056        -893.052          41.000  
  26312271.154   138271893.670        3719.706          39.000  
 24  2  6 19 44 32.0060000  0 14G 8G10G16G21G27E10E25E24G 2G32E11G14
                                E12G 1
  22291579.398   117143039.751         951.212          46.000  
  23079625.822   121284250.891        -569.714          48.000  
  25995681.434   136608324.848       -3614.168          34.000  
  23164845.251   121732082.401        1789.805          46.000  
  22632937.373   118936894.5682      -1662.543          48.000  
  25354519.520   133238911.387         307.738          44.000  
  26452052.160   139006479.682         168.843          42.000  
  27407956.914   144029812.130       -2441.990          34.000  
  24709049.588   129846923.505        2581.516          46.000  
  26470753.142   139104753.556        3031.769          41.000  
  25046003.597   131617644.847        1597.864          41.000  
  26984239.000   141803167.6162       3442.479          30.000  
  25859454.117   135892353.156        -893.153          41.000  
  26311563.417   138268173.819        3719.362          39.000  
 24  2  6 19 44 33.0060000  0 13G 8G10G16G21G27E10E25E24G 2G32E11E12
                                G 1
  22291398.527   117142088.737         950.665          43.000  
  23079734.266   121284820.735        -570.007          49.000  
  25996374.688   136611937.751       -3612.411          33.000  
  23164504.510   121730292.516        1789.623          45.000  
  22633254.531   118938557.0592      -1662.958          43.000  
  25354461.141   133238603.702         307.635          40.000  
  26452019.851   139006310.681         168.833          43.000  
  27408422.468   144032253.857       -2442.942          23.000  
  24708558.303   129844342.110        2581.333          46.000  
  26470176.203   139101721.447        3032.127          37.000  
  25045699.553   131616046.858        1597.588          39.000  
  25859624.379   135893246.452        -893.253          39.000  
  26310855.785   138264454.054        3719.855          36.000  
 24  2  6 19 44 34.0060000  0 14G 8G10G16G21G23G27E10E25E24G 2G32E11
                                E12G 1
  22291217.690   117141138.300         949.881          44.000  
  23079842.859   121285391.381        -571.084          48.000  
  25997075.078   136615550.748       -3613.360          31.000  
  23164164.056   121728503.111        1789.233          40.000  
  24931283.896   131014780.2431      -2674.808          31.000  
  22633571.287   118940220.2082      -1663.580          44.000  
  25354402.648   133238296.345         307.239          42.000  
  26451987.935   139006142.348         167.778          41.000  
  27408885.684   144034696.123       -2442.184          26.000  
  24708067.088   129841761.098        2580.577          44.000  
  26469599.447   139098689.853        3031.182          35.000  
  25045395.317   131614449.272        1597.509          34.000  
  25859794.187   135894140.136        -893.868          39.000  
  26310147.751   138260734.614        3719.259          37.000  
 24  2  6 19 44 35.0060000  0 14G 8G10G16G21G23G27E10E25E24G 2G32E11
                                E12G 1
  22291037.045   117140187.994         951.409          43.000  
  23079951.801   121285962.228        -569.769          48.000  
  25997765.069   136619163.447       -3611.341          31.000  
  23163823.410   121726713.763        1790.524          38.000  
  24931791.496   131017454.031       -2672.545          31.000  
  22633888.104   118941883.4722      -1662.073          44.000  
  25354344.198   133237988.838         308.708          41.000  
  26451956.123   139005974.133         169.718          40.000  
  27409352.172   144037138.279       -2440.203          27.000  
  24707575.612   129839179.975        2582.723          43.000  
  26469022.098   139095657.962        3033.032          34.000  
  25045091.317   131612851.524        1599.799          32.000  
  25859963.707   135895033.637        -892.403          37.000  
  26309440.040   138257014.889        3721.201          38.000  
 24  2  6 19 44 36.0060000  0 14G 8G10G16G21G23G27E10E25E24G 2G32E11
                                E12G 1
  22290856.244   117139237.646         949.402          44.000  
  23080060.306   121286533.156        -571.800          48.000  
  25998453.445   136622775.700       -3612.395          31.000  
  23163483.236   121724924.229        1788.685          40.000  
  24932297.867   131020127.684       -2674.170          31.000  
  22634204.791   118943546.6532      -1664.008          44.000  
  25354285.714   133237681.069         306.979          41.000  
  26451923.762   139005805.935         167.477          40.000  
  27409817.439   144039580.090       -2442.191          28.000  
  24707084.353   129836598.572        2580.726          43.000  
  26468444.749   139092625.717        3030.947          34.000  
  25044787.631   131611253.494        1597.188          32.000  
  25860133.385   135895926.814        -893.940          37.000  
  26308732.050   138253294.740        3719.761          38.000  
 24  2  6 19 44 37.0060000  0 14G 8G10G16G21G23G27E10E25E24G 2G32E11
                                E12G 1
  22290675.302   117138287.318         949.781          41.000  
  23080169.117   121287104.230        -571.735          42.000  
  25999137.240   136626387.766       -3611.928          30.000  
  23163143.000   121723134.709        1788.508          44.000  
  24932807.195   131022801.300       -2674.467          31.000  
  22634521.085   118945209.5411      -1665.405          34.000  
  25354227.020   133237373.051         308.142          41.000  
  26451891.933   139005637.871         167.407          42.000  
  27410280.882                       -2442.597          28.000  
  24706593.121   129834017.074        2580.677          43.000  
  26467867.574   139089593.266        3031.822          39.000  
  25044483.151   131609655.263        1597.147          36.000  
  25860303.402   135896819.759        -892.571          35.000  
  26308023.841   138249574.553        3718.508          35.000  
 24  2  6 19 44 38.0060000  0 14G 8G10G16G21G23G27E10E25E24G 2G32E11
                                E12G 1
  22290494.422   117137337.563         949.371          42.000  
  23080277.989   121287676.004        -572.115          43.000  
  25999817.310   136629999.694       -3611.977          31.000  
  23162802.302   121721345.467        1789.016          46.000  
  24933315.537   131025475.607       -2676.569          25.000  
  22634837.693   118946873.249       -1663.684          35.000  
  25354168.736   133237065.418         307.317          40.000  
  26451859.999   139005470.235         167.162          43.000  
  27410741.122                       -2440.758          32.000  
  24706102.098   129831435.620        2581.228          44.000  
  26467290.225   139086560.867        3032.028          31.000  
  25044179.133   131608057.272        1597.895          41.000  
  25860473.297   135897713.051        -893.507          36.000  
  26307312.047   138245854.034        3720.096          33.000  
 24  2  6 19 44 39.0060000  0 14G 8G10G16G21G23G27E10E25E24G 2G32E11
                                E12G 1
  22290313.149   117136388.508         948.852          41.000  
  23080386.416   121288248.344        -572.545          44.000  
  26000493.244   136633612.037       -3612.085          29.000  
  23162461.709   121719556.624        1788.705          47.000  
  24933829.717                       -2674.114          25.000  
  22635154.467   118948537.255       -1664.185          40.000  
  25354109.781   133236758.104         307.137          42.000  
  26451827.620   139005303.122         166.851          44.000  
  27411210.428                       -2442.145          22.000  
  24705610.953   129828854.544        2581.036          45.000  
  26466712.727   139083529.001        3031.880          36.000  
  25043874.967   131606459.569        1597.287          40.000  
  25860643.271   135898606.491        -893.323          39.000  
  26306604.842   138242133.837        3720.441          41.000  
 24  2  6 19 44 40.0060000  0 15G 8G10G16G21G23G27E10E25E24G 2G32E11
                                G14E12G 1
  22290132.531   117135439.840         948.626          42.000  
  23080495.061   121288821.314        -573.296          45.000  
  26001185.809   136637224.334       -3611.975          28.000  
  23162121.203   121717768.137        1788.367          46.000  
  24934326.751   131030771.1853      -2674.770          26.000  
  22635471.380   118950201.893       -1664.630          42.000  
  25354050.685   133236450.982         307.165          42.000  
  26451796.017   139005136.519         166.458          44.000  
  27411663.209                       -2442.796          22.000  
  24705119.459   129826273.673        2580.919          45.000  
  26466135.622   139080497.248        3032.044          39.000  
  25043570.496   131604862.072        1597.341          39.000  
  26978977.890                        3443.359          32.000  
  25860813.280   135899500.127        -893.528          38.000  
  26305896.093   138238413.814        3719.928          41.000  
 24  2  6 19 44 41.0060000  0 15G 8G10G16G21G23G27E10E25E24G 2G32E11
                                G14E12G 1
  22289952.174   117134491.675         947.803          42.000  
  23080603.924   121289394.935        -574.259          45.000  
  26001876.157   136640836.830       -3612.835          28.000  
  23161780.810   121715980.069        1787.416          46.000  
  24934846.009   131033446.3252      -2675.291          27.000  
  22635787.918   118951867.046       -1665.601          42.000  
  25353991.983   133236144.151         306.491          42.000  
  26451763.769   139004970.462         165.464          44.000  
  27412122.420                       -2441.500          22.000  
  24704628.331   129823693.070        2580.139          45.000  
  26465558.701   139077465.710        3031.187          38.000  
  25043266.653   131603264.830        1596.850          38.000  
  26978326.971   141772064.3683       3442.188          32.000  
  25860983.062   135900394.032        -894.376          38.000  
  26305187.779   138234693.960        3719.397          40.000  
 24  2  6 19 44 42.0060000  0 15G 8G10G16G21G23G27E10E25E24G 2G32E11
                                G14E12G 1
  22289771.844   117133544.016         947.472          42.000  
  23080712.944   121289969.201        -574.628          46.000  
  26002565.362   136644449.332       -3612.742          28.000  
  23161440.094   121714192.353        1787.521          46.000  
  24935356.838   131036121.9192      -2675.383          28.000  
  22636104.884   118953532.672       -1665.704          42.000  
  25353933.490   133235837.567         306.536          42.000  
  26451732.228   139004804.912         165.330          44.000  
  27412588.463                       -2443.983          22.000  
  24704137.160   129821112.709        2580.257          45.000  
  26464981.770   139074434.396        3031.280          38.000  
  25042962.836   131601667.825        1597.320          38.000  
  26977676.427   141768622.8902       3440.874          32.000  
  25861153.027   135901288.136        -894.246          38.000  
  26304479.432   138230974.216        3719.635          40.000  
 24  2  6 19 44 43.0060000  0 14G 8G10G16G21G23G27E10E25E24G 2G32E11
                                E12G 1
  22289591.260   117132596.756         946.583          40.000  
  23080822.235   121290544.061        -575.105          45.000  
  26003252.019   136648061.911       -3612.694          30.000  
  23161100.007   121712404.963        1786.982          47.000  
  24935862.196   131038797.8282      -2676.112          27.000  
  22636421.719   118955198.762       -1666.412          36.000  
  25353875.328   133235531.201         306.090          42.000  
  26451701.001   139004639.840         164.648          45.000  
  27413064.095                       -2443.689          25.000  
  24703645.831   129818532.516        2579.814          45.000  
  26464404.491   139071403.135        3030.874          36.000  
  25042658.486   131600071.006        1596.687          41.000  
  25861323.219   135902182.448        -894.365          40.000  
  26303773.274   138227254.566        3719.369          39.000  
 24  2  6 19 44 44.0060000  0 15G 8G10G16G21G23G27E10E25E24G 2G32E11
                                G14E12G 1
  22289410.607   117131650.302         946.232          39.000  
  23080931.639   121291119.689        -575.827          45.000  
  26003936.530   136651674.885       -3613.173          30.000  
  23160759.876   121710618.120        1786.740          47.000  
  24936374.072   131041474.3142      -2676.518          28.000  
  22636738.659   118956865.432       -1666.791          37.000  
  25353817.472   133235225.333         305.749          41.000  
  26451669.503   139004475.446         164.474          45.000  
  27413530.548   144059077.8951      -2443.226          25.000  
  24703154.730   129815952.784        2579.500          45.000  
  26463827.273   139068372.380        3030.816          37.000  
  25042354.608   131598474.637        1596.634          40.000  
  26976359.843                        3441.406          30.000  
  25861493.612   135903077.169        -894.668          39.000  
  26303064.926   138223535.241        3719.509          39.000  
 24  2  6 19 44 45.0060000  0 15G 8G10G16G21G23G27E10E25E24G 2G32E11
                                G14E12G 1
  22289230.145   117130703.921         946.345          39.000  
  23081041.366   121291695.507        -576.520          45.000  
  26004623.929   136655287.489       -3612.982          30.000  
  23160419.684   121708831.214        1786.810          47.000  
  24936879.875   131044150.7482      -2676.656          28.000  
  22637055.825   118958532.168       -1667.151          38.000  
  25353759.529   133234919.284         305.757          42.000  
  26451638.337   139004311.133         164.138          45.000  
  27413991.888   144061521.653       -2444.023          24.000  
  24702663.777   129813372.835        2580.082          45.000  
  26463250.386   139065341.446        3030.592          38.000  
  25042050.800   131596878.073        1596.606          40.000  
  26975714.953   141758338.8043       3440.273          30.000  
  25861663.577   135903971.709        -894.903          39.000  
  26302356.813   138219815.589        3719.781          39.000  
 24  2  6 19 44 46.0060000  0 15G 8G10G16G21G23G27E10E25E24G 2G32E11
                                G14E12G 1
  22289050.617   117129758.540         944.347          40.000  
  23081151.320   121292272.369        -578.028          46.000  
  26005311.433   136658900.638       -3613.868          30.000  
  23160079.955   121707045.133        1784.875          47.000  
  24937386.019   131046828.0262      -2678.659          28.000  
  22637372.695   118960199.821       -1668.896          40.000  
  25353701.646   133234613.962         304.282          43.000  
  26451607.101   139004147.793         162.025          45.000  
  27414456.335   144063966.141       -2445.029          25.000  
  24702172.693   129810793.606        2578.159          46.000  
  26462673.665   139062311.170        3028.976          39.000  
  25041746.826   131595282.219        1594.803          41.000  
  26975058.999   141754898.6112       3439.080          31.000  
  25861834.092   135904866.878        -895.991          39.000  
  26301648.884   138216096.517        3718.298          40.000  
 24  2  6 19 44 47.0060000  0 15G 7G 8G10G16G21G23G27E10E25E24G 2G32
                                E11E12G 1
  27212563.914                       -1796.545          22.000  
  22288871.063   117128814.216         943.977          47.000  
  23081261.247   121292850.573        -578.753          51.000  
  26005994.373   136662514.402       -3612.991          30.000  
  23159740.347   121705260.049        1784.761          47.000  
  24937897.807   131049506.2342      -2678.930          33.000  
  22637690.140   118961868.653       -1669.690          47.000  
  25353643.703   133234309.495         304.187          45.000  
  26451576.450   139003985.598         161.948          45.000  
  27414932.254   144066411.421       -2446.039          31.000  
  24701682.202   129808215.241        2578.622          48.000  
  26462097.668   139059281.444        3030.148          36.000  
  25041443.227   131593687.236        1594.487          39.000  
  25862004.886   135905762.894        -896.514          42.000  
  26300941.941   138212378.195        3719.781          41.000  
 24  2  6 19 44 48.0060000  0 15G 7G 8G10G16G21G23G27E10E25E24G 2G32
                                E11E12G 1
  27212907.264                       -1796.545          20.000  
  22288691.754   117127870.369         943.393          48.000  
  23081371.899   121293429.341        -578.999          51.000  
  26006687.033   136666128.240       -3614.367          38.000  
  23159400.766   121703475.411        1784.470          47.000  
  24938408.209   131052184.8312      -2678.186          32.000  
  22638007.918   118963537.985       -1669.464          51.000  
  25353585.515   133234005.265         303.825          46.000  
  26451545.973   139003823.970         161.506          44.000  
  27415391.719   144068857.088       -2445.674          37.000  
  24701191.930   129805637.143        2577.932          48.000  
  26461521.689   139056252.299        3029.263          43.000  
  25041140.108   131592092.546        1594.555          42.000  
  25862175.461   135906659.160        -896.275          43.000  
  26300235.434   138208660.093        3717.883          41.000  
 24  2  6 19 44 49.0060000  0 14G 7G 8G10G16G21G27E10E25E24G 2G32E11
                                E12G 1
  27213247.805                       -1796.545          19.000  
  22288512.261   117126927.035         942.980          46.000  
  23081482.141   121294008.602        -579.725          50.000  
  26007370.803   136669742.324       -3614.171          37.000  
  23159060.949   121701690.975        1783.970          46.000  
  22638325.660   118965207.590       -1669.836          51.000  
  25353527.903   133233701.282         303.871          44.000  
  26451514.851   139003662.690         160.917          44.000  
  27415857.430   144071302.948       -2446.167          34.000  
  24700701.282   129803059.143        2577.904          48.000  
  26460945.701   139053223.129        3028.927          43.000  
  25040836.806   131590497.940        1594.263          41.000  
  25862345.915   135907555.540        -896.724          43.000  
  26299528.464   138204941.977        3717.894          40.000  
 24  2  6 19 44 50.0060000  0 15G 7G 8G10G16G21G23G27E10E25E24G 2G32
                                E11E12G 1
  27213590.082                       -1796.545          18.000  
  22288333.056   117125984.388         942.297          41.000  
  23081592.610   121294588.697        -580.784          46.000  
  26008057.957   136673356.696       -3614.366          30.000  
  23158721.534   121699907.056        1783.555          40.000  
  24939428.968   131057582.7571      -2679.872          28.000  
  22638643.638   118966877.823       -1670.648          46.000  
  25353470.274   133233397.752         303.397          39.000  
  26451484.496   139003502.090         160.003          39.000  
  27416319.739   144073749.126       -2446.066          27.000  
  24700210.992   129800481.591        2577.293          44.000  
  26460369.608   139050194.346        3028.484          39.000  
  25040533.434   131588903.709        1593.782          36.000  
  25862516.953   135908452.326        -897.187          40.000  
  26298821.556   138201224.170        3717.628          36.000  
 24  2  6 19 44 51.0060000  0 14G 7G 8G10G16G21G27E10E25E24G 2G32E11
                                E12G 1
  27213933.974                       -1796.545          17.000  
  22288153.912   117125042.104         942.008          46.000  
  23081703.087   121295169.295        -580.873          49.000  
  26008748.367   136676970.972       -3614.177          33.000  
  23158382.406   121698123.520        1783.298          47.000  
  22638961.642   118968548.497       -1670.929          47.000  
  25353412.732   133233094.335         303.295          43.000  
  26451454.491   139003342.003         159.819          43.000  
  27416783.705   144076195.757       -2446.160          31.000  
  24699720.981   129797904.279        2577.338          46.000  
  26459793.323   139047165.772        3028.562          41.000  
  25040230.437   131587309.670        1594.018          42.000  
  25862687.617   135909349.255        -896.989          42.000  
  26298114.447   138197506.403        3717.651          40.000  
 24  2  6 19 44 52.0060000  0 15G 7G 8G10G16G21G23G27E10E25E24G 2G32
                                E11E12G 1
  27214274.052                       -1796.545          16.000  
  22287974.646   117124100.208         941.587          46.000  
  23081813.425   121295750.289        -581.279          49.000  
  26009435.949   136680585.211       -3613.918          33.000  
  23158043.636   121696340.106        1783.130          48.000  
  24940445.400   131062924.476       -2679.955          30.000  
  22639279.847   118970219.422       -1671.246          46.000  
  25353354.779   133232791.040         303.137          44.000  
  26451424.406   139003182.125         159.655          42.000  
  27417252.357   144078642.339       -2446.903          33.000  
  24699230.351   129795326.935        2577.009          44.000  
  26459217.283   139044137.132        3028.121          41.000  
  25039927.074   131585715.641        1594.057          43.000  
  25862858.254   135910246.187        -897.164          42.000  
  26297407.251   138193788.506        3717.762          38.000  
 24  2  6 19 44 53.0060000  0 15G 7G 8G10G16G21G23G27E10E25E24G 2G32
                                E11E12G 1
  27214612.011                       -1796.545          16.000  
  22287795.196   117123158.583         941.528          46.000  
  23081924.033   121296331.676        -581.427          48.000  
  26010123.732   136684199.626       -3613.922          33.000  
  23157704.535   121694556.860        1783.533          46.000  
  24940953.751   131065604.627       -2679.884          29.000  
  22639597.851   118971890.645       -1671.405          45.000  
  25353297.447   133232487.796         303.294          44.000  
  26451393.903   139003022.562         159.503          42.000  
  27417724.918   144081088.778       -2446.817          35.000  
  24698740.017   129792749.563        2577.279          42.000  
  26458640.893   139041108.456        3028.544          40.000  
  25039623.824   131584121.680        1594.075          43.000  
  25863028.847   135911143.105        -896.906          42.000  
  26296699.933   138190070.621        3718.102          42.000  
 24  2  6 19 44 54.0060000  0 15G 7G 8G10G16G21G23G27E10E25E24G 2G32
                                E11E12G 1
  27214952.028                       -1796.545          14.000  
  22287616.113   117122217.515         940.660          47.000  
  23082034.946   121296913.736        -582.583          47.000  
  26010811.523   136687813.954       -3614.603          32.000  
  23157365.067   121692773.995        1782.567          45.000  
  24941465.976   131068285.157       -2681.376          29.000  
  22639915.837   118973562.301       -1672.089          45.000  
  25353239.922   133232184.821         302.755          44.000  
  26451364.063   139002863.527         158.472          42.000  
  27418190.123   144083535.725       -2447.131          38.000  
  24698249.648   129790172.513        2576.666          44.000  
  26458064.949   139038080.077        3028.389          38.000  
  25039320.565   131582527.931        1593.635          42.000  
  25863199.702   135912040.295        -897.516          40.000  
  26295992.640   138186352.935        3717.286          43.000  
 24  2  6 19 44 55.0060000  0 15G 7G 8G10G16G21G23G27E10E25E24G 2G32
                                E11E12G 1
  27215292.857                       -1796.545          15.000  
  22287437.432   117121277.048         939.689          46.000  
  23082145.965   121297496.431        -583.138          48.000  
  26011498.634   136691428.256       -3613.699          31.000  
  23157026.219   121690991.638        1782.356          45.000  
  24941978.785   131070966.133       -2681.139          29.000  
  22640234.077   118975234.438       -1671.948          45.000  
  25353182.415   133231882.209         301.924          42.000  
  26451333.735   139002705.196         157.018          39.000  
  27418655.852   144085982.830       -2445.953          33.000  
  24697759.306   129787595.790        2576.814          43.000  
  26457488.603   139035052.045        3027.983          35.000  
  25039017.629   131580934.579        1593.249          41.000  
  25863370.330   135912937.750        -898.082          40.000  
  26295285.523   138182635.317        3716.396          34.000  
 24  2  6 19 44 56.0060000  0 15G 7G 8G10G16G21G23G27E10E25E24G 2G32
                                E11E12G 1
  27215633.782                       -1796.545          15.000  
  22287258.951   117120338.109         938.449          49.000  
  23082257.236   121298080.900        -584.927          47.000  
  26012187.883   136695044.173       -3615.477          33.000  
  23156687.589   121689210.563        1780.392          48.000  
  24942487.267   131073648.523       -2682.610          30.000  
  22640552.500   118976908.270       -1674.347          46.000  
  25353124.803   133231580.927         300.609          45.000  
  26451304.096   139002548.226         156.448          43.000  
  27419124.041   144088431.665       -2448.424          37.000  
  24697269.365   129785020.262        2575.659          44.000  
  26456912.493   139032025.135        3026.675          39.000  
  25038714.292   131579342.432        1590.822          44.000  
  25863541.639   135913836.551        -899.245          40.000  
  26294578.937   138178918.959        3715.543          44.000  
 24  2  6 19 44 57.0060000  0 15G 7G 8G10G16G21G23G27E10E25E24G 2G32
                                E11E12G 1
  27215977.752                       -1796.545          16.000  
  22287080.950   117119400.532         935.817          47.000  
  23082368.769   121298666.711        -587.733          48.000  
  26012872.438   136698660.667       -3617.762          33.000  
  23156348.976   121687430.739        1778.197          45.000  
  24942995.278                       -2684.164          29.000  
  22640871.402   118978583.264       -1676.648          45.000  
  25353067.575   133231280.660         299.133          44.000  
  26451274.047   139002392.648         154.228          41.000  
  27419589.499   144090881.320       -2451.002          37.000  
  24696779.668   129782445.903        2573.002          44.000  
  26456336.880   139028999.332        3024.362          39.000  
  25038411.278   131577751.336        1589.804          41.000  
  25863712.948   135914736.310        -900.694          41.000  
  26293871.715   138175203.572        3713.418          43.000  
 24  2  6 19 44 58.0060000  0 14G 8G10G16G21G23G27E10E25E24G 2G32E11
                                E12G 1
  22286902.277   117118461.833         937.849          47.000  
  23082479.787   121299251.523        -585.511          49.000  
  26013558.484                       -3616.041          27.000  
  23156010.084   121685649.609        1780.554          46.000  
  24943508.698                       -2683.532          28.000  
  22641190.000   118980257.058       -1674.658          41.000  
  25353009.920   133230979.119         300.612          45.000  
  26451244.023   139002235.965         155.774          42.000  
  27420056.712   144093329.715       -2448.726          33.000  
  24696289.535   129779870.136        2574.998          43.000  
  26455760.674   139025972.082        3025.802          38.000  
  25038108.377   131576158.860        1591.709          42.000  
  25863883.794   135915634.727        -898.749          41.000  
  26293164.169   138171486.639        3716.075          42.000  
 24  2  6 19 44 59.0060000  0 13G 8G10G21G23G27E10E25E24G 2G32E11E12
                                G 1
  22286723.413   117117522.998         938.185          45.000  
  23082591.015   121299836.403        -585.922          44.000  
  23155670.843   121683868.157        1780.935          41.000  
  24944020.007                       -2683.638          28.000  
  22641508.719   118981930.817       -1674.799          42.000  
  25352952.648   133230677.172         300.994          42.000  
  26451214.035   139002079.149         155.792          41.000  
  27420522.414   144095777.794       -2448.660          32.000  
  24695799.437   129777293.977        2575.052          43.000  
  26455183.499   139022944.515        3026.838          36.000  
  25037804.961   131574565.947        1592.181          38.000  
  25864054.867   135916532.775        -899.035          38.000  
  26292456.930   138167769.108        3716.550          36.000  
 24  2  6 19 45  0.0060000  0 13G 8G10G21G23G27E10E25E24G 2G32E11E12
                                G 1
  22286544.862   117116584.957         939.667          40.000  
  23082702.801   121300422.008        -584.082          46.000  
  23155332.126   121682087.521        1781.942          40.000  
  24944526.456   131084387.3423      -2681.667          28.000  
  22641827.386   118983605.170       -1673.138          40.000  
  25352894.574   133230375.711         302.825          38.000  
  26451184.475   139001923.124         157.843          38.000  
  27420986.468                       -2448.212          28.000  
  24695309.269   129774718.274        2577.117          37.000  
  26454606.962   139019917.385        3029.405          35.000  
  25037501.799   131572973.617        1593.703          37.000  
  25864226.019   135917431.158        -896.817          38.000  
  26291749.341   138164052.069        3719.131          31.000  
 24  2  6 19 45  1.0060000  0 14G 8G10G16G21G23G27E10E25E24G 2G32E11
                                E12G 1
  22286366.495   117115646.031         938.149          45.000  
  23082814.081   121301006.884        -585.752          46.000  
  26015633.647                       -3617.880          25.000  
  23154992.972   121680305.661        1781.454          46.000  
  24945041.124   131087074.9813      -2681.357          27.000  
  22642145.713   118985278.624       -1674.268          42.000  
  25352837.319   133230073.099         301.889          41.000  
  26451154.731   139001766.145         156.530          41.000  
  27421449.850   144100713.9731      -2447.562          28.000  
  24694819.110   129772141.379        2576.013          41.000  
  26454032.387   139016888.884        3027.282          37.000  
  25037198.933   131571380.000        1593.332          41.000  
  25864396.673   135918328.421        -897.907          38.000  
  26291041.918                        3719.948          30.000  
 24  2  6 19 45  2.0060000  0 13G 8G10G16G21G27E10E25E24G 2G32E11E12
                                G 1
  22286188.825   117114710.288         933.034          48.000  
  23082925.998   121301594.982        -591.268          50.000  
  26016321.621                       -3620.834          27.000  
  23154654.665   121678526.978        1775.708          47.000  
  22642464.948   118986955.206       -1679.346          46.000  
  25352780.554   133229773.463         297.003          45.000  
  26451125.362   139001612.413         150.739          43.000  
  27421929.443                       -2451.905          28.000  
  24694329.343   129769567.487        2570.587          46.000  
  26453458.214   139013863.349        3022.935          41.000  
  25036896.224   131569789.413        1588.163          43.000  
  25864568.157   135919228.575        -903.008          43.000  
  26290333.107   138156632.8573       3712.157          42.000  
 24  2  6 19 45  3.0060000  0 13G 8G10G16G21G27E10E25E24G 2G32E11E12
                                G 1
  22286010.170   117113770.375         943.915          43.000  
  23083037.130   121302179.055        -579.758          44.000  
  26017010.198                       -3607.201          32.000  
  23154315.293   121676743.892        1788.288          41.000  
  22642783.144   118988627.594       -1668.860          48.000  
  25352722.488   133229469.426         309.290          39.000  
  26451095.234   139001454.516         162.908          40.000  
  27422383.969                       -2444.806          31.000  
  24693838.469   129766989.155        2581.959          40.000  
  26452883.412                        3039.483          28.000  
  25036592.983   131568194.245        1601.050          37.000  
  25864738.689   135920124.218        -889.976          39.000  
  26289618.643   138152912.5022       3729.522          27.000  
 24  2  6 19 45  4.0060000  0 13G 8G10G16G21G27E10E25E24G 2G32E11E12
                                G 1
  22285830.398   117112827.261         951.179          47.000  
  23083146.717   121302760.105        -572.767          52.000  
  26017691.193                       -3599.456          34.000  
  23153975.005   121674957.529        1794.862          46.000  
  22643099.769   118990296.785       -1661.041          46.000  
  25352663.742   133229161.944         316.184          44.000  
  26451064.243   139001293.408         170.097          43.000  
  27422851.312                       -2433.115          31.000  
  24693346.504   129764407.351        2590.619          42.000  
  26452299.580                        3041.677          32.000  
  25036288.328   131566595.759        1607.669          42.000  
  25864908.157                        -883.213          43.000  
  26288915.687                        3728.762          30.000  
 24  2  6 19 45  5.0060000  0 13G 8G10G21G23G27E10E25E24G 2G32E11E12
                                G 1
  22285649.273   117111875.868         949.593          47.000  
  23083255.991   121303332.872        -575.140          50.000  
  23153633.007   121673162.567        1792.316          49.000  
  24947080.976                       -2676.074          29.000  
  22643415.662   118991957.649       -1663.385          45.000  
  25352603.469   133228845.936         313.571          44.000  
  26451031.890   139001123.841         167.051          46.000  
  27423312.268   144110499.868       -2436.736          34.000  
  24692853.177   129761816.858        2587.968          43.000  
  26451725.268   139004730.0333       3039.394          39.000  
  25035982.129   131564988.554        1604.779          45.000  
  25865075.932   135921900.110        -886.024          41.000  
  26288199.129   138145451.4163       3730.752          37.000  
 24  2  6 19 45  6.0060000  0 13G 8G10G21G23G27E10E25E24G 2G32E11E12
                                G 1
  22285468.629   117110927.972         947.236          46.000  
  23083366.040   121303909.213        -577.377          50.000  
  23153292.169   121671371.011        1790.795          47.000  
  24947590.513                       -2671.935          28.000  
  22643732.688   118993621.797       -1664.758          43.000  
  25352543.955   133228533.160         312.012          45.000  
  26451000.462   139000957.842         165.104          45.000  
  27423766.314   144112937.143       -2437.433          30.000  
  24692360.575   129759229.630        2586.709          43.000  
  26451135.834   139001690.8702       3039.199          25.000  
  25035676.724   131563384.649        1603.077          42.000  
  25865244.614   135922786.895        -887.572          42.000  
  26287509.679   138141721.8542       3729.766          30.000  
 24  2  6 19 45  7.0060000  0 12G 8G10G21G23G27E10E25E24G 2G32E11E12
  22285287.818   117109980.326         946.410          47.000  
  23083475.837   121304486.032        -578.470          52.000  
  23152950.834   121669579.678        1789.943          43.000  
  24948082.016                       -2673.677          27.000  
  22644049.436   118995286.422       -1665.765          43.000  
  25352484.206   133228220.403         311.570          44.000  
  26450968.842   139000792.247         163.869          41.000  
  27424232.793                       -2439.097          29.000  
  24691867.938   129756642.533        2585.838          44.000  
  26450560.684                        3040.164          26.000  
  25035371.598   131561780.757        1602.012          38.000  
  25865413.061   135923673.816        -888.640          42.000  
 24  2  6 19 45  8.0060000  0 12G 8G10G21G23G27E10E25E24G 2G32E11E12
  22285107.348   117109031.331         951.566          47.000  
  23083585.599   121305061.429        -573.112          47.000  
  23152609.490   121667786.677        1795.591          46.000  
  24948603.568                       -2667.675          26.000  
  22644365.765   118996949.325       -1660.272          37.000  
  25352424.508   133227905.919         317.507          45.000  
  26450937.231   139000625.042         169.801          44.000  
  27424690.120   144117761.3401      -2432.900          28.000  
  24691375.222   129754053.577        2591.829          42.000  
  26449986.999                        3043.674          35.000  
  25035065.984   131560175.079        1608.433          40.000  
  25865581.473   135924558.758        -882.330          42.000  
 24  2  6 19 45  9.0060000  0 12G 8G10G21G23G27E10E25E24G 2G32E11E12
  22284927.052   117108082.376         947.922          45.000  
  23083695.300   121305637.119        -577.240          50.000  
  23152268.688   121665993.770        1791.708          47.000  
  24949117.695                       -2672.942          25.000  
  22644682.373   118998612.505       -1664.618          43.000  
  25352364.610   133227591.392         313.586          41.000  
  26450905.594   139000458.143         165.715          45.000  
  27425165.376                       -2438.447          27.000  
  24690882.699   129751464.486        2587.996          45.000  
  26449413.847   138992579.1683       3038.720          32.000  
  25034760.614   131558569.421        1604.424          42.000  
  25865750.200   135925443.765        -886.138          43.000  
 24  2  6 19 45 10.0060000  0 12G 8G10G16G21G27E10E25E24G 2G32E11E12
  22284746.320   117107133.350         949.142          45.000  
  23083804.625   121306212.821        -575.716          48.000  
  26021824.024                       -3598.095          34.000  
  23151927.396   121664200.601        1793.315          45.000  
  22644998.902   119000275.470       -1662.903          44.000  
  25352304.599   133227276.469         315.219          41.000  
  26450873.494   139000291.066         167.369          44.000  
  27425629.884                       -2434.314          27.000  
  24690390.288   129748875.053        2589.511          47.000  
  26448832.719   138989538.0292       3041.098          36.000  
  25034454.895   131556963.312        1606.446          40.000  
  25865918.446   135926328.325        -884.260          40.000  
 24  2  6 19 45 11.0060000  0 11G 8G10G21G27E10E25E24G 2G32E11E12
  22284565.589   117106183.464         948.963          46.000  
  23083914.152   121306787.801        -575.983          49.000  
  23151586.236   121662406.423        1793.627          47.000  
  22645315.615   119001937.569       -1663.092          46.000  
  25352244.597   133226960.475         315.377          42.000  
  26450841.421   139000123.173         167.106          45.000  
  27426094.155                       -2436.221          27.000  
  24689897.756   129746284.574        2589.719          48.000  
  26448250.868   138986495.7712       3041.559          36.000  
  25034149.420   131555356.073        1606.657          41.000  
  25866086.509   135927211.785        -884.412          40.000  
 24  2  6 19 45 12.0060000  0 11G 8G10G21G27E10E25E24G 2G32E11E12
  22284385.092   117105235.244         948.292          47.000  
  23084023.852   121307364.449        -576.522          50.000  
  23151245.145   121660613.710        1792.917          48.000  
  22645631.935   119003601.224       -1663.446          48.000  
  25352184.987   133226645.884         314.647          42.000  
  26450809.775   138999956.853         166.443          45.000  
  27426556.211   144127537.775       -2434.095          27.000  
  24689405.023   129743695.387        2589.636          47.000  
  26447671.826   138983454.8472       3042.124          36.000  
  25033844.015   131553750.168        1606.194          42.000  
  25866254.930   135928096.488        -884.728          40.000  
 24  2  6 19 45 13.0060000  0 11G 8G10G21G27E10E25E24G 2G32E11E12
  22284204.709   117104288.688         943.412          44.000  
  23084133.623   121307942.870        -581.478          49.000  
  23150904.281   121658822.535        1788.398          47.000  
  22645948.700   119005266.510       -1668.170          44.000  
  25352125.769   133226332.734         310.143          41.000  
  26450778.260   138999792.236         161.238          44.000  
  27427017.158   144129974.952       -2440.957          28.000  
  24688912.586   129741107.613        2585.555          46.000  
  26447095.917   138980415.1112       3037.347          33.000  
  25033538.549   131552145.678        1601.047          41.000  
  25866423.246   135928982.657        -889.726          40.000  
 24  2  6 19 45 14.0060000  0 11G 8G10G21G27E10E25E24G 2G32E11E12
  22284024.553   117103344.332         943.587          44.000  
  23084243.699   121308523.623        -581.863          49.000  
  23150563.321   121657033.433        1788.053          46.000  
  22646266.050   119006933.977       -1668.378          43.000  
  25352066.404   133226021.521         310.480          41.000  
  26450747.216   138999629.802         161.410          43.000  
  27427480.017   144132413.839       -2439.598          34.000  
  24688420.150   129738521.823        2584.996          47.000  
  26446520.217   138977377.4432       3036.777          32.000  
  25033233.231   131550543.095        1601.659          41.000  
  25866592.007   135929870.660        -888.674          42.000  
 24  2  6 19 45 15.0060000  0 11G 8G10G21G27E10E25E24G 2G32E11E12
  22283844.842   117102399.865         942.039          43.000  
  23084354.168   121309104.375        -583.401          49.000  
  23150222.571   121655244.051        1787.216          45.000  
  22646582.946   119008601.329       -1669.800          43.000  
  25352006.837   133225709.944         308.947          40.000  
  26450716.556   138999467.255         159.874          43.000  
  27427950.693   144134852.519       -2442.108          32.000  
  24687927.731   129735935.593        2583.901          48.000  
  26445942.518   138974339.3662       3035.392          36.000  
  25032928.097   131548940.156        1600.289          40.000  
  25866760.707   135930758.287        -890.100          42.000  
 24  2  6 19 45 16.0060000  0 11G 8G10G21G27E10E25E24G 2G32E11E12
  22283665.637   117101457.355         942.332          44.000  
  23084465.003   121309687.163        -583.182          49.000  
  23149882.196   121653456.515        1787.389          45.000  
  22646900.234   119010270.535       -1669.476          43.000  
  25351947.332   133225400.073         309.696          40.000  
  26450685.948   138999306.680         160.072          43.000  
  27428405.489   144137292.864       -2441.529          31.000  
  24687436.097   129733351.089        2584.438          48.000  
  26445364.742   138971302.9942       3036.263          35.000  
  25032623.154   131547338.921        1600.566          40.000  
  25866929.669   135931647.603        -890.030          41.000  
 24  2  6 19 45 17.0060000  0 11G 8G10G21G27E10E25E24G 2G32E11E12
  22283486.895   117100518.272         937.942          47.000  
  23084576.640   121310273.476        -587.373          51.000  
  23149542.588   121651672.292        1783.477          43.000  
  22647218.710   119011943.175       -1673.712          44.000  
  25351889.005   133225093.348         305.900          43.000  
  26450656.082   138999149.547         156.389          44.000  
  27428875.537   144139736.409       -2444.718          31.000  
  24686945.066   129730769.772        2580.629          48.000  
  26444787.628   138968269.6072       3033.377          37.000  
  25032319.346   131545740.832        1597.703          39.000  
  25867099.407   135932539.972        -893.221          41.000  
 24  2  6 19 45 18.0060000  0 11G 8G10G21G27E10E25E24G 2G32E11E12
  22283309.059   117099580.738         937.436          47.000  
  23084688.706   121310861.374        -588.141          53.000  
  23149203.609   121649889.378        1782.598          43.000  
  22647537.612   119013617.290       -1674.103          47.000  
  25351831.018   133224787.962         305.399          45.000  
  26450626.670   138998993.879         155.439          44.000  
  27429346.736   144142181.235       -2445.267          30.000  
  24686454.697   129728189.611        2580.415          49.000  
  26444210.392   138965236.6272       3032.119          40.000  
  25032015.660   131544143.948        1596.801          37.000  
  25867269.520   135933433.582        -893.542          44.000  
 24  2  6 19 45 19.0060000  0 12G 8G10G21G23G27E10E25E24G 2G32E11E12
  22283131.093   117098643.985         936.247          44.000  
  23084801.164   121311450.227        -589.346          50.000  
  23148864.612   121648107.229        1781.357          37.000  
  24954231.377                       -2680.155          30.000  
  22647856.812   119015292.150       -1675.299          45.000  
  25351773.388   133224483.088         304.723          42.000  
  26450597.100   138998839.092         153.946          35.000  
  27429818.817   144144626.730       -2445.605          26.000  
  24685964.006   129725610.023        2579.238          44.000  
  26443633.497   138962204.5551       3031.135          35.000  
  25031712.165   131542547.741        1595.513          33.000  
  25867439.983   135934327.752        -894.482          41.000  
 24  2  6 19 45 20.0060000  0 13G 8G10G21G23G27E10E25E24G 2G32E11G14
                                E12
  22282953.415   117097709.583         933.121          44.000  
  23084914.075   121312041.523        -592.708          50.000  
  23148525.982   121646327.218        1778.740          34.000  
  24954734.249                       -2696.436          30.000  
  22648176.029   119016969.300       -1678.503          45.000  
  25351716.082   133224180.356         301.133          42.000  
  26450567.496   138998686.604         150.811          31.000  
  27430279.651   144147074.257       -2449.038          26.000  
  24685473.498   129723032.549        2576.206          42.000  
  26443056.767   138959174.980        3028.182          36.000  
  25031408.793   131540953.476        1592.635          33.000  
  26952782.845                        3433.447          32.000  
  25867610.707   135935223.984        -897.857          41.000  
 24  2  6 19 45 21.0060000  0 12G 8G10G21G23G27E10E25E24G 2G32E11E12
  22282776.304   117096777.176         933.192          45.000  
  23085026.882   121312634.931        -592.595          51.000  
  23148187.675   121644548.967        1779.153          35.000  
  24955233.683                       -2684.444          30.000  
  22648495.368   119018648.401       -1678.357          46.000  
  25351659.124   133223879.337         301.836          42.000  
  26450538.860   138998536.026         151.320          36.000  
  27430749.097   144149523.587       -2448.765          26.000  
  24684983.426   129720456.761        2576.657          43.000  
  26442480.674   138956147.164        3028.733          38.000  
  25031106.207   131539360.892        1593.295          33.000  
  25867781.728   135936121.891        -896.661          41.000  
 24  2  6 19 45 22.0060000  0 13G 8G10G21G23G27E10E25E24G 2G32E11G14
                                E12
  22282598.295   117095843.868         933.200          45.000  
  23085139.838   121313227.630        -592.953          50.000  
  23147849.289   121642769.872        1778.953          48.000  
  24955743.447   131143322.0782      -2685.194          31.000  
  22648814.584   119020326.755       -1678.198          44.000  
  25351601.382   133223577.158         302.068          42.000  
  26450510.277   138998384.783         151.253          44.000  
  27431204.434   144151971.582       -2448.105          38.000  
  24684493.205   129717879.991        2577.006          45.000  
  26441904.486   138953118.147        3028.934          41.000  
  25030802.808   131537767.173        1593.698          43.000  
  26951494.932   141631061.0343       3435.455          33.000  
  25867952.670   135937018.736        -897.282          40.000  
 24  2  6 19 45 23.0060000  0 14G 8G10G21G23G27E10E25E24G 2G32E11G14
                                E12G 1
  22282420.634   117094911.164         932.089          46.000  
  23085252.557   121313820.899        -593.630          50.000  
  23147510.990   121640991.052        1778.481          46.000  
  24956243.099   131146006.9112      -2685.208          29.000  
  22649133.775   119022005.443       -1679.126          44.000  
  25351543.866   133223275.321         301.421          43.000  
  26450481.789   138998233.925         150.580          41.000  
  27431672.754   144154420.108       -2448.531          39.000  
  24684002.575   129715303.347        2576.312          43.000  
  26441327.721   138950089.405        3028.203          41.000  
  25030499.297   131536173.754        1593.007          42.000  
  26950843.402   141627625.4192       3435.626          34.000  
  25868123.167   135937915.752        -897.446          41.000  
  26275443.735   138078388.6783       3720.482          42.000  
 24  2  6 19 45 24.0060000  0 13G 8G10G21G23G27E10E25E24G 2G32E11E12
                                G 1
  22282243.191   117093978.805         932.259          40.000  
  23085365.303   121314414.571        -593.616          48.000  
  23147172.604   121639212.358        1778.420          47.000  
  24956759.303   131148691.9382      -2684.799          29.000  
  22649453.175   119023684.279       -1677.838          38.000  
  25351486.725   133222973.625         301.608          42.000  
  26450453.092   138998083.331         150.587          44.000  
  27432140.708   144156868.822       -2449.137          29.000  
  24683512.337   129712726.738        2576.607          45.000  
  26440751.445   138947060.861        3026.679          41.000  
  25030196.239   131534580.274        1593.419          41.000  
  25868293.979   135938812.831        -897.116          39.000  
  26274734.349   138074668.1142       3720.928          34.000  
 24  2  6 19 45 25.0060000  0 13G 8G10G21G27E10E25E24G 2G32E11G14E12
                                G 1
  22282065.766   117093046.862         932.118          38.000  
  23085478.511   121315008.780        -594.950          41.000  
  23146834.000   121637433.945        1778.217          43.000  
  22649771.912                       -1676.546          28.000  
  25351429.349   133222672.034         301.492          39.000  
  26450425.120   138997933.149         149.999          41.000  
  27432604.762   144159317.651       -2448.811          28.000  
  24683021.969   129710150.248        2576.388          41.000  
  26440174.663   138944032.185        3028.757          34.000  
  25029892.867   131532986.980        1593.251          35.000  
  26949536.799                        3435.225          29.000  
  25868464.136   135939710.045        -897.928          34.000  
  26274024.605   138070947.6592       3720.224          33.000  
 24  2  6 19 45 26.0060000  0 12G 8G10G21G27E10E25E24G 2G32E11E12G 1
  22281888.463   117092115.342         931.212          44.000  
  23085591.493   121315603.612        -595.325          46.000  
  23146495.283   121635656.098        1777.850          45.000  
  22650092.054                       -1680.004          42.000  
  25351371.807   133222370.594         300.902          40.000  
  26450396.021   138997783.650         149.292          42.000  
  27433067.280   144161766.491       -2448.981          37.000  
  24682531.286   129707574.102        2575.645          43.000  
  26439597.724   138941003.735        3027.527          37.000  
  25029589.896   131531394.140        1592.639          42.000  
  25868634.843   135940607.340        -897.506          39.000  
  26273315.986   138067227.2912       3719.006          41.000  
 24  2  6 19 45 27.0060000  0 13G 8G10G16G21G27E10E25E24G 2G32E11E12
                                G 1
  22281711.038   117091184.381         930.656          48.000  
  23085704.841   121316199.000        -595.596          51.000  
  26033476.582                       -3610.334          35.000  
  23146156.993   121633878.389        1777.349          45.000  
  22650417.422   119028746.6993      -1680.298          42.000  
  25351314.395   133222069.476         300.977          46.000  
  26450367.735   138997634.461         148.964          41.000  
  27433532.529   144164215.714       -2449.309          42.000  
  24682041.380   129704998.038        2576.054          43.000  
  26439021.640   138937975.495        3027.567          28.000  
  25029286.515   131529801.281        1592.728          41.000  
  25868805.497   135941504.910        -897.448          41.000  
  26272608.633   138063506.8512       3720.089          42.000  
 24  2  6 19 45 28.0060000  0 15G 8G10G16G21G23G27E10E25E24G 2G32E11
                                G14E12G 1
  22281534.198   117090253.794         930.338          47.000  
  23085817.901   121316794.918        -596.091          50.000  
  26034158.344   136810453.8743      -3611.246          36.000  
  23145818.764   121632100.970        1777.246          45.000  
  24958791.642                       -2690.844          29.000  
  22650735.723   119030427.3102      -1680.987          42.000  
  25351256.932   133221768.507         300.898          45.000  
  26450339.526   138997485.719         148.794          41.000  
  27433997.612   144166665.187       -2449.357          44.000  
  24681551.526   129702422.202        2575.606          44.000  
  26438443.854                        3029.179          27.000  
  25028983.431   131528208.588        1592.741          41.000  
  26947567.228                        3428.711          32.000  
  25868976.684   135942402.606        -897.692          42.000  
  26271901.140   138059786.5772       3720.381          42.000  
 24  2  6 19 45 29.0060000  0 15G 8G10G16G21G23G27E10E25E24G 2G32E11
                                G14E12G 1
  22281357.148   117089323.795         929.853          46.000  
  23085931.353   121317391.479        -596.908          50.000  
  26034842.768   136814065.1402      -3610.874          35.000  
  23145480.788   121630324.051        1776.920          46.000  
  24959305.290                       -2690.844          28.000  
  22651054.364   119032108.4762      -1680.914          45.000  
  25351199.808   133221467.913         300.572          42.000  
  26450311.353   138997337.621         147.745          44.000  
  27434467.372   144169114.977       -2449.554          43.000  
  24681061.856   129699846.664        2575.502          45.000  
  26437864.507   138931931.4613       3027.709          37.000  
  25028680.487   131526616.261        1592.059          41.000  
  26946922.015   141607030.2663       3434.141          31.000  
  25869147.539   135943300.536        -897.737          41.000  
  26271193.543   138056066.5002       3720.925          40.000  
 24  2  6 19 45 30.0060000  0 12G 8G10G21G27E10E25E24G 2G32E11E12G 1
  22281180.377   117088394.203         929.490          46.000  
  23086044.989   121317988.576        -597.621          50.000  
  23145142.490   121628547.387        1776.531          46.000  
  22651371.294   119033789.8992      -1681.909          46.000  
  25351142.572   133221167.471         299.964          43.000  
  26450282.857   138997189.872         147.434          42.000  
  27434931.862   144171564.987       -2450.648          30.000  
  24680571.766   129697271.285        2575.024          42.000  
  26437292.637   138928903.7902       3027.607          41.000  
  25028377.150   131525024.043        1591.966          40.000  
  25869318.734   135944198.629        -898.259          43.000  
  26270485.360   138052346.5082       3720.111          38.000  
 24  2  6 19 45 31.0060000  0 13G 8G10G21G23G27E10E25E24G 2G32E11E12
                                G 1
  22281003.572   117087465.325         928.754          45.000  
  23086159.044   121318586.464        -598.032          50.000  
  23144804.453   121626771.247        1776.301          47.000  
  24960336.161                       -2685.839          28.000  
  22651692.614   119035472.0332      -1682.300          44.000  
  25351085.510   133220867.475         300.001          41.000  
  26450254.954   138997042.819         146.999          42.000  
  27435400.941   144174015.452       -2450.664          30.000  
  24680081.398   129694696.315        2574.814          42.000  
  26436716.789   138925876.4822       3027.175          41.000  
  25028073.690   131523432.211        1591.920          42.000  
  25869489.572   135945097.134        -898.489          42.000  
  26269777.169   138048626.7892       3719.872          38.000  
 24  2  6 19 45 32.0060000  0 14G 8G10G16G21G23G27E10E25E24G 2G32E11
                                E12G 1
  22280826.914   117086537.333         927.770          44.000  
  23086273.247   121319185.347        -599.194          50.000  
  26036933.435                       -3611.426          32.000  
  23144466.634   121624995.844        1775.237          47.000  
  24960848.866                       -2685.839          27.000  
  22652011.299   119037155.0212      -1683.142          44.000  
  25351028.369   133220568.108         299.535          41.000  
  26450227.339   138996896.642         145.917          42.000  
  27435872.385   144176466.553       -2450.700          30.000  
  24679591.082   129692121.933        2574.335          42.000  
  26436140.365   138922849.7362       3026.613          42.000  
  25027770.894   131521841.002        1590.958          42.000  
  25869660.418   135945996.204        -899.146          42.000  
  26269069.450   138044907.5842       3718.984          38.000  
 24  2  6 19 45 33.0060000  0 14G 8G10G16G21G23G27E10E25E24G 2G32E11
                                E12G 1
  22280650.850   117085609.848         927.061          45.000  
  23086387.493   121319784.807        -599.843          50.000  
  26037621.418   136828623.8963      -3613.013          32.000  
  23144128.946   121623220.826        1774.515          47.000  
  24961346.852                       -2688.939          27.000  
  22652332.548   119038838.4472      -1683.691          45.000  
  25350971.237   133220268.982         298.917          40.000  
  26450199.480   138996750.957         145.319          42.000  
  27436339.684   144178917.954       -2451.611          30.000  
  24679100.765   129689547.783        2573.665          42.000  
  26435561.576   138919823.1982       3026.242          41.000  
  25027468.299   131520250.031        1590.650          41.000  
  25869831.980   135946895.481        -899.592          42.000  
  26268361.704   138041188.5042       3718.718          37.000  
 24  2  6 19 45 34.0060000  0 14G 8G10G16G21G23G27E10E25E24G 2G32E11
                                E12G 1
  22280474.795   117084683.356         925.825          45.000  
  23086501.783   121320385.354        -601.316          50.000  
  26038293.592   136832236.5362      -3613.436          33.000  
  23143791.075   121621446.627        1773.496          47.000  
  24961869.093                       -2689.990          27.000  
  22652652.332   119040522.8192      -1684.985          45.000  
  25350914.506   133219970.590         297.954          41.000  
  26450171.865   138996606.266         144.255          42.000  
  27436799.672   144181370.143       -2453.403          30.000  
  24678610.650   129686974.343        2572.736          40.000  
  26434985.998   138916797.3522       3025.308          40.000  
  25027165.415   131518659.753        1589.748          41.000  
  25870003.079   135947795.427        -900.331          42.000  
  26267653.652   138037470.0032       3718.473          37.000  
 24  2  6 19 45 35.0060000  0 15G 8G10G16G21G23G27E10E25E24G 2G32E11
                                G14E12G 1
  22280298.277   117083757.425         926.022          45.000  
  23086615.742   121320986.495        -601.383          51.000  
  26038973.819   136835849.3162      -3612.608          33.000  
  23143453.605   121619672.782        1774.113          47.000  
  24962386.317   131178196.7153      -2690.350          28.000  
  22652973.032   119042207.6492      -1685.034          46.000  
  25350857.845   133219672.512         297.887          42.000  
  26450144.075   138996462.104         143.958          43.000  
  27437271.290   144183822.439       -2452.047          30.000  
  24678120.953   129684401.195        2573.198          43.000  
  26434410.891   138913771.6852       3025.773          39.000  
  25026862.401   131517069.726        1590.414          42.000  
  26942994.494   141586391.1212       3431.561          31.000  
  25870174.345   135948695.619        -900.279          43.000  
  26266945.941   138033751.7072       3718.235          39.000  
 24  2  6 19 45 36.0060000  0 15G 8G10G16G21G23G27E10E25E24G 2G32E11
                                G14E12G 1
  22280121.768   117082831.980         925.113          43.000  
  23086729.866   121321588.272        -602.505          43.000  
  26039658.330   136839462.3652      -3612.862          32.000  
  23143116.179   121617899.200        1773.175          49.000  
  24962897.033   131180887.0492      -2690.908          27.000  
  22653291.359                       -1687.873          30.000  
  25350800.792   133219374.666         297.488          42.000  
  26450116.966   138996318.299         143.332          46.000  
  27437732.325   144186275.215       -2453.392          33.000  
  24677631.169   129681828.111        2572.686          47.000  
  26433835.322                        3024.123          28.000  
  25026560.181   131515479.795        1589.615          43.000  
  26942336.918   141582959.7912       3430.973          31.000  
  25870345.854   135949596.072        -900.861          39.000  
  26266237.367   138030033.4772       3717.823          39.000  
 24  2  6 19 45 37.0060000  0 14G 8G10G21G23G27E10E25E24G 2G32E11G14
                                E12G 1
  22279945.661   117081907.018         924.400          46.000  
  23086844.584   121322190.523        -602.971          51.000  
  23142778.901   121616126.120        1772.772          48.000  
  24963409.197   131183577.6302      -2690.772          27.000  
  22653611.545   119045531.2103      -1686.432          44.000  
  25350743.878   133219076.976         297.387          42.000  
  26450089.630   138996175.124         142.757          43.000  
  27438199.485   144188727.976       -2453.013          35.000  
  24677141.699   129679255.386        2572.065          43.000  
  26433258.016   138907707.9413       3025.731          39.000  
  25026258.117   131513890.242        1589.436          42.000  
  26941686.880   141579528.9112       3430.990          31.000  
  25870516.622   135950496.573        -901.229          42.000  
  26265528.879   138026314.7301       3717.944          40.000  
 24  2  6 19 45 38.0060000  0 13G 8G10G21G27E10E25E24G 2G32E11G14E12
                                G 1
  22279769.876   117080982.520         924.389          46.000  
  23086959.607   121322793.377        -603.004          49.000  
  23142441.772   121614353.251        1772.939          44.000  
  22653936.206   119047217.2972      -1686.481          48.000  
  25350687.479   133218779.522         297.343          44.000  
  26450062.373   138996032.282         142.845          41.000  
  27438663.617   144191181.145       -2452.688          36.000  
  24676652.072   129676682.766        2572.321          42.000  
  26432683.127   138904682.8752       3025.022          41.000  
  25025955.932   131512300.829        1589.401          39.000  
  26941031.860   141576098.2682       3430.774          28.000  
  25870688.123   135951397.319        -900.846          42.000  
  26264821.351   138022596.664        3718.989          36.000  
 24  2  6 19 45 39.0060000  0 14G 8G10G16G21G27E10E25E24G 2G32E11G14
                                E12G 1
  22279594.144   117080058.615         923.546          46.000  
  23087074.351   121323396.960        -604.097          50.000  
  26041720.195   136850163.0223      -3613.601          36.000  
  23142104.904   121612580.825        1772.423          45.000  
  22654255.335   119048903.9692      -1687.036          47.000  
  25350630.687   133218482.444         296.794          44.000  
  26450035.954   138995890.108         142.063          41.000  
  27439129.520   144193634.602       -2453.645          42.000  
  24676162.838   129674110.459        2572.233          41.000  
  26432110.333   138901658.0462       3024.444          41.000  
  25025653.406   131510711.683        1588.910          40.000  
  26940379.640   141572667.9322       3430.583          29.000  
  25870859.911   135952298.342        -901.486          42.000  
  26264113.474   138018878.804        3717.949          38.000  
 24  2  6 19 45 40.0060000  0 14G 8G10G16G21G27E10E25E24G 2G32E11G14
                                E12G 1
  22279418.542   117079135.181         923.001          44.000  
  23087189.374   121324001.122        -604.686          48.000  
  26042403.354   136853776.2712      -3613.698          37.000  
  23141767.635   121610808.756        1771.791          44.000  
  22654578.095   119050591.1082      -1687.433          46.000  
  25350574.436   133218185.601         296.432          42.000  
  26450009.455   138995748.420         141.250          40.000  
  27439597.204   144196088.348       -2453.992          39.000  
  24675673.202   129671538.405        2571.773          40.000  
  26431532.966   138898633.4822       3024.106          39.000  
  25025351.395   131509122.783        1588.648          38.000  
  26939726.470   141569237.8712       3430.232          28.000  
  25871032.189   135953199.582        -901.576          40.000  
  26263406.025   138015161.039        3717.897          36.000  
 24  2  6 19 45 41.0060000  0 14G 8G10G16G21G27E10E25E24G 2G32E11G14
                                E12G 1
  22279242.801   117078212.383         922.544          44.000  
  23087304.380   121324606.013        -605.144          48.000  
  26043089.802   136857389.8122      -3614.117          33.000  
  23141430.471   121609037.168        1771.573          43.000  
  22654899.022   119052278.8362      -1687.921          46.000  
  25350518.194   133217889.136         296.474          42.000  
  26449982.285   138995607.329         140.915          40.000  
  27440066.527   144198542.468       -2454.180          41.000  
  24675183.828   129668966.703        2571.783          40.000  
  26430956.350   138895609.2032       3024.226          39.000  
  25025049.376   131507534.231        1588.298          38.000  
  26939073.936   141565808.2312       3429.763          28.000  
  25871203.550   135954101.149        -901.429          40.000  
  26262698.689   138011443.537        3717.558          36.000  
 24  2  6 19 45 42.0060000  0 14G 8G10G16G21G27E10E25E24G 2G32E11G14
                                E12G 1
  22279067.095   117077290.220         921.881          44.000  
  23087419.848   121325211.677        -605.969          48.000  
  26043776.651   136861003.5762      -3614.023          32.000  
  23141093.333   121607266.091        1770.853          43.000  
  22655219.678   119053967.1622      -1688.623          46.000  
  25350462.275   133217593.074         295.916          42.000  
  26449955.630   138995466.878         140.073          40.000  
  27440537.552   144200997.020       -2454.978          41.000  
  24674694.987   129666395.401        2571.100          41.000  
  26430381.697   138892585.2952       3024.353          38.000  
  25024747.129   131505946.051        1588.033          38.000  
  26938428.034   141562379.1142       3428.558          27.000  
  25871375.330   135955003.084        -902.045          40.000  
  26261991.240   138007726.323        3716.731          37.000  
 24  2  6 19 45 43.0060000  0 14G 8G10G16G21G27E10E25E24G 2G32E11G14
                                E12G 1
  22278891.650   117076368.460         921.292          44.000  
  23087535.264   121325817.820        -606.539          48.000  
  26044462.663   136864617.2782      -3613.611          32.000  
  23140755.941   121605495.255        1770.400          42.000  
  22655542.437   119055655.8142      -1688.904          46.000  
  25350406.042   133217297.153         295.497          42.000  
  26449929.219   138995326.817         139.632          40.000  
  27441003.456   144203451.702       -2454.862          41.000  
  24674205.953   129663824.207        2571.037          41.000  
  26429807.096   138889561.5032       3023.585          39.000  
  25024444.350   131504357.996        1587.744          37.000  
  26937767.316   141558950.1032       3428.212          27.000  
  25871546.926   135955905.100        -902.045          40.000  
  26261284.349   138004009.073        3716.971          37.000  
 24  2  6 19 45 44.0060000  0 14G 8G10G16G21G27E10E25E24G 2G32E11G14
                                E12G 1
  22278716.276   117075447.138         921.202          44.000  
  23087650.819   121326424.473        -606.791          48.000  
  26045148.212   136868230.9442      -3613.445          32.000  
  23140419.004   121603724.733        1770.249          43.000  
  22655863.853   119057344.8662      -1689.215          46.000  
  25350349.922   133217001.400         295.935          42.000  
  26449902.512   138995187.178         139.618          39.000  
  27441470.964   144205906.617       -2455.036          41.000  
  24673716.832   129661253.184        2571.105          41.000  
  26429233.089   138886537.8532       3023.175          39.000  
  25024142.636   131502770.091        1587.710          38.000  
  26937109.810   141555521.2602       3428.733          26.000  
  25871718.820   135956807.274        -902.108          40.000  
  26260577.406   138000291.943        3717.085          37.000  
 24  2  6 19 45 45.0060000  0 14G 8G10G16G21G27E10E25E24G 2G32E11G14
                                E12G 1
  22278541.320   117074526.216         920.704          44.000  
  23087766.401   121327031.604        -607.572          49.000  
  26045835.323   136871844.7782      -3613.925          31.000  
  23140081.970   121601954.410        1770.266          43.000  
  22656185.408   119059034.2282      -1689.661          47.000  
  25350293.968   133216705.826         295.027          42.000  
  26449875.900   138995047.988         138.606          39.000  
  27441936.641   144208361.602       -2455.347          39.000  
  24673227.729   129658682.262        2570.875          41.000  
  26428657.711   138883514.2382       3023.610          39.000  
  25023840.329   131501182.267        1587.963          38.000  
  26936459.702   141552092.6342       3427.647          26.000  
  25871890.364   135957709.538        -902.441          40.000  
  26259870.149   137996574.777        3717.379          37.000  
 24  2  6 19 45 46.0060000  0 13G 8G10G21G27E10E25E24G 2G32E11G14E12
                                G 1
  22278366.181   117073605.835         919.752          44.000  
  23087881.415   121327639.449        -608.403          48.000  
  23139745.216   121600184.593        1769.277          43.000  
  22656507.155   119060724.2382      -1690.839          44.000  
  25350237.848   133216410.533         294.657          41.000  
  26449849.725   138994909.305         138.136          40.000  
  27442401.044   144210816.938       -2455.459          32.000  
  24672738.320   129656111.665        2569.853          39.000  
  26428082.500   138880491.0332       3023.290          36.000  
  25023538.527   131499594.818        1587.329          40.000  
  26935807.666                        3427.222          27.000  
  25872062.074   135958612.086        -903.033          41.000  
  26259163.144   137992857.848        3715.796          37.000  
 24  2  6 19 45 47.0060000  0 13G 8G10G21G27E10E25E24G 2G32E11G14E12
                                G 1
  22278191.199   117072685.914         920.008          45.000  
  23087997.625   121328247.780        -608.174          46.000  
  23139408.348   121598414.958        1769.685          43.000  
  22656828.806   119062414.5272      -1690.356          44.000  
  25350181.833   133216115.430         295.489          42.000  
  26449823.078   138994771.046         138.323          39.000  
  27442869.128   144213272.635       -2455.354          40.000  
  24672249.365   129653541.189        2570.593          41.000  
  26427507.646   138877467.9302       3022.353          32.000  
  25023236.621   131498007.432        1587.727          39.000  
  26935156.816                        3428.047          26.000  
  25872234.229   135959514.751        -902.132          38.000  
  26258456.454   137989140.922        3717.217          39.000  
 24  2  6 19 45 48.0060000  0 14G 8G10G16G21G27E10E25E24G 2G32E11G14
                                E12G 1
  22278016.129   117071766.713         918.842          45.000  
  23088113.538   121328856.920        -609.541          47.000  
  26047900.801   136882641.6863      -3614.376          35.000  
  23139072.030   121596645.921        1768.832          43.000  
  22657150.868   119064105.4852      -1691.284          44.000  
  25350125.477   133215820.799         294.603          43.000  
  26449797.078   138994633.520         136.897          39.000  
  27443337.047   144215728.676       -2456.175          40.000  
  24671760.314   129650971.194        2569.664          42.000  
  26426940.348   138874445.1732       3022.585          28.000  
  25022934.601   131496420.539        1586.623          39.000  
  26934504.265                        3428.005          24.000  
  25872405.782   135960417.853        -903.129          38.000  
  26257749.773   137985424.342        3716.696          37.000  
 24  2  6 19 45 49.0060000  0 14G 8G10G16G21G27E10E25E24G 2G32E11G14
                                E12G 1
  22277841.383   117070848.143         918.266          46.000  
  23088229.425   121329466.782        -610.256          47.000  
  26048592.257   136886256.1102      -3614.802          37.000  
  23138735.668   121594877.394        1767.889          42.000  
  22657472.964   119065796.5221      -1691.913          44.000  
  25350069.514   133215526.561         294.006          43.000  
  26449771.243   138994496.607         136.500          40.000  
  27443803.779   144218185.136       -2456.564          40.000  
  24671271.245   129648401.537        2569.582          41.000  
  26426369.630   138871422.837        3022.373          29.000  
  25022632.477   131494833.969        1586.355          38.000  
  26933852.412                        3427.180          25.000  
  25872577.589   135961321.280        -903.342          38.000  
  26257042.873   137981707.982        3716.478          37.000  
 24  2  6 19 45 50.0060000  0 14G 8G10G16G21G27E10E25E24G 2G32E11G14
                                E12G 1
  22277666.532   117069930.092         917.644          47.000  
  23088345.477   121330077.284        -610.955          49.000  
  26049281.977   136889870.7182      -3614.868          37.000  
  23138399.263   121593109.237        1767.837          44.000  
  22657794.850   119067488.574       -1692.365          46.000  
  25350013.595   133215232.602         293.710          44.000  
  26449745.163   138994360.223         136.180          41.000  
  27444271.951   144220641.903       -2457.234          42.000  
  24670782.351   129645832.156        2568.997          42.000  
  26425797.071   138868400.568        3022.608          30.000  
  25022330.501   131493247.664        1586.057          40.000  
  26933201.301                        3426.869          27.000  
  25872749.604   135962224.967        -904.053          40.000  
  26256335.869   137977991.803        3716.230          37.000  
 24  2  6 19 45 51.0060000  0 14G 8G10G16G21G27E10E25E24G 2G32E11G14
                                E12G 1
  22277491.619   117069012.404         917.460          45.000  
  23088461.862   121330688.273        -611.447          49.000  
  26049972.054   136893485.2582      -3615.065          37.000  
  23138062.980   121591341.331        1768.082          44.000  
  22658116.955   119069180.940       -1692.700          48.000  
  25349957.327   133214938.797         293.941          43.000  
  26449719.398   138994224.220         136.332          40.000  
  27444741.179   144223098.813       -2457.191          42.000  
  24670293.483   129643262.873        2568.844          42.000  
  26425206.137   138865378.371        3021.767          43.000  
  25022028.926   131491661.477        1585.839          39.000  
  26932548.262   141531501.1103       3426.807          27.000  
  25872921.480   135963128.732        -903.933          41.000  
  26255629.327   137974275.593        3716.742          37.000  
 24  2  6 19 45 52.0060000  0 14G 8G10G16G21G27E10E25E24G 2G32E11G14
                                E12G 1
  22277317.021   117068095.160         916.929          44.000  
  23088577.967   121331299.757        -612.235          49.000  
  26050658.746   136897099.8472      -3614.681          39.000  
  23137726.854   121589573.687        1767.173          43.000  
  22658438.825   119070873.636       -1693.030          46.000  
  25349901.591   133214645.116         293.594          42.000  
  26449693.545   138994088.653         134.989          39.000  
  27445209.665   144225555.801       -2457.108          40.000  
  24669804.441   129640693.694        2568.863          41.000  
  26424629.896   138862356.338        3022.044          41.000  
  25021727.596   131490075.414        1585.775          38.000  
  26931894.254                        3425.476          26.000  
  25873093.400   135964032.607        -904.186          40.000  
  26254922.480   137970559.424        3715.865          37.000  
 24  2  6 19 45 53.0060000  0 15G 8G10G16G21E19G27E10E25E24G 2G32E11
                                G14E12G 1
  22277142.650   117067178.383         916.501          45.000  
  23088694.560   121331911.801        -612.421          49.000  
  26051346.294   136900714.4442      -3614.406          39.000  
  23137390.527   121587806.366        1767.131          43.000  
  28874940.652                        2233.596          33.000  
  22658760.685   119072566.796       -1693.414          46.000  
  25349845.951   133214351.671         293.568          42.000  
  26449667.745   138993953.516         134.833          39.000  
  27445676.039   144228013.169       -2457.612          40.000  
  24669315.861   129638124.744        2568.780          41.000  
  26424053.934   138859334.528        3021.451          41.000  
  25021425.655   131488489.533        1586.018          38.000  
  26931240.281                        3426.022          25.000  
  25873265.354   135964936.662        -904.356          40.000  
  26254215.510   137966843.356        3716.129          37.000  
 24  2  6 19 45 54.0060000  0 15G 8G10G16G21E19G27E10E25E24G 2G32E11
                                G14E12G 1
  22276968.680   117066261.864         916.312          45.000  
  23088811.232   121332524.226        -612.900          49.000  
  26052034.242   136904328.9222      -3614.397          41.000  
  23137054.218   121586039.157        1767.197          43.000  
  28874515.713   151736614.157        2232.955          34.000  
  22659083.165   119074260.184       -1693.713          46.000  
  25349789.805   133214058.241         293.329          42.000  
  26449641.814   138993818.614         134.686          40.000  
  27446144.360   144230470.431       -2457.347          39.000  
  24668827.107   129635555.790        2568.491          41.000  
  26423481.252   138856312.687        3022.080          41.000  
  25021123.487   131486903.660        1585.604          39.000  
  26930588.908                        3425.896          25.000  
  25873437.378   135965840.666        -904.168          40.000  
  26253508.340   137963127.151        3716.416          37.000  
 24  2  6 19 45 55.0060000  0 15G 8G10G16G21E19G27E10E25E24G 2G32E11
                                G14E12G 1
  22276794.248   117065345.922         915.717          45.000  
  23088927.870   121333137.308        -613.474          49.000  
  26052722.095   136907943.1221      -3614.943          39.000  
  23136718.074   121584272.376        1766.606          43.000  
  28874094.779   151734381.819        2232.580          34.000  
  22659405.636   119075954.076       -1694.073          46.000  
  25349734.156   133213765.127         292.739          42.000  
  26449616.651   138993684.298         134.092          40.000  
  27446611.947   144232928.107       -2457.925          39.000  
  24668337.933   129632987.108        2568.627          41.000  
  26422904.942   138853291.126        3021.174          39.000  
  25020821.746   131485318.051        1585.532          39.000  
  26929935.903                        3424.471          25.000  
  25873609.350   135966744.966        -904.487          41.000  
  26252801.249   137959411.153        3716.042          37.000  
 24  2  6 19 45 56.0060000  0 15G 8G10G16G21E19G27E10E25E24G 2G32E11
                                G14E12G 1
  22276620.182   117064430.784         914.826          45.000  
  23089044.839   121333751.274        -614.133          49.000  
  26053410.035   136911558.158       -3615.202          41.000  
  23136382.158   121582506.234        1765.875          43.000  
  28873669.342   151732150.148        2231.465          34.000  
  22659728.090   119077648.737       -1695.264          47.000  
  25349678.507   133213472.555         292.417          42.000  
  26449591.060   138993550.796         132.928          40.000  
  27447079.997   144235386.323       -2458.497          40.000  
  24667849.083   129630418.969        2568.359          41.000  
  26422330.236   138850270.028        3021.040          41.000  
  25020520.233   131483732.974        1585.037          39.000  
  26929285.961                        3426.581          26.000  
  25873781.584   135967649.763        -905.235          41.000  
  26252094.201   137955695.588        3715.627          37.000  
 24  2  6 19 45 57.0060000  0 15G 8G10G16G21E19G27E10E25E24G 2G32E11
                                G14E12G 1
  22276446.334   117063515.964         914.647          45.000  
  23089161.921   121334365.702        -614.648          49.000  
  26054098.010   136915173.059       -3614.816          41.000  
  23136046.180   121580740.285        1765.900          43.000  
  28873246.523   151729918.607        2231.431          33.000  
  22660050.614   119079343.662       -1695.239          47.000  
  25349622.780   133213180.076         292.274          42.000  
  26449565.766   138993417.582         132.980          40.000  
  27447547.758   144237844.648       -2458.469          40.000  
  24667360.486   129627850.891        2568.164          41.000  
  26421756.970   138847248.973        3020.917          38.000  
  25020218.484   131482147.983        1584.580          38.000  
  26928636.359                        3425.259          25.000  
  25873953.948   135968554.566        -904.594          40.000  
  26251386.961   137951979.950        3715.521          37.000  
 24  2  6 19 45 58.0060000  0 15G 8G10G16G21E19G27E10E25E24G 2G32E11
                                G14E12G 1
  22276272.216   117062601.647         913.803          45.000  
  23089278.750   121334980.697        -615.521          48.000  
  26054785.985   136918788.087       -3615.548          39.000  
  23135710.001   121578974.694        1765.016          43.000  
  28872819.979   151727687.367        2231.021          34.000  
  22660373.242   119081039.035       -1695.929          47.000  
  25349566.835   133212887.835         291.788          42.000  
  26449540.018   138993284.866         132.267          40.000  
  27448015.529   144240303.219       -2459.281          40.000  
  24666871.705   129625283.038        2567.366          41.000  
  26421182.527   138844228.185        3020.496          39.000  
  25019917.223   131480563.162        1584.426          39.000  
  26927985.257                        3423.547          25.000  
  25874125.946   135969459.604        -905.502          40.000  
  26250679.625   137948264.434        3715.036          37.000  
 24  2  6 19 45 59.0060000  0 15G 8G10G16G21E19G27E10E25E24G 2G32E11
                                G14E12G 1
  22276098.150   117061687.886         913.641          45.000  
  23089395.754   121335596.354        -615.851          49.000  
  26055473.689   136922403.269       -3615.186          41.000  
  23135373.814   121577209.483        1765.217          43.000  
  28872397.370   151725456.573        2230.505          34.000  
  22660695.827   119082734.911       -1695.758          46.000  
  25349511.500   133212595.891         291.976          42.000  
  26449514.864   138993152.717         132.107          40.000  
  27448483.605   144242762.091       -2459.163          40.000  
  24666383.003   129622715.457        2567.616          40.000  
  26420607.586   138841207.602        3020.543          41.000  
  25019615.395   131478978.631        1584.580          38.000  
  26927333.264                        3425.290          25.000  
  25874298.320   135970364.881        -905.300          41.000  
  26249972.246   137944549.072        3715.675          37.000  
 24  2  6 19 46  0.0060000  0 15G 8G10G16G21E19G27E10E25E24G 2G32E11
                                G14E12G 1
  22275924.319   117060774.664         912.871          45.000  
  23089513.176   121336212.624        -616.538          49.000  
  26056161.891   136926018.565       -3615.641          40.000  
  23135038.028   121575444.671        1764.659          43.000  
  28871972.980   151723226.049        2230.822          34.000  
  22661018.595   119084431.281       -1696.613          46.000  
  25349456.165   133212304.221         291.464          42.000  
  26449489.849   138993021.068         131.409          40.000  
  27448951.585   144245221.251       -2459.707          40.000  
  24665894.632   129620148.122        2566.923          40.000  
  26420032.531   138838187.264        3020.618          40.000  
  25019314.021   131477394.365        1583.884          39.000  
  26926680.094                        3423.433          25.000  
  25874470.780   135971270.406        -905.815          40.000  
  26249264.840   137940833.880        3715.055          36.000  
 24  2  6 19 46  1.0060000  0 15G 8G10G16G21E19G27E10E25E24G 2G32E11
                                G14E12G 1
  22275750.629   117059861.898         912.546          45.000  
  23089630.773   121336829.451        -616.801          49.000  
  26056850.005   136929633.851       -3614.955          42.000  
  23134702.103   121573680.159        1764.623          43.000  
  28871548.277   151720995.875        2230.000          34.000  
  22661341.153   119086128.052       -1696.893          46.000  
  25349400.342   133212012.747         291.608          43.000  
  26449464.939   138992889.884         131.074          41.000  
  27449419.643   144247680.629       -2459.151          40.000  
  24665406.306   129617580.965        2567.012          41.000  
  26419457.730   138835167.078        3020.609          41.000  
  25019012.211   131475810.251        1584.127          39.000  
  26926027.892                        3424.946          25.000  
  25874643.049   135972176.070        -905.426          41.000  
  26248557.303   137937118.736        3715.426          38.000  
 24  2  6 19 46  2.0060000  0 15G 8G10G16G21E19G27E10E25E24G 2G32E11
                                G14E12G 1
  22275576.641   117058949.265         912.199          44.000  
  23089748.231   121337446.529        -617.449          48.000  
  26057537.971   136933248.937       -3615.299          41.000  
  23134366.064   121571915.643        1764.243          42.000  
  28871125.572   151718765.602        2229.995          34.000  
  22661663.817   119087824.899       -1697.241          45.000  
  25349344.763   133211721.187         291.295          42.000  
  26449439.898   138992758.823         130.632          39.000  
  27449887.615   144250139.912       -2459.565          39.000  
  24664917.656   129615013.653        2567.494          40.000  
  26418882.850   138832146.770        3019.958          40.000  
  25018710.898   131474225.988        1584.354          38.000  
  26925375.446                        3424.225          25.000  
  25874815.160   135973081.596        -905.670          40.000  
  26247849.941   137933403.395        3714.919          35.000  
 24  2  6 19 46  3.0060000  0 15G 8G10G16G21E19G27E10E25E24G 2G32E11
                                G14E12G 1
  22275402.854   117058037.049         911.944          44.000  
  23089865.810   121338064.127        -617.922          48.000  
  26058225.920   136936864.024       -3615.464          41.000  
  23134030.357   121570151.411        1763.834          42.000  
  28870701.322   151716535.639        2229.671          34.000  
  22661987.012   119089522.150       -1697.601          45.000  
  25349288.966   133211429.800         291.239          42.000  
  26449415.171   138992628.188         130.283          39.000  
  27450355.359   144252599.386       -2459.729          39.000  
  24664429.111   129612446.552        2567.019          40.000  
  26418307.996   138829126.556        3020.290          40.000  
  25018409.672   131472641.914        1584.041          38.000  
  26924724.177                        3424.829          25.000  
  25874987.909   135973987.248        -905.800          40.000  
  26247142.265   137929688.062        3715.273          35.000  
 24  2  6 19 46  4.0060000  0 15G 8G10G16G21E19G27E10E25E24G 2G32E11
                                G14E12G 1
  22275229.391   117057125.516         910.921          44.000  
  23089983.547   121338682.516        -619.078          48.000  
  26058913.956   136940479.374       -3616.118          39.000  
  23133694.815   121568387.693        1763.190          42.000  
  28870276.671   151714306.145        2229.189          33.000  
  22662310.059   119091220.019       -1698.358          45.000  
  25349233.317   133211138.832         290.624          42.000  
  26449390.479   138992498.222         129.257          39.000  
  27450823.513   144255059.293       -2460.224          39.000  
  24663940.862   129609879.823        2566.664          40.000  
  26417733.430   138826106.738        3019.203          39.000  
  25018108.360   131471058.229        1583.025          38.000  
  26924072.220                        3423.147          25.000  
  25875159.846   135974893.260        -906.205          40.000  
  26246435.043   137925973.045        3714.470          35.000  
 24  2  6 19 46  5.0060000  0 14G 8G10G16G21E19G27E10E25E24G 2G32E11
                                E12G 1
  22275056.215   117056214.616         910.491          44.000  
  23090101.301   121339301.607        -619.772          48.000  
  26059602.184   136944094.911       -3615.495          40.000  
  23133359.370   121566624.472        1762.852          42.000  
  28869852.447   151712077.147        2227.901          34.000  
  22662633.045   119092918.477       -1699.023          45.000  
  25349177.948   133210848.248         290.270          42.000  
  26449365.918   138992368.873         128.917          39.000  
  27451291.362   144257519.604       -2460.593          39.000  
  24663452.361   129607313.450        2565.997          40.000  
  26417158.297   138823087.248        3018.945          39.000  
  25017806.872   131469474.874        1582.928          38.000  
  25875332.472   135975799.633        -906.819          40.000  
  26245727.873   137922258.255        3714.754          35.000  
 24  2  6 19 46  6.0060000  0 14G 8G10G16G21E19G27E10E25E24G 2G32E11
                                E12G 1
  22274882.882   117055304.124         910.135          44.000  
  23090219.325   121339921.193        -619.940          48.000  
  26060290.176   136947710.463       -3615.306          40.000  
  23133024.108   121564861.495        1763.036          43.000  
  28869428.311   151709848.301        2228.888          34.000  
  22662956.093   119094617.285       -1699.200          45.000  
  25349123.032   133210557.798         290.509          42.000  
  26449341.854   138992239.923         128.520          39.000  
  27451759.761   144259980.075       -2460.796          39.000  
  24662964.043   129604747.203        2566.089          40.000  
  26416583.373   138820067.835        3019.420          39.000  
  25017505.472   131467891.681        1582.749          38.000  
  25875504.767   135976706.084        -906.533          40.000  
  26245020.947   137918543.499        3714.619          35.000  
 24  2  6 19 46  7.0060000  0 14G 8G10G16G21E19G27E10E25E24G 2G32E11
                                E12G 1
  22274709.566   117054394.102         909.494          44.000  
  23090337.402   121340541.319        -620.353          48.000  
  26060978.369   136951326.071       -3616.141          40.000  
  23132688.758   121563098.844        1762.305          43.000  
  28869004.297   151707619.790        2228.222          34.000  
  22663279.445   119096316.497       -1699.536          45.000  
  25349068.064   133210267.578         290.151          42.000  
  26449317.432   138992111.430         128.028          39.000  
  27452227.924   144262440.779       -2460.773          39.000  
  24662475.768   129602181.145        2565.772          40.000  
  26416008.755   138817048.620        3019.106          39.000  
  25017204.334   131466308.633        1582.724          38.000  
  25875677.445   135977612.723        -907.048          40.000  
  26244314.178   137914828.871        3713.767          35.000  
 24  2  6 19 46  8.0060000  0 14G 8G10G16G21E19G27E10E25E24G 2G32E11
                                E12G 1
  22274536.364   117053484.492         909.019          44.000  
  23090455.540   121341161.997        -621.138          48.000  
  26061666.335   136954941.696       -3615.685          40.000  
  23132353.469   121561336.472        1762.102          43.000  
  28868580.161   151705391.528        2227.729          34.000  
  22663602.745   119098016.094       -1700.037          45.000  
  25349012.825   133209977.542         289.636          42.000  
  26449293.045   138991983.359         127.595          39.000  
  27452695.869   144264901.657       -2461.064          39.000  
  24661987.450   129599615.231        2565.814          40.000  
  26415434.250   138814029.541        3018.875          40.000  
  25016903.064   131464725.752        1582.576          38.000  
  25875850.089   135978519.472        -907.179          40.000  
  26243607.436   137911114.179        3715.120          35.000  
 24  2  6 19 46  9.0060000  0 14G 8G10G16G21E19G27E10E25E24G 2G32E11
                                E12G 1
  22274363.458   117052575.470         908.839          44.000  
  23090573.879   121341783.369        -621.768          48.000  
  26062354.519   136958557.526       -3615.972          40.000  
  23132018.556   121559574.540        1761.719          43.000  
  28868155.658   151703163.695        2227.175          33.000  
  22663926.264   119099716.245       -1700.488          45.000  
  25348957.988   133209687.839         289.495          42.000  
  26449268.798   138991855.882         127.148          39.000  
  27453164.888   144267362.913       -2461.245          39.000  
  24661499.272   129597049.661        2565.438          40.000  
  26414859.763   138811010.773        3018.486          40.000  
  25016602.057   131463143.190        1582.580          38.000  
  25876022.698   135979426.565        -907.449          40.000  
  26242900.728   137907399.877        3713.844          30.000  
 24  2  6 19 46 10.0060000  0 14G 8G10G16G21E19G27E10E25E24G 2G32E11
                                E12G 1
  22274190.623   117051666.990         908.356          44.000  
  23090692.305   121342405.331        -622.220          48.000  
  26063042.608   136962173.433       -3615.790          40.000  
  23131683.451   121557812.986        1761.443          42.000  
  28867731.871   151700936.208        2227.373          34.000  
  22664249.852   119101416.862       -1700.635          45.000  
  25348903.124   133209398.411         289.450          42.000  
  26449244.141   138991728.939         126.667          39.000  
  27453633.251   144269824.440       -2461.481          39.000  
  24661011.407   129594484.341        2565.216          40.000  
  26414285.363   138807992.213        3018.607          39.000  
  25016300.543   131461560.884        1582.402          38.000  
  25876195.368   135980333.853        -907.446          40.000  
  26242193.715   137903685.623        3714.817          31.000  
 24  2  6 19 46 11.0060000  0 14G 8G10G16G21E19G27E10E25E24G 2G32E11
                                E12G 1
  22274017.961   117050758.968         907.475          44.000  
  23090810.644   121343027.843        -623.024          48.000  
  26063730.853   136965789.407       -3616.290          40.000  
  23131348.075   121556051.730        1760.938          42.000  
  28867307.909   151698708.935        2227.331          34.000  
  22664573.501   119103117.896       -1701.465          45.000  
  25348848.008   133209109.193         288.765          41.000  
  26449219.755   138991602.404         126.110          39.000  
  27454101.781   144272286.187       -2462.337          39.000  
  24660523.525   129591919.205        2564.643          40.000  
  26413710.980   138804973.811        3018.209          40.000  
  25015999.300   131459978.741        1581.914          38.000  
  25876368.099   135981241.317        -907.962          40.000  
  26241486.676   137899971.435        3713.712          31.000  
 24  2  6 19 46 12.0060000  0 14G 8G10G16G21E19G27E10E25E24G 2G32E11
                                E12G 1
  22273845.422   117049851.407         907.133          44.000  
  23090929.043   121343650.901        -623.445          48.000  
  26064419.290   136969405.436       -3616.556          40.000  
  23131012.612   121554290.785        1760.575          42.000  
  28866884.261   151696482.000        2226.674          34.000  
  22664896.932   119104819.338       -1701.862          45.000  
  25348792.804   133208820.166         288.717          42.000  
  26449196.083   138991476.356         125.483          39.000  
  27454570.442   144274748.140       -2462.188          39.000  
  24660035.172   129589354.236        2564.727          40.000  
  26413136.292   138801955.582        3018.066          39.000  
  25015698.031   131458396.778        1581.935          38.000  
  25876541.030   135982148.938        -907.846          40.000  
  26240779.916   137896257.252        3714.397          30.000  
 24  2  6 19 46 13.0060000  0 14G 8G10G16G21E19G27E10E25E24G 2G32E11
                                E12G 1
  22273672.875   117048944.448         906.687          44.000  
  23091047.556   121344274.680        -624.222          48.000  
  26065107.658   136973021.610       -3616.529          40.000  
  23130677.533   121552530.332        1759.962          42.000  
  28866460.701   151694255.493        2226.064          34.000  
  22665220.887   119106521.332       -1702.191          45.000  
  25348737.932   133208531.508         288.479          42.000  
  26449172.194   138991350.894         125.218          38.000  
  27455038.901   144277210.464       -2462.413          39.000  
  24659547.020   129586789.628        2564.358          40.000  
  26412561.910   138798937.682        3017.691          39.000  
  25015396.561   131456815.156        1581.415          38.000  
  25876714.032   135983056.857        -907.912          40.000  
  26240073.836   137892543.338        3713.468          34.000  
 24  2  6 19 46 14.0060000  0 14G 8G10G16G21E19G27E10E25E24G 2G32E11
                                E12G 1
  22273500.362   117048037.986         906.119          44.000  
  23091166.305   121344899.014        -624.662          48.000  
  26065796.112   136976637.907       -3616.536          40.000  
  23130342.725   121550770.175        1759.951          42.000  
  28866037.210   151692029.310        2225.540          34.000  
  22665544.614   119108223.761       -1702.539          45.000  
  25348683.077   133208243.072         288.404          42.000  
  26449148.252   138991225.902         124.931          38.000  
  27455507.518   144279673.047       -2462.685          39.000  
  24659059.112   129584225.227        2564.218          40.000  
  26411987.649   138795919.947        3017.311          40.000  
  25015095.449   131455233.738        1581.168          38.000  
  25876886.649   135983964.985        -908.107          40.000  
  26239363.010   137888829.535        3713.911          35.000  
 24  2  6 19 46 15.0060000  0 14G 8G10G16G21E19G27E10E25E24G 2G32E11
                                E12G 1
  22273328.050   117047131.905         905.809          44.000  
  23091285.141   121345523.821        -624.902          48.000  
  26066484.436   136980254.131       -3616.108          40.000  
  23130007.707   121549010.253        1759.912          42.000  
  28865613.222   151689803.255        2225.691          33.000  
  22665868.735   119109926.514       -1702.942          45.000  
  25348628.231   133207954.773         288.385          42.000  
  26449124.537   138991101.284         124.682          38.000  
  27455976.406   144282135.745       -2462.644          39.000  
  24658571.204   129581660.877        2564.457          40.000  
  26411413.179   138792902.285        3017.779          40.000  
  25014794.694   131453652.413        1580.841          38.000  
  25877059.564   135984873.185        -908.380          40.000  
  26238661.328   137885115.739        3713.688          33.000  
 24  2  6 19 46 16.0060000  0 14G 8G10G16G21E19G27E10E25E24G 2G32E11
                                E12G 1
  22273156.087   117046226.683         904.839          44.000  
  23091404.186   121346149.577        -626.332          48.000  
  26067172.620   136983870.815       -3616.918          40.000  
  23129672.968   121547251.039        1758.829          42.000  
  28865189.627   151687577.914        2225.048          34.000  
  22666193.160   119111630.068       -1704.102          45.000  
  25348573.298   133207667.062         287.380          42.000  
  26449101.041   138990977.530         123.029          39.000  
  27456445.511   144284599.063       -2463.690          39.000  
  24658083.165   129579097.150        2563.372          40.000  
  26410838.840   138789885.203        3016.722          40.000  
  25014494.315   131452071.643        1580.343          38.000  
  25877232.661   135985781.915        -908.875          40.000  
  26237954.734   137881402.423        3713.365          36.000  
 24  2  6 19 46 17.0060000  0 14G 8G10G16G21E19G27E10E25E24G 2G32E11
                                E12G 1
  22272983.748   117045322.215         904.364          44.000  
  23091523.145   121346776.177        -626.611          48.000  
  26067860.874   136987487.837       -3617.160          40.000  
  23129338.386   121545492.424        1758.523          42.000  
  28864766.198   151685353.192        2224.574          34.000  
  22666517.377   119113334.327       -1704.327          45.000  
  25348518.774   133207379.868         287.183          42.000  
  26449078.076   138990854.504         122.785          38.000  
  27456914.765   144287062.898       -2463.862          39.000  
  24657595.213   129576533.898        2563.285          39.000  
  26410264.588   138786868.570        3016.750          39.000  
  25014193.743   131450491.340        1580.471          38.000  
  25877405.532   135986691.132        -909.359          40.000  
  26237249.414   137877689.469        3712.988          36.000  
 24  2  6 19 46 18.0060000  0 14G 8G10G16G21E19G27E10E25E24G 2G32E11
                                E12G 1
  22272811.759   117044418.020         903.525          44.000  
  23091642.652   121347403.163        -627.550          48.000  
  26068549.041   136991104.732       -3617.237          40.000  
  23129003.638   121543733.962        1757.799          42.000  
  28864342.759   151683128.522        2224.663          34.000  
  22666841.942   119115038.824       -1705.188          45.000  
  25348463.859   133207092.685         286.824          42.000  
  26449054.510   138990731.739         122.276          38.000  
  27457382.884   144289526.759       -2464.020          39.000  
  24657107.584   129573970.640        2562.599          39.000  
  26409690.878   138783851.925        3016.391          39.000  
  25013892.867   131448911.065        1579.918          38.000  
  25877578.324   135987600.323        -909.650          40.000  
  26236543.806   137873976.413        3711.863          34.000  
 24  2  6 19 46 19.0060000  0 14G 8G10G16G21E19G27E10E25E24G 2G32E11
                                E12G 1
  22272639.865   117043514.550         903.481          44.000  
  23091762.117   121348030.982        -627.949          48.000  
  26069237.348   136994721.952       -3617.294          40.000  
  23128669.275   121541976.073        1757.795          42.000  
  28863919.373   151680904.486        2224.277          33.000  
  22667166.394   119116744.006       -1705.224          45.000  
  25348409.658   133206806.008         286.745          42.000  
  26449031.379   138990609.738         121.729          39.000  
  27457851.597   144291991.148       -2464.370          39.000  
  24656619.152   129571407.848        2562.946          40.000  
  26409116.853   138780835.743        3016.381          39.000  
  25013592.557   131447331.220        1580.158          38.000  
  25877751.412   135988509.935        -909.334          40.000  
  26235838.328   137870263.736        3712.720          33.000  
 24  2  6 19 46 20.0060000  0 14G 8G10G16G21E19G27E10E25E24G 2G32E11
                                E12G 1
  22272467.963   117042611.423         902.892          44.000  
  23091881.825   121348659.227        -628.539          48.000  
  26069925.523   136998339.080       -3617.630          40.000  
  23128334.693   121540218.338        1757.587          42.000  
  28863496.127   151678680.544        2223.457          33.000  
  22667490.907   119118449.453       -1705.878          45.000  
  25348355.083   133206519.376         286.514          42.000  
  26449008.398   138990488.017         121.455          39.000  
  27458320.389   144294455.597       -2464.678          39.000  
  24656131.358   129568845.105        2562.387          39.000  
  26408542.933   138777819.536        3016.070          39.000  
  25013292.082   131445751.463        1579.641          38.000  
  25877924.257   135989419.579        -909.667          40.000  
  26235132.362   137866550.977        3712.817          33.000  
 24  2  6 19 46 21.0060000  0 14G 8G10G16G21E19G27E10E25E24G 2G32E11
                                E12G 1
  22272296.026   117041708.986         902.262          44.000  
  23092001.717   121349288.252        -629.152          48.000  
  26070613.463   137001956.454       -3617.328          40.000  
  23128000.399   121538461.170        1757.183          42.000  
  28863073.108   151676457.137        2222.687          33.000  
  22667815.734   119120155.539       -1706.165          45.000  
  25348300.778   133206233.185         286.444          42.000  
  26448985.573   138990366.984         120.797          39.000  
  27458789.756   144296920.477       -2465.196          39.000  
  24655643.598   129566282.741        2562.255          39.000  
  26407968.986   138774803.764        3015.678          40.000  
  25012991.930   131444172.071        1579.601          38.000  
  25878097.468   135990329.623        -909.917          40.000  
  26234426.606   137862838.452        3712.407          36.000  
 24  2  6 19 46 22.0060000  0 14G 8G10G16G21E19G27E10E25E24G 2G32E11
                                E12G 1
  22272124.369   117040806.976         901.757          44.000  
  23092121.373   121349917.800        -629.854          48.000  
  26071302.023   137005573.875       -3617.608          40.000  
  23127666.079   121536704.277        1756.642          42.000  
  28862650.359   151674233.969        2222.966          34.000  
  22668140.229   119121862.004       -1706.653          45.000  
  25348246.822   133205947.183         285.885          42.000  
  26448962.661   138990246.385         120.177          39.000  
  27459258.477   144299385.575       -2465.203          39.000  
  24655155.952   129563720.587        2561.732          40.000  
  26407395.144   138771788.106        3015.459          40.000  
  25012691.079   131442592.840        1579.066          38.000  
  25878270.635   135991239.800        -910.521          40.000  
  26233720.317   137859126.048        3712.217          38.000  
 24  2  6 19 46 23.0060000  0 14G 8G10G16G21E19G27E10E25E24G 2G32E11
                                E12G 1
  22271953.068   117039905.638         901.176          44.000  
  23092241.047   121350548.106        -630.518          48.000  
  26071990.407   137009191.550       -3617.677          40.000  
  23127331.881   121534947.902        1756.301          42.000  
  28862227.679   151672011.325        2222.484          33.000  
  22668465.109   119123569.090       -1707.141          45.000  
  25348192.316   133205661.587         285.649          42.000  
  26448939.905   138990126.426         120.041          38.000  
  27459727.129   144301851.079       -2465.675          39.000  
  24654668.393   129561158.790        2561.658          39.000  
  26406821.233   138768772.820        3015.154          40.000  
  25012390.359   131441014.015        1578.750          38.000  
  25878444.169   135992150.331        -910.478          40.000  
  26233013.731   137855413.961        3712.192          38.000  
 24  2  6 19 46 24.0060000  0 14G 8G10G16G21E19G27E10E25E24G 2G32E11
                                E12G 1
  22271781.594   117039004.684         900.651          44.000  
  23092361.087   121351178.897        -630.936          48.000  
  26072678.819   137012809.173       -3617.376          40.000  
  23126997.657   121533191.754        1756.224          42.000  
  28861804.651   151669788.849        2222.269          33.000  
  22668790.067   119125276.514       -1707.440          45.000  
  25348137.950   133205376.124         285.464          42.000  
  26448917.360   138990006.869         119.467          38.000  
  27460196.130   144304316.750       -2465.895          39.000  
  24654180.633   129558597.112        2561.771          39.000  
  26406247.383   138765757.639        3015.273          40.000  
  25012090.181   131439435.286        1578.428          38.000  
  25878617.458   135993060.969        -910.816          40.000  
  26232307.085   137851701.801        3712.262          38.000  
 24  2  6 19 46 25.0060000  0 14G 8G10G16G21E19G27E10E25E24G 2G32E11
                                E12G 1
  22271610.451   117038104.110         900.358          44.000  
  23092481.380   121351810.186        -631.788          48.000  
  26073367.073   137016426.795       -3617.999          40.000  
  23126663.302   121531435.842        1755.563          42.000  
  28861381.597   151667566.577        2221.918          33.000  
  22669115.199   119126984.272       -1708.252          45.000  
  25348083.784   133205090.803         285.058          42.000  
  26448894.570   138989887.671         118.867          39.000  
  27460665.297   144306782.556       -2466.085          39.000  
  24653693.240   129556035.556        2561.232          39.000  
  26405673.611   138762742.551        3014.906          40.000  
  25011789.714   131437856.648        1578.036          38.000  
  25878790.782   135993971.678        -910.977          40.000  
  26231600.552   137847989.742        3711.715          36.000  
 24  2  6 19 46 26.0060000  0 14G 8G10G16G21E19G27E10E25E24G 2G32E11
                                E12G 1
  22271439.334   117037204.177         899.435          44.000  
  23092601.647   121352442.151        -632.585          48.000  
  26074055.423   137020044.577       -3618.068          40.000  
  23126328.878   121529680.380        1755.056          42.000  
  28860958.569   151665344.753        2221.366          33.000  
  22669440.340   119128692.558       -1708.600          45.000  
  25348029.523   133204805.810         284.580          42.000  
  26448872.050   138989769.067         118.155          38.000  
  27461134.611   144309248.702       -2466.568          39.000  
  24653205.933   129553474.309        2560.863          39.000  
  26405100.118   138759727.735        3014.631          40.000  
  25011489.361   131436278.317        1578.132          38.000  
  25878964.316   135994882.684        -911.245          40.000  
  26230894.254   137844277.800        3711.207          36.000  
 24  2  6 19 46 27.0060000  0 14G 8G10G16G21E19G27E10E25E24G 2G32E11
                                E12G 1
  22271267.982   117036304.663         899.001          44.000  
  23092722.097   121353074.583        -633.021          48.000  
  26074743.642   137023662.343       -3617.733          40.000  
  23125994.724   121527925.174        1754.845          42.000  
  28860535.671   151663123.110        2221.400          33.000  
  22669765.639   119130401.215       -1709.192          45.000  
  25347975.279   133204520.973         284.561          42.000  
  26448849.426   138989650.849         117.698          39.000  
  27461603.708   144311715.014       -2466.523          39.000  
  24652718.549   129550913.171        2560.783          39.000  
  26404526.608   138756713.066        3014.073          40.000  
  25011188.999   131434700.114        1578.092          38.000  
  25879137.597   135995793.798        -911.320          40.000  
  26230187.843   137840565.951        3711.444          38.000  
 24  2  6 19 46 28.0060000  0 14G 8G10G16G21E19G27E10E25E24G 2G32E11
                                E12G 1
  22271097.144   117035405.712         898.521          44.000  
  23092842.678   121353707.720        -633.613          48.000  
  26075432.000   137027280.321       -3618.377          40.000  
  23125660.857   121526170.419        1754.477          42.000  
  28860112.774   151660901.916        2220.944          33.000  
  22670091.077   119132110.408       -1709.552          45.000  
  25347921.200   133204236.486         283.965          42.000  
  26448826.889   138989533.229         117.177          39.000  
  27462073.337   144314181.687       -2467.045          39.000  
  24652231.365   129548352.396        2560.416          39.000  
  26403953.002   138753698.673        3014.240          40.000  
  25010889.056   131433122.253        1577.604          38.000  
  25879311.095   135996705.226        -911.801          40.000  
  26229480.970   137836854.269        3711.773          38.000  
 24  2  6 19 46 29.0060000  0 14G 8G10G16G21E19G27E10E25E24G 2G32E11
                                E12G 1
  22270926.114   117034507.237         898.069          44.000  
  23092963.163   121354341.460        -634.219          48.000  
  26076120.743   137030898.374       -3618.393          40.000  
  23125326.939   121524416.024        1753.990          42.000  
  28859690.514   151658681.056        2220.616          34.000  
  22670416.375   119133820.076       -1710.089          45.000  
  25347867.087   133203952.244         284.049          42.000  
  26448804.588   138989416.091         117.083          39.000  
  27462542.844   144316648.625       -2467.200          39.000  
  24651744.338   129545791.835        2560.247          39.000  
  26403379.422   138750684.491        3013.961          40.000  
  25010588.921   131431544.613        1577.408          38.000  
  25879484.559   135997616.849        -911.932          40.000  
  26228774.349   137833142.739        3711.381          37.000  
 24  2  6 19 46 30.0060000  0 14G 8G10G16G21E19G27E10E25E24G 2G32E11
                                E12G 1
  22270755.277   117033609.203         897.685          44.000  
  23093083.473   121354975.726        -634.716          48.000  
  26076809.468   137034516.441       -3618.074          40.000  
  23124993.404   121522661.902        1754.012          43.000  
  28859267.826   151656460.453        2220.340          34.000  
  22670741.900   119135530.108       -1710.266          45.000  
  25347812.974   133203668.176         283.986          42.000  
  26448782.574   138989299.409         116.617          39.000  
  27463012.447   144319115.756       -2467.365          39.000  
  24651257.407   129543231.413        2560.579          40.000  
  26402805.903   138747670.448        3013.899          40.000  
  25010288.551   131429967.109        1577.639          38.000  
  25879658.320   135998528.591        -911.770          40.000  
  26228067.467   137829431.250        3711.049          37.000  
 24  2  6 19 46 31.0060000  0 14G 8G10G16G21E19G27E10E25E24G 2G32E11
                                E12G 1
  22270584.745   117032711.783         896.787          44.000  
  23093204.272   121355610.660        -635.526          48.000  
  26077497.932   137038134.680       -3618.458          40.000  
  23124660.079   121520908.225        1753.234          43.000  
  28858845.653   151654240.252        2219.466          34.000  
  22671067.442   119137240.671       -1711.157          45.000  
  25347758.852   133203384.455         283.327          42.000  
  26448760.351   138989183.291         115.545          39.000  
  27463481.962   144321583.215       -2467.990          39.000  
  24650770.529   129540671.333        2559.629          40.000  
  26402232.149   138744656.706        3013.287          40.000  
  25009988.442   131428389.938        1576.499          38.000  
  25879832.115   135999440.635        -912.331          40.000  
  26227360.742   137825719.946        3711.060          37.000  
 24  2  6 19 46 32.0060000  0 14G 8G10G16G21E19G27E10E25E24G 2G32E11
                                E12G 1
  22270413.924   117031814.877         896.581          44.000  
  23093325.394   121356246.210        -635.955          48.000  
  26078186.439   137041753.038       -3618.524          40.000  
  23124326.526   121519154.919        1752.720          43.000  
  28858423.576   151652020.399        2219.552          34.000  
  22671393.159   119138951.713       -1711.450          45.000  
  25347704.888   133203100.988         283.340          42.000  
  26448738.129   138989067.672         115.252          39.000  
  27463951.714   144324050.975       -2468.080          39.000  
  24650283.563   129538111.499        2559.394          40.000  
  26401658.761   138741643.172        3013.438          40.000  
  25009688.141   131426812.980        1576.540          38.000  
  25880005.204   136000352.903        -912.462          40.000  
  26226654.060   137822008.738        3711.533          36.000  
 24  2  6 19 46 33.0060000  0 14G 8G10G16G21E19G27E10E25E24G 2G32E11
                                E12G 1
  22270243.087   117030918.390         895.937          44.000  
  23093446.577   121356882.255        -636.555          48.000  
  26078875.077   137045371.378       -3618.645          40.000  
  23123993.053   121517401.859        1752.614          43.000  
  28858001.123   151649800.774        2219.339          34.000  
  22671718.894   119140663.105       -1711.737          45.000  
  25347651.202   133202817.691         283.038          42.000  
  26448716.586   138988952.460         114.815          39.000  
  27464421.072   144326518.884       -2468.133          39.000  
  24649796.397   129535551.761        2559.593          40.000  
  26401085.425   138738629.753        3013.200          40.000  
  25009388.381   131425236.160        1576.348          38.000  
  25880178.362   136001265.260        -912.723          40.000  
  26225947.248   137818297.668        3710.782          35.000  
 24  2  6 19 46 34.0060000  0 14G 8G10G16G21E19G27E10E25E24G 2G32E11
                                E12G 1
  22270072.825   117030022.309         895.736          44.000  
  23093567.464   121357518.791        -636.910          48.000  
  26079563.401   137048989.723       -3618.354          40.000  
  23123659.570   121515649.061        1752.670          43.000  
  28857578.662   151647581.430        2218.911          34.000  
  22672044.611   119142374.862       -1712.134          45.000  
  25347597.481   133202534.536         283.042          42.000  
  26448694.486   138988837.660         114.502          39.000  
  27464890.675   144328986.953       -2468.063          39.000  
  24649309.483   129532992.185        2559.406          40.000  
  26400512.168   138735616.467        3013.232          40.000  
  25009088.176   131423659.431        1576.522          38.000  
  25880351.870   136002177.741        -912.488          40.000  
  26225240.567   137814586.555        3711.151          35.000  
 24  2  6 19 46 35.0060000  0 14G 8G10G16G21E19G27E10E25E24G 2G32E11
                                E12G 1
  22269902.249   117029126.810         895.121          44.000  
  23093688.743   121358155.997        -637.457          48.000  
  26080251.934   137052608.217       -3618.681          40.000  
  23123325.966   121513896.699        1752.035          43.000  
  28857156.611   151645362.465        2218.310          33.000  
  22672370.284   119144087.134       -1712.561          45.000  
  25347543.552   133202251.708         282.589          42.000  
  26448672.551   138988723.410         113.976          39.000  
  27465360.190   144331455.370       -2468.674          39.000  
  24648822.247   129530432.888        2559.283          40.000  
  26399938.614   138732603.443        3013.144          40.000  
  25008788.390   131422083.019        1576.375          38.000  
  25880525.500   136003090.481        -912.834          40.000  
  26224533.711   137810875.615        3710.793          34.000  
 24  2  6 19 46 36.0060000  0 14G 8G10G16G21E19G27E10E25E24G 2G32E11
                                E12G 1
  22269732.075   117028231.846         894.697          44.000  
  23093810.397   121358793.851        -638.276          48.000  
  26080940.659   137056226.832       -3618.738          40.000  
  23122992.780   121512144.720        1751.637          43.000  
  28856734.272   151643143.785        2218.610          34.000  
  22672695.993   119145799.888       -1713.147          45.000  
  25347489.726   133201969.154         282.318          42.000  
  26448650.328   138988609.689         113.351          39.000  
  27465829.889   144333924.067       -2469.210          39.000  
  24648335.368   129527873.867        2558.888          40.000  
  26399365.470   138729590.685        3012.563          41.000  
  25008488.665   131420506.875        1576.221          38.000  
  25880699.356   136004003.494        -913.230          40.000  
  26223827.239   137807164.855        3710.739          35.000  
 24  2  6 19 46 37.0060000  0 14G 8G10G16G21E19G27E10E25E24G 2G32E11
                                E12G 1
  22269561.804   117027337.531         894.030          44.000  
  23093931.711   121359432.441        -638.917          48.000  
  26081629.559   137059845.699       -3619.373          40.000  
  23122659.271   121510393.224        1751.343          42.000  
  28856312.108   151640925.666        2217.661          33.000  
  22673022.163   119147513.242       -1713.654          45.000  
  25347436.250   133201687.009         281.937          42.000  
  26448628.934   138988496.613         112.870          39.000  
  27466299.841   144336393.171       -2469.196          39.000  
  24647848.001   129525315.223        2558.507          40.000  
  26398792.484   138726578.261        3012.012          41.000  
  25008188.914   131418931.098        1575.829          38.000  
  25880873.169   136004916.822        -913.396          40.000  
  26223120.740   137803454.388        3710.781          34.000  
 24  2  6 19 46 38.0060000  0 14G 8G10G16G21E19G27E10E25E24G 2G32E11
                                E12G 1
  22269391.534   117026443.657         893.892          44.000  
  23094053.313   121360071.565        -639.054          48.000  
  26082318.153   137063464.560       -3618.463          40.000  
  23122325.894   121508642.038        1751.378          42.000  
  28855889.778   151638707.767        2218.119          33.000  
  22673348.238   119149226.985       -1713.782          45.000  
  25347382.312   133201405.045         282.165          42.000  
  26448607.549   138988383.967         112.869          39.000  
  27466769.985   144338862.490       -2469.172          39.000  
  24647360.878   129522756.723        2558.528          39.000  
  26398219.488   138723565.985        3012.736          41.000  
  25007889.076   131417355.505        1575.576          38.000  
  25881046.938   136005830.314        -913.338          40.000  
  26222414.260   137799743.908        3710.463          31.000  
 24  2  6 19 46 39.0060000  0 14G 8G10G16G21E19G27E10E25E24G 2G32E11
                                E12G 1
  22269221.411   117025550.112         893.180          44.000  
  23094175.124   121360711.128        -639.863          48.000  
  26083006.643   137067083.352       -3618.593          40.000  
  23121992.394   121506891.044        1750.564          42.000  
  28855467.552   151636490.027        2217.602          33.000  
  22673674.575   119150941.023       -1714.337          45.000  
  25347328.425   133201123.170         281.532          42.000  
  26448585.806   138988271.658         111.958          39.000  
  27467240.050   144341331.889       -2469.707          39.000  
  24646873.790   129520198.299        2558.299          39.000  
  26397646.423   138720553.762        3012.356          41.000  
  25007588.949   131415779.928        1575.356          38.000  
  25881220.760   136006743.856        -913.882          40.000  
  26221707.822   137796033.487        3710.742          35.000  
 24  2  6 19 46 40.0060000  0 14G 8G10G16G21E19G27E10E25E24G 2G32E11
                                E12G 1
  22269051.359   117024657.047         892.600          44.000  
  23094296.735   121361351.260        -640.808          48.000  
  26083695.324   137070702.183       -3618.956          40.000  
  23121659.147   121505140.340        1750.270          42.000  
  28855045.702   151634272.598        2216.902          33.000  
  22674000.632   119152655.475       -1715.039          45.000  
  25347275.063   133200841.492         281.280          42.000  
  26448564.228   138988159.800         111.376          39.000  
  27467710.063   144343801.509       -2470.059          39.000  
  24646386.676   129517640.068        2557.942          39.000  
  26397073.419   138717541.720        3011.608          41.000  
  25007289.268   131414204.561        1575.029          38.000  
  25881394.538   136007657.517        -913.919          40.000  
  26221001.638   137792323.110        3709.919          35.000  
 24  2  6 19 46 41.0060000  0 14G 8G10G16G21E19G27E10E25E24G 2G32E11
                                E12G 1
  22268881.612   117023764.441         892.584          44.000  
  23094418.694   121361991.938        -640.626          48.000  
  26084383.823   137074321.086       -3618.799          41.000  
  23121325.743   121503389.993        1750.189          42.000  
  28854623.782   151632055.491        2216.762          33.000  
  22674326.768   119154370.347       -1714.984          45.000  
  25347221.508   133200560.065         281.248          42.000  
  26448543.175   138988048.421         111.359          39.000  
  27468180.608   144346271.352       -2469.586          39.000  
  24645899.562   129515082.045        2557.844          39.000  
  26396500.616   138714529.838        3012.581          41.000  
  25006989.212   131412629.377        1575.283          38.000  
  25881568.377   136008571.414        -913.921          40.000  
  26220295.358   137788612.828        3710.359          35.000  
 24  2  6 19 46 42.0060000  0 14G 8G10G16G21E19G27E10E25E24G 2G32E11
                                E12G 1
  22268712.249   117022872.318         891.759          44.000  
  23094540.776   121362633.198        -641.686          48.000  
  26085072.460   137077940.104       -3618.983          40.000  
  23120992.331   121501639.973        1749.623          42.000  
  28854202.307   151629838.653        2216.932          33.000  
  22674653.139   119156085.649       -1715.723          46.000  
  25347167.691   133200278.862         280.718          42.000  
  26448522.121   138987937.526         110.566          39.000  
  27468651.022   144348741.497       -2470.531          39.000  
  24645412.727   129512524.232        2557.641          39.000  
  26395927.542   138711518.285        3011.334          37.000  
  25006689.618   131411054.425        1574.659          38.000  
  25881742.146   136009485.474        -914.430          40.000  
  26219589.314   137784902.643        3709.650          35.000  
 24  2  6 19 46 43.0060000  0 14G 8G10G16G21E19G27E10E25E24G 2G32E11
                                E12G 1
  22268542.467   117021980.705         891.265          44.000  
  23094662.884   121363275.057        -642.266          48.000  
  26085760.854   137081559.154       -3618.962          40.000  
  23120659.546   121499890.282        1749.565          42.000  
  28853780.570   151627622.165        2216.242          32.000  
  22674979.624   119157801.417       -1716.174          45.000  
  25347114.189   133199997.888         280.705          42.000  
  26448500.858   138987827.107         110.149          38.000  
  27469121.297   144351211.824       -2470.588          39.000  
  24644925.831   129509966.623        2557.258          39.000  
  26395354.608   138708506.794        3011.175          36.000  
  25006389.849   131409479.675        1574.585          38.000  
  25881916.195   136010399.719        -914.306          40.000  
  26218883.487   137781192.536        3710.219          35.000  
 24  2  6 19 46 44.0060000  0 14G 8G10G16G21E19G27E10E25E24G 2G32E11
                                E12G 1
  22268372.781   117021089.625         891.195          44.000  
  23094785.166   121363917.512        -642.473          48.000  
  26086449.361   137085178.340       -3619.031          41.000  
  23120326.675   121498141.019        1749.685          43.000  
  28853357.367   151625406.155        2215.839          26.000  
  22675306.153   119159517.645       -1716.193          45.000  
  25347060.713   133199717.201         280.859          42.000  
  26448479.761   138987717.228         109.819          39.000  
  27469591.275   144353682.482       -2470.314          39.000  
  24644439.249   129507409.316        2557.702          39.000  
  26394781.490   138705495.476        3011.600          34.000  
  25006090.246   131407905.176        1574.800          38.000  
  25882090.226   136011314.214        -914.277          40.000  
  26218177.696   137777482.620        3710.233          35.000  
 24  2  6 19 46 45.0060000  0 14G 8G10G16G21E19G27E10E25E24G 2G32E11
                                E12G 1
  22268203.156   117020198.778         890.232          44.000  
  23094907.606   121364560.332        -643.312          48.000  
  26087137.685   137088797.332       -3619.423          40.000  
  23119994.161   121496391.826        1748.750          43.000  
  28852936.669   151623190.030        2215.963          27.000  
  22675632.733   119161234.095       -1717.133          46.000  
  25347007.193   133199436.525         280.078          42.000  
  26448459.230   138987607.555         109.136          39.000  
  27470061.235   144356153.138       -2471.358          39.000  
  24643952.711   129504851.916        2557.155          39.000  
  26394208.451   138702484.216        3011.017          32.000  
  25005790.914   131406330.635        1574.333          38.000  
  25882263.969   136012228.625        -914.883          40.000  
  26217472.053   137773772.545        3709.928          35.000  
 24  2  6 19 46 46.0060000  0 14G 8G10G16G21E19G27E10E25E24G 2G32E11
                                E12G 1
  22268033.872   117019308.808         889.260          44.000  
  23095030.254   121365204.066        -644.124          48.000  
  26087826.402   137092416.777       -3619.585          40.000  
  23119661.743   121494643.346        1747.955          43.000  
  28852511.896   151620974.626        2214.414          34.000  
  22675959.663   119162951.318       -1717.828          46.000  
  25346954.188   133199156.431         279.627          42.000  
  26448439.049   138987498.750         108.321          39.000  
  27470531.117   144358624.404       -2471.597          39.000  
  24643466.173   129502295.155        2556.052          40.000  
  26393635.342   138699473.448        3010.819          36.000  
  25005491.459   131404756.684        1573.791          38.000  
  25882437.948   136013143.618        -915.354          40.000  
  26216766.156   137770062.964        3709.195          35.000  
 24  2  6 19 46 47.0060000  0 14G 8G10G16G21E19G27E10E25E24G 2G32E11
                                E12G 1
  22267864.561   117018419.375         888.820          44.000  
  23095152.999   121365848.465        -645.177          48.000  
  26088515.031   137096036.376       -3620.337          39.000  
  23119329.273   121492895.257        1747.551          43.000  
  28852092.323   151618759.597        2214.408          33.000  
  22676286.462   119164669.061       -1718.542          45.000  
  25346900.912   133198876.638         279.302          42.000  
  26448418.231   138987390.488         107.650          39.000  
  27471001.296   144361095.947       -2471.717          39.000  
  24642979.966   129499738.647        2555.842          40.000  
  26393062.574   138696463.014        3010.217          40.000  
  25005192.136   131403182.996        1573.279          38.000  
  25882611.996   136014058.873        -915.698          40.000  
  26216060.042   137766353.554        3709.105          35.000  
 24  2  6 19 46 48.0060000  0 14G 8G10G16G21E19G27E10E25E24G 2G32E11
                                E12G 1
  22267695.399   117017530.480         888.549          44.000  
  23095275.875   121366493.508        -645.676          48.000  
  26089203.765   137099656.074       -3619.894          39.000  
  23118996.863   121491147.594        1747.026          43.000  
  28851670.202   151616544.962        2214.233          33.000  
  22676613.436   119166387.287       -1718.561          45.000  
  25346847.707   133198597.148         279.000          42.000  
  26448398.181   138987282.770         107.325          39.000  
  27471471.518   144363567.851       -2472.009          39.000  
  24642493.594   129497182.408        2555.690          40.000  
  26392489.526   138693452.833        3009.786          40.000  
  25004892.934   131401609.577        1573.237          38.000  
  25882786.167   136014974.361        -915.792          40.000  
  26215354.024   137762644.281        3709.298          35.000  
 24  2  6 19 46 49.0060000  0 14G 8G10G16G21E19G27E10E25E24G 2G32E11
                                E12G 1
  22267526.428   117016642.190         888.134          44.000  
  23095398.899   121367139.238        -645.925          48.000  
  26089892.481   137103275.975       -3619.746          40.000  
  23118664.437   121489400.356        1747.207          43.000  
  28851250.158   151614330.778        2214.016          33.000  
  22676940.688   119168106.070       -1718.829          45.000  
  25346794.562   133198318.000         279.083          42.000  
  26448377.947   138987175.648         106.828          39.000  
  27471942.107   144366040.088       -2471.940          39.000  
  24642007.693   129494626.493        2555.995          40.000  
  26391916.601   138690442.935        3009.796          41.000  
  25004593.777   131400036.493        1572.892          38.000  
  25882960.695   136015890.175        -915.784          40.000  
  26214648.223   137758935.276        3708.283          32.000  
 24  2  6 19 46 50.0060000  0 14G 8G10G16G21E19G27E10E25E24G 2G32E11
                                E12G 1
  22267357.379   117015754.403         887.389          44.000  
  23095522.106   121367785.551        -646.589          48.000  
  26090581.861   137106895.945       -3620.039          40.000  
  23118331.740   121487653.473        1746.653          42.000  
  28850830.000   151612116.883        2213.977          33.000  
  22677267.793   119169825.288       -1719.366          45.000  
  25346741.208   133198039.090         278.655          42.000  
  26448357.304   138987068.981         106.548          39.000  
  27472412.914   144368512.593       -2472.699          39.000  
  24641521.608   129492070.786        2555.617          40.000  
  26391343.640   138687433.238        3009.598          41.000  
  25004294.200   131398463.617        1572.318          38.000  
  25883135.494   136016806.149        -915.953          40.000  
  26213940.652   137755226.338        3708.277          33.000  
 24  2  6 19 46 51.0060000  0 14G 8G10G16G21E19G27E10E25E24G 2G32E11
                                E12G 1
  22267188.112   117014867.160         886.964          44.000  
  23095645.104   121368432.518        -647.277          48.000  
  26091271.083   137110516.072       -3620.502          40.000  
  23117999.322   121485906.977        1746.432          42.000  
  28850406.972   151609903.378        2213.331          33.000  
  22677595.037   119171545.017       -1719.977          45.000  
  25346687.767   133197760.476         278.333          42.000  
  26448336.948   138986962.886         105.857          39.000  
  27472883.075   144370985.369       -2472.917          39.000  
  24641035.846   129489515.370        2555.453          40.000  
  26390770.846   138684423.792        3009.332          41.000  
  25003994.711   131396890.998        1572.232          38.000  
  25883309.691   136017722.403        -916.320          40.000  
  26213236.021   137751517.611        3708.733          35.000  
 24  2  6 19 46 52.0060000  0 14G 8G10G16G21E19G27E10E25E24G 2G32E11
                                E12G 1
  22267019.194   117013980.436         886.457          44.000  
  23095768.102   121369080.093        -647.856          48.000  
  26091960.288   137114136.271       -3620.315          40.000  
  23117666.904   121484160.850        1746.019          42.000  
  28849986.422   151607690.216        2212.891          33.000  
  22677922.534   119173265.197       -1720.221          45.000  
  25346634.919   133197482.123         278.218          42.000  
  26448316.959   138986857.290         105.378          39.000  
  27473353.821   144373458.445       -2473.228          39.000  
  24640550.006   129486960.206        2555.069          40.000  
  26390198.286   138681414.599        3008.901          41.000  
  25003695.570   131395318.618        1572.303          38.000  
  25883484.385   136018638.850        -916.583          40.000  
  26212527.010   137747808.998        3708.300          35.000  
 24  2  6 19 46 53.0060000  0 14G 8G10G16G21E19G27E10E25E24G 2G32E11
                                E12G 1
  22266850.625   117013094.225         885.938          44.000  
  23095891.318   121369728.244        -648.452          48.000  
  26092649.362   137117756.525       -3619.968          40.000  
  23117334.503   121482415.074        1745.562          42.000  
  28849565.261   151605477.369        2212.648          33.000  
  22678249.882   119174985.834       -1720.764          45.000  
  25346582.289   133197204.014         277.899          42.000  
  26448297.258   138986752.180         104.967          39.000  
  27473824.480   144375931.770       -2473.591          39.000  
  24640064.244   129484405.251        2554.613          41.000  
  26389625.649   138678405.580        3009.079          41.000  
  25003396.107   131393746.447        1572.216          38.000  
  25883658.529   136019555.510        -916.758          40.000  
  26211827.186   137744100.468        3708.871          36.000  
 24  2  6 19 46 54.0060000  0 14G 8G10G16G21E19G27E10E25E24G 2G32E11
                                E12G 1
  22266682.527   117012208.412         885.362          44.000  
  23096014.857   121370376.905        -649.091          48.000  
  26093338.419   137121376.805       -3620.303          40.000  
  23117002.225   121480669.539        1745.403          42.000  
  28849144.675   151603264.727        2212.566          33.000  
  22678577.562   119176706.806       -1721.271          45.000  
  25346529.554   133196926.041         277.932          42.000  
  26448277.233   138986647.464         104.270          39.000  
  27474295.182   144378405.227       -2473.530          39.000  
  24639578.369   129481850.421        2554.601          40.000  
  26389053.133   138675396.662        3008.863          41.000  
  25003096.845   131392174.400        1571.761          38.000  
  25883833.092   136020472.248        -916.862          40.000  
  26211120.557   137740391.996        3708.335          35.000  
 24  2  6 19 46 55.0060000  0 14G 8G10G16G21E19G27E10E25E24G 2G32E11
                                E12G 1
  22266514.368   117011323.025         885.032          44.000  
  23096138.247   121371026.054        -649.532          48.000  
  26094027.450   137124997.067       -3620.537          40.000  
  23116670.182   121478924.256        1745.044          42.000  
  28848723.855   151601052.297        2212.421          33.000  
  22678905.199   119178428.143       -1721.686          45.000  
  25346476.671   133196648.237         277.509          42.000  
  26448257.436   138986543.125         104.182          39.000  
  27474765.910   144380878.867       -2473.866          39.000  
  24639092.346   129479295.719        2554.613          40.000  
  26388480.679   138672387.874        3008.672          41.000  
  25002797.870   131390602.464        1571.720          38.000  
  25884007.455   136021389.107        -916.927          40.000  
  26210415.638   137736683.554        3708.182          36.000  
 24  2  6 19 46 56.0060000  0 14G 8G10G16G21E19G27E10E25E24G 2G32E11
                                E12G 1
  22266345.869   117010438.184         884.588          44.000  
  23096261.934   121371675.851        -650.067          48.000  
  26094716.463   137128617.430       -3620.173          40.000  
  23116338.192   121477179.377        1744.792          42.000  
  28848302.886   151598840.280        2211.848          33.000  
  22679233.027   119180149.952       -1721.942          45.000  
  25346424.539   133196370.710         277.423          42.000  
  26448237.543   138986439.346         103.485          39.000  
  27475236.743   144383352.810       -2474.076          39.000  
  24638606.270   129476741.280        2554.407          40.000  
  26387908.399   138669379.341        3008.457          41.000  
  25002498.791   131389030.814        1571.283          38.000  
  25884182.245   136022306.217        -917.265          40.000  
  26209709.445   137732975.213        3708.262          35.000  
 24  2  6 19 46 57.0060000  0 14G 8G10G16G21E19G27E10E25E24G 2G32E11
                                E12G 1
  22266177.343   117009553.776         884.241          44.000  
  23096385.674   121372326.196        -650.685          48.000  
  26095405.328   137132237.846       -3620.387          40.000  
  23116006.053   121475434.791        1744.532          43.000  
  28847882.187   151596628.520        2211.745          33.000  
  22679560.769   119181872.168       -1722.498          45.000  
  25346371.342   133196093.392         277.095          42.000  
  26448218.313   138986335.997         103.211          39.000  
  27475707.620   144385826.932       -2474.140          39.000  
  24638119.749   129474187.039        2554.019          40.000  
  26387336.320   138666370.971        3008.211          41.000  
  25002199.650   131387459.324        1571.144          38.000  
  25884356.896   136023223.473        -917.285          40.000  
  26209004.247   137729266.991        3708.124          35.000  
 24  2  6 19 46 58.0060000  0 14G 8G10G16G21E19G27E10E25E24G 2G32E11
                                E12G 1
  22266009.158   117008669.789         883.284          44.000  
  23096509.501   121372977.021        -651.509          48.000  
  26096094.289   137135858.259       -3620.790          40.000  
  23115674.307   121473690.469        1743.708          43.000  
  28847461.471   151594417.038        2210.693          33.000  
  22679888.301   119183594.732       -1723.151          45.000  
  25346318.581   133195816.207         276.816          42.000  
  26448198.437   138986233.057         102.391          39.000  
  27476178.418   144388301.235       -2474.584          39.000  
  24637633.359   129471632.902        2553.643          40.000  
  26386764.328   138663362.708        3007.735          41.000  
  25001900.545   131385887.937        1570.957          38.000  
  25884531.241   136024140.829        -917.607          40.000  
  26208298.717   137725558.794        3707.578          35.000  
 24  2  6 19 46 59.0060000  0 14G 8G10G16G21E19G27E10E25E24G 2G32E11
                                E12G 1
  22265840.920   117007786.381         882.812          44.000  
  23096633.179   121373628.500        -651.771          48.000  
  26096783.127   137139478.817       -3620.783          40.000  
  23115342.657   121471946.562        1743.883          43.000  
  28847041.523   151592205.895        2211.165          34.000  
  22680216.059   119185317.839       -1723.419          45.000  
  25346265.550   133195539.355         276.834          42.000  
  26448178.971   138986130.668         102.144          39.000  
  27476649.434   144390775.871       -2474.752          39.000  
  24637147.057   129469079.092        2553.201          39.000  
  26386192.257   138660354.726        3007.858          41.000  
  25001601.492   131384316.896        1570.698          38.000  
  25884705.656   136025058.459        -917.828          40.000  
  26207592.847   137721850.753        3708.120          35.000  
 24  2  6 19 47  0.0060000  0 15G 8G10G16G21E19G27E10E25E24G 2G32E11
                                G14E12G 1
  22265673.093   117006903.418         882.595          44.000  
  23096757.015   121374280.528        -652.285          48.000  
  26097471.966   137143099.411       -3620.614          40.000  
  23115010.920   121470202.991        1743.325          43.000  
  28846620.746   151589995.043        2211.098          33.000  
  22680544.254   119187041.332       -1723.761          45.000  
  25346213.016   133195262.699         276.760          42.000  
  26448159.663   138986028.742         101.436          39.000  
  27477120.747   144393250.699       -2474.629          39.000  
  24636660.745   129466525.421        2553.501          40.000  
  26385620.082   138657346.911        3007.573          42.000  
  25001302.194   131382745.996        1570.787          38.000  
  26887707.833                        3407.220          27.000  
  25884880.001   136025976.255        -918.046          40.000  
  26206887.056   137718142.846        3708.207          35.000  
 24  2  6 19 47  1.0060000  0 15G 8G10G16G21E19G27E10E25E24G 2G32E11
                                G14E12G 1
  22265505.135   117006020.916         882.201          44.000  
  23096881.513   121374933.083        -652.946          48.000  
  26098160.769   137146720.028       -3620.474          40.000  
  23114679.557   121468459.685        1743.109          43.000  
  28846200.012   151587784.462        2210.812          33.000  
  22680872.083   119188765.216       -1724.152          45.000  
  25346160.282   133194986.233         276.406          42.000  
  26448140.651   138985927.239         101.216          39.000  
  27477592.226   144395725.732       -2475.138          39.000  
  24636174.739   129463971.916        2553.447          39.000  
  26385048.003   138654339.231        3007.546          42.000  
  25001002.914   131381175.270        1570.512          38.000  
  26887064.470   141292451.2183       3406.517          27.000  
  25885054.730   136026894.182        -918.009          40.000  
  26206181.256   137714434.967        3707.793          35.000  
 24  2  6 19 47  2.0060000  0 15G 8G10G16G21E19G27E10E25E24G 2G32E11
                                G14E12G 1
  22265336.880   117005138.706         881.854          44.000  
  23097005.706   121375585.994        -653.339          48.000  
  26098849.477   137150340.492       -3620.353          40.000  
  23114348.370   121466716.517        1742.756          43.000  
  28845779.488   151585573.980        2210.490          33.000  
  22681200.234   119190489.318       -1724.591          45.000  
  25346107.992   133194709.798         276.073          42.000  
  26448121.473   138985825.977         101.086          39.000  
  27478063.015   144398200.786       -2475.247          39.000  
  24635688.646   129461418.444        2553.054          40.000  
  26384475.845   138651331.550        3007.594          42.000  
  25000704.036   131379604.512        1570.448          38.000  
  26886413.926   141289044.7522       3406.069          27.000  
  25885229.520   136027812.085        -918.069          40.000  
  26205475.394   137710726.959        3707.831          35.000  
 24  2  6 19 47  3.0060000  0 15G 8G10G16G21E19G27E10E25E24G 2G32E11
                                G14E12G 1
  22265169.008   117004256.976         881.298          44.000  
  23097130.039   121376239.480        -654.076          48.000  
  26099538.394   137153961.063       -3621.036          40.000  
  23114016.981   121464973.683        1742.400          43.000  
  28845358.798   151583363.831        2209.898          33.000  
  22681528.665   119192213.865       -1725.000          45.000  
  25346055.380   133194433.581         275.907          42.000  
  26448102.452   138985725.238         100.318          39.000  
  27478534.677   144400676.114       -2475.728          40.000  
  24635202.727   129458865.168        2552.853          39.000  
  26383904.080   138648324.080        3006.901          41.000  
  25000405.044   131378033.977        1570.322          37.000  
  26885765.912   141285638.4792       3406.414          28.000  
  25885404.336   136028730.178        -918.461          40.000  
  26204769.271   137707019.121        3707.209          35.000  
 24  2  6 19 47  4.0060000  0 15G 8G10G16G21E19G27E10E25E24G 2G32E11
                                G14E12G 1
  22265000.998   117003375.929         880.459          44.000  
  23097254.546   121376893.719        -654.857          48.000  
  26100227.373   137157581.855       -3621.025          40.000  
  23113685.480   121463231.370        1741.952          43.000  
  28844938.475   151581154.162        2209.494          33.000  
  22681856.947   119193939.026       -1725.714          45.000  
  25346003.343   133194157.807         275.438          42.000  
  26448082.786   138985625.152          99.515          39.000  
  27479005.554   144403151.862       -2475.994          40.000  
  24634716.555   129456312.313        2552.368          40.000  
  26383331.460   138645316.957        3006.966          41.000  
  25000106.122   131376463.843        1569.844          37.000  
  26885117.078   141282232.7942       3405.659          28.000  
  25885579.013   136029648.657        -919.044          40.000  
  26204063.393   137703311.508        3707.374          35.000  
 24  2  6 19 47  5.0060000  0 15G 8G10G16G21E19G27E10E25E24G 2G32E11
                                G14E12G 1
  22264833.554   117002495.430         880.016          44.000  
  23097379.263   121377548.608        -655.443          48.000  
  26100916.464   137161202.792       -3621.330          40.000  
  23113354.065   121461489.475        1741.447          43.000  
  28844517.864   151578944.904        2209.121          34.000  
  22682185.028   119195664.697       -1726.080          45.000  
  25345951.088   133193882.302         275.325          42.000  
  26448063.948   138985525.599          99.080          39.000  
  27479476.631   144405627.920       -2476.446          39.000  
  24634230.602   129453759.716        2552.091          40.000  
  26382759.215   138642310.126        3006.342          41.000  
  24999807.426   131374893.981        1569.274          37.000  
  26884466.447   141278827.4132       3404.884          28.000  
  25885753.873   136030567.361        -919.086          40.000  
  26203357.802   137699604.081        3707.461          34.000  
 24  2  6 19 47  6.0060000  0 15G 8G10G16G21E19G27E10E25E24G 2G32E11
                                G14E12G 1
  22264666.145   117001615.567         879.509          44.000  
  23097504.058   121378204.232        -655.951          48.000  
  26101605.320   137164823.956       -3621.647          40.000  
  23113022.485   121459748.064        1741.188          43.000  
  28844097.776   151576736.137        2208.279          34.000  
  22682513.337   119197390.947       -1726.379          45.000  
  25345898.650   133193607.220         274.797          42.000  
  26448045.180   138985426.702          98.437          39.000  
  27479948.354   144408104.370       -2476.827          40.000  
  24633744.901   129451207.489        2551.874          40.000  
  26382186.787   138639303.634        3006.199          41.000  
  24999508.827   131373324.478        1568.973          37.000  
  26883813.939   141275422.4372       3404.525          28.000  
  25885928.864   136031486.413        -919.194          40.000  
  26202652.359   137695896.901        3707.161          33.000  
 24  2  6 19 47  7.0060000  0 15G 8G10G16G21E19G27E10E25E24G 2G32E11
                                G14E12G 1
  22264498.615   117000736.090         879.216          44.000  
  23097628.810   121378860.320        -656.464          48.000  
  26102294.604   137168445.055       -3621.174          40.000  
  23112691.070   121458006.876        1740.789          43.000  
  28843677.574   151574527.501        2208.360          34.000  
  22682842.038   119199117.538       -1727.038          45.000  
  25345846.134   133193332.244         274.589          42.000  
  26448026.430   138985328.142          98.227          39.000  
  27480419.781   144410580.941       -2476.880          39.000  
  24633259.453   129448655.353        2552.006          39.000  
  26381614.594   138636297.234        3006.042          41.000  
  24999210.507   131371755.052        1569.064          37.000  
  26883165.323   141272017.6262       3404.594          28.000  
  25886103.933   136032405.555        -919.289          40.000  
  26201947.004   137692189.742        3707.065          34.000  
 24  2  6 19 47  8.0060000  0 15G 8G10G16G21E19G27E10E25E24G 2G32E11
                                G14E12G 1
  22264331.564   116999857.236         878.489          44.000  
  23097753.972   121379517.160        -657.369          48.000  
  26102983.905   137172066.387       -3621.527          40.000  
  23112359.455   121456266.185        1740.315          43.000  
  28843257.783   151572319.373        2207.776          34.000  
  22683170.765   119200844.708       -1727.686          45.000  
  25345793.844   133193057.648         274.335          42.000  
  26448007.366   138985230.241          97.435          39.000  
  27480890.902   144413057.932       -2477.382          40.000  
  24632774.049   129446103.581        2551.740          40.000  
  26381042.375   138633291.171        3005.709          41.000  
  24998911.933   131370185.998        1568.690          38.000  
  26882516.655   141268613.2632       3404.158          28.000  
  25886279.185   136033325.041        -919.564          40.000  
  26201241.535   137688482.818        3706.815          35.000  
 24  2  6 19 47  9.0060000  0 15G 8G10G16G21E19G27E10E25E24G 2G32E11
                                G14E12G 1
  22264164.548   116998979.107         877.737          44.000  
  23097879.081   121380174.794        -658.013          48.000  
  26103673.119   137175688.026       -3621.797          40.000  
  23112028.180   121454526.055        1739.926          42.000  
  28842837.765   151570111.769        2207.256          34.000  
  22683499.719   119202572.526       -1728.015          45.000  
  25345741.668   133192783.516         273.844          42.000  
  26447989.148   138985133.039          96.814          39.000  
  27481362.319   144415535.347       -2477.553          39.000  
  24632288.689   129443552.269        2551.095          40.000  
  26380470.069   138630285.551        3005.075          41.000  
  24998613.299   131368617.380        1568.525          38.000  
  26881866.355   141265209.3892       3403.662          28.000  
  25886454.281   136034244.955        -920.209          40.000  
  26200536.163   137684776.262        3706.760          34.000  
 24  2  6 19 47 10.0060000  0 15G 8G10G16G21E19G27E10E25E24G 2G32E11
                                G14E12G 1
  22263997.366   116998101.469         877.083          44.000  
  23098004.025   121380833.040        -659.042          48.000  
  26104362.568   137179309.760       -3622.400          40.000  
  23111696.861   121452786.282        1739.287          42.000  
  28842417.634   151567904.462        2207.145          34.000  
  22683828.473   119204300.803       -1728.808          45.000  
  25345689.195   133192509.620         273.598          42.000  
  26447971.279   138985036.328          95.994          39.000  
  27481833.754   144418013.062       -2478.111          39.000  
  24631803.398   129441001.173        2550.582          40.000  
  26379897.746   138627280.093        3005.028          41.000  
  24998314.743   131367048.985        1567.953          38.000  
  26881218.385   141261805.7992       3403.600          29.000  
  25886629.333   136035165.034        -920.383          40.000  
  26199830.546   137681069.800        3706.748          34.000  
 24  2  6 19 47 11.0060000  0 15G 8G10G16G21E19G27E10E25E24G 2G32E11
                                G14E12G 1
  22263830.175   116997224.107         877.277          44.000  
  23098129.230   121381491.628        -658.851          48.000  
  26105051.834   137182931.289       -3621.285          40.000  
  23111365.578   121451046.609        1739.550          42.000  
  28841997.520   151565697.266        2207.225          34.000  
  22684157.226   119206029.283       -1728.534          45.000  
  25345636.627   133192235.738         274.075          42.000  
  26447952.598   138984939.854          96.205          39.000  
  27482305.224   144420490.776       -2477.745          39.000  
  24631318.082   129438450.066        2551.183          40.000  
  26379325.457   138624274.638        3005.330          41.000  
  24998016.441   131365480.565        1568.639          38.000  
  26880568.932   141258402.3112       3403.181          29.000  
  25886804.507   136036085.092        -920.116          40.000  
  26199124.902   137677363.296        3706.558          37.000  
 24  2  6 19 47 12.0060000  0 15G 8G10G16G21E19G27E10E25E24G 2G32E11
                                G14E12G 1
  22263663.884   116996347.228         876.500          44.000  
  23098254.810   121382150.800        -659.756          48.000  
  26105740.900   137186552.927       -3621.865          40.000  
  23111034.617   121449307.279        1738.838          42.000  
  28841577.572   151563490.366        2206.784          33.000  
  22684486.407   119207758.201       -1729.388          45.000  
  25345584.756   133191962.097         273.273          42.000  
  26447934.267   138984843.869          95.567          39.000  
  27482777.104   144422968.725       -2478.119          39.000  
  24630832.652   129435899.179        2550.333          40.000  
  26378753.395   138621269.367        3004.868          41.000  
  24997718.059   131363912.348        1567.856          38.000  
  26879920.298   141254999.0452       3402.673          28.000  
  25886979.969   136037005.325        -920.720          40.000  
  26198419.399   137673656.804        3706.522          36.000  
 24  2  6 19 47 13.0060000  0 15G 8G10G16G21E19G27E10E25E24G 2G32E11
                                G14E12G 1
  22263497.452   116995470.980         875.680          44.000  
  23098380.164   121382810.684        -660.439          48.000  
  26106430.393   137190174.756       -3622.172          39.000  
  23110703.630   121447568.418        1738.356          42.000  
  28841157.466   151561283.961        2206.607          33.000  
  22684815.500   119209487.681       -1729.974          45.000  
  25345533.068   133191688.818         272.832          42.000  
  26447915.866   138984748.487          94.991          39.000  
  27483248.409   144425447.059       -2478.502          39.000  
  24630347.466   129433348.619        2550.395          40.000  
  26378181.360   138618264.446        3004.573          41.000  
  24997419.765   131362344.479        1567.468          38.000  
  26879271.037   141251596.1542       3403.019          29.000  
  25887154.811   136037925.877        -920.944          40.000  
  26197714.105   137669950.615        3705.516          35.000  
 24  2  6 19 47 14.0060000  0 15G 8G10G16G21E19G27E10E25E24G 2G32E11
                                G14E12G 1
  22263330.532   116994595.246         875.657          44.000  
  23098505.928   121383471.208        -660.653          48.000  
  26107119.537   137193796.666       -3621.709          40.000  
  23110372.381   121445829.968        1738.400          42.000  
  28840737.544   151559077.951        2205.974          34.000  
  22685144.516   119211217.661       -1729.791          45.000  
  25345480.962   133191415.816         273.230          42.000  
  26447897.796   138984653.668          94.659          39.000  
  27483719.748   144427925.709       -2478.702          39.000  
  24629862.358   129430798.363        2550.114          40.000  
  26377609.778   138615259.780        3004.565          41.000  
  24997121.306   131360776.884        1567.570          38.000  
  26878620.624   141248193.6972       3402.382          29.000  
  25887330.195   136038846.685        -920.857          40.000  
  26197009.151   137666244.530        3706.263          35.000  
 24  2  6 19 47 15.0060000  0 15G 8G10G16G21E19G27E10E25E24G 2G32E11
                                G14E12G 1
  22263163.909   116993719.764         875.287          44.000  
  23098631.814   121384132.025        -661.052          48.000  
  26107808.515   137197418.417       -3621.342          38.000  
  23110041.490   121444091.580        1738.324          42.000  
  28840317.544   151556871.963        2205.624          34.000  
  22685473.801   119212947.827       -1730.347          45.000  
  25345428.960   133191142.819         272.962          42.000  
  26447879.717   138984559.067          94.073          39.000  
  27484191.322   144430404.326       -2478.652          40.000  
  24629376.981   129428248.032        2550.396          40.000  
  26377038.039   138612255.046        3004.443          41.000  
  24996823.142   131359209.229        1567.380          38.000  
  26877970.559   141244791.1962       3402.261          29.000  
  25887505.404   136039767.422        -920.698          40.000  
  26196304.232   137662538.353        3705.725          36.000  
 24  2  6 19 47 16.0060000  0 15G 8G10G16G21E19G27E10E25E24G 2G32E11
                                G14E12G 1
  22262997.660   116992845.157         874.308          44.000  
  23098757.813   121384793.826        -662.217          48.000  
  26108498.113   137201040.669       -3622.358          40.000  
  23109710.809   121442353.921        1737.500          42.000  
  28839898.023   151554666.623        2205.372          34.000  
  22685803.087   119214678.799       -1731.262          45.000  
  25345377.308   133190870.414         272.332          42.000  
  26447861.805   138984465.285          93.696          39.000  
  27484662.819   144432883.548       -2479.176          39.000  
  24628891.646   129425698.325        2549.379          40.000  
  26376466.483   138609250.891        3003.873          41.000  
  24996525.023   131357642.150        1566.938          38.000  
  26877324.491   141241389.3482       3402.147          29.000  
  25887680.804   136040688.725        -921.486          40.000  
  26195599.391   137658832.593        3705.561          36.000  
 24  2  6 19 47 17.0060000  0 15G 8G10G16G21E19G27E10E25E24G 2G32E11
                                G14E12G 1
  22262831.142   116991971.081         873.440          44.000  
  23098883.577   121385456.232        -663.209          48.000  
  26109187.422   137204662.954       -3622.695          40.000  
  23109380.284   121440616.636        1736.488          42.000  
  28839478.214   151552461.708        2204.048          34.000  
  22686132.381   119216410.218       -1731.976          45.000  
  25345325.934   133190598.281         271.779          42.000  
  26447844.355   138984372.068          92.535          39.000  
  27485134.245   144435363.084       -2480.081          39.000  
  24628406.975   129423148.829        2549.124          40.000  
  26375894.622   138606246.942        3003.499          42.000  
  24996227.043   131356075.325        1566.409          38.000  
  26876678.903   141237987.8082       3401.592          29.000  
  25887855.664   136041610.244        -921.815          40.000  
  26194894.900   137655127.021        3704.760          36.000  
 24  2  6 19 47 18.0060000  0 15G 8G10G16G21E19G27E10E25E24G 2G32E11
                                G14E12G 1
  22262665.007   116991097.732         872.697          44.000  
  23099009.785   121386119.429        -663.921          48.000  
  26109876.514   137208285.576       -3623.375          40.000  
  23109049.777   121438879.907        1736.173          42.000  
  28839058.877   151550257.303        2204.076          34.000  
  22686461.972   119218142.342       -1732.715          45.000  
  25345273.941   133190326.631         271.130          42.000  
  26447826.660   138984279.535          91.872          39.000  
  27485606.020   144437843.065       -2480.344          39.000  
  24627922.261   129420599.811        2548.536          41.000  
  26375322.709   138603243.494        3003.263          39.000  
  24995929.229   131354508.925        1565.951          38.000  
  26876030.505   141234586.8502       3400.523          29.000  
  25888030.873   136042532.195        -922.253          40.000  
  26194190.173   137651421.747        3705.062          36.000  
 24  2  6 19 47 19.0060000  0 15G 8G10G16G21E19G27E10E25E24G 2G32E11
                                G14E12G 1
  22262498.968   116990224.963         872.661          44.000  
  23099135.959   121386783.274        -664.047          48.000  
  26110565.754   137211908.322       -3622.839          40.000  
  23108719.540   121437143.591        1736.282          42.000  
  28838639.819   151548053.251        2204.146          34.000  
  22686791.877   119219874.963       -1732.794          45.000  
  25345222.550   133190055.266         271.370          42.000  
  26447808.983   138984187.568          91.685          39.000  
  27486078.110   144440323.389       -2480.318          39.000  
  24627437.494   129418051.071        2548.619          41.000  
  26374751.118   138600240.271        3003.282          38.000  
  24995631.258   131352942.809        1566.466          38.000  
  26875383.634   141231185.6821       3400.648          29.000  
  25888206.606   136043454.422        -922.258          40.000  
  26193485.437   137647716.702        3705.077          36.000  
 24  2  6 19 47 20.0060000  0 15G 8G10G16G21E19G27E10E25E24G 2G32E11
                                G14E12G 1
  22262333.034   116989352.560         872.479          44.000  
  23099262.377   121387447.587        -664.288          48.000  
  26111255.169   137215531.025       -3622.651          40.000  
  23108389.103   121435407.492        1736.288          42.000  
  28838220.516   151545849.425        2203.865          33.000  
  22687121.582   119221607.894       -1732.916          45.000  
  25345170.627   133189784.028         271.442          42.000  
  26447791.716   138984095.951          91.646          39.000  
  27486549.859   144442803.824       -2480.436          39.000  
  24626952.631   129415502.426        2548.638          41.000  
  26374179.859   138597237.115        3003.223          39.000  
  24995333.496   131351376.812        1566.168          38.000  
  26874735.786   141227785.218        3400.494          29.000  
  25888381.937   136044376.676        -921.952          40.000  
  26192780.535   137644011.623        3705.162          36.000  
 24  2  6 19 47 21.0060000  0 15G 8G10G16G21E19G27E10E25E24G 2G32E11
                                G14E12G 1
  22262167.004   116988480.717         871.828          44.000  
  23099389.118   121388112.562        -665.038          48.000  
  26111944.426   137219153.871       -3622.557          40.000  
  23108059.023   121433671.832        1735.884          42.000  
  28837800.865   151543645.996        2203.890          33.000  
  22687451.269   119223341.345       -1733.356          45.000  
  25345119.053   133189513.119         270.732          42.000  
  26447774.580   138984004.899          91.124          39.000  
  27487021.756   144445284.589       -2480.741          39.000  
  24626467.558   129412954.059        2548.813          41.000  
  26373608.434   138594234.261        3002.998          39.000  
  24995035.464   131349811.080        1565.820          38.000  
  26874088.113   141224385.110        3399.561          29.000  
  25888557.434   136045299.243        -922.561          40.000  
  26192075.756   137640306.731        3705.172          35.000  
 24  2  6 19 47 22.0060000  0 15G 8G10G16G21E19G27E10E25E24G 2G32E11
                                G14E12G 1
  22262001.235   116987609.318         870.821          44.000  
  23099515.781   121388778.080        -665.956          48.000  
  26112633.902   137222776.754       -3622.959          39.000  
  23107729.083   121431936.469        1735.009          42.000  
  28837381.353   151541442.872        2202.728          33.000  
  22687781.182   119225075.204       -1734.155          45.000  
  25345067.226   133189242.379         270.533          42.000  
  26447757.662   138983914.303          90.250          39.000  
  27487493.820   144447765.561       -2481.269          39.000  
  24625982.678   129410405.899        2547.846          41.000  
  26373037.193   138591231.552        3002.674          39.000  
  24994737.519   131348245.540        1565.405          38.000  
  26873438.572   141220985.223        3399.611          29.000  
  25888733.131   136046221.939        -922.947          40.000  
  26191370.837   137636601.937        3704.291          35.000  
 24  2  6 19 47 23.0060000  0 16G 8G10G16G21G23E19G27E10E25E24G 2G32
                                E11G14E12G 1
  22261835.589   116986738.309         870.782          44.000  
  23099642.530   121389444.111        -666.537          48.000  
  26113323.456   137226399.653       -3622.905          39.000  
  23107399.065   121430201.367        1734.884          43.000  
  25018049.170                       -2727.633          29.000  
  28836962.190   151539239.970        2202.458          33.000  
  22688110.983   119226809.420       -1734.509          45.000  
  25345015.643   133188971.824         270.414          42.000  
  26447740.683   138983824.103          90.093          39.000  
  27487965.874   144450246.695       -2481.068          39.000  
  24625497.501   129407857.871        2547.634          40.000  
  26372465.776   138588229.047        3002.347          39.000  
  24994439.425   131346680.141        1565.220          38.000  
  26872793.682   141217585.581        3399.093          29.000  
  25888908.977   136047144.754        -922.842          40.000  
  26190665.988   137632897.138        3704.645          35.000  
 24  2  6 19 47 24.0060000  0 16G 8G10G16G21G23E19G27E10E25E24G 2G32
                                E11G14E12G 1
  22261669.943   116985867.746         870.583          44.000  
  23099769.315   121390110.656        -666.763          48.000  
  26114012.826   137230022.557       -3622.964          39.000  
  23107069.151   121428466.547        1734.913          43.000  
  25018578.435                       -2727.633          28.000  
  28836543.062   151537037.368        2202.490          34.000  
  22688441.115   119228544.007       -1734.766          45.000  
  25344964.296   133188701.450         270.158          42.000  
  26447723.721   138983734.331          89.502          39.000  
  27488438.304   144452728.015       -2481.321          39.000  
  24625012.620   129405309.989        2547.563          40.000  
  26371894.500   138585226.646        3002.230          39.000  
  24994141.524   131345114.898        1564.741          38.000  
  26872144.743   141214186.111        3398.967          29.000  
  25889084.613   136048067.707        -923.045          40.000  
  26189960.842   137629192.420        3704.668          35.000  
 24  2  6 19 47 25.0060000  0 15G 8G10G16G21E19G27E10E25E24G 2G32E11
                                G14E12G 1
  22261504.375   116984997.785         869.597          44.000  
  23099896.204   121390777.861        -667.542          48.000  
  26114702.258   137233645.610       -3623.407          39.000  
  23106739.499   121426732.154        1734.090          43.000  
  28836123.593   151534835.080        2202.319          34.000  
  22688771.238   119230279.125       -1735.449          45.000  
  25344912.966   133188431.368         269.918          42.000  
  26447706.725   138983645.124          88.866          39.000  
  27488910.332   144455209.684       -2481.856          39.000  
  24624527.521   129402762.415        2547.475          40.000  
  26371323.337   138582224.415        3001.865          40.000  
  24993843.902   131343549.911        1564.591          38.000  
  26871497.157   141210786.987        3399.006          29.000  
  25889260.162   136048990.925        -923.545          40.000  
  26189255.766   137625487.886        3704.490          35.000  
 24  2  6 19 47 26.0060000  0 16G 8G10G16G21G23E19G27E10E25E24G 2G32
                                E11G14E12G 1
  22261339.052   116984128.356         869.201          44.000  
  23100023.477   121391445.690        -668.120          48.000  
  26115391.647   137237268.768       -3622.870          38.000  
  23106409.437   121424998.145        1733.713          43.000  
  25019632.001   131479053.4553      -2730.313          28.000  
  28835704.945   151532633.207        2202.071          34.000  
  22689101.571   119232014.718       -1735.736          45.000  
  25344862.177   133188161.568         269.779          42.000  
  26447689.292   138983556.438          88.545          39.000  
  27489382.579   144457691.604       -2482.121          39.000  
  24624042.824   129400215.075        2547.173          40.000  
  26370752.366   138579222.538        3001.810          41.000  
  24993545.965   131341985.177        1564.566          38.000  
  26870849.562   141207388.225        3398.564          29.000  
  25889435.624   136049914.373        -923.652          40.000  
  26188550.768   137621783.504        3703.849          35.000  
 24  2  6 19 47 27.0060000  0 16G 8G10G16G21G23E19G27E10E25E24G 2G32
                                E11G14E12G 1
  22261173.842   116983259.332         868.846          44.000  
  23100150.768   121392114.015        -668.503          48.000  
  26116081.105   137240891.859       -3622.516          40.000  
  23106079.532   121423264.374        1733.665          43.000  
  25020156.511   131481783.5622      -2730.202          28.000  
  28835285.756   151530431.555        2201.388          33.000  
  22689431.868   119233750.641       -1736.078          45.000  
  25344810.856   133187891.915         269.829          42.000  
  26447672.330   138983468.128          88.132          39.000  
  27489855.253   144460173.687       -2482.097          40.000  
  24623557.926   129397667.896        2547.093          40.000  
  26370181.342   138576220.755        3002.006          41.000  
  24993248.422   131340420.553        1564.637          38.000  
  26870202.255   141203989.612        3399.144          29.000  
  25889611.654   136050837.920        -923.472          40.000  
  26187845.509   137618079.122        3704.618          35.000  
 24  2  6 19 47 28.0060000  0 16G 8G10G16G21G23E19G27E10E25E24G 2G32
                                E11G14E12G 1
  22261008.274   116982390.827         868.507          44.000  
  23100278.425   121392782.982        -669.003          48.000  
  26116770.127   137244515.130       -3623.534          39.000  
  23105749.705   121421531.000        1733.287          43.000  
  25020673.561   131484514.0662      -2730.370          28.000  
  28834866.803   151528230.263        2201.276          33.000  
  22689762.419   119235487.055       -1736.414          45.000  
  25344759.657   133187622.562         269.350          42.000  
  26447655.709   138983380.365          87.679          39.000  
  27490327.194   144462656.083       -2482.573          40.000  
  24623073.569   129395120.970        2546.906          41.000  
  26369610.520   138573219.212        3001.615          41.000  
  24992950.616   131338856.216        1564.406          38.000  
  26869557.888   141200591.403        3397.936          29.000  
  25889787.307   136051761.714        -924.003          40.000  
  26187140.573   137614374.915        3704.426          35.000  
 24  2  6 19 47 29.0060000  0 16G 8G10G16G21G23E19G27E10E25E24G 2G32
                                E11G14E12G 1
  22260843.021   116981522.787         867.858          44.000  
  23100405.899   121393452.496        -669.637          48.000  
  26117459.724   137248138.411       -3623.091          39.000  
  23105419.879   121419797.921        1733.160          43.000  
  25021190.087   131487244.9592      -2731.548          28.000  
  28834448.128   151526029.224        2201.073          33.000  
  22690093.153   119237223.887       -1736.957          45.000  
  25344708.284   133187353.387         269.421          42.000  
  26447638.843   138983293.057          87.117          39.000  
  27490799.676   144465138.669       -2482.586          40.000  
  24622588.820   129392574.192        2546.962          40.000  
  26369039.400   138570217.831        3001.661          41.000  
  24992652.968   131337292.026        1564.285          38.000  
  26868908.906   141197193.374        3398.265          29.000  
  25889963.040   136052685.636        -923.615          40.000  
  26186435.776   137610670.779        3704.661          36.000  
 24  2  6 19 47 30.0060000  0 16G 8G10G16G21G23E19G27E10E25E24G 2G32
                                E11G14E12G 1
  22260677.881   116980655.153         867.426          44.000  
  23100533.364   121394122.486        -670.133          48.000  
  26118149.435   137251761.649       -3622.936          38.000  
  23105090.078   121418065.104        1732.643          43.000  
  25021714.833   131489975.9982      -2731.892          28.000  
  28834029.061   151523828.431        2200.891          33.000  
  22690423.966   119238961.049       -1737.317          45.000  
  25344657.033   133187084.376         268.842          42.000  
  26447622.318   138983206.119          86.538          39.000  
  27491272.202   144467621.404       -2482.978          40.000  
  24622104.541   129390027.556        2546.653          40.000  
  26368468.377   138567216.581        3001.339          41.000  
  24992355.529   131335727.962        1564.075          38.000  
  26868261.232   141193795.532        3398.314          29.000  
  25890139.034   136053609.683        -924.286          40.000  
  26185730.682   137606966.653        3704.657          36.000  
 24  2  6 19 47 31.0060000  0 16G 8G10G16G21G23E19G27E10E25E24G 2G32
                                E11G14E12G 1
  22260512.959   116979788.159         866.820          44.000  
  23100660.820   121394793.232        -670.923          48.000  
  26118838.920   137255385.209       -3623.618          39.000  
  23104760.400   121416332.786        1732.122          43.000  
  25022240.093   131492707.5322      -2731.652          28.000  
  28833610.588   151521628.139        2200.441          33.000  
  22690754.691   119240698.815       -1737.848          45.000  
  25344605.816   133186815.755         268.565          42.000  
  26447606.168   138983119.814          86.323          39.000  
  27491744.544   144470104.539       -2483.188          40.000  
  24621619.827   129387481.298        2546.587          40.000  
  26367897.222   138564215.672        3000.981          41.000  
  24992057.750   131334164.288        1563.773          38.000  
  26867614.553   141190398.188        3397.644          29.000  
  25890314.923   136054534.062        -924.383          40.000  
  26185025.868   137603262.823        3703.999          36.000  
 24  2  6 19 47 32.0060000  0 16G 8G10G16G21G23E19G27E10E25E24G 2G32
                                E11G14E12G 1
  22260348.377   116978921.655         866.283          44.000  
  23100788.285   121395464.543        -671.586          48.000  
  26119528.823   137259008.751       -3623.240          39.000  
  23104430.896   121414600.801        1731.755          43.000  
  25022759.202   131495439.4372      -2732.364          28.000  
  28833191.686   151519428.191        2199.658          33.000  
  22691085.669   119242437.016       -1738.342          45.000  
  25344554.451   133186547.366         268.250          42.000  
  26447589.389   138983034.024          85.540          39.000  
  27492217.410   144472587.916       -2483.541          40.000  
  24621135.147   129384935.262        2545.925          40.000  
  26367326.216   138561214.989        3000.667          41.000  
  24991760.075   131332600.822        1563.130          38.000  
  26866969.864   141187001.102        3397.660          29.000  
  25890490.961   136055458.641        -924.719          40.000  
  26184320.923   137599559.122        3703.554          35.000  
 24  2  6 19 47 33.0060000  0 16G 8G10G16G21G23E19G27E10E25E24G 2G32
                                E11G14E12G 1
  22260183.167   116978055.669         865.593          44.000  
  23100916.065   121396136.455        -672.400          48.000  
  26120218.307   137262632.429       -3623.973          39.000  
  23104101.296   121412869.184        1731.198          43.000  
  25023281.775   131498171.6552      -2732.578          28.000  
  28832773.029   151517228.534        2199.270          33.000  
  22691416.333   119244175.685       -1738.965          45.000  
  25344503.628   133186279.250         267.689          42.000  
  26447572.794   138982948.715          84.874          39.000  
  27492690.355   144475071.604       -2484.220          40.000  
  24620650.546   129382389.470        2545.345          40.000  
  26366755.297   138558214.511        3000.261          42.000  
  24991462.252   131331037.589        1562.763          38.000  
  26866324.153   141183604.310        3396.963          29.000  
  25890666.938   136056383.453        -925.312          40.000  
  26183615.952   137595855.497        3703.861          35.000  
 24  2  6 19 47 34.0060000  0 16G 8G10G16G21G23E19G27E10E25E24G 2G32
                                E11G14E12G 1
  22260018.498   116977190.034         865.227          44.000  
  23101044.367   121396808.794        -672.657          48.000  
  26120907.809   137266255.964       -3623.590          39.000  
  23103771.784   121411137.738        1731.116          43.000  
  25023799.331   131500904.1102      -2733.139          28.000  
  28832354.660   151515029.079        2198.932          33.000  
  22691747.198   119245914.618       -1739.294          45.000  
  25344452.525   133186011.188         267.772          42.000  
  26447556.653   138982863.738          84.636          39.000  
  27493163.256   144477555.326       -2483.975          40.000  
  24620166.023   129379843.696        2545.584          40.000  
  26366184.222   138555214.092        3000.110          42.000  
  24991165.162   131329474.370        1562.914          38.000  
  26865682.177   141180207.745        3395.685          30.000  
  25890842.793   136057308.248        -924.864          40.000  
  26182910.814   137592151.837        3703.853          35.000  
 24  2  6 19 47 35.0060000  0 16G 8G10G16G21G23E19G27E10E25E24G 2G32
                                E11G14E12G 1
  22259853.567   116976324.953         864.574          44.000  
  23101172.688   121397481.793        -673.845          48.000  
  26121597.180   137269879.698       -3624.524          39.000  
  23103442.245   121409406.713        1730.200          43.000  
  25024320.054   131503636.9152      -2733.236          29.000  
  28831936.195   151512829.976        2198.777          34.000  
  22692078.168   119247654.060       -1740.106          45.000  
  25344401.736   133185743.446         267.141          42.000  
  26447540.991   138982779.303          83.836          39.000  
  27493635.974   144480039.369       -2484.501          40.000  
  24619681.465   129377298.224        2545.100          40.000  
  26365613.111   138552213.910        2999.747          41.000  
  24990867.496   131327911.473        1562.155          38.000  
  26865034.451   141176811.426        3395.417          30.000  
  25891019.014   136058233.334        -925.635          40.000  
  26182205.782   137588448.360        3703.434          36.000  
 24  2  6 19 47 36.0060000  0 16G 8G10G16G21G23E19G27E10E25E24G 2G32
                                E11G14E12G 1
  22259689.169   116975460.474         864.455          44.000  
  23101300.798   121398155.458        -673.740          48.000  
  26122286.821   137273503.573       -3623.702          39.000  
  23103113.030   121407676.128        1730.549          43.000  
  25024841.371   131506370.1902      -2733.429          29.000  
  28831517.626   151510631.312        2198.668          34.000  
  22692409.224   119249394.054       -1740.186          45.000  
  25344350.772   133185476.044         267.357          42.000  
  26447525.138   138982695.471          83.649          39.000  
  27494108.778   144482523.770       -2484.298          40.000  
  24619196.750   129374753.072        2545.299          40.000  
  26365042.114   138549214.077        2999.910          41.000  
  24990570.066   131326348.866        1562.628          38.000  
  26864388.305   141173415.518        3394.921          30.000  
  25891194.920   136059158.718        -925.404          40.000  
  26181500.924   137584745.123        3703.395          36.000  
 24  2  6 19 47 37.0060000  0 16G 8G10G16G21G23E19G27E10E25E24G 2G32
                                E11G14E12G 1
  22259524.788   116974596.377         863.898          44.000  
  23101429.101   121398829.568        -674.135          48.000  
  26122976.366   137277127.370       -3623.524          39.000  
  23102783.622   121405945.746        1730.341          42.000  
  25025361.998   131509103.6762      -2733.771          28.000  
  28831099.484   151508432.871        2198.274          34.000  
  22692740.630   119251134.328       -1740.204          45.000  
  25344299.844   133185208.747         267.260          42.000  
  26447509.651   138982611.967          83.507          39.000  
  27494581.627   144485008.293       -2484.386          40.000  
  24618712.071   129372208.005        2545.154          40.000  
  26364471.317   138546214.290        3000.017          41.000  
  24990272.627   131324786.344        1562.431          37.000  
  26863745.281   141170019.743        3395.416          31.000  
  25891370.827   136060084.162        -925.632          40.000  
  26180796.267   137581041.849        3703.806          36.000  
 24  2  6 19 47 38.0060000  0 16G 8G10G16G21G23E19G27E10E25E24G 2G32
                                E11G14E12G 1
  22259360.826   116973732.788         863.070          44.000  
  23101557.456   121399504.310        -675.247          48.000  
  26123665.685   137280751.277       -3624.045          39.000  
  23102454.275   121404215.736        1729.830          42.000  
  25025880.610   131511837.4932      -2733.711          28.000  
  28830681.630   151506234.722        2197.908          34.000  
  22693072.158   119252875.098       -1741.199          45.000  
  25344249.666   133184941.706         266.741          42.000  
  26447493.989   138982528.990          82.613          39.000  
  27495054.476   144487493.094       -2485.274          40.000  
  24618227.618   129369663.177        2544.530          39.000  
  26363900.424   138543214.756        2999.255          42.000  
  24989975.267   131323224.048        1562.154          37.000  
  26863101.238   141166624.287        3395.198          31.000  
  25891547.171   136061009.809        -925.980          40.000  
  26180091.496   137577338.715        3702.797          36.000  
 24  2  6 19 47 39.0060000  0 16G 8G10G16G21G23E19G27E10E25E24G 2G32
                                E11G14E12G 1
  22259196.506   116972869.777         862.885          44.000  
  23101685.864   121400179.697        -675.751          48.000  
  26124355.126   137284375.332       -3623.860          39.000  
  23102125.042   121402486.167        1729.503          43.000  
  25026399.894   131514571.7592      -2734.424          28.000  
  28830263.287   151504037.012        2197.456          34.000  
  22693403.346   119254616.370       -1741.449          45.000  
  25344198.659   133184674.989         266.571          42.000  
  26447478.205   138982446.587          82.032          39.000  
  27495527.202   144489978.199       -2485.209          40.000  
  24617743.252   129367118.655        2544.392          39.000  
  26363329.383   138540215.493        2999.062          42.000  
  24989678.142   131321662.049        1561.813          37.000  
  26862453.581   141163229.227        3393.553          31.000  
  25891723.304   136061935.736        -926.123          40.000  
  26179387.153   137573635.773        3702.484          36.000  
 24  2  6 19 47 40.0060000  0 16G 8G10G16G21G23E19G27E10E25E24G 2G32
                                E11G14E12G 1
  22259032.159   116972007.307         862.299          44.000  
  23101814.629   121400855.718        -676.277          48.000  
  26125044.793   137287999.502       -3624.026          39.000  
  23101795.835   121400756.998        1728.667          42.000  
  25026919.282   131517306.4172      -2734.698          28.000  
  28829844.735   151501839.634        2197.529          34.000  
  22693734.708   119256358.139       -1741.888          45.000  
  25344147.992   133184408.567         266.240          42.000  
  26447462.858   138982364.711          81.493          39.000  
  27495999.832   144492463.618       -2485.735          40.000  
  24617259.078   129364574.413        2544.022          40.000  
  26362758.587   138537216.483        2998.829          42.000  
  24989380.834   131320100.365        1561.297          38.000  
  26861808.883   141159834.386        3394.656          31.000  
  25891899.665   136062861.909        -926.335          40.000  
  26178682.557   137569932.996        3702.743          36.000  
 24  2  6 19 47 41.0060000  0 16G 8G10G16G21G23E19G27E10E25E24G 2G32
                                E11G14E12G 1
  22258868.084   116971145.446         861.637          44.000  
  23101943.446   121401532.435        -677.009          48.000  
  26125734.548   137291623.880       -3624.349          38.000  
  23101466.828   121399028.249        1728.740          43.000  
  25027437.309   131520041.4802      -2734.657          28.000  
  28829426.767   151499642.720        2196.684          34.000  
  22694066.105   119258100.468       -1742.487          45.000  
  25344097.439   133184142.489         266.082          42.000  
  26447447.772   138982283.425          81.205          39.000  
  27496472.978   144494949.373       -2485.706          40.000  
  24616775.280   129362030.491        2543.585          40.000  
  26362187.877   138534217.800        2998.594          42.000  
  24989083.875   131318538.953        1561.049          38.000  
  26861160.625   141156440.081        3394.303          31.000  
  25892075.842   136063788.375        -926.643          40.000  
  26177978.100   137566230.429        3702.307          36.000  
 24  2  6 19 47 42.0060000  0 16G 8G10G16G21G23E19G27E10E25E24G 2G32
                                E11G14E12G 1
  22258704.252   116970284.043         861.014          44.000  
  23102072.063   121402209.674        -677.493          48.000  
  26126424.303   137295248.264       -3624.467          40.000  
  23101137.892   121397299.808        1728.255          42.000  
  25027958.966   131522776.9122      -2735.758          28.000  
  28829008.415   151497446.011        2196.700          34.000  
  22694397.511   119259843.171       -1742.987          45.000  
  25344046.947   133183876.601         265.756          42.000  
  26447432.547   138982202.579          80.487          39.000  
  27496946.245   144497435.339       -2485.974          40.000  
  24616291.437   129359486.720        2543.827          40.000  
  26361617.098   138531219.257        2998.386          42.000  
  24988787.195   131316977.693        1561.169          38.000  
  26860517.838   141153045.954        3393.609          32.000  
  25892252.186   136064714.976        -926.666          40.000  
  26177273.766   137562527.951        3702.281          36.000  
 24  2  6 19 47 43.0060000  0 16G 8G10G16G21G23E19G27E10E25E24G 2G32
                                E11G14E12G 1
  22258540.561   116969423.021         860.839          44.000  
  23102201.090   121402887.386        -677.952          48.000  
  26127114.040   137298872.598       -3624.325          39.000  
  23100809.208   121395571.602        1728.125          42.000  
  25028476.714   131525512.504       -2735.544          28.000  
  28828590.832   151495249.613        2195.659          33.000  
  22694729.222   119261586.194       -1743.121          45.000  
  25343996.088   133183610.843         265.623          42.000  
  26447417.121   138982122.096          80.430          39.000  
  27497419.198   144499921.435       -2486.350          40.000  
  24615807.482   129356943.069        2543.742          40.000  
  26361046.467   138528220.804        2998.459          41.000  
  24988490.306   131315416.558        1560.791          38.000  
  26859876.298   141149652.000        3393.940          32.000  
  25892428.459   136065641.673        -926.858          40.000  
  26176569.301   137558825.428        3702.244          36.000  
