     2.10           OBSERVATION DATA    M (MIXED)           RINEX VERSION / TYPE
RTKCONV 2.4.2                           20240206 104953 UTC PGM / RUN BY / DATE 
log: C:\Users\adminlocal\Desktop\verniquet\verniquet\micro  COMMENT             
format: u-blox                                              COMMENT             
                                                            MARKER NAME         
                                                            MARKER NUMBER       
                                                            OBSERVER / AGENCY   
                                                            REC # / TYPE / VERS 
                                                            ANT # / TYPE        
  4202038.9561   178850.8000  4779014.7026                  APPROX POSITION XYZ 
        0.0000        0.0000        0.0000                  ANTENNA: DELTA H/E/N
     1     1                                                WAVELENGTH FACT L1/2
     4    C1    L1    D1    S1                              # / TYPES OF OBSERV 
  2024     2     6    19     3   48.0070000     GPS         TIME OF FIRST OBS   
  2024     2     6    19    39   24.0060000     GPS         TIME OF LAST OBS    
                                                            END OF HEADER       
 24  2  6 19  3 48.0070000  0 14G 7G 8G10G16G21G23G26G27E10E18E25E24
                                G 2G18
  26595980.040   139762819.212        -767.858          41.000  
  23005646.435   120895494.613        2061.823          44.000  
  23177557.447   121798882.976         995.578          49.000  
  24425149.779   128355030.310       -3053.130          46.000  
  24204223.427   127194054.849        2660.845          42.000  
  23946029.281   125837235.513       -1479.737          45.000  
  26690385.509   140258989.813       -3509.287          39.000  
  22137562.642   116333676.598        -460.671          49.000  
  25655888.567   134822615.589         993.234          43.000  
  22738291.420   119490536.411       -5197.167          38.000  
  26813540.261   140906122.202        1352.980          41.000  
  26459784.841   139047121.373       -1592.681          44.000  
  26039506.705   136838544.405        3112.897          35.000  
  26652071.252   140057590.909       -3076.787          33.000  
 24  2  6 19  3 49.0070000  0 14G 7G 8G10G16G21G23G26G27E10E18E25E24
                                G 2G18
  26596126.107   139763587.338        -767.922          41.000  
  23005254.547   120893432.900        2061.859          45.000  
  23177367.920   121797887.545         995.490          49.000  
  24425730.889   128358083.521       -3053.136          47.000  
  24203716.969   127191394.172        2661.004          42.000  
  23946310.692   125838715.708       -1480.294          45.000  
  26691053.224   140262498.734       -3508.425          39.000  
  22137650.286   116334137.385        -460.761          49.000  
  25655699.459   134821622.559         993.133          44.000  
  22739280.211   119495734.137       -5197.661          40.000  
  26813282.975   140904769.572        1352.837          42.000  
  26460088.387   139048713.987       -1592.584          43.000  
  26038915.047   136835431.470        3113.238          37.000  
  26652657.100   140060667.765       -3076.464          35.000  
 24  2  6 19  3 50.0070000  0 14G 7G 8G10G16G21G23G26G27E10E18E25E24
                                G 2G18
  26596272.087   139764356.047        -768.444          39.000  
  23004862.528   120891371.626        2061.224          43.000  
  23177178.577   121796892.795         994.439          47.000  
  24426311.894   128361137.103       -3053.893          46.000  
  24203210.634   127188733.891        2659.926          41.000  
  23946592.600   125840196.529       -1480.886          44.000  
  26691720.721   140266007.706       -3508.627          37.000  
  22137738.218   116334598.728        -461.466          47.000  
  25655510.718   134820629.843         992.480          42.000  
  22740269.603   119500932.678       -5198.929          37.000  
  26813025.768   140903417.459        1351.865          39.000  
  26460391.698   139050307.091       -1593.330          41.000  
  26038322.490   136832318.714        3112.573          37.000  
  26653240.827   140063744.716       -3077.065          32.000  
 24  2  6 19  6 27.0070000  0 15G 7G 8G10G21G23G27E10E18E25E24G 2G18
                                E11G15E12
  26620375.069   139890985.509        -844.662          37.000  
  22944145.882   120572303.3091       2002.307          47.000  
  23148915.270   121648359.8491        896.493          40.000  
  24124470.478   126774936.7421       2609.931          39.000  
  23992151.445   126079610.8121      -1569.317          48.000  
  22152646.017   116412938.610        -537.538          43.000  
  25626483.808   134668096.229         950.115          40.000  
  22897205.231   120325628.770       -5306.887          35.000  
  26773626.841   140696374.653        1285.020          43.000  
  26508884.169                       -1649.289          23.000  
  25945713.818                        3085.718          26.000  
  26745229.850   140547118.0213      -3081.329          33.000  
  25859424.199   135892200.571        2136.959          34.000  
  26694924.022   140282765.7271      -1157.702          29.000  
  25591095.412   134482127.352        -322.311          36.000  
 24  2  6 19  6 28.0070000  0 15G 7G 8G10G21G23G27E10E18E25E24G 2G18
                                E11G15E12
  26620535.123   139891831.152        -846.819          37.000  
  22943764.665   120570301.710        2000.421          48.000  
  23148744.407   121647464.008         894.622          41.000  
  24123973.679   126772327.531        2607.986          38.000  
  23992450.176   126081180.977       -1571.287          48.000  
  22152748.118   116413476.742        -539.315          43.000  
  25626303.233   134667147.258         947.660          40.000  
  22898215.337   120330936.614       -5309.095          36.000  
  26773382.974   140695090.964        1282.419          44.000  
  26509214.249                       -1655.332          20.000  
  25945126.565   136342561.5973       3083.685          29.000  
  26745813.307   140550200.2582      -3083.587          34.000  
  25859018.185   135890064.558        2135.139          35.000  
  26695146.530   140283924.563       -1160.326          29.000  
  25591156.871   134482451.051        -324.911          37.000  
 24  2  6 19  6 29.0070000  0 16G 7G 8G10G16G21G23G27E10E18E25E24G 2
                                G18E11G15E12
  26620691.102   139892678.397        -847.690          35.000  
  22943383.971   120568301.728        1999.908          45.000  
  23148573.333   121646569.883         893.770          45.000  
  24519464.638   128850655.8413      -3105.850          35.000  
  24123477.709   126769719.745        2607.629          43.000  
  23992749.525   126082752.971       -1572.204          42.000  
  22152851.066   116414016.395        -539.855          46.000  
  25626123.609   134666199.749         947.750          42.000  
  22899226.202   120336246.379       -5310.115          40.000  
  26773138.846   140693808.894        1281.854          44.000  
  26509514.602                       -1654.273          29.000  
  25944551.153   136339478.1392       3083.435          34.000  
  26746396.773                       -3082.640          29.000  
  25858612.642   135887929.796        2134.582          36.000  
  26695366.010   140285085.335       -1161.177          29.000  
  25591218.715   134482776.106        -325.268          38.000  
 24  2  6 19  6 30.0070000  0 15G 7G 8G10G21G23G27E10E18E25E24G 2G18
                                E11G15E12
  26620853.389   139893528.2243       -848.176          36.000  
  22943003.251   120566302.120        1998.962          45.000  
  23148404.092   121645676.622         893.106          49.000  
  24122981.704   126767112.367        2607.987          38.000  
  23993048.613   126084325.409       -1572.823          46.000  
  22152954.109   116414556.785        -540.414          47.000  
  25625943.601   134665252.508         947.259          43.000  
  22900237.171   120341556.791       -5310.503          40.000  
  26772895.310   140692527.274        1280.881          42.000  
  26509813.446   139310019.7171      -1656.637          33.000  
  25943964.285   136336452.3663       3084.241          37.000  
  26746989.644   140556378.4953      -3082.800          34.000  
  25858206.741   135885795.492        2136.120          31.000  
  26695584.967   140286246.509       -1161.756          30.000  
  25591280.585   134483101.487        -325.127          39.000  
 24  2  6 19  6 31.0070000  0 17G 7G 8G10G16G21G23G27E10E18E25E24G 2
                                G18E11G15E12G26
  26621016.278   139894375.6822       -847.299          37.000  
  22942622.470   120564302.025        2000.232          46.000  
  23148234.005   121644782.971         893.575          49.000  
  24520650.127   128856885.3902      -3105.760          32.000  
  24122485.848   126764504.572        2608.161          44.000  
  23993347.710   126085897.569       -1572.055          46.000  
  22153056.935   116415096.689        -539.767          46.000  
  25625763.332   134664304.617         947.972          44.000  
  22901248.054   120346867.014       -5310.396          40.000  
  26772651.461   140691245.176        1282.199          41.000  
  26510125.848   139311674.908       -1655.077          36.000  
  25943372.103   136333368.4232       3084.253          38.000  
  26747574.985   140559461.1302      -3082.373          33.000  
  25857798.066   135883660.483        2135.038          41.000  
  26695805.372   140287407.513       -1161.093          30.000  
  25591343.056   134483426.270        -324.518          40.000  
  26799206.236                       -3509.880          29.000  
 24  2  6 19  6 32.0070000  0 17G 7G 8G10G16G21G23G27E10E18E25E24G 2
                                G18E11G15E12G26
  26621175.520   139895223.0842       -847.595          37.000  
  22942241.540   120562301.857        1999.536          45.000  
  23148063.072   121643889.491         892.793          48.000  
  24521231.708   128859990.7242      -3106.311          35.000  
  24121989.415   126761896.509        2607.550          43.000  
  23993647.095   126087469.837       -1572.863          45.000  
  22153159.760   116415636.653        -540.801          47.000  
  25625582.652   134663356.567         947.684          45.000  
  22902258.788   120352177.407       -5311.204          40.000  
  26772407.507   140689963.088        1281.583          42.000  
  26510438.539   139313330.139       -1655.773          36.000  
  25942787.887   136330284.2112       3083.972          40.000  
  26748159.725   140562543.3362      -3082.679          34.000  
  25857394.747   135881525.182        2134.698          41.000  
  26696025.759   140288568.643       -1161.796          29.000  
  25591405.493   134483750.843        -325.003          40.000  
  26799879.631   140834317.8163      -3509.053          33.000  
 24  2  6 19  6 33.0070000  0 15G 7G 8G10G21G23G27E10E18E25E24G 2G18
                                E11G15E12
  26621339.211   139896071.4742       -849.347          33.000  
  22941861.178   120560302.414        1999.207          46.000  
  23147893.770   121642997.036         892.010          49.000  
  24121493.148   126759289.124        2607.116          43.000  
  23993946.130   126089043.035       -1573.869          46.000  
  22153262.760   116416177.431        -541.337          46.000  
  25625402.575   134662409.186         946.976          44.000  
  22903269.548   120357488.863       -5312.130          40.000  
  26772163.745   140688681.817        1280.875          42.000  
  26510764.561   139314986.183       -1656.394          36.000  
  25942204.361   136327200.5912       3083.313          37.000  
  26748747.963   140565625.9272      -3082.284          33.000  
  25856985.880   135879390.387        2134.272          37.000  
  26696241.723   140289730.768       -1162.768          29.000  
  25591467.398   134484076.022        -325.477          39.000  
 24  2  6 19  6 34.0070000  0 15G 7G 8G10G21G23G27E10E18E25E24G 2G18
                                E11G15E12
  26621501.699   139896920.5992       -850.179          34.000  
  22941481.208   120558303.818        1998.230          46.000  
  23147723.804   121642105.551         891.074          45.000  
  24120997.170   126756682.532        2606.366          43.000  
  23994245.838   126090617.198       -1574.615          46.000  
  22153366.109   116416719.151        -542.073          46.000  
  25625222.401   134661462.465         946.484          44.000  
  22904280.649   120362801.456       -5313.354          40.000  
  26771920.052   140687401.360        1280.163          42.000  
  26511079.965   139316642.929       -1657.858          29.000  
  25941614.980   136324117.5082       3082.843          40.000  
  26749333.766   140568708.8772      -3083.260          33.000  
  25856582.492   135877256.358        2133.990          41.000  
  26696465.758   140290894.051       -1164.377          29.000  
  25591529.119   134484401.918        -326.131          39.000  
 24  2  6 19  6 35.0070000  0 15G 7G 8G10G21G23G27E10E18E25E24G 2G18
                                E11G15E12
  26621660.915   139897770.5122       -849.579          33.000  
  22941100.880   120556305.762        1997.766          47.000  
  23147554.537   121641214.956         890.195          45.000  
  24120501.540   126754076.472        2605.987          43.000  
  23994545.816   126092192.133       -1575.282          46.000  
  22153469.135   116417261.535        -542.736          46.000  
  25625042.219   134660516.277         945.964          43.000  
  22905291.374   120368114.900       -5313.941          39.000  
  26771676.727   140686121.577        1279.494          42.000  
  26511393.109   139318300.296       -1657.515          31.000  
  25941028.059   136321034.8092       3082.660          39.000  
  26749917.991   140571792.1452      -3082.115          32.000  
  25856177.036   135875122.680        2133.336          40.000  
  26696688.754   140292058.031       -1164.120          29.000  
  25591591.164   134484728.253        -326.709          39.000  
 24  2  6 19  6 36.0070000  0 15G 7G 8G10G21G23G27E10E18E25E24G 2G18
                                E11G15E12
  26621819.878   139898620.9822       -850.189          33.000  
  22940721.059   120554308.160        1997.675          47.000  
  23147384.851   121640325.060         889.843          43.000  
  24120005.770   126751470.802        2606.044          42.000  
  23994845.968   126093767.707       -1575.595          46.000  
  22153572.484   116417804.492        -542.856          46.000  
  25624862.595   134659570.399         946.015          43.000  
  22906302.771   120373429.109       -5314.432          39.000  
  26771432.991   140684842.301        1279.203          42.000  
  26511709.665   139319958.125       -1657.615          32.000  
  25940441.636   136317952.4012       3082.391          38.000  
  26750503.071   140574875.5312      -3082.697          31.000  
  25855770.586   135872989.301        2133.700          40.000  
  26696907.938   140293222.765       -1165.113          29.000  
  25591653.583   134485054.955        -326.900          39.000  
 24  2  6 19  6 37.0070000  0 15G 7G 8G10G21G23G27E10E18E25E24G 2G18
                                E11G15E12
  26621982.854   139899471.478        -850.713          33.000  
  22940340.993   120552310.505        1997.821          47.000  
  23147215.453   121639435.388         889.566          43.000  
  24119509.923   126748865.041        2605.879          42.000  
  23995146.269   126095343.423       -1575.824          46.000  
  22153675.859   116418347.513        -543.004          46.000  
  25624682.631   134658624.394         946.161          43.000  
  22907313.950   120378743.545       -5314.718          38.000  
  26771189.368   140683563.033        1279.203          42.000  
  26512025.828   139321615.887       -1657.907          31.000  
  25939855.169   136314869.762        3082.428          38.000  
  26751091.160   140577958.0321      -3082.644          29.000  
  25855365.121   135870855.727        2133.587          40.000  
  26697128.997   140294387.690       -1165.498          29.000  
  25591715.811   134485381.455        -326.487          39.000  
 24  2  6 19  6 38.0070000  0 15G 7G 8G10G21G23G27E10E18E25E24G 2G18
                                E11G15E12
  26622144.932   139900322.440        -851.820          33.000  
  22939960.945   120550313.239        1996.826          47.000  
  23147046.317   121638546.314         888.499          41.000  
  24119014.179   126746259.591        2604.570          41.000  
  23995446.648   126096919.689       -1576.995          45.000  
  22153779.321   116418891.004        -544.071          46.000  
  25624502.955   134657678.650         945.113          43.000  
  22908325.321   120384058.623       -5315.519          38.000  
  26770945.763   140682284.183        1278.246          42.000  
  26512341.433   139323273.998       -1658.099          31.000  
  25939268.676   136311787.286        3081.964          37.000  
  26751675.464   140581041.139       -3083.722          29.000  
  25854958.601   135868722.335        2132.896          40.000  
  26697349.856   140295553.173       -1165.895          29.000  
  25591777.733   134485708.215        -327.166          39.000  
 24  2  6 19  6 39.0070000  0 15G 7G 8G10G21G23G27E10E18E25E24G 2G18
                                E11G15E12
  26622307.402   139901174.460        -852.631          32.000  
  22939580.914   120548316.917        1995.850          47.000  
  23146877.556   121637658.422         887.331          41.000  
  24118518.384   126743655.014        2604.188          41.000  
  23995747.115   126098497.050       -1577.907          45.000  
  22153882.827   116419435.527        -544.889          45.000  
  25624323.261   134656733.715         944.718          43.000  
  22909337.224   120389374.984       -5316.995          38.000  
  26770702.656   140681006.336        1277.521          42.000  
  26512656.470   139324933.097       -1659.533          31.000  
  25938681.991   136308705.538        3081.104          37.000  
  26752257.542   140584124.778       -3084.432          27.000  
  25854552.753   135866589.701        2132.201          40.000  
  26697572.695   140296719.864       -1166.834          28.000  
  25591840.187   134486035.798        -328.146          39.000  
 24  2  6 19  6 40.0070000  0 16G 7G 8G10G21G23G27E10E18E25E24G 2G18
                                E11G15E12G16
  26622469.811   139902027.115        -852.701          36.000  
  22939201.136   120546321.201        1995.282          48.000  
  23146708.961   121636771.374         886.712          36.000  
  24118022.640   126741051.000        2603.812          43.000  
  23996047.503   126100075.241       -1578.672          46.000  
  22153986.508   116419980.839        -545.734          46.000  
  25624143.620   134655789.330         944.061          41.000  
  22910349.232   120394692.251       -5317.897          38.000  
  26770459.504   140679729.195        1276.540          42.000  
  26512972.380   139326592.771       -1661.116          31.000  
  25938095.524   136305624.183        3081.354          37.000  
  26752842.490   140587208.814       -3086.235          27.000  
  25854147.105   135864457.535        2131.719          40.000  
  26697794.828   140297887.404       -1167.563          28.000  
  25591902.685   134486363.925        -328.596          39.000  
  24525965.708                       -3102.246          33.000  
 24  2  6 19  6 41.0070000  0 16G 7G 8G10G21G23G27E10E18E25E24G 2G18
                                E11G15E12G16
  26622632.334   139902880.533        -853.926          32.000  
  22938821.969   120544325.975        1994.885          47.000  
  23146540.723                         883.195          21.000  
  24117527.185   126738447.410        2603.542          43.000  
  23996347.594   126101654.125       -1579.096          45.000  
  22154090.354   116420526.755        -546.026          43.000  
  25623963.638   134654845.341         943.681          37.000  
  22911361.031   120400010.259       -5318.507          38.000  
  26770217.304   140678452.547        1276.431          44.000  
  26513287.243   139328253.037       -1660.912          31.000  
  25937509.074   136302543.205        3080.688          36.000  
  26753437.142   140590292.674       -3083.588          28.000  
  25853741.719   135862325.667        2131.452          40.000  
  26698022.605   140299055.835       -1169.042          31.000  
  25591964.834   134486692.387        -328.331          38.000  
  24526555.010   128887916.3183      -3109.830          33.000  
 24  2  6 19  6 42.0070000  0 15G 7G 8G10G21G23G27E10E18E25E24G 2G18
                                E11G15E12
  26622794.577   139903733.882        -853.821          35.000  
  22938441.877   120542330.820        1995.221          48.000  
  23146372.137   121635005.6753        885.867          51.000  
  24117031.695   126735843.858        2604.200          46.000  
  23996648.026   126103233.128       -1578.787          48.000  
  22154193.712   116421072.621        -546.074          48.000  
  25623783.936   134653901.248         944.098          44.000  
  22912372.201   120405328.501       -5318.813          41.000  
  26769973.838   140677176.001        1276.582          44.000  
  26513597.159   139329913.249       -1659.397          36.000  
  25936921.822   136299462.050        3082.123          35.000  
  26754025.816   140593376.252       -3082.988          35.000  
  25853335.757   135860193.665        2131.714          41.000  
  26698238.307   140300224.254       -1165.300          29.000  
  25592027.183   134487020.658        -328.319          41.000  
 24  2  6 19  6 43.0070000  0 16G 7G 8G10G21G23G27E10E18E25E24G 2G18
                                E11G15E12G26
  26622957.004   139904587.332        -853.611          36.000  
  22938062.038   120540335.560        1994.891          47.000  
  23146201.718   121634119.8822        885.394          48.000  
  24116536.292   126733240.131        2603.320          44.000  
  23996948.301   126104812.251       -1579.559          46.000  
  22154297.445   116421618.643        -546.518          48.000  
  25623603.588   134652956.943         943.803          45.000  
  22913384.017   120410647.063       -5319.097          41.000  
  26769730.164   140675899.416        1276.112          43.000  
  26513927.352   139331573.313       -1660.526          42.000  
  25936334.980   136296380.490        3081.317          39.000  
  26754613.234   140596459.456       -3083.382          35.000  
  25852929.368   135858061.440        2131.972          41.000  
  26698462.298   140301393.029       -1169.145          29.000  
  25592089.367   134487348.820        -328.445          41.000  
  26807225.632                       -3510.400          35.000  
 24  2  6 19  6 44.0070000  0 16G 7G 8G10G21G23G27E10E18E25E24G 2G18
                                E11G15E12G26
  26623119.491   139905441.681        -854.399          36.000  
  22937682.653   120538341.041        1994.452          48.000  
  23146031.064   121633235.0332        884.485          48.000  
  24116041.125   126730636.932        2603.031          45.000  
  23997248.654   126106392.292       -1580.401          47.000  
  22154401.317   116422165.482        -547.114          47.000  
  25623423.641   134652013.319         943.443          44.000  
  22914396.208   120415966.643       -5320.027          41.000  
  26769486.995   140674623.651        1274.964          43.000  
  26514235.453   139333234.247       -1661.072          40.000  
  25935748.426   136293299.505        3081.873          36.000  
  26755199.474   140599543.110       -3084.379          35.000  
  25852523.406   135855929.678        2131.331          39.000  
  26698686.551   140302562.725       -1170.208          29.000  
  25592151.761   134487677.547        -328.775          41.000  
  26807900.048   140876465.4132      -3508.824          34.000  
 24  2  6 19  6 45.0070000  0 17G 7G 8G10G21G23G27E10E18E25E24G 2G18
                                E11G15E12G16G26
  26623282.241   139906296.427        -854.476          36.000  
  22937303.190   120536346.936        1994.373          45.000  
  23145864.798   121632350.8142        884.177          49.000  
  24115545.573   126728034.190        2603.317          33.000  
  23997549.539   126107972.940       -1580.613          47.000  
  22154505.591   116422712.842        -547.383          47.000  
  25623243.555   134651069.996         943.412          44.000  
  22915408.234   120421286.871       -5320.288          40.000  
  26769244.062   140673348.241        1275.516          42.000  
  26514553.466   139334895.432       -1661.221          33.000  
  25935161.950   136290218.840        3080.072          32.000  
  26755787.956   140602626.839       -3083.733          35.000  
  25852128.595                        2131.176          24.000  
  26698905.700   140303733.107       -1170.223          29.000  
  25592214.163   134488006.598        -328.727          39.000  
  24528921.373                       -3111.279          40.000  
  26808559.230   140879974.8672      -3508.745          35.000  
 24  2  6 19  6 46.0070000  0 17G 7G 8G10G21G23G27E10E18E25E24G 2G18
                                E11G15E12G16G26
  26623444.938   139907151.474        -855.773          36.000  
  22936923.429   120534352.946        1993.469          46.000  
  23145698.017   121631467.0032        883.104          49.000  
  24115050.580   126725431.595        2602.138          34.000  
  23997850.433   126109553.887       -1581.692          47.000  
  22154609.742   116423260.466        -548.208          46.000  
  25623063.923   134650126.677         942.839          44.000  
  22916421.175   120426607.558       -5321.193          42.000  
  26769001.233   140672073.151        1274.541          45.000  
  26514865.292   139336557.026       -1662.968          32.000  
  25934575.579   136287138.074        3079.382          32.000  
  26756374.179   140605710.237       -3083.213          35.000  
  25851730.093                        2122.539          24.000  
  26699131.916   140304903.829       -1171.531          31.000  
  25592277.018   134488335.697        -329.722          39.000  
  24529515.160   128903471.2703      -3111.357          41.000  
  26809227.765   140883484.2952      -3510.181          36.000  
 24  2  6 19  6 47.0070000  0 17G 7G 8G10G21G23G27E10E18E25E24G 2G18
                                E11G15E12G16G26
  26623607.818   139908007.212        -855.730          36.000  
  22936543.939   120532359.540        1993.634          47.000  
  23145529.762   121630583.9852        883.226          49.000  
  24114555.361   126722829.504        2602.236          36.000  
  23998150.935   126111135.563       -1581.484          47.000  
  22154714.243   116423808.743        -548.099          46.000  
  25622884.691   134649183.817         943.028          44.000  
  22917433.846   120431929.115       -5321.370          41.000  
  26768759.111   140670798.672        1274.610          46.000  
  26515182.921   139338219.020       -1662.126          32.000  
  25933988.868   136284057.595        3081.335          31.000  
  26756963.019   140608793.928       -3083.087          35.000  
  25851327.333                        2131.403          26.000  
  26699355.191   140306075.321       -1171.153          31.000  
  25592339.577   134488665.162        -328.924          39.000  
  24530106.164   128906582.2572      -3110.709          42.000  
  26809895.244   140886993.7592      -3508.847          36.000  
 24  2  6 19  6 48.0070000  0 17G 7G 8G10G21G23G27E10E18E25E24G 2G18
                                E11G15E12G16G26
  26623770.821   139908862.970        -856.072          35.000  
  22936164.580   120530366.126        1993.555          50.000  
  23145361.856   121629701.2072        882.916          49.000  
  24114059.966   126720227.333        2602.388          38.000  
  23998451.777   126112717.406       -1581.740          48.000  
  22154818.386   116424357.068        -548.211          47.000  
  25622705.713   134648240.773         943.410          43.000  
  22918446.631   120437250.914       -5321.604          41.000  
  26768516.894   140669524.214        1274.623          46.000  
  26515498.578   139339880.927       -1661.691          38.000  
  25933402.235   136280976.859        3081.445          31.000  
  26757551.196   140611877.203       -3083.031          35.000  
  25850901.635   135847415.4771       2130.897          32.000  
  26699580.028   140307247.004       -1171.395          32.000  
  25592402.110   134488994.505        -328.955          40.000  
  24530700.432   128909693.1342      -3110.598          41.000  
  26810561.834   140890502.8642      -3508.776          37.000  
 24  2  6 19  6 49.0070000  0 17G 7G 8G10G21G23G27E10E18E25E24G 2G18
                                E11G15E12G16G26
  26623933.867   139909719.081        -856.689          35.000  
  22935785.178   120528372.942        1992.517          50.000  
  23145193.453   121628818.4061        881.467          49.000  
  24113565.174   126717625.318        2601.229          39.000  
  23998752.671   126114299.662       -1582.967          47.000  
  22154922.913   116424905.762        -549.240          46.000  
  25622525.924   134647297.931         942.163          43.000  
  22919458.926   120442573.262       -5323.281          41.000  
  26768274.501   140668250.024        1273.567          46.000  
  26515815.047   139341543.126       -1662.828          38.000  
  25932815.707   136277896.228        3080.530          31.000  
  26758137.375   140614960.392       -3083.632          35.000  
  25850492.200   135845284.266        2130.952          32.000  
  26699806.044   140308419.138       -1172.833          33.000  
  25592464.791   134489324.002        -330.354          40.000  
  24531293.111   128912804.2242      -3111.542          41.000  
  26811229.785   140894011.7782      -3509.243          37.000  
 24  2  6 19  6 50.0070000  0 17G 7G 8G10G21G23G27E10E18E25E24G 2G18
                                E11G15E12G16G26
  26624097.044   139910575.968        -856.987          35.000  
  22935406.150   120526380.407        1992.163          50.000  
  23145026.402   121627936.997         881.010          49.000  
  24113070.426   126715023.894        2601.134          39.000  
  23999053.800   126115882.750       -1583.528          47.000  
  22155027.789   116425455.233        -549.656          46.000  
  25622346.719   134646355.623         941.918          43.000  
  22920472.461   120447896.539       -5323.643          41.000  
  26768032.362   140666976.549        1273.013          46.000  
  26516131.454   139343206.000       -1663.487          37.000  
  25932229.293   136274816.009        3079.986          31.000  
  26758724.051   140618043.919       -3083.788          35.000  
  25850086.003   135843153.561        2130.503          33.000  
  26700028.900   140309592.146       -1173.466          34.000  
  25592527.734   134489654.012        -330.331          40.000  
  24531885.267   128915915.9012      -3111.773          41.000  
  26811897.343   140897521.0072      -3509.341          37.000  
 24  2  6 19  6 51.0070000  0 17G 7G 8G10G21G23G27E10E18E25E24G 2G18
                                E11G15E12G16G26
  26624260.264   139911433.534        -857.614          34.000  
  22935027.297   120524388.516        1991.681          50.000  
  23144859.177   121627056.494         880.010          49.000  
  24112575.407   126712423.076        2600.215          40.000  
  23999355.567   126117466.655       -1584.308          47.000  
  22155132.507   116426005.423        -550.517          46.000  
  25622167.706   134645413.829         941.645          43.000  
  22921485.569   120453220.763       -5324.636          41.000  
  26767789.970   140665703.774        1272.453          45.000  
  26516448.594   139344869.454       -1663.492          37.000  
  25931642.930   136271736.211        3079.980          31.000  
  26759311.103   140621127.673       -3083.986          35.000  
  25849681.297   135841023.341        2129.867          33.000  
  26700253.293   140310766.084       -1174.172          33.000  
  25592590.668   134489984.531        -330.889          40.000  
  24532479.124   128919028.1672      -3112.509          40.000  
  26812565.730   140901030.4722      -3509.665          36.000  
 24  2  6 19  6 52.0070000  0 17G 7G 8G10G21G23G27E10E18E25E24G 2G18
                                E11G15E12G16G26
  26624423.660   139912291.516        -857.537          32.000  
  22934648.549   120522396.842        1991.748          48.000  
  23144691.663   121626176.452         879.926          47.000  
  24112080.885   126709822.400        2600.608          37.000  
  23999656.941   126119050.983       -1584.387          46.000  
  22155237.200   116426555.947        -550.529          44.000  
  25621988.413   134644472.204         941.625          41.000  
  22922498.693   120458545.491       -5325.026          39.000  
  26767548.101   140664431.280        1272.517          44.000  
  26516765.272   139346533.139       -1663.611          35.000  
  25931057.196   136268656.462        3079.980          31.000  
  26759897.858   140624211.291       -3082.648          31.000  
  25849277.857   135838893.176        2130.526          31.000  
  26700477.921   140311940.540       -1174.903          32.000  
  25592653.585   134490315.163        -330.414          39.000  
  24533070.389   128922140.5742      -3112.204          41.000  
  26813233.611   140904539.7762      -3508.918          34.000  
 24  2  6 19  6 53.0070000  0 17G 7G 8G10G21G23G27E10E18E25E24G 2G18
                                E11G15E12G16G26
  26624587.028   139913149.989        -859.617          33.000  
  22934269.897   120520405.560        1990.320          46.000  
  23144524.525   121625297.068         878.211          47.000  
  24111586.285   126707222.039        2598.964          34.000  
  23999958.489   126120635.878       -1586.026          46.000  
  22155342.084   116427107.002        -552.081          44.000  
  25621809.732   134643530.884         940.213          42.000  
  22923512.185   120463870.942       -5326.651          39.000  
  26767306.110   140663159.230        1270.795          44.000  
  26517082.063   139348197.326       -1665.461          35.000  
  25930471.480   136265576.908        3078.796          33.000  
  26760486.445   140627295.064       -3085.283          31.000  
  25848868.405   135836763.370        2128.726          29.000  
  26700702.034   140313115.580       -1175.728          32.000  
  25592716.537   134490646.102        -331.970          39.000  
  24533663.252   128925253.3782      -3113.940          42.000  
  26813901.570   140908049.1082      -3510.096          36.000  
 24  2  6 19  6 54.0070000  0 17G 7G 8G10G21G23G27E10E18E25E24G 2G18
                                E11G15E12G16G26
  26624750.511   139914010.007        -860.144          33.000  
  22933891.262   120518415.763        1990.021          46.000  
  23144357.998   121624419.387         877.650          48.000  
  24111091.990   126704623.123        2599.103          33.000  
  24000260.186   126122222.435       -1586.482          46.000  
  22155447.056   116427659.627        -552.307          44.000  
  25621631.085   134642590.907         940.142          42.000  
  22924525.911   120469198.118       -5326.882          38.000  
  26767064.678   140661888.749        1270.458          44.000  
  26517398.942   139349862.906       -1665.521          33.000  
  25929885.711   136262498.624        3079.315          34.000  
  26761072.458   140630379.848       -3083.786          31.000  
  25848465.183   135834634.776        2128.755          28.000  
  26700926.025   140314292.389       -1176.684          32.000  
  25592779.672   134490978.400        -332.163          39.000  
  24534256.062   128928367.5502      -3114.090          42.000  
  26814569.608   140911559.5282      -3510.213          35.000  
 24  2  6 19  6 55.0070000  0 17G 7G 8G10G21G23G27E10E18E25E24G 2G18
                                E11G15E12G16G26
  26624914.473   139914869.766        -859.477          34.000  
  22933512.793   120516425.656        1989.935          46.000  
  23144190.886   121623541.648         877.600          47.000  
  24110597.643   126702023.869        2599.326          33.000  
  24000561.944   126123808.850       -1586.522          46.000  
  22155552.342   116428212.044        -552.409          44.000  
  25621452.517   134641650.508         940.487          42.000  
  22925539.760   120474525.292       -5327.128          38.000  
  26766822.608   140660617.992        1270.773          44.000  
  26517715.943   139351528.173       -1664.895          33.000  
  25929300.151   136259419.868        3078.888          35.000  
  26761659.894   140633464.054       -3084.062          31.000  
  25848058.680                        2128.767          27.000  
  26701150.103   140315469.100       -1177.381          32.000  
  25592843.051   134491310.226        -331.660          39.000  
  24534848.785   128931481.3142      -3113.735          42.000  
  26815237.140   140915069.2192      -3509.261          35.000  
 24  2  6 19  6 56.0070000  0 17G 7G 8G10G21G23G27E10E18E25E24G 2G18
                                E11G15E12G16G26
  26625078.531   139915731.126        -863.052          33.000  
  22933134.420   120514436.988        1986.945          46.000  
  23144023.582   121622665.632         874.016          47.000  
  24110103.348   126699426.031        2596.155          33.000  
  24000863.946   126125396.886       -1589.980          46.000  
  22155658.178   116428766.016        -555.868          44.000  
  25621273.792   134640711.442         937.307          42.000  
  22926553.775   120479854.170       -5330.542          38.000  
  26766581.019   140659348.753        1267.498          44.000  
  26518033.118   139353194.861       -1667.927          32.000  
  25928714.723   136256342.339        3075.916          34.000  
  26762242.321   140636549.388       -3087.542          32.000  
  25847654.263   135830347.7971       2126.258          27.000  
  26701374.391   140316647.431       -1181.394          32.000  
  25592906.160   134491643.396        -335.053          39.000  
  24535441.760   128934596.4692      -3116.850          42.000  
  26815904.995   140918579.9472      -3512.021          35.000  
 24  2  6 19  6 57.0070000  0 17G 7G 8G10G21G23G27E10E18E25E24G 2G18
                                E11G15E12G16G26
  26625242.459   139916591.566        -861.262          33.000  
  22932755.794   120512447.359        1988.592          46.000  
  23143856.845   121621788.824         875.499          47.000  
  24109608.861   126696827.095        2598.043          34.000  
  24001165.983   126126984.095       -1588.267          46.000  
  22155763.420   116429319.075        -554.098          44.000  
  25621094.517   134639771.277         939.106          42.000  
  22927567.458   120485182.375       -5329.545          38.000  
  26766339.682   140658078.553        1269.067          44.000  
  26518349.953   139354860.581       -1666.214          32.000  
  25928129.259   136253263.565        3078.009          34.000  
  26762830.803   140639633.248       -3085.190          31.000  
  25847246.983   135828218.787        2127.945          26.000  
  26701600.066   140317824.999       -1178.733          32.000  
  25592969.731   134491975.437        -333.002          39.000  
  24536034.492   128937710.5322      -3114.779          42.000  
  26816572.919   140922089.2752      -3509.937          35.000  
 24  2  6 19  6 58.0070000  0 17G 7G 8G10G21G23G27E10E18E25E24G 2G18
                                E11G15E12G16G26
  26625406.613   139917452.527        -862.877          34.000  
  22932377.316   120510458.162        1987.207          47.000  
  23143690.222   121620912.706         874.213          49.000  
  24109114.374   126694228.509        2597.681          34.000  
  24001468.230   126128571.913       -1589.681          47.000  
  22155868.741   116429872.690        -555.698          46.000  
  25620915.914   134638831.441         938.251          44.000  
  22928581.080   120490511.241       -5330.325          40.000  
  26766098.197   140656808.842        1267.968          45.000  
  26518666.683   139356526.760       -1667.465          32.000  
  25927543.464   136250185.081        3076.495          35.000  
  26763418.937   140642717.205       -3086.251          31.000  
  25846840.707                        2127.497          27.000  
  26701827.425   140319003.273       -1180.499          33.000  
  25593033.459   134492307.789        -333.874          39.000  
  24536627.040   128940824.9822      -3116.048          42.000  
  26817240.730   140925598.6572      -3510.161          35.000  
 24  2  6 19  6 59.0070000  0 17G 7G 8G10G21G23G27E10E18E25E24G 2G18
                                E11G15E12G16G26
  26625571.099   139918315.824        -862.787          34.000  
  22931999.187   120508471.135        1988.123          47.000  
  23143523.938   121620039.049         874.498          49.000  
  24108619.975   126691632.147        2597.274          35.000  
  24001770.747   126130162.106       -1589.360          47.000  
  22155974.506   116430428.600        -555.079          46.000  
  25620737.146   134637893.704         938.447          44.000  
  22929595.688   120495842.632       -5330.736          40.000  
  26765856.931   140655541.396        1268.229          46.000  
  26518984.155   139358195.086       -1667.387          33.000  
  25926958.175   136247108.561        3077.673          35.000  
  26764002.882   140645803.086       -3085.255          31.000  
  25846432.398                        2127.463          27.000  
  26702049.636   140320183.984       -1179.901          33.000  
  25593096.690   134492642.237        -333.476          40.000  
  24537219.903   128943941.5552      -3115.519          42.000  
  26817908.925   140929109.8692      -3509.878          37.000  
 24  2  6 19  7  0.0070000  0 17G 7G 8G10G21G23G27E10E18E25E24G 2G18
                                E11G15E12G16G26
  26625735.340   139919178.593        -865.387          34.000  
  22931621.119   120506483.527        1984.924          48.000  
  23143357.428   121619165.043         870.833          49.000  
  24108125.610   126689035.111        2593.666          35.000  
  24002073.168   126131751.882       -1592.710          48.000  
  22156080.141   116430984.002        -558.171          46.000  
  25620558.394   134636955.235         935.600          44.000  
  22930610.305   120501173.705       -5333.768          39.000  
  26765615.839   140654273.417        1264.991          46.000  
  26519301.932   139359862.861       -1670.619          34.000  
  25926372.738   136244031.243        3074.860          35.000  
  26764592.595   140648887.960       -3086.984          32.000  
  25846027.222   135821820.9291       2124.665          27.000  
  26702277.623   140321364.266       -1182.316          33.000  
  25593160.261   134492975.940        -336.507          40.000  
  24537812.233   128947057.4612      -3118.640          42.000  
  26818577.077   140932620.1182      -3512.713          36.000  
 24  2  6 19  7  1.0070000  0 17G 7G 8G10G21G23G27E10E18E25E24G 2G18
                                E11G15E12G16G26
  26625899.651   139920041.288        -862.759          34.000  
  22931242.685   120504495.761        1987.506          47.000  
  23143190.840   121618291.107         873.339          48.000  
  24107631.132   126686437.790        2597.624          35.000  
  24002376.051   126133341.671       -1590.214          47.000  
  22156186.239   116431539.385        -555.833          45.000  
  25620379.678   134636016.552         937.844          43.000  
  22931624.354   120506504.951       -5332.244          38.000  
  26765374.764   140653005.326        1267.249          45.000  
  26519619.220   139361530.442       -1667.644          33.000  
  25925787.335   136240953.579        3077.533          34.000  
  26765180.143   140651972.381       -3085.127          31.000  
  25845621.688                        2126.680          26.000  
  26702499.555   140322544.785       -1181.527          33.000  
  25593223.771   134493309.376        -334.104          39.000  
  24538404.903   128950173.1532      -3116.077          41.000  
  26819245.115   140936129.7322      -3508.781          36.000  
 24  2  6 19  7  2.0070000  0 17G 7G 8G10G21G23G27E10E18E25E24G 2G18
                                E11G15E12G16G26
  26626064.120   139920905.624        -865.012          34.000  
  22930865.010   120502509.495        1985.779          46.000  
  23143025.185   121617418.907         871.737          48.000  
  24107136.863   126683841.970        2595.186          33.000  
  24002678.795   126134933.137       -1592.141          46.000  
  22156292.127   116432096.356        -557.294          46.000  
  25620201.441   134635079.242         936.551          43.000  
  22932639.346   120511837.921       -5333.739          38.000  
  26765133.733   140651738.779        1265.878          45.000  
  26519936.779   139363199.529       -1669.478          33.000  
  25925201.924   136237877.217        3075.708          34.000  
  26765768.669   140655057.871       -3085.601          31.000  
  25845217.148                        2126.220          26.000  
  26702725.744   140323726.901       -1182.711          33.000  
  25593287.360   134493644.191        -335.238          39.000  
  24538998.054   128953290.2402      -3117.484          42.000  
  26819913.127   140939640.5322      -3510.977          35.000  
 24  2  6 19  7  3.0070000  0 17G 7G 8G10G21G23G27E10E18E25E24G 2G18
                                E11G15E12G16G26
  26626229.172   139921771.418        -867.180          34.000  
  22930487.030   120500524.618        1983.575          46.000  
  23142859.574   121616548.342         869.204          48.000  
  24106643.066   126681247.457        2593.614          33.000  
  24002982.150   126136526.162       -1594.433          47.000  
  22156398.486   116432654.796        -559.438          46.000  
  25620023.013   134634143.174         934.906          43.000  
  22933654.792   120517172.565       -5336.054          38.000  
  26764893.077   140650473.681        1263.769          45.000  
  26520254.539   139364870.014       -1671.812          32.000  
  25924616.775   136234802.021        3074.304          34.000  
  26766357.291   140658144.389       -3087.767          32.000  
  25844814.449   135815441.517        2124.261          26.000  
  26702950.364   140324910.702       -1184.755          33.000  
  25593351.323   134493980.230        -337.069          39.000  
  24539591.649   128956408.6572      -3119.595          42.000  
  26820581.618   140943152.2672      -3512.098          36.000  
 24  2  6 19  7  4.0070000  0 17G 7G 8G10G21G23G27E10E18E25E24G 2G18
                                E11G15E12G16G26
  26626393.588   139922636.933        -864.669          34.000  
  22930109.128   120498539.393        1986.053          46.000  
  23142693.866   121615677.666         871.462          48.000  
  24106149.155   126678652.553        2595.755          33.000  
  24003285.400   126138118.997       -1591.984          47.000  
  22156504.592   116433213.016        -557.544          47.000  
  25619844.436   134633206.686         937.164          43.000  
  22934669.688   120522507.111       -5333.941          38.000  
  26764652.456   140649208.292        1265.969          45.000  
  26520572.578   139366540.085       -1668.997          33.000  
  25924031.058   136231726.271        3076.452          34.000  
  26766942.423   140661230.251       -3085.121          31.000  
  25844413.888   135813315.746        2126.312          26.000  
  26703175.541   140326094.400       -1183.494          32.000  
  25593415.514   134494315.832        -334.971          39.000  
  24540184.948   128959526.6142      -3117.300          42.000  
  26821249.796   140946663.2622      -3510.153          36.000  
 24  2  6 19  7  5.0070000  0 17G 7G 8G10G21G23G27E10E18E25E24G 2G18
                                E11G15E12G16G26
  26626558.345   139923501.525        -863.036          35.000  
  22929731.208   120496553.093        1987.592          46.000  
  23142528.220   121614806.176         872.858          48.000  
  24105655.217   126676056.546        2597.385          33.000  
  24003588.239   126139710.966       -1590.633          47.000  
  22156610.419   116433770.255        -555.920          47.000  
  25619666.130   134632268.982         939.726          43.000  
  22935685.264   120527840.932       -5332.238          38.000  
  26764411.582   140647941.879        1268.151          45.000  
  26520890.172   139368209.161       -1666.793          33.000  
  25923445.455   136228649.264        3078.876          33.000  
  26767530.758   140664314.724       -3083.234          32.000  
  25844011.582   135811188.752        2128.768          26.000  
  26703400.902   140327277.286       -1181.913          32.000  
  25593479.077   134494650.223        -332.748          39.000  
  24540778.159   128962643.4582      -3114.913          41.000  
  26821917.869   140950172.8312      -3507.290          36.000  
 24  2  6 19  7  6.0070000  0 17G 7G 8G10G21G23G27E10E18E25E24G 2G18
                                E11G15E12G16G26
  26626723.162   139924366.726        -866.057          34.000  
  22929353.647   120494567.338        1984.967          45.000  
  23142362.871   121613935.488         869.853          47.000  
  24105161.080   126673461.003        2594.412          33.000  
  24003891.411   126141303.643       -1593.451          47.000  
  22156716.839   116434328.153        -558.720          46.000  
  25619487.675   134631331.769         936.489          43.000  
  22936700.693   120533175.540       -5335.447          38.000  
  26764170.856   140646676.069        1265.029          44.000  
  26521208.159   139369878.755       -1670.366          32.000  
  25922860.210   136225572.598        3076.147          33.000  
  26768116.893   140667399.190       -3083.407          31.000  
  25843607.313                        2125.899          26.000  
  26703628.409   140328460.816       -1183.308          31.000  
  25593542.813   134494985.048        -335.511          39.000  
  24541371.371   128965760.8012      -3118.392          41.000  
  26822585.924   140953682.5472      -3510.627          35.000  
 24  2  6 19  7  7.0070000  0 17G 7G 8G10G21G23G27E10E18E25E24G 2G18
                                E11G15E12G16G26
  26626888.189   139925233.470        -867.424          34.000  
  22928976.103   120492583.027        1983.118          46.000  
  23142197.329   121613066.477         867.740          47.000  
  24104667.474   126670866.841        2592.702          33.000  
  24004194.765   126142897.946       -1595.643          47.000  
  22156823.303   116434887.588        -560.674          46.000  
  25619309.482   134630395.870         935.014          43.000  
  22937716.592   120538511.916       -5337.706          38.000  
  26763930.147   140645411.769        1263.363          44.000  
  26521526.093   139371549.762       -1670.868          32.000  
  25922275.182   136222497.198        3073.975          33.000  
  26768703.046   140670485.020       -3086.663          31.000  
  25843201.107   135806936.776        2124.397          25.000  
  26703852.993   140329646.207       -1186.720          30.000  
  25593607.231   134495321.201        -336.847          39.000  
  24541964.835   128968879.485       -3119.836          40.000  
  26823254.267   140957192.7881      -3511.671          36.000  
 24  2  6 19  7  8.0070000  0 17G 7G 8G10G21G23G27E10E18E25E24G 2G18
                                E11G15E12G16G26
  26627052.919   139926100.077        -861.582          34.000  
  22928598.157   120490598.475        1989.563          46.000  
  23142031.657   121612197.442         873.982          47.000  
  24104173.764   126668272.342        2600.184          33.000  
  24004498.382   126144492.153       -1589.155          47.000  
  22156929.688   116435446.865        -554.242          46.000  
  25619131.167   134629459.607         941.310          43.000  
  22938732.282   120543848.291       -5331.342          38.000  
  26763689.186   140644147.272        1269.383          44.000  
  26521843.966   139373220.637       -1666.641          32.000  
  25921689.789   136219421.302        3080.731          33.000  
  26769290.019   140673570.125       -3079.679          31.000  
  25842796.995                        2130.330          25.000  
  26704070.397   140330831.507       -1181.249          29.000  
  25593670.802   134495656.963        -330.500          39.000  
  24542558.413   128971997.869       -3113.580          41.000  
  26823922.253   140960702.912       -3504.908          36.000  
 24  2  6 19  7  9.0070000  0 17G 7G 8G10G21G23G27E10E18E25E24G 2G18
                                E11G15E12G16G26
  26627217.640   139926966.061        -866.208          34.000  
  22928220.264   120488613.237        1984.991          46.000  
  23141866.395   121611327.987         869.069          47.000  
  24103680.167   126665677.153        2594.321          34.000  
  24004801.492   126146085.855       -1594.062          47.000  
  22157035.846   116436005.568        -559.043          46.000  
  25618953.079   134628522.551         936.929          43.000  
  22939747.483   120549184.294       -5336.366          38.000  
  26763448.242   140642882.121        1264.913          44.000  
  26522162.092   139374890.654       -1670.336          32.000  
  25921103.985   136216344.495        3076.575          33.000  
  26769878.274   140676654.197       -3083.889          32.000  
  25842394.139                        2127.562          26.000  
  26704286.282   140332016.285       -1185.692          28.000  
  25593734.757   134495991.952        -335.372          39.000  
  24543151.781   128975115.418       -3117.356          41.000  
  26824590.073   140964211.940       -3509.497          35.000  
 24  2  6 19  7 10.0070000  0 17G 7G 8G10G21G23G27E10E18E25E24G 2G18
                                E11G15E12G16G26
  26627382.492   139927832.845        -866.918          33.000  
  22927842.711   120486628.665        1984.643          46.000  
  23141700.871   121610459.469         868.218          47.000  
  24103186.771   126663082.634        2594.218          37.000  
  24005105.100   126147680.434       -1594.819          46.000  
  22157141.944   116436565.080        -559.686          46.000  
  25618774.886   134627586.066         936.708          43.000  
  22940763.444   120554521.269       -5336.942          38.000  
  26763207.665   140641617.736        1264.273          44.000  
  26522480.323   139376561.485       -1671.026          32.000  
  25920518.364   136213268.215        3076.312          33.000  
  26770466.242   140679738.583       -3084.476          33.000  
  25841987.654                        2125.874          27.000  
  26704502.211   140333202.022       -1185.326          27.000  
  25593798.468   134496327.475        -335.728          39.000  
  24543744.993   128978233.672       -3118.276          41.000  
  26825258.320   140967721.239       -3509.733          36.000  
 24  2  6 19  7 11.0070000  0 17G 7G 8G10G21G23G27E10E18E25E24G 2G18
                                E11G15E12G16G26
  26627547.624   139928700.161        -867.290          33.000  
  22927465.123   120484644.564        1984.125          47.000  
  23141535.634   121609591.589         867.625          48.000  
  24102692.877   126660488.463        2593.822          37.000  
  24005409.135   126149275.597       -1595.268          46.000  
  22157247.988   116437125.114        -560.056          45.000  
  25618596.606   134626649.935         935.942          43.000  
  22941779.325   120559858.973       -5337.943          39.000  
  26762966.677   140640353.839        1263.741          44.000  
  26522798.205   139378232.764       -1671.282          32.000  
  25919932.997   136210192.244        3076.288          32.000  
  26771054.410   140682823.041       -3084.388          34.000  
  25841579.214   135798445.2531       2126.008          28.000  
  26704724.257   140334388.498       -1186.580          26.000  
  25593862.388   134496663.291        -335.676          38.000  
  24544337.925   128981352.241       -3118.641          39.000  
  26825926.611   140971230.579       -3508.976          35.000  
 24  2  6 19  7 12.0070000  0 17G 7G 8G10G21G23G27E10E18E25E24G 2G18
                                E11G15E12G16G26
  26627708.462   139929567.599        -867.856          32.000  
  22927087.265   120482660.451        1984.003          47.000  
  23141370.721   121608723.958         867.433          48.000  
  24102199.062   126657894.202        2594.136          37.000  
  24005712.961   126150870.921       -1595.260          46.000  
  22157354.601   116437685.247        -560.248          44.000  
  25618418.500   134625713.652         936.401          42.000  
  22942795.513   120565196.903       -5338.051          39.000  
  26762726.144   140639089.942        1264.030          45.000  
  26523116.541   139379903.922       -1671.121          32.000  
  25919347.655   136207115.969        3076.752          31.000  
  26771640.825   140685907.091       -3083.109          34.000  
  25841175.564   135796319.246        2126.133          29.000  
  26704951.249   140335575.152       -1187.504          27.000  
  25593926.326   134496999.009        -335.704          37.000  
  24544931.267   128984470.754       -3118.700          39.000  
  26826594.318   140974739.541       -3508.925          35.000  
 24  2  6 19  7 13.0070000  0 17G 7G 8G10G21G23G27E10E18E25E24G 2G18
                                E11G15E12G16G26
  26627872.163   139930435.193        -867.219          32.000  
  22926709.817   120480676.524        1983.929          46.000  
  23141205.468   121607856.812         866.998          48.000  
  24101705.308   126655300.092        2594.027          37.000  
  24006016.804   126152466.641       -1595.953          46.000  
  22157460.890   116438245.675        -560.667          45.000  
  25618240.316   134624777.493         935.991          43.000  
  22943811.403   120570535.323       -5338.732          39.000  
  26762485.226   140637826.341        1263.497          45.000  
  26523433.725   139381575.291       -1671.735          32.000  
  25918762.131   136204039.673        3076.196          35.000  
  26772226.376   140688991.073       -3083.873          34.000  
  25840775.317   135794193.285        2125.768          29.000  
  26705179.838   140336762.209       -1187.350          27.000  
  25593989.975   134497334.772        -335.840          37.000  
  24545524.793   128987589.380       -3118.623          41.000  
  26827262.277   140978248.256       -3508.911          35.000  
 24  2  6 19  7 14.0070000  0 17G 7G 8G10G21G23G27E10E18E25E24G 2G18
                                E11G15E12G16G26
  26628035.872   139931303.460        -868.761          33.000  
  22926332.395   120478693.053        1983.252          45.000  
  23141040.048   121606990.307         866.272          47.000  
  24101211.720   126652706.311        2593.466          33.000  
  24006320.202   126154062.935       -1596.615          46.000  
  22157567.572   116438806.637        -561.147          46.000  
  25618062.420   134623841.643         935.697          44.000  
  22944827.058   120575874.429       -5339.651          39.000  
  26762245.093   140636563.190        1262.936          43.000  
  26523751.886   139383247.047       -1672.920          31.000  
  25918177.086   136200963.582        3076.025          34.000  
  26772813.715   140692075.097       -3084.493          33.000  
  25840374.346   135792067.618        2125.616          28.000  
  26705407.660                       -1188.155          25.000  
  25594054.052   134497670.869        -336.264          38.000  
  24546118.493   128990708.337       -3119.075          42.000  
  26827929.905   140981757.037       -3509.060          38.000  
 24  2  6 19  7 15.0070000  0 17G 7G 8G10G21G23G27E10E18E25E24G 2G18
                                E11G15E12G16G26
  26628202.408   139932172.142        -868.684          33.000  
  22925955.426   120476709.944        1982.703          49.000  
  23140875.135   121606124.417         865.500          46.000  
  24100718.237   126650112.860        2592.827          37.000  
  24006624.638   126155659.754       -1596.871          46.000  
  22157674.542   116439368.053        -561.893          47.000  
  25617884.619   134622905.963         935.675          43.000  
  22945842.923   120581214.254       -5340.273          40.000  
  26762005.083   140635300.549        1262.379          43.000  
  26524070.125   139384919.187       -1672.115          38.000  
  25917591.684   136197887.719        3076.214          34.000  
  26773400.723   140695159.152       -3084.560          34.000  
  25839962.250   135789941.976        2124.501          31.000  
  26705636.118                       -1196.250          24.000  
  25594118.322   134498007.226        -336.659          40.000  
  24546712.368   128993827.546       -3119.324          43.000  
  26828596.983   140985265.823       -3508.999          37.000  
 24  2  6 19  7 16.0070000  0 17G 7G 8G10G21G23G27E10E18E25E24G 2G18
                                E11G15E12G16G26
  26628371.946   139933041.369        -869.246          36.000  
  22925578.266   120474727.304        1982.416          48.000  
  23140710.309   121605259.294         864.870          47.000  
  24100224.683   126647519.836        2592.962          41.000  
  24006928.796   126157257.266       -1597.715          47.000  
  22157781.660   116439930.043        -562.001          48.000  
  25617707.299   134621970.752         935.036          44.000  
  22946859.023   120586554.785       -5340.992          40.000  
  26761765.090   140634038.361        1262.184          43.000  
  26524388.766   139386591.826       -1672.593          38.000  
  25917006.011   136194812.059        3075.067          35.000  
  26773987.277   140698243.243       -3083.880          35.000  
  25839556.297   135787816.688        2125.540          33.000  
  26705858.913                       -1188.049          21.000  
  25594182.626   134498343.877        -336.706          40.000  
  24547306.268   128996947.210       -3119.646          41.000  
  26829264.716   140988774.644       -3509.011          36.000  
 24  2  6 19  7 17.0070000  0 17G 7G 8G10G21G23G27E10E18E25E24G 2G18
                                E11G15E12G16G26
  26628538.857   139933911.188        -870.149          36.000  
  22925200.861   120472745.025        1981.964          47.000  
  23140546.024   121604394.702         864.105          47.000  
  24099731.252   126644927.194        2592.091          42.000  
  24007232.848   126158855.314       -1598.576          47.000  
  22157888.682   116440492.522        -563.057          45.000  
  25617529.054   134621035.780         934.489          45.000  
  22947875.620   120591895.954       -5341.901          39.000  
  26761525.307   140632776.602        1261.579          43.000  
  26524706.247   139388264.876       -1673.398          35.000  
  25916420.826   136191736.448        3075.092          34.000  
  26774573.962   140701327.471       -3084.366          33.000  
  25839160.055   135785691.709        2124.450          41.000  
  26706083.978                       -1187.453          19.000  
  25594246.685   134498680.769        -337.305          40.000  
  24547899.872   129000067.539       -3120.854          34.000  
  26829932.282   140992283.748       -3509.020          32.000  
 24  2  6 19  7 18.0070000  0 17G 7G 8G10G21G23G27E10E18E25E24G 2G18
                                E11G15E12G16G26
  26628704.119   139934781.613        -870.328          33.000  
  22924823.937   120470763.473        1981.464          46.000  
  23140381.695   121603531.102         863.361          46.000  
  24099238.092   126642335.109        2591.878          45.000  
  24007536.945   126160454.172       -1599.052          47.000  
  22157996.167   116441055.793        -563.523          45.000  
  25617351.175   134620101.395         934.223          44.000  
  22948891.964   120597238.143       -5342.535          38.000  
  26761284.625   140631515.594        1260.844          42.000  
  26525024.225   139389938.534       -1673.762          33.000  
  25915835.581   136188661.546        3074.432          36.000  
  26775160.499   140704411.840       -3083.886          33.000  
  25838754.058   135783567.159        2124.533          42.000  
  26706309.330                       -1183.216          17.000  
  25594310.728   134499018.237        -337.672          40.000  
  24548493.939   129003188.092       -3120.005          34.000  
  26830599.177   140995792.913       -3509.261          31.000  
 24  2  6 19  7 19.0070000  0 17G 7G 8G10G21G23G27E10E18E25E24G 2G18
                                E11G15E12G16G26
  26628871.580   139935652.751        -871.631          36.000  
  22924447.283   120468782.317        1980.389          48.000  
  23140217.777   121602668.132         861.879          41.000  
  24098744.617   126639743.395        2590.688          43.000  
  24007841.643   126162053.703       -1600.486          47.000  
  22158103.957   116441619.622        -564.682          46.000  
  25617173.331   134619167.334         933.310          42.000  
  22949908.876   120602581.093       -5344.112          37.000  
  26761044.527   140630255.101        1259.692          42.000  
  26525342.691   139391612.690       -1675.509          32.000  
  25915250.554   136185586.790        3073.267          34.000  
  26775746.521   140707496.454       -3084.382          28.000  
  25838356.001   135781442.920        2123.481          41.000  
  26706534.499                       -1195.427          18.000  
  25594375.102   134499356.071        -338.228          39.000  
  24549093.345   129006308.945       -3121.687          33.000  
  26831269.292                       -3515.532          21.000  
 24  2  6 19  7 20.0070000  0 17G 7G 8G10G21G23G27E10E18E25E24G 2G18
                                E11G15E12G16G26
  26629036.764   139936524.450        -872.407          34.000  
  22924069.712   120466801.690        1980.481          48.000  
  23140054.329                         865.725          28.000  
  24098251.570   126637152.141        2591.006          43.000  
  24008145.765   126163653.922       -1600.421          46.000  
  22158211.432   116442184.123        -564.634          43.000  
  25616995.758   134618233.704         933.531          40.000  
  22950925.665   120607924.743       -5344.021          39.000  
  26760804.927   140628995.142        1259.872          44.000  
  26525655.233   139393287.321       -1675.211          31.000  
  25914665.631   136182512.386        3074.316          35.000  
  26776332.560   140710581.258       -3084.676          27.000  
  25837949.237   135779319.007        2123.804          40.000  
  26706761.142                       -1186.076          20.000  
  25594439.275   134499694.332        -338.303          38.000  
  24549687.254   129009430.410       -3121.777          37.000  
  26831940.131                       -3502.824          23.000  
 24  2  6 19  7 21.0070000  0 17G 7G 8G10G21G23G27E10E18E25E24G 2G18
                                E11G15E12G16G26
  26629202.803   139937396.368        -872.756          33.000  
  22923692.822   120464821.401        1979.999          46.000  
  23139888.290                         861.389          46.000  
  24097758.531   126634561.166        2590.642          43.000  
  24008450.167   126165254.547       -1600.240          46.000  
  22158318.681   116442748.825        -564.122          45.000  
  25616818.402   134617300.251         933.148          44.000  
  22951942.385   120613268.930       -5344.417          39.000  
  26760565.039   140627735.538        1258.856          42.000  
  26525980.043   139394962.238       -1675.059          35.000  
  25914080.438   136179438.064        3073.547          38.000  
  26776917.858   140713666.085       -3086.160          32.000  
  25837546.425   135777195.300        2123.531          43.000  
  26706986.817                       -1190.562          21.000  
  25594503.692   134500032.587        -338.621          40.000  
  24550279.733   129012551.915       -3121.936          31.000  
  26832606.511                       -3502.221          24.000  
 24  2  6 19  7 22.0070000  0 17G 7G 8G10G21G23G27E10E18E25E24G 2G18
                                E11G15E12G16G26
  26629368.746   139938268.939        -872.826          34.000  
  22923315.933   120462841.534        1979.706          46.000  
  23139724.031   121600070.0073        860.862          48.000  
  24097265.641   126631970.553        2590.614          44.000  
  24008754.787   126166855.808       -1601.102          46.000  
  22158426.454   116443314.234        -565.470          47.000  
  25616641.117   134616367.127         932.897          44.000  
  22952959.375   120618613.885       -5345.218          39.000  
  26760325.761   140626476.434        1259.003          42.000  
  26526296.921   139396637.560       -1675.596          43.000  
  25913495.847   136176363.979        3073.834          39.000  
  26777501.917   140716722.1513      -3083.996          31.000  
  25837140.960   135775071.800        2123.093          40.000  
  26707212.492                       -1191.779          21.000  
  25594568.162   134500371.287        -338.728          39.000  
  24550868.320   129015673.692       -3121.974          42.000  
  26833265.501   141009761.3893      -3509.286          34.000  
 24  2  6 19  7 23.0070000  0 17G 7G 8G10G21G23G27E10E18E25E24G 2G18
                                E11G15E12G16G26
  26629534.715   139939141.988        -873.722          33.000  
  22922939.270   120460862.012        1979.352          46.000  
  23139562.608   121599209.6582        859.971          47.000  
  24096772.612   126629380.209        2590.213          43.000  
  24009059.310   126168457.603       -1601.997          46.000  
  22158534.340   116443880.047        -566.090          47.000  
  25616463.369   134615434.219         932.845          44.000  
  22953976.408   120623959.491       -5345.818          39.000  
  26760085.865   140625217.722        1258.875          42.000  
  26526619.209   139398313.272       -1675.647          43.000  
  25912911.239   136173290.040        3073.718          41.000  
  26778090.565   140719806.9682      -3085.527          31.000  
  25836737.328   135772948.479        2123.120          40.000  
  26707443.079                       -1189.971          22.000  
  25594632.484   134500710.184        -339.017          39.000  
  24551461.889   129018795.909       -3122.288          42.000  
  26833939.123   141013270.6932      -3509.427          31.000  
 24  2  6 19  7 24.0070000  0 17G 7G 8G10G21G23G27E10E18E25E24G 2G18
                                E11G15E12G16G26
  26629700.797   139940015.411        -873.282          34.000  
  22922562.991   120458882.839        1979.040          46.000  
  23139400.792   121598349.8662        859.503          48.000  
  24096279.809   126626790.154        2590.122          43.000  
  24009364.366   126170059.907       -1602.538          46.000  
  22158642.566   116444446.300        -566.532          47.000  
  25616285.508   134614501.558         932.519          44.000  
  22954993.529   120629305.712       -5346.639          39.000  
  26759846.360   140623959.428        1258.026          42.000  
  26526940.136   139399989.316       -1676.326          43.000  
  25912326.438   136170216.209        3074.036          41.000  
  26778672.364   140722891.7302      -3085.943          31.000  
  25836333.460   135770825.326        2122.780          40.000  
  26707672.855                       -1194.687          25.000  
  25594696.971   134501049.291        -339.319          39.000  
  24552057.203   129021918.385       -3122.518          43.000  
  26834603.732   141016779.7752      -3508.430          32.000  
 24  2  6 19  7 25.0070000  0 17G 7G 8G10G21G23G27E10E18E25E24G 2G18
                                E11G15E12G16G26
  26629867.089   139940889.565        -874.257          33.000  
  22922186.633   120456904.271        1977.917          46.000  
  23139237.292   121597490.9392        858.338          47.000  
  24095787.355   126624200.641        2588.834          43.000  
  24009669.396   126171662.976       -1603.482          46.000  
  22158750.417   116445013.249        -567.512          47.000  
  25616108.458   134613569.377         931.712          44.000  
  22956011.182   120634652.777       -5347.537          39.000  
  26759607.353   140622701.778        1257.066          42.000  
  26527258.987   139401665.934       -1677.052          43.000  
  25911741.856   136167142.826        3072.839          40.000  
  26779261.553   140725976.6722      -3085.130          30.000  
  25835929.723   135768702.557        2122.534          39.000  
  26707909.497   140351011.3333      -1195.903          26.000  
  25594761.196   134501388.858        -339.909          38.000  
  24552651.697   129025041.387       -3123.500          42.000  
  26835272.948   141020289.0292      -3509.913          31.000  
 24  2  6 19  7 26.0070000  0 17G 7G 8G10G21G23G27E10E18E25E24G 2G18
                                E11G15E12G16G26
  26630033.765   139941764.262        -874.435          33.000  
  22921809.996   120454926.137        1978.168          46.000  
  23139072.667   121596632.7262        858.074          47.000  
  24095295.058   126621611.537        2589.069          43.000  
  24009974.583   126173266.684       -1603.866          46.000  
  22158858.731   116445580.761        -567.513          47.000  
  25615930.710   134612637.558         931.784          44.000  
  22957029.149   120640000.604       -5347.884          39.000  
  26759368.076   140621444.632        1257.237          42.000  
  26527579.155   139403343.033       -1677.092          43.000  
  25911157.352   136164069.643        3073.218          40.000  
  26779851.789   140729061.7482      -3085.147          30.000  
  25835525.768   135766580.111        2122.633          39.000  
  26708142.789   140352207.1402      -1196.134          27.000  
  25594826.198   134501728.788        -340.085          39.000  
  24553244.996   129028164.783       -3123.476          43.000  
  26835939.677   141023798.3272      -3509.026          35.000  
 24  2  6 19  7 27.0070000  0 17G 7G 8G10G21G23G27E10E18E25E24G 2G18
                                E11G15E12G16G26
  26630200.319   139942639.422        -875.385          32.000  
  22921433.586   120452948.384        1977.167          46.000  
  23138909.726   121595775.1012        856.962          47.000  
  24094802.709   126619022.717        2588.256          43.000  
  24010279.796   126174870.916       -1604.884          46.000  
  22158966.966   116446148.729        -568.599          47.000  
  25615753.773   134611705.982         931.039          44.000  
  22958047.047   120645349.064       -5349.085          39.000  
  26759128.755   140620187.889        1256.309          42.000  
  26527899.445   139405020.452       -1678.009          43.000  
  25910572.770   136160996.648        3072.467          40.000  
  26780436.031   140732146.7892      -3085.332          30.000  
  25835121.752   135764457.860        2121.798          39.000  
  26708376.709   140353403.6112      -1197.117          28.000  
  25594890.520   134502068.938        -340.919          39.000  
  24553839.743   129031288.453       -3124.114          43.000  
  26836609.669   141027307.6822      -3509.597          38.000  
 24  2  6 19  7 28.0070000  0 17G 7G 8G10G21G23G27E10E18E25E24G 2G18
                                E11G15E12G16G26
  26630366.855   139943514.940        -875.107          32.000  
  22921057.403   120450970.890        1977.649          46.000  
  23138747.648   121594918.0092        857.088          47.000  
  24094310.081   126616434.116        2588.591          44.000  
  24010585.122   126176475.603       -1604.664          46.000  
  22159075.244   116446717.093        -568.213          47.000  
  25615576.497   134610774.589         931.637          44.000  
  22959064.996   120650698.082       -5348.969          39.000  
  26758889.984   140618931.512        1256.381          42.000  
  26528217.327   139406698.199       -1677.633          43.000  
  25909988.135   136157923.697        3073.089          40.000  
  26781024.688   140735231.8252      -3085.186          31.000  
  25834717.893   135762335.699        2122.612          39.000  
  26708606.546   140354600.5322      -1197.216          30.000  
  25594955.487   134502409.239        -339.972          39.000  
  24554434.813   129034412.340       -3123.812          43.000  
  26837277.777   141030816.8862      -3508.646          38.000  
 24  2  6 19  7 29.0070000  0 17G 7G 8G10G21G23G27E10E18E25E24G 2G18
                                E11G15E12G16G26
  26630533.277   139944390.958        -876.398          33.000  
  22920681.229   120448993.762        1976.733          46.000  
  23138584.628   121594061.5212        856.151          47.000  
  24093817.574   126613845.847        2588.061          43.000  
  24010890.135   126178080.828       -1605.497          46.000  
  22159183.497   116447285.914        -569.081          47.000  
  25615399.394   134609843.444         931.100          44.000  
  22960083.251   120656047.727       -5350.166          39.000  
  26758651.055   140617675.528        1255.897          42.000  
  26528536.709   139408376.272       -1678.387          43.000  
  25909403.370   136154850.934        3072.607          40.000  
  26781610.928   140738316.8652      -3086.283          30.000  
  25834314.103   135760213.737        2122.076          39.000  
  26708829.368   140355798.1492      -1198.102          30.000  
  25595020.559   134502749.784        -340.714          39.000  
  24555029.229   129037536.471       -3124.371          42.000  
  26837945.231   141034326.0802      -3509.786          36.000  
 24  2  6 19  7 30.0070000  0 17G 7G 8G10G21G23G27E10E18E25E24G 2G18
                                E11G15E12G16G26
  26630700.067   139945267.491        -875.784          33.000  
  22920304.627   120447017.106        1976.440          46.000  
  23138421.661   121593205.8012        855.225          47.000  
  24093325.173   126611258.031        2587.387          42.000  
  24011195.758   126179686.736       -1606.286          45.000  
  22159291.531   116447855.352        -569.648          46.000  
  25615222.222   134608912.695         930.674          44.000  
  22961101.062   120661398.165       -5350.751          39.000  
  26758411.743   140616420.100        1255.333          42.000  
  26528856.039   139410054.860       -1678.570          42.000  
  25908818.971   136151778.485        3072.327          39.000  
  26782201.374   140741401.9692      -3084.347          30.000  
  25833910.279   135758092.136        2121.373          39.000  
  26709060.514   140356996.3612      -1197.473          31.000  
  25595085.378   134503090.686        -340.819          39.000  
  24555623.679   129040661.103       -3124.714          39.000  
  26838613.050   141037835.4392      -3509.584          36.000  
 24  2  6 19  7 31.0070000  0 17G 7G 8G10G21G23G27E10E18E25E24G 2G18
                                E11G15E12G16G26
  26630866.987   139946144.897        -877.185          33.000  
  22919928.557   120445041.172        1975.952          46.000  
  23138258.955   121592350.4901        854.648          47.000  
  24092832.675   126608670.705        2587.366          45.000  
  24011501.215   126181293.469       -1606.723          45.000  
  22159399.853   116448425.544        -570.197          47.000  
  25615045.644   134607982.488         930.333          44.000  
  22962119.317   120666749.549       -5351.333          39.000  
  26758172.745   140615165.432        1254.753          42.000  
  26529175.719   139411734.167       -1679.417          40.000  
  25908234.467   136148706.456        3071.814          38.000  
  26782791.610   140744487.0131      -3086.296          31.000  
  25833506.621   135755970.947        2121.060          40.000  
  26709291.031   140358195.6352      -1200.069          32.000  
  25595150.537   134503432.182        -341.185          38.000  
  24556218.103   129043786.199       -3124.551          35.000  
  26839280.670   141041344.980       -3509.000          34.000  
 24  2  6 19  7 32.0070000  0 17G 7G 8G10G21G23G27E10E18E25E24G 2G18
                                E11G15E12G16G26
  26631033.811   139947022.399        -877.872          36.000  
  22919552.610   120443065.221        1975.568          46.000  
  23138096.580   121591495.860         854.048          41.000  
  24092340.256   126606083.440        2586.815          39.000  
  24011807.074   126182900.378       -1607.271          47.000  
  22159508.577   116448995.881        -570.652          43.000  
  25614868.681   134607052.191         930.151          42.000  
  22963137.816   120672101.230       -5352.265          34.000  
  26757934.480   140613910.794        1254.510          43.000  
  26529494.857   139413413.399       -1679.537          33.000  
  25907649.361   136145634.156        3072.339          38.000  
  26783378.923   140747572.076       -3085.190          32.000  
  25833102.788   135753849.726        2121.078          39.000  
  26709517.448   140359395.0702      -1199.545          32.000  
  25595215.661   134503773.527        -341.784          37.000  
  24556815.590                       -3124.477          31.000  
  26839948.673                       -3509.686          22.000  
 24  2  6 19  7 33.0070000  0 17G 7G 8G10G21G23G27E10E18E25E24G 2G18
                                E11G15E12G16G26
  26631200.792   139947900.194        -876.204          34.000  
  22919176.418   120441089.773        1975.104          45.000  
  23137934.267   121590641.941         854.231          41.000  
  24091847.724   126603496.590        2587.711          39.000  
  24012112.767   126184507.959       -1608.060          44.000  
  22159616.882   116449566.780        -570.418          40.000  
  25614691.605   134606122.330         929.612          41.000  
  22964156.446   120677453.751       -5353.075          34.000  
  26757695.996   140612656.757        1253.322          42.000  
  26529814.824   139415093.304       -1679.517          32.000  
  25907065.075   136142562.363        3071.673          26.000  
  26783961.254   140750657.195       -3084.268          33.000  
  25832699.138   135751728.777        2121.033          38.000  
  26709749.501   140360595.1652      -1199.708          34.000  
  25595280.820   134504115.259        -341.849          36.000  
  24557418.399                       -3125.398          31.000  
  26840617.653                       -3507.597          21.000  
 24  2  6 19  7 34.0070000  0 16G 7G 8G10G21G23G27E10E18E25E24G 2G18
                                E11G15E12G26
  26631368.401   139948778.692        -878.943          34.000  
  22918800.427   120439114.349        1975.037          48.000  
  23137772.242   121589788.255         853.286          33.000  
  24091355.052   126600909.683        2586.463          45.000  
  24012418.495   126186115.833       -1608.281          48.000  
  22159724.846   116450137.931        -571.346          43.000  
  25614514.171   134605192.401         929.276          39.000  
  22965174.614   120682806.509       -5353.145          38.000  
  26757457.373   140611402.748        1253.713          47.000  
  26530134.643   139416772.996       -1680.103          35.000  
  25906476.645   136139490.236        3072.156          38.000  
  26784543.987                       -3086.721          25.000  
  25832295.558   135749607.659        2120.851          41.000  
  26709976.886   140361795.6652      -1201.270          34.000  
  25595345.290   134504456.976        -342.146          39.000  
  26841289.469                       -3503.326          21.000  
 24  2  6 19  7 35.0070000  0 17G 7G 8G10G21G23G27E10E18E25E24G 2G18
                                E11G15E12G16G26
  26631539.483   139949657.425        -878.970          35.000  
  22918424.401   120437139.447        1974.786          47.000  
  23137610.191   121588935.429         852.676          32.000  
  24090862.537   126598323.212        2586.525          44.000  
  24012724.824   126187724.277       -1608.508          48.000  
  22159833.517   116450709.574        -571.566          41.000  
  25614337.077   134604262.818         929.653          38.000  
  22966193.663   120688160.021       -5353.533          38.000  
  26757219.143   140610149.294        1253.345          48.000  
  26530454.191   139418453.246       -1680.427          35.000  
  25905891.836   136136418.486        3072.119          39.000  
  26785121.083                       -3085.017          25.000  
  25831891.935   135747486.861        2120.769          41.000  
  26710205.579   140362996.7922      -1201.358          33.000  
  25595409.943   134504798.955        -342.109          39.000  
  24558595.425                       -3124.365          34.000  
  26841963.178                       -3500.896          22.000  
 24  2  6 19  7 36.0070000  0 17G 7G 8G10G21G23G27E10E18E25E24G 2G18
                                E11G15E12G16G26
  26631706.517   139950536.752        -879.888          35.000  
  22918048.942   120435165.039        1974.054          46.000  
  23137455.442   121588083.373         851.863          31.000  
  24090370.048   126595737.196        2585.669          43.000  
  24013031.181   126189333.393       -1609.571          47.000  
  22159942.433   116451281.813        -572.794          40.000  
  25614160.272   134603333.606         929.048          37.000  
  22967212.311   120693514.324       -5354.623          37.000  
  26756980.223   140608896.410        1252.337          46.000  
  26530774.028   139420134.026       -1681.244          35.000  
  25905304.575   136133347.006        3071.210          37.000  
  26785704.749                       -3084.376          24.000  
  25831489.175   135745366.401        2120.323          40.000  
  26710434.474   140364198.6692      -1201.590          32.000  
  25595474.858   134505141.325        -342.837          38.000  
  24559188.837   129059407.5263      -3126.531          32.000  
  26842636.320                       -3507.983          22.000  
 24  2  6 19  7 37.0070000  0 17G 7G 8G10G21G23G27E10E18E25E24G 2G18
                                E11G15E12G16G26
  26631870.078   139951416.482        -879.725          36.000  
  22917672.977   120433190.907        1974.103          46.000  
  23137291.811   121587231.847         851.326          32.000  
  24089878.092   126593151.433        2585.809          43.000  
  24013337.641   126190942.987       -1609.853          48.000  
  22160051.191   116451854.469        -572.883          40.000  
  25613983.859   134602404.628         928.487          38.000  
  22968231.404   120698869.203       -5355.044          38.000  
  26756742.333   140607643.875        1252.211          47.000  
  26531093.585   139421815.024       -1680.912          35.000  
  25904722.357   136130275.599        3071.509          37.000  
  26786295.134                       -3085.040          23.000  
  25831085.543   135743246.091        2120.288          41.000  
  26710663.159   140365400.6121      -1202.074          30.000  
  25595539.816   134505483.861        -342.745          38.000  
  24559788.889   129062534.0682      -3126.231          33.000  
  26843307.255                       -3508.811          23.000  
 24  2  6 19  7 38.0070000  0 17G 7G 8G10G21G23G27E10E18E25E24G 2G18
                                E11G15E12G16G26
  26632038.158   139952296.934        -880.807          36.000  
  22917297.553   120431217.372        1973.175          46.000  
  23137128.966   121586381.133         850.400          33.000  
  24089386.144   126590566.226        2584.890          44.000  
  24013644.294   126192553.359       -1610.736          48.000  
  22160160.186   116452427.807        -573.486          39.000  
  25613807.219   134601476.095         928.448          38.000  
  22969250.610   120704224.966       -5356.225          38.000  
  26756503.998   140606392.001        1251.608          47.000  
  26531413.430   139423496.693       -1682.153          35.000  
  25904138.037   136127204.617        3070.734          37.000  
  26786880.527                       -3084.089          21.000  
  25830682.286   135741126.215        2119.730          41.000  
  26710892.045   140366603.866       -1203.377          29.000  
  25595605.228   134505826.887        -343.326          38.000  
  24560385.084   129065661.1732      -3127.146          33.000  
  26843978.861                       -3511.885          24.000  
 24  2  6 19  7 39.0070000  0 17G 7G 8G10G21G23G27E10E18E25E24G 2G18
                                E11G15E12G16G26
  26632206.474   139953177.781        -880.624          33.000  
  22916922.321   120429244.191        1972.797          48.000  
  23136961.967   121585531.140         849.578          45.000  
  24088894.336   126587981.333        2584.680          44.000  
  24013950.868   126194164.226       -1611.202          47.000  
  22160269.284   116453001.567        -573.964          44.000  
  25613630.824   134600547.828         927.685          40.000  
  22970270.017   120709581.382       -5356.830          38.000  
  26756265.942   140605140.550        1251.072          48.000  
  26531732.891   139425178.594       -1682.279          35.000  
  25903552.634   136124133.707        3071.362          38.000  
  26787469.996                       -3084.422          30.000  
  25830279.046   135739006.526        2119.527          41.000  
  26711120.843   140367807.816       -1203.768          31.000  
  25595670.388   134506170.097        -343.162          39.000  
  24560980.241   129068788.4782      -3127.583          37.000  
  26844647.946                       -3507.896          25.000  
 24  2  6 19  7 40.0070000  0 17G 7G 8G10G21G23G27E10E18E25E24G 2G18
                                E11G15E12G16G26
  26632371.701   139954059.084        -881.241          34.000  
  22916546.958   120427271.366        1972.668          48.000  
  23136799.698   121584681.720         849.168          47.000  
  24088402.946   126585396.724        2584.639          45.000  
  24014257.538   126195775.647       -1611.758          47.000  
  22160378.523   116453575.897        -574.583          46.000  
  25613453.939   134599619.753         927.737          41.000  
  22971289.197   120714938.352       -5357.240          39.000  
  26756027.624   140603889.499        1250.907          47.000  
  26532050.057   139426861.002       -1682.737          32.000  
  25902971.237   136121063.043        3070.020          39.000  
  26788068.146   140772247.5213      -3085.090          30.000  
  25829875.422   135736887.046        2119.257          41.000  
  26711346.335   140369012.297       -1205.085          31.000  
  25595735.878   134506513.617        -343.521          41.000  
  24561575.329   129071916.2072      -3128.351          33.000  
  26845313.995                       -3509.809          26.000  
 24  2  6 19  7 41.0070000  0 17G 7G 8G10G21G23G27E10E18E25E24G 2G18
                                E11G15E12G16G26
  26632538.002   139954941.337        -882.399          33.000  
  22916171.560   120425299.379        1972.015          48.000  
  23136638.388   121583833.305         848.262          46.000  
  24087911.731   126582812.848        2583.874          45.000  
  24014564.261   126197388.030       -1612.488          47.000  
  22160487.752   116454151.079        -575.239          45.000  
  25613277.352   134598692.439         927.336          39.000  
  22972309.145   120720296.472       -5358.348          39.000  
  26755789.560   140602639.320        1250.173          47.000  
  26532369.754   139428544.113       -1683.072          34.000  
  25902386.960   136117992.946        3070.215          39.000  
  26788657.823   140775333.3472      -3085.160          30.000  
  25829472.026   135734768.170        2118.774          41.000  
  26711571.356   140370217.733       -1205.152          32.000  
  25595801.256   134506857.818        -344.267          41.000  
  24562173.409   129075044.5602      -3128.534          33.000  
  26845978.953   141076571.0343      -3509.204          28.000  
 24  2  6 19  7 42.0070000  0 17G 7G 8G10G21G23G27E10E18E25E24G 2G18
                                E11G15E12G16G26
  26632705.036   139955823.266        -879.354          32.000  
  22915796.259   120423327.014        1973.944          48.000  
  23136476.624   121582984.731         849.975          47.000  
  24087420.124   126580228.537        2585.843          45.000  
  24014871.140   126199000.219       -1610.871          47.000  
  22160596.921   116454725.963        -573.573          45.000  
  25613100.756   134597764.632         929.157          39.000  
  22973328.831   120725654.429       -5356.819          38.000  
  26755551.399   140601388.816        1251.667          47.000  
  26532689.599   139430226.874       -1681.265          34.000  
  25901802.639   136114922.260        3072.113          39.000  
  26789244.125   140778418.4902      -3082.939          30.000  
  25829068.437   135732648.733        2120.801          41.000  
  26711803.854   140371423.073       -1203.999          31.000  
  25595866.345   134507201.467        -342.434          41.000  
  24562769.726   129078172.4662      -3126.379          34.000  
  26846642.288                       -3506.165          28.000  
 24  2  6 19  7 43.0070000  0 17G 7G 8G10G21G23G27E10E18E25E24G 2G18
                                E11G15E12G16G26
  26632872.566   139956704.064        -880.984          32.000  
  22915420.416   120421353.376        1973.383          48.000  
  23136315.524   121582134.988         849.336          42.000  
  24086928.246   126577642.899        2585.350          46.000  
  24015177.697   126200611.320       -1611.513          48.000  
  22160706.360   116455299.638        -574.162          44.000  
  25612923.758   134596835.420         929.039          40.000  
  22974348.176   120731011.427       -5357.513          39.000  
  26755313.335   140600137.070        1251.516          48.000  
  26533009.217   139431908.306       -1682.136          34.000  
  25901218.232   136111850.126        3072.003          40.000  
  26789829.431   140781502.0412      -3083.455          30.000  
  25828664.910   135730527.848        2120.783          41.000  
  26712030.139   140372627.263       -1204.380          31.000  
  25595931.582   134507543.695        -342.399          40.000  
  24563364.247   129081298.9592      -3126.653          37.000  
  26847301.601   141083564.3252      -3506.297          30.000  
 24  2  6 19  7 44.0070000  0 17G 7G 8G10G21G23G27E10E18E25E24G 2G18
                                E11G15E12G16G26
  26633040.403   139957585.484        -882.045          34.000  
  22915044.835   120419380.291        1972.491          48.000  
  23136154.825   121581286.247         848.101          40.000  
  24086435.766   126575057.751        2584.750          46.000  
  24015484.472   126202223.129       -1612.406          48.000  
  22160815.668   116455874.041        -575.005          43.000  
  25612747.127   134595906.701         928.163          39.000  
  22975367.644   120736369.255       -5358.659          39.000  
  26755075.122   140598885.965        1250.536          47.000  
  26533329.551   139433590.376       -1682.475          33.000  
  25900633.623   136108778.335        3071.216          40.000  
  26790417.817   140784585.7472      -3084.007          27.000  
  25828261.164   135728407.385        2120.106          41.000  
  26712255.683   140373832.341       -1205.671          30.000  
  25595996.907   134507886.412        -343.251          39.000  
  24563958.880   129084425.9912      -3127.452          37.000  
  26847966.559   141087071.6012      -3507.561          31.000  
 24  2  6 19  7 45.0070000  0 17G 7G 8G10G21G23G27E10E18E25E24G 2G18
                                E11G15E12G16G26
  26633208.588   139958467.619        -881.979          33.000  
  22914669.559   120417407.860        1972.229          46.000  
  23135993.925   121580438.362         847.696          36.000  
  24085943.731   126572473.208        2584.461          44.000  
  24015791.709   126203835.751       -1612.815          46.000  
  22160925.290   116456449.165        -575.336          41.000  
  25612570.531   134594978.489         927.810          36.000  
  22976387.522   120741728.005       -5359.095          37.000  
  26754837.467   140597635.536        1250.279          45.000  
  26533649.693   139435273.065       -1683.213          31.000  
  25900049.390   136105706.986        3071.216          38.000  
  26791009.083                       -3077.105          20.000  
  25827857.863   135726287.368        2119.939          39.000  
  26712485.485   140375038.267       -1206.251          27.000  
  25596062.215   134508229.621        -343.290          36.000  
  24564553.933   129087553.5602      -3127.224          34.000  
  26848634.693   141090579.1022      -3507.554          28.000  
 24  2  6 19  7 46.0070000  0 17G 7G 8G10G21G23G27E10E18E25E24G 2G18
                                E11G15E12G16G26
  26633376.712   139959350.235        -882.983          34.000  
  22914294.083   120415435.776        1971.417          46.000  
  23135833.182   121579591.098         846.362          37.000  
  24085451.984   126569888.959        2583.915          43.000  
  24016098.719   126205448.904       -1613.813          46.000  
  22161035.009   116457024.756        -576.045          41.000  
  25612393.734   134594050.533         927.267          37.000  
  22977407.487   120747087.377       -5360.299          37.000  
  26754600.170   140596385.528        1249.336          45.000  
  26533970.018   139436956.044       -1682.980          31.000  
  25899464.938   136102635.784        3070.728          39.000  
  26791592.636                       -3074.890          20.000  
  25827454.554   135724167.573        2119.266          39.000  
  26712718.393   140376244.840       -1207.108          27.000  
  25596127.758   134508573.039        -343.811          37.000  
  24565149.002   129090681.4842      -3128.932          34.000  
  26849304.999   141094086.5772      -3508.135          29.000  
 24  2  6 19  7 47.0070000  0 17G 7G 8G10G21G23G27E10E18E25E24G 2G18
                                E11G15E12G16G26
  26633545.394   139960233.620        -883.485          37.000  
  22913918.973   120413464.405        1970.862          47.000  
  23135672.143   121578744.748         845.819          38.000  
  24084960.577   126567305.348        2583.363          45.000  
  24016405.878   126207062.898       -1614.537          47.000  
  22161144.832   116457601.113        -576.847          42.000  
  25612217.408   134593123.138         927.263          39.000  
  22978427.540   120752447.712       -5361.095          38.000  
  26754362.071   140595136.249        1248.957          46.000  
  26534290.779   139438639.708       -1683.468          31.000  
  25898880.609   136099565.067        3070.551          40.000  
  26792179.225                       -3071.177          20.000  
  25827051.192   135722048.259        2119.231          41.000  
  26712947.201   140377452.293       -1207.697          27.000  
  25596193.196   134508917.017        -343.994          38.000  
  24565744.081   129093809.9452      -3129.246          36.000  
  26849972.645   141097594.2522      -3507.834          30.000  
 24  2  6 19  7 48.0070000  0 17G 7G 8G10G21G23G27E10E18E25E24G 2G18
                                E11G15E12G16G26
  26633714.138   139961117.512        -883.971          34.000  
  22913544.395   120411493.470        1970.972          49.000  
  23135510.772   121577899.120         845.586          42.000  
  24084468.734   126564722.135        2583.046          44.000  
  24016712.950   126208677.456       -1614.810          47.000  
  22161254.838   116458178.006        -576.961          45.000  
  25612041.257   134592196.041         927.304          40.000  
  22979447.872   120757808.705       -5361.160          40.000  
  26754124.416   140593887.503        1248.723          46.000  
  26534611.959   139440323.829       -1684.175          32.000  
  25898296.341   136096494.590        3070.270          39.000  
  26792770.700                       -3084.399          25.000  
  25826647.891   135719929.226        2119.096          41.000  
  26713176.130   140378660.471       -1209.459          29.000  
  25596259.088   134509261.308        -344.061          39.000  
  24566339.360   129096938.6782      -3128.958          37.000  
  26850642.393                       -3507.397          22.000  
 24  2  6 19  7 49.0070000  0 17G 7G 8G10G21G23G27E10E18E25E24G 2G18
                                E11G15E12G16G26
  26633882.803   139962001.940        -884.625          35.000  
  22913169.268   120409522.996        1970.227          48.000  
  23135348.686   121577054.220         844.319          47.000  
  24083976.812   126562139.284        2582.557          45.000  
  24017020.065   126210292.706       -1615.685          48.000  
  22161365.114   116458755.455        -577.707          46.000  
  25611865.036   134591269.320         926.471          43.000  
  22980467.915   120763170.386       -5361.830          38.000  
  26753886.683   140592639.240        1248.005          45.000  
  26534932.746   139442008.531       -1685.038          31.000  
  25897712.535   136093424.365        3069.818          41.000  
  26793353.389   140800043.6893      -3083.499          29.000  
  25826245.140   135717810.458        2118.514          42.000  
  26713411.342   140379869.261       -1210.122          30.000  
  25596325.207   134509605.925        -344.542          39.000  
  24566934.936   129100067.8112      -3129.009          34.000  
  26851308.293                       -3512.857          21.000  
 24  2  6 19  7 50.0070000  0 17G 7G 8G10G21G23G27E10E18E25E24G 2G18
                                E11G15E12G16G26
  26634051.547   139962887.041        -884.543          35.000  
  22912794.315   120407552.978        1970.056          48.000  
  23135186.713   121576210.085         844.190          50.000  
  24083485.614   126559556.856        2582.484          46.000  
  24017327.590   126211908.584       -1615.845          47.000  
  22161475.077   116459333.485        -577.968          47.000  
  25611688.928   134590342.997         926.806          44.000  
  22981488.369   120768532.935       -5362.668          43.000  
  26753649.360   140591391.507        1247.711          44.000  
  26535253.455   139443693.543       -1684.953          38.000  
  25897128.738   136090354.446        3070.135          42.000  
  26793941.610   140803128.3962      -3084.098          31.000  
  25825841.787   135715692.042        2118.530          40.000  
  26713636.755   140381078.714       -1209.467          30.000  
  25596391.204   134509950.922        -344.974          39.000  
  24567528.331   129103197.3912      -3129.140          33.000  
  26851965.285   141108029.5113      -3507.816          30.000  
 24  2  6 19  7 51.0070000  0 17G 7G 8G10G21G23G27E10E18E25E24G 2G18
                                E11G15E12G16G26
  26634220.098   139963772.459        -885.016          31.000  
  22912419.624   120405583.352        1969.385          47.000  
  23135025.394   121575366.379         843.359          49.000  
  24082994.330   126556974.792        2581.751          44.000  
  24017635.150   126213524.979       -1616.690          47.000  
  22161585.083   116459911.957        -578.609          48.000  
  25611512.515   134589416.843         925.759          43.000  
  22982509.085   120773896.021       -5363.659          40.000  
  26753411.889   140590144.156        1247.007          43.000  
  26535574.967   139445378.838       -1685.673          40.000  
  25896544.601   136087284.633        3069.702          40.000  
  26794525.328   140806212.9632      -3085.114          30.000  
  25825438.792   135713573.820        2117.989          41.000  
  26713867.961   140382288.852       -1211.183          30.000  
  25596456.939   134510296.145        -345.414          39.000  
  24568123.078   129106327.3632      -3129.981          37.000  
  26852631.055   141111537.6792      -3508.715          31.000  
 24  2  6 19  7 52.0070000  0 17G 7G 8G10G21G23G27E10E18E25E24G 2G18
                                E11G15E12G16G26
  26634389.016   139964658.520        -886.268          32.000  
  22912044.872   120403614.075        1969.354          47.000  
  23134864.940   121574523.328         842.714          49.000  
  24082503.176   126554392.977        2581.701          44.000  
  24017942.640   126215141.904       -1616.929          46.000  
  22161695.595   116460490.922        -579.005          46.000  
  25611336.303   134588490.992         925.894          44.000  
  22983529.635   120779259.802       -5364.206          41.000  
  26753174.549   140588897.245        1246.972          43.000  
  26535896.469   139447064.591       -1685.476          39.000  
  25895960.027   136084214.981        3069.672          40.000  
  26795117.344   140809297.5482      -3084.233          32.000  
  25825035.901   135711455.721        2118.455          43.000  
  26714101.236   140383499.532       -1210.724          31.000  
  25596522.272   134510641.578        -345.506          40.000  
  24568720.190   129109457.5072      -3129.823          36.000  
  26853292.165   141115045.5302      -3507.840          25.000  
 24  2  6 19  7 53.0070000  0 17G 7G 8G10G21G23G27E10E18E25E24G 2G18
                                E11G15E12G16G26
  26634557.734   139965544.931        -886.488          32.000  
  22911670.408   120401645.254        1968.762          47.000  
  23134704.241   121573680.944         842.253          49.000  
  24082012.153   126551811.559        2581.252          45.000  
  24018250.061   126216759.454       -1617.899          46.000  
  22161806.439   116461070.423        -579.772          47.000  
  25611160.457   134587565.465         925.478          44.000  
  22984550.280   120784624.275       -5364.784          42.000  
  26752937.496   140587650.842        1246.201          43.000  
  26536218.068   139448750.792       -1686.464          39.000  
  25895375.419   136081145.575        3069.324          40.000  
  26795704.239   140812382.2532      -3084.656          28.000  
  25824633.316   135709337.940        2117.852          43.000  
  26714331.509   140384710.911       -1211.506          31.000  
  25596588.086   134510987.353        -345.933          40.000  
  24569309.963   129112588.0712      -3130.836          35.000  
  26853955.744                       -3517.480          24.000  
 24  2  6 19  7 54.0070000  0 17G 7G 8G10G21G23G27E10E18E25E24G 2G18
                                E11G15E12G16G26
  26634727.010   139966431.748        -887.742          31.000  
  22911295.917   120399676.535        1968.512          47.000  
  23134543.646   121572838.918         841.488          46.000  
  24081520.851   126549230.130        2581.140          45.000  
  24018558.101   126218377.317       -1618.196          48.000  
  22161916.698   116461650.213        -579.984          45.000  
  25610984.297   134586640.026         925.296          42.000  
  22985571.607   120789989.187       -5365.274          43.000  
  26752699.999   140586404.604        1245.938          43.000  
  26536538.585   139450437.172       -1686.624          34.000  
  25894791.229   136078076.085        3069.312          41.000  
  26796292.870   140815466.5522      -3084.660          34.000  
  25824230.242   135707220.045        2117.620          41.000  
  26714558.911   140385922.605       -1211.860          30.000  
  25596653.393   134511333.149        -346.085          36.000  
  24569909.003   129115718.7402      -3131.622          31.000  
  26854626.365                       -3513.926          25.000  
 24  2  6 19  7 55.0070000  0 17G 7G 8G10G21G23G27E10E18E25E24G 2G18
                                E11G15E12G16G26
  26634886.766   139967318.709        -887.170          32.000  
  22910921.392   120397708.104        1968.176          47.000  
  23134383.436   121571997.453         841.081          48.000  
  24081029.636   126546648.952        2580.845          44.000  
  24018865.861   126219995.620       -1618.651          48.000  
  22162026.931   116462230.325        -580.518          44.000  
  25610808.225   134585714.708         925.274          42.000  
  22986592.619   120795354.643       -5365.800          43.000  
  26752462.946   140585158.709        1245.789          42.000  
  26536859.774   139452123.817       -1687.176          34.000  
  25894207.074   136075006.676        3069.080          40.000  
  26796877.129   140818550.5191      -3084.891          34.000  
  25823826.811   135705102.325        2117.331          38.000  
  26714791.366   140387134.852       -1211.855          31.000  
  25596718.736   134511679.068        -345.911          36.000  
  24570502.232   129118848.9711      -3130.770          30.000  
  26855297.701                       -3507.005          26.000  
 24  2  6 19  7 56.0070000  0 17G 7G 8G10G21G23G27E10E18E25E24G 2G18
                                E11G15E12G16G26
  26635057.211   139968206.419        -887.822          32.000  
  22910547.155   120395740.253        1967.584          47.000  
  23134223.601   121571156.828         840.347          47.000  
  24080538.299   126544068.289        2580.441          39.000  
  24019173.997   126221614.635       -1619.519          46.000  
  22162137.304   116462811.066        -581.037          47.000  
  25610632.126   134584789.819         924.599          43.000  
  22987613.779   120800720.900       -5366.256          40.000  
  26752225.999   140583913.429        1244.952          44.000  
  26537180.788   139453810.900       -1687.008          35.000  
  25893622.946   136071937.642        3069.073          33.000  
  26797463.736   140821635.074       -3084.499          28.000  
  25823423.702   135702985.031        2117.289          32.000  
  26715022.668   140388347.902       -1212.590          29.000  
  25596784.950   134512025.403        -346.714          38.000  
  24571100.199   129121979.974       -3131.587          40.000  
  26855971.480   141129049.0423      -3507.649          32.000  
 24  2  6 19  7 57.0070000  0 17G 7G 8G10G21G23G27E10E18E25E24G 2G18
                                E11G15E12G16G26
  26635225.580   139969094.401        -887.698          32.000  
  22910173.223   120393772.622        1967.523          46.000  
  23134063.696   121570316.590         840.097          46.000  
  24080047.258   126541487.807        2580.441          34.000  
  24019482.605   126223234.029       -1619.427          46.000  
  22162248.008   116463392.163        -581.253          46.000  
  25610456.088   134583865.041         924.778          43.000  
  22988635.359   120806087.620       -5366.689          41.000  
  26751989.251   140582668.399        1245.052          44.000  
  26537501.252   139455498.191       -1687.645          34.000  
  25893038.756   136068868.675        3068.707          32.000  
  26798052.698   140824719.484       -3083.889          29.000  
  25823016.143   135700867.745        2117.512          30.000  
  26715247.445   140389561.417       -1213.672          26.000  
  25596851.270   134512371.840        -346.314          39.000  
  24571697.677   129125111.385       -3131.866          41.000  
  26856643.985   141132556.4852      -3507.420          36.000  
 24  2  6 19  7 58.0070000  0 17G 7G 8G10G21G23G27E10E18E25E24G 2G18
                                E11G15E12G16G26
  26635399.742   139969983.194        -889.509          32.000  
  22909799.055   120391805.660        1966.669          46.000  
  23133903.773   121569477.332         838.604          46.000  
  24079556.602   126538907.943        2579.423          33.000  
  24019791.438   126224854.308       -1620.907          46.000  
  22162358.634   116463974.051        -582.213          45.000  
  25610280.356   134582940.859         924.031          43.000  
  22989656.973   120811455.334       -5367.974          41.000  
  26751752.461   140581424.131        1244.082          44.000  
  26537822.179   139457186.245       -1688.792          33.000  
  25892454.270   136065800.120        3068.353          31.000  
  26798637.071   140827804.237       -3084.587          29.000  
  25822612.982   135698750.965        2116.980          28.000  
  26715470.799   140390775.910       -1214.349          26.000  
  25596917.668   134512718.834        -347.422          39.000  
  24572292.450   129128243.374       -3132.346          42.000  
  26857308.629   141136064.2212      -3507.551          37.000  
 24  2  6 19  7 59.0070000  0 17G 7G 8G10G21G23G27E10E18E25E24G 2G18
                                E11G15E12G16G26
  26635569.061   139970872.313        -888.977          31.000  
  22909424.765   120389838.933        1966.888          47.000  
  23133744.531   121568638.502         838.767          47.000  
  24079065.815   126536328.285        2579.605          33.000  
  24020099.941   126226474.956       -1620.477          46.000  
  22162469.094   116464556.254        -582.031          45.000  
  25610104.562   134582016.774         924.158          43.000  
  22990678.352   120816823.559       -5368.242          41.000  
  26751515.687   140580180.154        1244.048          44.000  
  26538143.071   139458874.480       -1688.189          33.000  
  25891870.132   136062731.623        3068.066          32.000  
  26799227.891   140830888.908       -3084.296          29.000  
  25822210.379   135696634.263        2116.882          27.000  
  26715696.962   140391990.794       -1215.313          25.000  
  25596983.612   134513065.945        -347.032          39.000  
  24572887.720   129131375.508       -3131.886          43.000  
  26857974.590   141139571.8182      -3507.701          37.000  
 24  2  6 19  8  0.0070000  0 17G 7G 8G10G21G23G27E10E18E25E24G 2G18
                                E11G15E12G16G26
  26635737.438   139971761.713        -889.124          31.000  
  22909050.327   120387872.474        1966.363          47.000  
  23133585.219   121567800.225         837.975          47.000  
  24078575.210   126533748.822        2579.120          33.000  
  24020408.243   126228096.030       -1621.366          46.000  
  22162579.789   116465138.836        -582.905          47.000  
  25609928.882   134581092.761         923.811          42.000  
  22991699.896   120822192.290       -5369.228          42.000  
  26751279.158   140578936.505        1243.296          43.000  
  26538465.054   139460562.924       -1688.978          39.000  
  25891286.292   136059663.220        3068.384          34.000  
  26799808.696   140833944.9933      -3085.222          29.000  
  25821809.426   135694517.639        2115.967          27.000  
  26715933.378                       -1214.722          26.000  
  25597049.426   134513413.207        -347.414          39.000  
  24573482.241   129134507.816       -3132.567          43.000  
  26858640.351   141143079.2482      -3507.681          37.000  
 24  2  6 19  8  1.0070000  0 17G 7G 8G10G21G23G27E10E18E25E24G 2G18
                                E11G15E12G16G26
  26635902.011   139972651.843        -890.726          31.000  
  22908676.011   120385906.533        1965.869          48.000  
  23133426.065   121566962.672         837.334          48.000  
  24078084.580   126531169.828        2578.938          36.000  
  24020716.850   126229717.825       -1622.086          46.000  
  22162690.703   116465722.019        -583.407          47.000  
  25609752.993   134580169.270         923.283          43.000  
  22992721.633   120827561.833       -5369.711          42.000  
  26751042.272   140577693.440        1242.881          43.000  
  26538786.731   139462251.957       -1689.164          39.000  
  25890702.852   136056595.033        3068.152          34.000  
  26800395.023   140837029.6152      -3084.664          28.000  
  25821411.796   135692401.228        2116.385          29.000  
  26716166.443   140394422.132       -1216.638          26.000  
  25597115.588   134513760.863        -347.730          40.000  
  24574079.849   129137640.598       -3132.921          42.000  
  26859307.316   141146586.7912      -3507.576          37.000  
 24  2  6 19  8  2.0070000  0 17G 7G 8G10G21G23G27E10E18E25E24G 2G18
                                E11G15E12G16G26
  26636073.626   139973542.278        -890.426          35.000  
  22908301.634   120383940.812        1965.356          48.000  
  23133267.041   121566125.628         836.712          48.000  
  24077593.653   126528591.040        2578.597          38.000  
  24021025.326   126231340.046       -1622.847          46.000  
  22162801.904   116466305.639        -584.306          44.000  
  25609577.225   134579245.967         923.381          43.000  
  22993743.404   120832931.913       -5370.867          39.000  
  26750805.970   140576450.691        1242.352          44.000  
  26539108.862   139463941.301       -1689.391          35.000  
  25890119.108   136053526.851        3068.811          34.000  
  26800979.710   140840114.3712      -3084.463          28.000  
  25821004.255   135690285.086        2116.474          33.000  
  26716403.007   140395638.768       -1216.875          27.000  
  25597181.533   134514108.640        -347.962          38.000  
  24574675.949   129140773.550       -3133.190          40.000  
  26859973.591   141150094.3182      -3507.385          37.000  
 24  2  6 19  8  3.0070000  0 17G 7G 8G10G21G23G27E10E18E25E24G 2G18
                                E11G15E12G16G26
  26636244.926   139974433.427        -891.882          35.000  
  22907927.694   120381975.617        1964.734          46.000  
  23133108.558   121565289.354         835.675          47.000  
  24077102.901   126526012.722        2577.830          40.000  
  24021333.924   126232962.940       -1623.428          47.000  
  22162913.149   116466889.875        -584.869          45.000  
  25609401.379   134578323.075         922.550          40.000  
  22994765.542   120838302.808       -5371.271          39.000  
  26750569.659   140575208.449        1241.873          44.000  
  26539429.214   139465631.310       -1690.575          29.000  
  25889535.311   136050459.049        3067.273          33.000  
  26801570.923   140843199.0172      -3085.124          23.000  
  25820605.849   135688169.266        2115.303          34.000  
  26716638.218   140396856.050       -1217.461          27.000  
  25597248.079   134514456.901        -348.793          37.000  
  24575270.923   129143907.139       -3133.966          34.000  
  26860641.760   141153601.9272      -3507.961          35.000  
 24  2  6 19  8  4.0070000  0 17G 7G 8G10G21G23G27E10E18E25E24G 2G18
                                E11G15E12G16G26
  26636417.089   139975325.127        -892.219          38.000  
  22907553.893   120380011.119        1964.160          40.000  
  23132950.110   121564453.887         835.282          44.000  
  24076612.279   126523434.913        2577.836          36.000  
  24021642.654   126234586.611       -1624.213          43.000  
  22163024.368   116467474.866        -585.182          41.000  
  25609226.005   134577400.707         922.507          36.000  
  22995787.523   120843674.510       -5372.188          42.000  
  26750333.461   140573966.912        1241.209          41.000  
  26539758.194   139467321.690       -1690.867          28.000  
  25888951.618   136047391.633        3067.242          34.000  
  26802155.340   140846276.0523      -3084.743          35.000  
  25820202.095   135686053.842        2115.295          33.000  
  26716871.650   140398074.174       -1218.696          31.000  
  25597314.120   134514805.636        -348.986          38.000  
  24575868.122   129147041.169       -3134.504          34.000  
  26861309.894   141157109.6932      -3507.950          33.000  
 24  2  6 19  8  5.0070000  0 17G 7G 8G10G21G23G27E10E18E25E24G 2G18
                                E11G15E12G16G26
  26636589.166   139976217.414        -892.839          38.000  
  22907180.336   120378047.016        1963.910          39.000  
  23132791.461   121563619.158         834.103          44.000  
  24076121.544   126520857.505        2576.943          33.000  
  24021951.400   126236210.874       -1624.460          42.000  
  22163135.657   116468060.289        -585.882          41.000  
  25609050.639   134576478.607         921.442          36.000  
  22996810.140   120849046.944       -5372.709          42.000  
  26750097.159   140572725.870        1240.960          39.000  
  26540085.987   139469012.418       -1690.289          27.000  
  25888367.786   136044324.496        3066.864          33.000  
  26802742.261   140849361.1852      -3085.048          35.000  
  25819796.918   135683938.750        2114.223          31.000  
  26717100.955   140399293.059       -1219.323          29.000  
  25597380.840   134515154.593        -349.301          38.000  
  24576465.102   129150175.463       -3134.895          34.000  
  26861977.984   141160617.4612      -3507.767          33.000  
 24  2  6 19  8  6.0070000  0 17G 7G 8G10G21G23G27E10E18E25E24G 2G18
                                E11G15E12G16G26
  26636758.102   139977110.221        -892.557          37.000  
  22906806.744   120376083.247        1963.953          47.000  
  23132632.341   121562785.247         834.438          44.000  
  24075631.158   126518280.437        2577.211          39.000  
  24022260.269   126237835.678       -1624.581          44.000  
  22163247.007   116468646.166        -585.807          42.000  
  25608875.151   134575556.544         922.038          40.000  
  22997832.653   120854420.033       -5372.887          40.000  
  26749860.953   140571485.297        1240.864          43.000  
  26540404.829   139470703.590       -1690.482          25.000  
  25887784.286   136041257.630        3067.249          35.000  
  26803336.275   140852446.3262      -3085.149          34.000  
  25819392.152   135681823.881        2115.186          33.000  
  26717334.465   140400512.610       -1219.060          30.000  
  25597447.256   134515503.699        -348.860          36.000  
  24577064.159   129153310.060       -3134.797          29.000  
  26862645.560   141164125.1772      -3507.207          33.000  
 24  2  6 19  8  7.0070000  0 17G 7G 8G10G21G23G27E10E18E25E24G 2G18
                                E11G15E12G16G26
  26636928.756   139978003.377        -893.633          37.000  
  22906432.760   120374119.789        1963.281          47.000  
  23132473.187   121561951.683         833.198          44.000  
  24075140.667   126515703.555        2576.843          40.000  
  24022569.871   126239460.983       -1625.799          44.000  
  22163358.339   116469232.478        -586.530          42.000  
  25608699.575   134574634.866         921.602          40.000  
  22998854.913   120859793.672       -5374.105          40.000  
  26749625.209   140570245.040        1240.128          43.000  
  26540721.420   139472395.115       -1691.929          24.000  
  25887200.821   136038190.740        3067.047          35.000  
  26803921.564   140855531.3322      -3085.027          33.000  
  25818990.108   135679709.075        2114.291          33.000  
  26717567.434   140401732.554       -1219.575          30.000  
  25597513.933   134515853.101        -349.544          36.000  
  24577664.543   129156444.804       -3134.529          28.000  
  26863313.598   141167632.801       -3507.375          32.000  
 24  2  6 19  8  8.0070000  0 17G 7G 8G10G21G23G27E10E18E25E24G 2G18
                                E11G15E12G16G26
  26637099.245   139978897.205        -893.937          38.000  
  22906059.630   120372156.950        1962.622          43.000  
  23132315.062   121561118.767         832.785          39.000  
  24074650.342   126513127.254        2576.243          37.000  
  24022879.324   126241087.099       -1626.041          42.000  
  22163469.811   116469819.583        -587.027          43.000  
  25608524.122   134573713.881         920.741          32.000  
  22999877.792   120865168.187       -5374.706          41.000  
  26749389.335   140569005.480        1239.465          42.000  
  26541047.241   139474087.259       -1692.417          26.000  
  25886617.547   136035124.249        3066.473          34.000  
  26804508.057   140858616.6282      -3084.976          34.000  
  25818589.250   135677594.678        2114.077          33.000  
  26717805.280   140402953.312       -1220.542          30.000  
  25597580.340   134516203.064        -349.654          38.000  
  24578265.240   129159580.207       -3135.806          33.000  
  26863981.174   141171140.713       -3507.747          33.000  
 24  2  6 19  8  9.0070000  0 17G 7G 8G10G21G23G27E10E18E25E24G 2G18
                                E11G15E12G16G26
  26637269.341   139979791.662        -894.531          38.000  
  22905686.100   120370194.667        1962.152          43.000  
  23132157.695   121560286.811         832.006          40.000  
  24074160.140   126510551.446        2575.938          35.000  
  24023188.699   126242713.872       -1627.067          42.000  
  22163581.711   116470407.234        -587.635          43.000  
  25608349.463   134572793.155         920.408          32.000  
  23000900.925   120870543.509       -5375.383          41.000  
  26749153.722   140567766.477        1239.079          42.000  
  26541372.967   139475779.882       -1692.524          26.000  
  25886033.741   136032058.109        3066.589          33.000  
  26805095.204   140861702.1422      -3085.260          35.000  
  25818188.558   135675480.662        2114.277          33.000  
  26718034.114   140404174.927       -1221.698          29.000  
  25597647.270   134516553.331        -350.075          38.000  
  24578859.935   129162715.946       -3135.507          33.000  
  26864649.098   141174648.745       -3508.042          33.000  
 24  2  6 19  8 10.0070000  0 17G 7G 8G10G21G23G27E10E18E25E24G 2G18
                                E11G15E12G16G26
  26637439.515   139980686.681        -895.856          38.000  
  22905312.848   120368232.873        1960.895          42.000  
  23132000.103   121559455.527         830.210          42.000  
  24073669.684   126507975.987        2574.925          34.000  
  24023498.414   126244341.236       -1628.223          42.000  
  22163693.916   116470995.438        -589.202          43.000  
  25608174.760   134571872.758         919.612          33.000  
  23001924.223   120875919.550       -5377.070          42.000  
  26748917.716   140566527.978        1237.741          41.000  
  26541699.225   139477472.868       -1693.521          27.000  
  25885450.328   136028992.230        3065.302          33.000  
  26805683.460   140864787.7102      -3086.364          36.000  
  25817786.566   135673366.895        2113.265          32.000  
  26718270.058   140405397.146       -1222.170          28.000  
  25597714.018   134516903.928        -351.434          38.000  
  24579451.506   129165852.136       -3137.467          33.000  
  26865316.342   141178156.750       -3508.547          33.000  
 24  2  6 19  8 11.0070000  0 17G 7G 8G10G21G23G27E10E18E25E24G 2G18
                                E11G15E12G16G26
  26637609.969   139981582.117        -895.524          40.000  
  22904939.326   120366271.370        1961.298          46.000  
  23131842.283   121558625.062         830.088          39.000  
  24073179.821   126505400.798        2574.879          35.000  
  24023807.676   126245969.104       -1628.168          42.000  
  22163806.112   116471584.065        -589.080          44.000  
  25607999.691   134570952.394         919.873          35.000  
  23002947.495   120881296.176       -5377.170          41.000  
  26748682.487   140565289.858        1237.956          42.000  
  26542012.744   139479166.229       -1693.219          27.000  
  25884867.203   136025926.473        3066.187          34.000  
  26806270.948   140867873.1952      -3085.508          35.000  
  25817384.801   135671253.393        2113.214          32.000  
  26718502.949   140406619.966       -1222.816          33.000  
  25597780.625   134517254.708        -351.225          38.000  
  24580048.976   129168988.491       -3136.923          32.000  
  26865983.726   141181664.623       -3508.039          33.000  
 24  2  6 19  8 12.0070000  0 17G 7G 8G10G21G23G27E10E18E25E24G 2G18
                                E11G15E12G16G26
  26637780.780   139982478.250        -896.461          37.000  
  22904565.857   120364310.485        1960.571          44.000  
  23131683.460   121557795.264         829.508          39.000  
  24072689.706   126502826.163        2574.514          34.000  
  24024117.400   126247597.757       -1629.085          40.000  
  22163918.168   116472173.392        -589.608          42.000  
  25607824.159   134570032.686         919.394          35.000  
  23003970.959   120886673.698       -5378.104          38.000  
  26748446.988   140564052.416        1237.006          40.000  
  26542322.119   139480860.210       -1694.353          26.000  
  25884283.842   136022861.103        3065.649          33.000  
  26806859.186   140870959.0022      -3085.877          33.000  
  25816982.975   135669140.229        2113.056          32.000  
  26718733.885   140407843.633       -1223.844          31.000  
  25597847.180   134517605.958        -351.718          36.000  
  24580647.658   129172125.444       -3137.116          30.000  
  26866651.467   141185172.813       -3508.463          31.000  
 24  2  6 19  8 13.0070000  0 17G 7G 8G10G21G23G27E10E18E25E24G 2G18
                                E11G15E12G16G26
  26637951.033   139983374.641        -896.328          37.000  
  22904192.248   120362349.818        1960.248          41.000  
  23131525.204   121556965.666         829.247          38.000  
  24072199.948   126500251.709        2574.477          35.000  
  24024427.132   126249226.838       -1629.565          41.000  
  22164030.600   116472763.069        -589.773          42.000  
  25607649.046   134569113.332         918.711          33.000  
  23004994.624   120892051.699       -5378.255          40.000  
  26748211.550   140562815.237        1237.188          41.000  
  26542640.202   139482554.307       -1694.196          26.000  
  25883700.717   136019795.705        3065.302          34.000  
  26807446.979   140874044.1511      -3085.570          34.000  
  25816581.166   135667027.119        2113.063          32.000  
  26718966.557   140409067.756       -1224.767          31.000  
  25597914.416   134517957.359        -351.406          36.000  
  24581247.474   129175262.482       -3137.231          34.000  
  26867319.199   141188680.875       -3507.271          32.000  
 24  2  6 19  8 14.0070000  0 17G 7G 8G10G21G23G27E10E18E25E24G 2G18
                                E11G15E12G16G26
  26638121.915   139984271.525        -897.063          36.000  
  22903819.398   120360389.610        1960.266          39.000  
  23131368.091   121556136.899         828.769          45.000  
  24071710.050   126497677.597        2574.276          32.000  
  24024737.860   126250856.439       -1629.836          42.000  
  22164143.198   116473353.202        -590.351          40.000  
  25607474.099   134568194.055         919.214          34.000  
  23006018.044   120897430.347       -5378.837          42.000  
  26747976.225   140561578.477        1236.767          38.000  
  26542973.231   139484248.901       -1694.208          25.000  
  25883118.063   136016730.600        3064.929          31.000  
  26808033.873   140877129.810       -3085.472          34.000  
  25816179.017   135664914.187        2113.868          28.000  
  26719199.003   140410292.497       -1224.356          27.000  
  25597981.878   134518308.961        -351.421          36.000  
  24581844.402   129178399.831       -3137.264          32.000  
  26867986.749   141192188.854       -3507.543          31.000  
 24  2  6 19  8 15.0070000  0 17G 7G 8G10G21G23G27E10E18E25E24G 2G18
                                E11G15E12G16G26
  26638292.299   139985168.706        -897.235          38.000  
  22903446.155   120358429.568        1959.845          40.000  
  23131210.524   121555308.621         828.038          48.000  
  24071220.572   126495103.597        2573.768          35.000  
  24025048.098   126252486.379       -1630.111          45.000  
  22164255.856   116473943.584        -590.599          41.000  
  25607298.724   134567274.811         919.073          39.000  
  23007041.726   120902809.453       -5379.377          45.000  
  26747740.481   140560341.975        1236.438          39.000  
  26543309.086   139485943.641       -1695.469          27.000  
  25882535.636   136013665.406        3064.752          33.000  
  26808621.073   140880215.317       -3085.486          38.000  
  25815782.504   135662801.409        2112.175          29.000  
  26719433.159   140411517.653       -1225.587          33.000  
  25598048.878   134518660.617        -351.427          38.000  
  24582436.698   129181537.233       -3136.446          34.000  
  26868654.525   141195696.635       -3507.189          33.000  
 24  2  6 19  8 16.0070000  0 17G 7G 8G10G21G23G27E10E18E25E24G 2G18
                                E11G15E12G16G26
  26638462.674   139986066.708        -898.451          36.000  
  22903073.052   120356470.045        1959.021          49.000  
  23131052.277   121554481.282         827.024          49.000  
  24070730.875   126492530.113        2573.153          38.000  
  24025358.075   126254117.159       -1631.124          47.000  
  22164368.384   116474534.721        -591.606          46.000  
  25607123.585   134566356.000         918.403          44.000  
  23008065.286   120908189.500       -5380.549          40.000  
  26747504.816   140559106.265        1235.557          46.000  
  26543612.066   139487638.930       -1695.863          38.000  
  25881952.694   136010600.726        3064.801          34.000  
  26809206.903   140883301.263       -3086.241          34.000  
  25815376.342   135660689.024        2112.182          30.000  
  26719671.537   140412743.622       -1226.704          34.000  
  25598115.704   134519012.727        -352.199          41.000  
  24583032.623   129184675.149       -3138.174          43.000  
  26869322.066   141199204.480       -3508.193          38.000  
 24  2  6 19  8 17.0070000  0 17G 7G 8G10G21G23G27E10E18E25E24G 2G18
                                E11G15E12G16G26
  26638633.459   139986965.509        -898.763          37.000  
  22902700.568   120354511.401        1958.740          51.000  
  23130894.370   121553654.911         826.401          47.000  
  24070241.362   126489957.471        2572.480          40.000  
  24025668.759   126255748.829       -1631.546          50.000  
  22164480.659   116475126.793        -591.825          46.000  
  25606948.228   134565437.894         918.562          45.000  
  23009089.361   120913570.581       -5381.569          44.000  
  26747270.058   140557871.303        1234.954          47.000  
  26543942.355   139489335.061       -1695.610          40.000  
  25881369.438   136007536.593        3064.172          36.000  
  26809793.178   140886387.411       -3085.014          36.000  
  25814969.106   135658577.304        2111.160          34.000  
  26719903.617   140413970.700       -1226.756          35.000  
  25598182.390   134519365.606        -352.910          41.000  
  24583629.429   129187814.126       -3138.689          36.000  
  26869989.414   141202712.832       -3508.357          38.000  
 24  2  6 19  8 18.0070000  0 17G 7G 8G10G21G23G27E10E18E25E24G 2G18
                                E11G15E12G16G26
  26638804.384   139987864.656        -899.919          37.000  
  22902328.032   120352553.093        1957.874          50.000  
  23130736.777   121552829.037         825.293          50.000  
  24069751.656   126487385.026        2571.831          43.000  
  24025980.045   126257381.012       -1632.454          50.000  
  22164593.134   116475719.210        -592.938          49.000  
  25606773.883   134564520.069         917.442          48.000  
  23010112.939   120918952.156       -5381.940          42.000  
  26747034.916   140556636.713        1234.222          47.000  
  26544263.020   139491031.401       -1696.189          39.000  
  25880786.443   136004472.541        3063.281          34.000  
  26810376.713   140889473.482       -3085.984          35.000  
  25814569.444   135656465.634        2111.228          40.000  
  26720134.623   140415198.113       -1228.137          34.000  
  25598249.713   134519718.590        -353.221          42.000  
  24584225.572   129190953.078       -3139.347          43.000  
  26870658.979                       -3509.741          37.000  
 24  2  6 19  8 19.0070000  0 17G 7G 8G10G21G23G27E10E18E25E24G 2G18
                                E11G15E12G16G26
  26638975.222   139988764.411        -900.453          34.000  
  22901955.400   120350595.245        1957.623          49.000  
  23130579.707   121552003.914         824.795          48.000  
  24069262.212   126484812.955        2571.974          39.000  
  24026291.060   126259013.809       -1633.070          48.000  
  22164705.845   116476312.238        -593.285          48.000  
  25606599.058   134563602.573         917.333          47.000  
  23011137.214   120924334.492       -5382.570          40.000  
  26746800.307   140555402.614        1234.037          45.000  
  26544589.164   139492728.236       -1697.149          36.000  
  25880203.353   136001408.665        3063.769          34.000  
  26810964.472   140892559.861       -3086.388          31.000  
  25814167.818   135654354.316        2111.080          38.000  
  26720368.010   140416426.344       -1228.617          35.000  
  25598316.678   134520071.969        -353.531          41.000  
  24584822.657   129194092.363       -3139.213          42.000  
  26871333.404   141209773.4193      -3508.962          30.000  
 24  2  6 19  8 20.0070000  0 17G 7G 8G10G21G23G27E10E18E25E24G 2G18
                                E11G15E12G16G26
  26639146.644   139989664.573        -900.245          34.000  
  22901582.786   120348637.753        1957.324          50.000  
  23130422.882   121551179.410         824.172          49.000  
  24068773.065   126482241.203        2571.494          41.000  
  24026601.857   126260647.147       -1633.697          49.000  
  22164818.687   116476905.727        -593.688          49.000  
  25606424.494   134562685.337         917.047          48.000  
  23012161.271   120929717.493       -5383.320          40.000  
  26746565.340   140554168.951        1233.418          46.000  
  26544909.315   139494425.529       -1697.876          35.000  
  25879620.516   135998344.989        3063.336          35.000  
  26811555.659   140895646.137       -3085.930          33.000  
  25813767.048   135652243.140        2111.273          37.000  
  26720603.353   140417655.167       -1229.607          36.000  
  25598383.844   134520425.546        -353.575          43.000  
  24585420.563   129197231.994       -3139.675          43.000  
  26871994.244   141213281.6672      -3508.178          30.000  
 24  2  6 19  8 21.0070000  0 17G 7G 8G10G21G23G27E10E18E25E24G 2G18
                                E11G15E12G16G26
  26639317.830   139990565.063        -900.912          39.000  
  22901210.546   120346680.481        1957.056          51.000  
  23130265.743   121550355.378         823.734          51.000  
  24068283.526   126479669.551        2571.596          41.000  
  24026912.881   126262280.857       -1633.864          49.000  
  22164931.529   116477499.517        -594.193          50.000  
  25606249.922   134561768.261         917.012          46.000  
  23013185.416   120935100.986       -5383.538          43.000  
  26746330.704   140552935.593        1233.197          47.000  
  26545231.900   139496123.007       -1697.402          41.000  
  25879037.321   135995281.334        3063.208          37.000  
  26812146.453   140898732.173       -3086.197          35.000  
  25813367.010   135650131.998        2110.800          34.000  
  26720836.985   140418884.398       -1230.059          35.000  
  25598451.246   134520779.251        -353.924          43.000  
  24586018.294   129200371.506       -3139.982          46.000  
  26872657.492   141216789.8792      -3508.298          40.000  
 24  2  6 19  8 22.0070000  0 17G 7G 8G10G21G23G27E10E18E25E24G 2G18
                                E11G15E12G16G26
  26639489.349   139991465.953        -901.031          35.000  
  22900838.133   120344723.472        1956.897          49.000  
  23130109.485   121549531.858         823.368          50.000  
  24067794.187   126477098.281        2570.901          34.000  
  24027223.591   126263915.008       -1634.256          49.000  
  22165044.833   116478093.719        -594.287          50.000  
  25606075.411   134560851.336         916.884          45.000  
  23014209.604   120940485.005       -5384.238          43.000  
  26746095.798   140551702.482        1233.005          46.000  
  26545554.275   139497820.637       -1697.626          40.000  
  25878454.920   135992217.705        3063.116          37.000  
  26812731.446   140901818.186       -3085.488          36.000  
  25812957.585   135648021.142        2110.743          33.000  
  26721071.132   140420114.138       -1229.706          35.000  
  25598518.726   134521133.088        -353.831          42.000  
  24586615.397   129203511.474       -3140.055          47.000  
  26873324.613   141220297.8712      -3507.672          41.000  
 24  2  6 19  8 23.0070000  0 17G 7G 8G10G21G23G27E10E18E25E24G 2G18
                                E11G15E12G16G26
  26639661.198   139992367.556        -901.959          41.000  
  22900465.614   120342767.047        1955.927          45.000  
  23129952.529   121548708.938         822.359          45.000  
  24067304.769   126474527.353        2570.399          43.000  
  24027534.868   126265549.900       -1635.319          44.000  
  22165158.364   116478688.599        -594.810          43.000  
  25605901.066   134559934.908         916.007          42.000  
  23015234.490   120945869.947       -5385.458          36.000  
  26745861.450   140550470.002        1232.395          45.000  
  26545894.135                       -1698.151          29.000  
  25877872.205   135989154.505        3063.281          36.000  
  26813316.115   140904926.5013      -3085.382          36.000  
  25812560.967   135645910.346        2110.065          37.000  
  26721305.532   140421344.747       -1231.219          35.000  
  25598585.883   134521487.455        -354.864          38.000  
  24587213.023   129206652.078       -3140.601          36.000  
  26873998.611                       -3505.600          33.000  
 24  2  6 19  8 24.0070000  0 17G 7G 8G10G21G23G27E10E18E25E24G 2G18
                                E11G15E12G16G26
  26639833.022   139993269.638        -902.308          42.000  
  22900093.462   120340811.220        1955.969          42.000  
  23129796.437   121547886.982         821.767          46.000  
  24066815.744   126471956.926        2570.171          39.000  
  24027846.145   126267185.425       -1635.767          40.000  
  22165272.061   116479283.981        -596.092          37.000  
  25605726.904   134559018.809         916.053          40.000  
  23016259.533   120951255.538       -5385.943          37.000  
  26745627.094   140549238.103        1231.872          40.000  
  26546226.824   139501323.7581      -1698.344          27.000  
  25877289.821   135986091.595        3062.683          37.000  
  26813907.643   140908012.8442      -3086.371          37.000  
  25812160.180   135643800.074        2110.013          34.000  
  26721539.234   140422576.006       -1231.742          32.000  
  25598652.944   134521842.125        -354.590          36.000  
  24587810.736   129209792.819       -3140.600          36.000  
  26874660.969   141227295.7093      -3508.647          33.000  
 24  2  6 19  8 25.0070000  0 17G 7G 8G10G21G23G27E10E18E25E24G 2G18
                                E11G15E12G16G26
  26640005.116   139994172.332        -903.036          39.000  
  22899721.432   120338855.654        1955.701          46.000  
  23129639.786   121547065.677         821.447          41.000  
  24066326.876   126469386.914        2570.286          41.000  
  24028158.120   126268821.639       -1636.200          47.000  
  22165385.479   116479880.104        -595.734          43.000  
  25605552.847   134558102.974         916.396          40.000  
  23017284.603   120956641.751       -5386.020          39.000  
  26745393.331   140548006.788        1231.427          47.000  
  26546549.583   139503023.099       -1699.404          32.000  
  25876707.219   135983028.880        3063.641          37.000  
  26814494.424   140911099.3932      -3086.679          35.000  
  25811758.702   135641690.066        2110.244          38.000  
  26721773.180   140423807.940       -1231.254          35.000  
  25598720.677   134522197.042        -354.948          39.000  
  24588408.581   129212934.053       -3141.030          36.000  
  26875326.886   141230804.0162      -3507.963          33.000  
 24  2  6 19  8 26.0070000  0 17G 7G 8G10G21G23G27E10E18E25E24G 2G18
                                E11G15E12G16G26
  26640177.236   139995075.308        -903.613          38.000  
  22899349.638   120336900.361        1954.645          47.000  
  23129483.807   121546244.987         819.759          40.000  
  24065838.017   126466817.062        2569.429          40.000  
  24028469.589   126270458.165       -1637.200          46.000  
  22165498.617   116480476.483        -597.073          44.000  
  25605378.973   134557187.350         915.280          36.000  
  23018309.515   120962028.559       -5387.422          39.000  
  26745159.079   140546775.683        1230.390          46.000  
  26546870.746   139504722.422       -1700.049          30.000  
  25876124.260   135979966.269        3062.360          37.000  
  26815084.529   140914185.5722      -3086.583          35.000  
  25811357.592   135639580.141        2109.605          37.000  
  26722007.598   140425040.369       -1233.217          32.000  
  25598788.803   134522552.139        -355.524          39.000  
  24589006.696   129216075.588       -3141.593          35.000  
  26875994.767   141234312.1882      -3508.598          29.000  
 24  2  6 19  8 27.0070000  0 17G 7G 8G10G21G23G27E10E18E25E24G 2G18
                                E11G15E12G16G26
  26640349.409   139995978.951        -903.994          40.000  
  22898977.695   120334945.734        1954.578          45.000  
  23129325.735                         815.014          30.000  
  24065348.565   126464247.740        2569.040          41.000  
  24028781.049   126272095.563       -1637.290          42.000  
  22165611.965   116481073.541        -597.071          41.000  
  25605204.846   134556272.191         915.108          36.000  
  23019334.375   120967416.278       -5387.594          36.000  
  26744925.028   140545545.240        1230.073          45.000  
  26547191.838   139506422.537       -1701.581          31.000  
  25875541.824   135976904.084        3062.573          40.000  
  26815671.930   140917272.1992      -3085.554          31.000  
  25810955.896   135637470.628        2110.081          37.000  
  26722241.588   140426273.612       -1233.656          31.000  
  25598856.684   134522907.712        -355.495          37.000  
  24589604.593   129219217.376       -3141.724          32.000  
  26876666.854   141237820.4632      -3508.114          30.000  
 24  2  6 19  8 28.0070000  0 17G 7G 8G10G21G23G27E10E18E25E24G 2G18
                                E11G15E12G16G26
  26640521.285   139996883.353        -904.698          40.000  
  22898605.927   120332991.842        1953.955          42.000  
  23129168.229   121544598.7743        818.758          40.000  
  24064859.592   126461679.070        2568.303          38.000  
  24029092.247   126273733.830       -1638.899          40.000  
  22165725.906   116481671.423        -597.389          34.000  
  25605030.868   134555357.659         914.634          36.000  
  23020359.994   120972804.905       -5388.957          36.000  
  26744690.689   140544315.560        1229.465          42.000  
  26547513.568   139508123.204       -1701.246          27.000  
  25874959.388   135973842.343        3062.128          39.000  
  26816256.573   140920359.0492      -3086.875          29.000  
  25810554.411   135635361.679        2108.454          35.000  
  26722476.311   140427507.764       -1234.186          31.000  
  25598924.443   134523263.836        -356.401          37.000  
  24590202.725   129222359.865       -3143.243          31.000  
  26877333.810   141241329.0682      -3508.752          31.000  
 24  2  6 19  8 29.0070000  0 17G 7G 8G10G21G23G27E10E18E25E24G 2G18
                                E11G15E12G16G26
  26640693.536   139997788.210        -904.797          40.000  
  22898234.316   120331038.362        1952.795          38.000  
  23129015.129   121543780.3422        818.076          46.000  
  24064370.663   126459110.691        2568.165          37.000  
  24029403.778   126275372.521       -1639.150          39.000  
  22165839.612   116482269.588        -598.342          34.000  
  25604856.741   134554443.360         914.501          36.000  
  23021385.657   120978194.156       -5389.669          35.000  
  26744457.118   140543086.290        1228.670          40.000  
  26547826.921   139509824.392       -1700.590          26.000  
  25874376.987   135970780.746        3061.493          37.000  
  26816845.047   140923471.4853      -3086.551          29.000  
  25810152.645   135633252.842        2108.769          32.000  
  26722713.651                       -1234.368          24.000  
  25598992.054   134523620.149        -356.412          36.000  
  24590801.774   129225502.717       -3143.815          31.000  
  26878003.776   141244837.7052      -3508.518          32.000  
 24  2  6 19  8 30.0070000  0 17G 7G 8G10G21G23G27E10E18E25E24G 2G18
                                E11G15E12G16G26
  26640865.647   139998693.387        -905.428          39.000  
  22897862.766   120329084.989        1953.119          36.000  
  23128862.745   121542962.3312        817.518          45.000  
  24063881.935   126456542.539        2567.755          35.000  
  24029715.482   126277011.630       -1639.570          38.000  
  22165953.047   116482868.195        -598.670          33.000  
  25604682.893   134553529.153         914.210          33.000  
  23022411.294   120983583.869       -5390.252          32.000  
  26744222.805   140541857.274        1228.745          36.000  
  26548136.445   139511525.735       -1701.308          25.000  
  25873794.508   135967719.165        3061.591          35.000  
  26817429.769   140926558.2562      -3086.976          29.000  
  25809751.107   135631144.141        2107.963          30.000  
  26722949.151                       -1234.783          24.000  
  25599059.909   134523976.560        -356.387          35.000  
  24591396.041   129228645.513       -3142.734          31.000  
  26878670.915   141248346.0952      -3509.199          30.000  
 24  2  6 19  8 31.0070000  0 17G 7G 8G10G21G23G27E10E18E25E24G 2G18
                                E11G15E12G16G26
  26641038.125   139999599.077        -905.999          39.000  
  22897491.059   120327131.987        1952.863          35.000  
  23128705.929   121542144.9842        816.885          44.000  
  24063393.381   126453974.693        2567.808          34.000  
  24030027.632   126278651.332       -1640.119          40.000  
  22166063.542   116483467.196        -598.742          31.000  
  25604508.705   134552615.218         913.795          32.000  
  23023436.572   120988974.268       -5390.544          34.000  
  26743988.981   140540628.737        1228.309          36.000  
  26548462.092   139513227.404       -1701.906          25.000  
  25873211.984   135964657.805        3061.395          36.000  
  26818013.880   140929644.9882      -3086.511          27.000  
  25809347.859   135629035.624        2108.075          29.000  
  26723183.359                       -1233.788          21.000  
  25599127.215   134524333.319        -357.048          34.000  
  24591991.966   129231788.772       -3143.320          30.000  
  26879340.977   141251854.518       -3508.543          29.000  
 24  2  6 19  8 32.0070000  0 17G 7G 8G10G21G23G27E10E18E25E24G 2G18
                                E11G15E12G16G26
  26641210.167   140000504.974        -905.995          39.000  
  22897119.195   120325179.202        1952.722          35.000  
  23128551.084   121541328.0042        816.943          45.000  
  24062904.871   126451406.911        2567.367          35.000  
  24030339.476   126280291.238       -1639.751          38.000  
  22166177.178   116484066.545        -599.339          30.000  
  25604334.351   134551701.291         914.661          33.000  
  23024462.322   120994365.100       -5391.022          35.000  
  26743754.974   140539400.397        1228.073          36.000  
  26548784.031   139514929.214       -1702.403          26.000  
  25872629.313   135961596.349        3061.737          36.000  
  26818600.774   140932697.6153      -3086.287          26.000  
  25808947.106   135626927.077        2108.258          29.000  
  26723416.904                       -1233.788          19.000  
  25599194.782   134524689.976        -356.459          33.000  
  24592585.587   129234931.980       -3143.213          29.000  
  26880013.160   141255362.555       -3507.956          29.000  
 24  2  6 19  8 33.0070000  0 17G 7G 8G10G21G23G27E10E18E25E24G 2G18
                                E11G15E12G16G26
  26641382.645   140001410.863        -905.735          39.000  
  22896747.496   120323226.388        1952.209          36.000  
  23128394.128   121540511.2282        816.170          45.000  
  24062416.344   126448838.921        2567.731          35.000  
  24030651.424   126281931.232       -1640.073          38.000  
  22166293.684   116484665.789        -599.389          34.000  
  25604160.398   134550787.209         913.860          34.000  
  23025488.448   120999756.135       -5392.033          35.000  
  26743520.870   140538172.141        1226.027          32.000  
  26549108.431   139516630.812       -1701.885          25.000  
  25872046.868   135958534.652        3061.304          37.000  
  26819186.063   140935783.8102      -3087.003          28.000  
  25808545.350   135624818.251        2108.417          28.000  
  26723653.581                       -1236.232          19.000  
  25599262.227   134525046.384        -355.726          32.000  
  24593182.515   129238075.025       -3143.175          29.000  
  26880678.126   141258870.233       -3508.084          29.000  
 24  2  6 19  8 34.0070000  0 17G 7G 8G10G21G23G27E10E18E25E24G 2G18
                                E11G15E12G16G26
  26641555.210   140002317.876        -907.082          35.000  
  22896376.217   120321274.493        1952.222          42.000  
  23128238.324   121539695.7322        815.593          46.000  
  24061928.776   126446271.632        2567.179          30.000  
  24030963.827   126283572.487       -1641.313          45.000  
  22166410.862   116485266.306        -600.367          45.000  
  25603986.507   134549873.930         913.445          37.000  
  23026513.299   121005148.343       -5391.571          31.000  
  26743287.334   140536944.940        1227.525          37.000  
  26549442.890                       -1703.969          23.000  
  25871464.206   135955473.602        3061.426          35.000  
  26819780.252   140938870.7522      -3086.337          33.000  
  25808144.361                        2109.384          29.000  
  26723889.709   140434987.9633      -1237.643          30.000  
  25599330.065   134525403.641        -357.046          33.000  
  24593795.978   129241219.027       -3143.044          35.000  
  26881339.760   141262378.484       -3507.936          29.000  
 24  2  6 19  8 35.0070000  0 17G 7G 8G10G21G23G27E10E18E25E24G 2G18
                                E11G15E12G16G26
  26641727.697   140003225.221        -907.428          34.000  
  22896004.736   120319322.843        1951.544          41.000  
  23128083.576   121538880.6682        814.980          45.000  
  24061443.424   126443704.839        2567.122          30.000  
  24031276.081   126285214.087       -1641.631          43.000  
  22166522.579   116485867.111        -600.809          43.000  
  25603812.764   134548960.852         913.227          37.000  
  23027533.220   121010541.153       -5393.235          30.000  
  26743054.155   140535717.932        1226.769          36.000  
  26549769.820                       -1696.084          23.000  
  25870881.525   135952412.705        3060.870          36.000  
  26820368.839   140941957.3732      -3086.237          33.000  
  25807742.788   135620613.7301       2107.855          28.000  
  26724123.437   140436225.9842      -1237.896          30.000  
  25599397.894   134525761.138        -357.347          33.000  
  24594393.107   129244363.191       -3143.773          34.000  
  26882003.209   141265886.562       -3508.117          29.000  
 24  2  6 19  8 36.0070000  0 17G 7G 8G10G21G23G27E10E18E25E24G 2G18
                                E11G15E12G16G26
  26641900.402   140004133.023        -908.102          35.000  
  22895633.335   120317371.524        1951.154          42.000  
  23127928.801   121538066.1922        814.334          46.000  
  24060961.318   126441138.394        2566.024          31.000  
  24031588.458   126286856.233       -1642.457          44.000  
  22166639.129   116486468.367        -601.416          45.000  
  25603639.344   134548048.026         912.915          37.000  
  23028556.519   121015934.447       -5393.468          30.000  
  26742821.020   140534491.317        1226.580          36.000  
  26550095.057                       -1698.205          23.000  
  25870298.950   135949351.956        3060.443          36.000  
  26820953.238   140945044.0152      -3086.155          33.000  
  25807342.384   135618505.986        2107.837          28.000  
  26724360.010   140437464.6542      -1239.135          29.000  
  25599465.819   134526118.854        -357.787          34.000  
  24594988.316   129247507.650       -3144.633          34.000  
  26882673.524   141269394.518       -3507.516          29.000  
 24  2  6 19  8 37.0070000  0 17G 7G 8G10G21G23G27E10E18E25E24G 2G18
                                E11G15E12G16G26
  26642073.211   140005041.408        -908.658          33.000  
  22895261.950   120315420.615        1950.134          47.000  
  23127774.576   121537252.524         813.032          47.000  
  24060461.309   126438572.618        2565.483          42.000  
  24031901.392   126288499.006       -1643.277          46.000  
  22166752.843   116487070.411        -602.393          44.000  
  25603465.792   134547135.591         912.197          42.000  
  23029591.604   121021328.499       -5394.582          37.000  
  26742588.147   140533265.130        1225.487          46.000  
  26550423.784                       -1704.355          25.000  
  25869716.243   135946291.562        3060.327          36.000  
  26821542.785   140948130.8502      -3087.154          30.000  
  25806942.495                        2106.500          38.000  
  26724594.165   140438703.8232      -1238.652          30.000  
  25599533.822   134526477.079        -358.465          37.000  
  24595587.487   129250652.459       -3144.748          36.000  
  26883343.691   141272902.683       -3509.028          31.000  
 24  2  6 19  8 38.0070000  0 16G 7G 8G10G21G23G27E10E18E25E24G 2E11
                                G15E12G16G26
  26642246.448   140005950.783        -909.852          37.000  
  22894891.491   120313470.781        1949.170          49.000  
  23127620.098   121536440.029         811.679          46.000  
  24059973.200   126436007.433        2564.597          42.000  
  24032214.187   126290142.920       -1644.775          46.000  
  22166868.695   116487673.281        -603.474          45.000  
  25603292.477   134546223.895         911.126          43.000  
  23030620.853   121026723.723       -5395.992          38.000  
  26742355.309   140532040.064        1224.591          45.000  
  26550729.748   139525036.1221      -1705.359          32.000  
  25869133.764   135943231.894        3059.155          33.000  
  25806542.466   135614301.4961       2106.045          39.000  
  26724829.551   140439944.4072      -1241.420          28.000  
  25599602.297   134526835.901        -359.357          39.000  
  24596179.643   129253798.091       -3148.359          32.000  
  26884005.674   141276411.203       -3508.467          30.000  
 24  2  6 19  8 39.0070000  0 16G 7G 8G10G21G23G27E10E18E25E24G 2E11
                                G15E12G16G26
  26642419.572   140006860.572        -909.819          37.000  
  22894520.761   120311521.260        1949.298          47.000  
  23127465.367   121535628.055         811.305          50.000  
  24059484.855   126433442.487        2564.689          42.000  
  24032527.244   126291787.362       -1644.653          47.000  
  22166982.191   116488276.600        -603.424          45.000  
  25603119.589   134545312.536         911.167          44.000  
  23031647.057   121032119.647       -5396.888          44.000  
  26742122.453   140530815.374        1224.380          45.000  
  26551064.164   139526741.164       -1704.420          32.000  
  25868551.398   135940172.467        3057.275          35.000  
  25806141.870   135612194.986        2106.643          35.000  
  26725059.100   140441185.5392      -1240.590          30.000  
  25599670.981   134527195.008        -359.412          38.000  
  24596771.223   129256943.920       -3145.449          35.000  
  26884676.835   141279919.471       -3506.647          29.000  
 24  2  6 19  8 40.0070000  0 16G 7G 8G10G21G23G27E10E18E25E24G 2E11
                                G15E12G16G26
  26642592.660   140007770.706        -910.096          33.000  
  22894149.743   120309571.967        1949.042          44.000  
  23127310.967   121534816.521         811.157          48.000  
  24059002.392                        2588.682          24.000  
  24032840.380   126293432.086       -1645.131          46.000  
  22167097.476   116488880.215        -603.779          46.000  
  25602946.125   134544401.207         911.088          43.000  
  23032674.639   121037515.948       -5396.718          42.000  
  26741889.327   140529590.864        1224.069          41.000  
  26551375.432   139528446.048       -1705.510          36.000  
  25867966.056   135937112.985        3058.936          27.000  
  25805738.883                        2106.820          25.000  
  26725302.435   140442427.0512      -1242.664          30.000  
  25599739.316   134527554.134        -359.425          38.000  
  24597380.052   129260089.982       -3146.418          42.000  
  26885343.050   141283427.731       -3508.472          36.000  
 24  2  6 19  8 41.0070000  0 16G 7G 8G10G21G23G27E10E18E25E24G 2E11
                                G15E12G16G26
  26642765.950   140008681.246        -910.320          33.000  
  22893779.040   120307623.079        1948.694          44.000  
  23127156.446   121534005.594         810.583          47.000  
  24058511.666                        2588.682          20.000  
  24033153.716   126295077.387       -1645.618          46.000  
  22167212.560   116489484.319        -604.370          45.000  
  25602772.530   134543490.160         910.999          44.000  
  23033701.846   121042912.960       -5397.496          42.000  
  26741656.515   140528366.883        1223.542          40.000  
  26551709.159   139530151.609       -1705.983          37.000  
  25867383.001   135934053.485        3059.717          27.000  
  25805334.797                        2106.604          26.000  
  26725534.933   140443669.1312      -1242.625          29.000  
  25599807.939   134527913.544        -359.905          38.000  
  24597980.296   129263236.325       -3146.585          42.000  
  26886010.206   141286936.063       -3508.273          36.000  
 24  2  6 19  8 42.0070000  0 17G 7G 8G10G18G21G23G27E10E18E25E24G 2
                                E11G15E12G16G26
  26642939.414   140009592.321        -912.128          32.000  
  22893408.493   120305674.551        1948.358          45.000  
  23127002.229   121533195.311         809.827          48.000  
  26824467.625                       -3087.934          35.000  
  24058017.345                        2572.855          17.000  
  24033467.008   126296723.249       -1646.358          46.000  
  22167327.470   116490088.909        -605.214          45.000  
  25602599.162   134542579.376         910.746          44.000  
  23034728.565   121048310.595       -5398.109          43.000  
  26741423.686   140527143.318        1223.399          41.000  
  26552034.003   139531857.509       -1706.037          37.000  
  25866804.299   135930994.299        3059.082          28.000  
  25804939.088   135605880.4841       2106.348          27.000  
  26725767.937   140444911.8142      -1242.660          29.000  
  25599876.553   134528273.205        -360.320          38.000  
  24598580.627   129266382.965       -3146.842          43.000  
  26886677.407   141290444.356       -3508.028          36.000  
 24  2  6 19  8 43.0070000  0 17G 7G 8G10G18G21G23G27E10E18E25E24G 2
                                E11G15E12G16G26
  26643112.930   140010503.900        -911.664          36.000  
  22893037.877   120303726.511        1948.266          47.000  
  23126848.214   121532385.759         809.277          49.000  
  26825063.035   140966615.2733      -3087.192          34.000  
  24057531.635                        2563.558          42.000  
  24033780.222   126298369.712       -1646.397          47.000  
  22167442.711   116490694.070        -605.888          48.000  
  25602425.908   134541668.940         909.716          46.000  
  23035755.144   121053708.953       -5398.522          42.000  
  26741190.917   140525920.383        1223.324          44.000  
  26552358.621   139533564.044       -1706.396          40.000  
  25866218.618   135927935.088        3060.309          33.000  
  25804539.242   135603774.596        2105.113          40.000  
  26726004.815   140446155.316       -1244.192          29.000  
  25599945.080   134528633.215        -359.987          40.000  
  24599178.820   129269530.019       -3148.874          37.000  
  26887345.296   141293952.803       -3507.737          36.000  
 24  2  6 19  8 44.0070000  0 17G 7G 8G10G18G21G23G27E10E18E25E24G 2
                                E11G15E12G16G26
  26643286.237   140011416.018        -913.873          35.000  
  22892666.981   120301778.907        1947.351          47.000  
  23126694.538   121531576.875         808.540          49.000  
  26825654.737   140969702.6532      -3087.380          34.000  
  24057047.479   126420618.0633       2563.018          43.000  
  24034093.715   126300016.816       -1647.654          47.000  
  22167557.804   116491299.753        -606.139          47.000  
  25602252.906   134540758.840         909.615          45.000  
  23036783.485   121059107.953       -5399.226          43.000  
  26740958.026   140524697.859        1222.244          43.000  
  26552683.736   139535270.798       -1707.135          44.000  
  25865637.281   135924876.337        3059.247          40.000  
  25804139.929   135601669.127        2105.452          40.000  
  26726232.531   140447399.418       -1244.777          28.000  
  25600013.843   134528993.514        -360.642          40.000  
  24599777.337   129272677.433       -3148.109          46.000  
  26888016.117   141297478.2023      -3509.130          33.000  
 24  2  6 19  8 45.0070000  0 17G 7G 8G10G18G21G23G27E10E18E25E24G 2
                                E11G15E12G16G26
  26643459.718   140012328.753        -913.433          36.000  
  22892296.321   120299831.854        1946.686          47.000  
  23126540.732   121530768.814         807.409          48.000  
  26826241.265   140972790.2442      -3088.185          34.000  
  24056557.730   126418055.2282       2562.427          43.000  
  24034407.148   126301664.648       -1648.253          47.000  
  22167673.307   116491906.123        -606.774          48.000  
  25602079.678   134539849.213         909.272          45.000  
  23037810.587   121064507.932       -5400.819          38.000  
  26740725.502   140523475.966        1221.386          43.000  
  26553010.282   139536978.211       -1707.813          44.000  
  25865053.484   135921817.989        3058.282          40.000  
  25803741.898   135599564.074        2104.860          40.000  
  26726476.564   140448644.317       -1245.618          28.000  
  25600082.693   134529354.282        -361.274          40.000  
  24600376.804   129275825.280       -3148.465          44.000  
  26888678.781   141300986.7962      -3508.516          36.000  
 24  2  6 19  8 46.0070000  0 17G 7G 8G10G18G21G23G27E10E18E25E24G 2
                                E11G15E12G16G26
  26643633.400   140013242.004        -913.354          35.000  
  22891925.530   120297885.193        1946.484          47.000  
  23126386.996   121529961.373         807.030          47.000  
  26826826.920   140975877.8372      -3087.857          33.000  
  24056070.485   126415492.7232       2562.327          43.000  
  24034720.990   126303313.018       -1648.603          46.000  
  22167789.098   116492512.969        -607.010          47.000  
  25601906.563   134538939.856         909.113          44.000  
  23038838.100   121069908.466       -5400.860          38.000  
  26740493.039   140522254.487        1221.294          43.000  
  26553334.908   139538685.974       -1707.978          44.000  
  25864473.238   135918759.827        3058.038          39.000  
  25803336.433   135597459.231        2104.520          40.000  
  26726715.902   140449889.822       -1245.878          27.000  
  25600151.560   134529715.301        -361.260          39.000  
  24600976.324   129278973.453       -3148.356          44.000  
  26889346.688   141304495.3602      -3508.430          36.000  
 24  2  6 19  8 47.0070000  0 17G 7G 8G10G18G21G23G27E10E18E25E24G 2
                                E11G15E12G16G26
  26643807.239   140014155.479        -913.378          35.000  
  22891555.289   120295938.662        1946.612          47.000  
  23126233.739   121529154.319         807.106          47.000  
  26827416.066   140978965.2742      -3087.515          33.000  
  24055583.083   126412930.2942       2562.455          42.000  
  24035034.762   126304961.688       -1648.653          46.000  
  22167904.592   116493120.050        -606.897          47.000  
  25601733.928   134538030.530         909.496          44.000  
  23039866.319   121075309.377       -5400.890          38.000  
  26740260.026   140521033.221        1221.373          43.000  
  26553659.875   139540393.853       -1707.668          44.000  
  25863895.531   135915701.550        3058.606          40.000  
  25802937.373   135595354.330        2104.973          40.000  
  26726955.546   140451135.750       -1246.585          27.000  
  25600220.366   134530076.302        -360.786          39.000  
  24601575.756   129282121.658       -3148.016          44.000  
  26890016.235   141308003.6492      -3508.040          36.000  
 24  2  6 19  8 48.0070000  0 17G 7G 8G10G18G21G23G27E10E18E25E24G 2
                                E11G15E12G16G26
  26643981.139   140015069.375        -914.559          36.000  
  22891185.021   120293992.461        1945.966          47.000  
  23126080.177   121528347.817         806.288          47.000  
  26828003.388   140982052.6232      -3087.870          33.000  
  24055095.890   126410368.1132       2561.835          42.000  
  24035348.220   126306610.838       -1649.406          46.000  
  22168020.113   116493727.558        -607.793          47.000  
  25601560.674   134537121.404         909.025          44.000  
  23040894.294   121080710.897       -5401.572          38.000  
  26740028.218   140519812.324        1220.819          43.000  
  26553984.754   139542102.062       -1708.581          44.000  
  25863310.583   135912643.429        3057.666          40.000  
  25802536.210   135593249.592        2104.423          40.000  
  26727193.968   140452382.073       -1246.616          27.000  
  25600289.085   134530437.514        -361.378          39.000  
  24602174.717   129285270.136       -3148.708          44.000  
  26890683.549   141311511.8492      -3508.640          36.000  
 24  2  6 19  8 49.0070000  0 17G 7G 8G10G18G21G23G27E10E18E25E24G 2
                                E11G15E12G16G26
  26644155.458   140015983.876        -914.291          36.000  
  22890814.815   120292046.856        1945.294          47.000  
  23125927.191   121527542.170         805.339          47.000  
  26828589.924   140985140.2052      -3087.988          33.000  
  24054607.825   126407806.4752       2561.597          42.000  
  24035662.080   126308260.736       -1650.206          46.000  
  22168135.633   116494335.751        -608.456          47.000  
  25601387.960   134536212.750         908.527          44.000  
  23041922.591   121086113.224       -5402.746          39.000  
  26739796.243   140518592.061        1220.281          43.000  
  26554310.271   139543810.827       -1709.045          44.000  
  25862730.276   135909585.659        3057.214          40.000  
  25802136.652   135591145.254        2104.535          40.000  
  26727433.211   140453629.301       -1247.470          28.000  
  25600358.371   134530799.185        -361.889          39.000  
  24602774.097   129288419.090       -3149.068          44.000  
  26891353.105   141315020.2382      -3508.686          37.000  
 24  2  6 19  8 50.0070000  0 17G 7G 8G10G18G21G23G27E10E18E25E24G 2
                                E11G15E12G16G26
  26644329.734   140016898.846        -915.659          36.000  
  22890444.451   120290101.553        1945.160          47.000  
  23125774.004   121526737.077         804.924          47.000  
  26829177.351   140988227.7032      -3086.802          32.000  
  24054121.557   126405245.0872       2561.520          42.000  
  24035976.123   126309911.120       -1650.454          46.000  
  22168251.258   116494944.348        -608.674          47.000  
  25601214.767   134535304.291         908.637          44.000  
  23042951.003   121091516.146       -5403.330          39.000  
  26739564.443   140517372.182        1219.957          43.000  
  26554635.918   139545519.909       -1709.231          44.000  
  25862148.354   135906528.001        3057.538          41.000  
  25801735.690   135589041.068        2104.401          40.000  
  26727673.247   140454877.054       -1247.442          29.000  
  25600427.195   134531161.026        -361.674          39.000  
  24603373.574   129291568.285       -3149.255          44.000  
  26892020.524   141318528.5192      -3508.089          36.000  
 24  2  6 19  8 51.0070000  0 17G 7G 8G10G18G21G23G27E10E18E25E24G 2
                                E11G15E12G16G26
  26644503.992   140017814.112        -915.947          36.000  
  22890074.289   120288156.456        1944.690          47.000  
  23125621.062   121525932.449         803.950          47.000  
  26829764.848   140991315.0872      -3087.052          33.000  
  24053633.396   126402683.8612       2560.730          42.000  
  24036289.764   126311561.872       -1651.345          46.000  
  22168367.136   116495553.258        -609.345          47.000  
  25601041.669   134534395.944         907.930          44.000  
  23043979.039   121096919.540       -5403.882          39.000  
  26739332.417   140516152.572        1219.115          43.000  
  26554960.867   139547229.161       -1709.546          43.000  
  25861566.250   135903470.324        3057.581          40.000  
  25801336.403   135586936.898        2104.134          39.000  
  26727911.155   140456125.246       -1248.275          29.000  
  25600496.167   134531522.963        -362.346          39.000  
  24603972.954   129294717.584       -3149.598          44.000  
  26892686.267   141322036.6112      -3508.409          36.000  
 24  2  6 19  8 52.0070000  0 17G 7G 8G10G18G21G23G27E10E18E25E24G 2
                                E11G15E12G16G26
  26644678.101   140018729.727        -915.679          36.000  
  22889704.117   120286211.652        1944.257          47.000  
  23125468.216   121525128.345         803.441          47.000  
  26830352.466   140994402.4402      -3087.585          33.000  
  24053146.020   126400122.8932       2560.327          42.000  
  24036603.633   126313213.090       -1651.704          46.000  
  22168482.805   116496162.577        -609.933          47.000  
  25600869.444   134533487.802         907.568          44.000  
  23045007.755   121102323.480       -5404.607          39.000  
  26739100.285   140514933.302        1218.882          43.000  
  26555285.764   139548938.741       -1710.287          44.000  
  25860984.460   135900412.817        3056.995          41.000  
  25800936.191   135584832.877        2103.774          39.000  
  26728151.235   140457373.968       -1249.250          29.000  
  25600565.113   134531885.068        -362.559          39.000  
  24604572.403   129297867.128       -3150.231          44.000  
  26893354.497   141325544.6122      -3508.345          36.000  
 24  2  6 19  8 53.0070000  0 17G 7G 8G10G18G21G23G27E10E18E25E24G 2
                                E11G15E12G16G26
  26644852.516   140019645.877        -916.321          36.000  
  22889334.321   120284267.307        1943.964          47.000  
  23125314.933   121524324.947         802.847          48.000  
  26830940.024   140997489.8382      -3087.634          32.000  
  24052658.653   126397562.2702       2560.193          42.000  
  24036917.833   126314864.910       -1652.338          45.000  
  22168598.675   116496772.428        -610.297          47.000  
  25600696.548   134532579.966         907.471          44.000  
  23046036.594   121107728.108       -5405.298          40.000  
  26738868.319   140513714.552        1218.365          43.000  
  26555611.106   139550648.733       -1710.498          44.000  
  25860402.792   135897355.481        3056.995          40.000  
  25800535.560   135582729.122        2103.468          39.000  
  26728387.014   140458623.371       -1249.548          29.000  
  25600633.666   134532247.494        -362.803          39.000  
  24605171.722   129301016.993       -3150.345          44.000  
  26894022.055   141329052.6322      -3508.294          37.000  
 24  2  6 19  8 54.0070000  0 17G 7G 8G10G18G21G23G27E10E18E25E24G 2
                                E11G15E12G16G26
  26645027.254   140020562.626        -917.329          36.000  
  22888964.786   120282323.447        1943.250          47.000  
  23125162.043   121523522.257         802.139          48.000  
  26831527.337   141000577.3002      -3086.430          32.000  
  24052171.574   126395002.0962       2559.629          42.000  
  24037232.172   126316517.378       -1653.086          45.000  
  22168715.006   116497382.875        -611.004          47.000  
  25600523.564   134531672.508         907.133          44.000  
  23047065.075   121113133.492       -5405.962          40.000  
  26738636.223   140512496.309        1217.840          43.000  
  26555936.308   139552359.204       -1710.847          44.000  
  25859820.670   135894298.454        3056.683          40.000  
  25800135.287   135580625.693        2103.020          39.000  
  26728622.583   140459873.464       -1250.594          30.000  
  25600702.638   134532610.257        -363.247          39.000  
  24605770.797   129304167.260       -3150.575          44.000  
  26894689.657   141332560.7182      -3508.210          36.000  
 24  2  6 19  8 55.0070000  0 17G 7G 8G10G18G21G23G27E10E18E25E24G 2
                                E11G15E12G16G26
  26645201.826   140021480.125        -917.937          36.000  
  22888595.156   120280380.274        1943.182          47.000  
  23125009.406   121522720.486         801.740          47.000  
  26832114.790   141003665.2052      -3087.428          32.000  
  24051684.756   126392442.516        2559.684          43.000  
  24037546.669   126318170.695       -1653.348          45.000  
  22168831.399   116497994.098        -611.265          46.000  
  25600351.304   134530765.627         906.899          44.000  
  23048094.070   121118539.820       -5406.414          40.000  
  26738404.571   140511278.830        1217.583          43.000  
  26556261.886   139554070.353       -1711.061          44.000  
  25859239.045   135891241.889        3056.799          41.000  
  25799735.406   135578522.771        2102.924          39.000  
  26728857.498   140461124.435       -1251.046          30.000  
  25600771.645   134532973.572        -363.291          39.000  
  24606369.942   129307318.146       -3150.796          43.000  
  26895357.468   141336069.085       -3507.959          37.000  
 24  2  6 19  8 56.0070000  0 17G 7G 8G10G18G21G23G27E10E18E25E24G 2
                                E11G15E12G16G26
  26645376.625   140022397.951        -918.124          37.000  
  22888225.264   120278437.377        1942.657          47.000  
  23124856.777   121521919.213         800.849          48.000  
  26832702.365   141006752.9512      -3087.906          32.000  
  24051197.712   126389883.162        2559.041          42.000  
  24037861.662   126319824.418       -1654.310          46.000  
  22168947.452   116498605.651        -611.956          46.000  
  25600178.442   134529858.868         906.207          44.000  
  23049122.953   121123946.682       -5407.320          39.000  
  26738172.928   140510061.638        1216.760          43.000  
  26556587.559   139555781.726       -1711.859          44.000  
  25858657.648   135888185.400        3056.061          41.000  
  25799335.194   135576419.901        2102.234          39.000  
  26729095.240   140462375.879       -1250.630          30.000  
  25600841.027   134533337.013        -364.029          39.000  
  24606969.304   129310469.180       -3151.500          43.000  
  26896024.939   141339577.314       -3508.339          37.000  
 24  2  6 19  8 57.0070000  0 17G 7G 8G10G18G21G23G27E10E18E25E24G 2
                                E11G15E12G16G26
  26645551.476   140023316.208        -918.555          37.000  
  22887855.720   120276494.825        1942.584          47.000  
  23124703.940   121521118.526         800.382          47.000  
  26833289.940   141009840.6432      -3087.655          32.000  
  24050710.825   126387324.059        2559.093          42.000  
  24038176.613   126321478.620       -1654.214          46.000  
  22169063.897   116499217.643        -611.959          46.000  
  25600005.842   134528952.336         906.376          44.000  
  23050152.166   121129354.097       -5407.723          39.000  
  26737941.137   140508844.867        1216.346          43.000  
  26556913.171   139557493.430       -1711.861          44.000  
  25858076.137   135885129.008        3056.292          41.000  
  25798934.921   135574317.192        2102.700          39.000  
  26729336.288   140463627.970       -1252.422          31.000  
  25600910.252   134533700.643        -363.815          39.000  
  24607568.702   129313620.452       -3151.373          43.000  
  26896692.488   141343085.451       -3507.616          37.000  
 24  2  6 19  8 58.0070000  0 17G 7G 8G10G18G21G23G27E10E18E25E24G 2
                                E11G15E12G16G26
  26645726.039   140024234.861        -918.700          37.000  
  22887486.003   120274552.619        1941.711          47.000  
  23124551.154   121520318.401         799.491          47.000  
  26833877.463   141012928.2802      -3088.124          32.000  
  24050224.060   126384765.247        2558.325          43.000  
  24038491.816   126323133.345       -1655.280          46.000  
  22169180.823   116499830.081        -613.052          47.000  
  25599833.076   134528046.012         905.956          44.000  
  23051181.101   121134762.065       -5408.430          39.000  
  26737709.407   140507628.446        1215.788          43.000  
  26557238.757   139559205.445       -1712.587          44.000  
  25857494.556   135882072.752        3055.859          41.000  
  25798534.482   135572214.660        2102.241          39.000  
  26729574.710   140464880.493       -1252.571          30.000  
  25600979.494   134534064.485        -364.067          39.000  
  24608168.030   129316771.990       -3152.128          43.000  
  26897359.994   141346593.521       -3508.293          37.000  
 24  2  6 19  8 59.0070000  0 17G 7G 8G10G18G21G23G27E10E18E25E24G 2
                                E11G15E12G16G26
  26645900.995   140025153.944        -919.540          36.000  
  22887116.136   120272610.718        1941.467          47.000  
  23124398.805   121519518.816         799.016          47.000  
  26834465.116   141016015.8752      -3087.734          32.000  
  24049737.111   126382206.677        2557.948          42.000  
  24038806.958   126324788.523       -1655.756          46.000  
  22169297.966   116500442.909        -613.323          47.000  
  25599661.095   134527139.902         905.699          44.000  
  23052209.914   121140170.651       -5409.115          39.000  
  26737478.026   140506412.402        1215.371          43.000  
  26557564.745   139560917.762       -1712.724          44.000  
  25856913.481   135879016.601        3055.804          41.000  
  25798134.619   135570112.236        2102.354          40.000  
  26729814.101   140466133.587       -1253.739          30.000  
  25601048.868   134534428.516        -364.530          39.000  
  24608767.732   129319923.733       -3152.052          43.000  
  26898027.438   141350101.506       -3508.263          37.000  
 24  2  6 19  9  0.0070000  0 17G 7G 8G10G18G21G23G27E10E18E25E24G 2
                                E11G15E12G16G26
  26646076.125   140026073.744        -919.709          36.000  
  22886746.654   120270669.454        1941.193          46.000  
  23124246.491   121518720.123         798.370          47.000  
  26835052.700   141019103.7792      -3087.509          32.000  
  24049250.198   126379648.691        2557.873          42.000  
  24039122.388   126326444.514       -1656.096          46.000  
  22169414.804   116501056.493        -613.692          47.000  
  25599488.940   134526234.315         905.563          44.000  
  23053239.180   121145580.118       -5409.671          39.000  
  26737247.211   140505197.059        1215.138          43.000  
  26557891.020   139562630.713       -1712.987          44.000  
  25856332.389   135875960.895        3055.817          40.000  
  25797734.311   135568010.321        2102.042          40.000  
  26730052.907   140467387.497       -1252.564          30.000  
  25601117.735   134534793.049        -364.579          39.000  
  24609367.645   129323076.047       -3152.479          43.000  
  26898694.717   141353609.723       -3508.093          37.000  
 24  2  6 19  9  1.0070000  0 17G 7G 8G10G18G21G23G27E10E18E25E24G 2
                                E11G15E12G16G26
  26646251.264   140026994.077        -920.854          36.000  
  22886377.076   120268728.608        1940.472          47.000  
  23124094.657   121517922.080         797.651          47.000  
  26835639.935   141022191.2041      -3087.992          32.000  
  24048763.817   126377091.044        2557.429          43.000  
  24039437.627   126328101.064       -1656.849          46.000  
  22169531.790   116501670.580        -614.466          47.000  
  25599316.785   134525329.028         905.001          44.000  
  23054268.385   121150990.245       -5410.589          39.000  
  26737016.293   140503982.161        1214.605          43.000  
  26558217.121   139564344.043       -1713.564          44.000  
  25855750.756   135872905.394        3055.170          40.000  
  25797334.117   135565908.638        2101.424          40.000  
  26730289.707   140468642.097       -1254.076          31.000  
  25601187.326   134535157.858        -365.100          39.000  
  24609967.470   129326228.669       -3152.828          43.000  
  26899362.380   141357117.927       -3508.395          36.000  
 24  2  6 19  9  2.0070000  0 17G 7G 8G10G18G21G23G27E10E18E25E24G 2
                                E11G15E12G16G26
  26646426.386   140027914.583        -920.751          36.000  
  22886007.812   120266787.931        1940.399          47.000  
  23123942.875   121517124.435         797.288          47.000  
  26836227.030   141025278.960       -3087.524          32.000  
  24048277.113   126374533.514        2557.609          43.000  
  24039753.065   126329757.955       -1657.203          46.000  
  22169648.811   116502284.926        -614.662          47.000  
  25599144.770   134524423.784         905.394          44.000  
  23055297.948   121156400.792       -5410.828          39.000  
  26736785.173   140502767.498        1214.567          43.000  
  26558543.763   139566057.553       -1713.482          44.000  
  25855169.314   135869849.838        3055.505          40.000  
  25796933.556   135563806.937        2101.561          40.000  
  26730536.322   140469897.103       -1255.116          31.000  
  25601256.831   134535522.699        -364.844          39.000  
  24610567.836   129329381.374       -3152.856          44.000  
  26900029.842   141360625.869       -3507.612          37.000  
 24  2  6 19  9  3.0070000  0 17G 7G 8G10G18G21G23G27E10E18E25E24G 2
                                E11G15E12G16G26
  26646601.412   140028835.631        -921.041          36.000  
  22885638.784   120264847.682        1940.399          47.000  
  23123790.665   121516327.471         796.801          47.000  
  26836817.135   141028366.805       -3088.809          32.000  
  24047790.801   126371976.347        2557.032          43.000  
  24040068.391   126331415.438       -1657.809          46.000  
  22169766.042   116502899.808        -615.051          47.000  
  25598972.780   134523518.875         904.743          44.000  
  23056327.607   121161812.022       -5411.409          39.000  
  26736553.853   140501553.325        1214.121          43.000  
  26558870.231   139567771.476       -1714.015          44.000  
  25854587.498   135866794.508        3055.481          40.000  
  25796533.789   135561705.482        2101.353          40.000  
  26730773.252   140471152.718       -1255.699          32.000  
  25601326.431   134535887.855        -365.331          39.000  
  24611167.958   129332534.415       -3153.041          44.000  
  26900697.226   141364133.866       -3507.796          37.000  
 24  2  6 19  9  4.0070000  0 17G 7G 8G10G18G21G23G27E10E18E25E24G 2
                                E11G15E12G16G26
  26646776.533   140029756.761        -921.223          36.000  
  22885269.432   120262907.447        1940.106          46.000  
  23123639.119   121515530.734         796.516          47.000  
  26837397.861   141031454.178       -3087.214          31.000  
  24047304.106   126369419.124        2557.101          43.000  
  24040384.187   126333073.064       -1657.746          46.000  
  22169882.984   116503514.778        -615.005          47.000  
  25598800.878   134522613.832         905.137          44.000  
  23057356.890   121167223.509       -5411.815          38.000  
  26736323.100   140500339.192        1214.119          43.000  
  26559196.340   139569485.367       -1713.961          44.000  
  25854005.891   135863738.972        3055.444          41.000  
  25796134.074   135559603.870        2101.602          39.000  
  26731014.039   140472408.609       -1256.122          32.000  
  25601395.909   134536252.845        -364.896          39.000  
  24611768.018   129335687.366       -3153.071          44.000  
  26901364.566   141367641.457       -3507.814          36.000  
 24  2  6 19  9  5.0070000  0 17G 7G 8G10G18G21G23G27E10E18E25E24G 2
                                E11G15E12G16G26
  26646952.039   140030678.457        -921.786          37.000  
  22884900.465   120260967.651        1939.307          46.000  
  23123487.956   121514734.718         795.452          47.000  
  26837988.612   141034541.755       -3087.979          32.000  
  24046817.777   126366862.296        2556.430          43.000  
  24040699.740   126334731.324       -1658.844          46.000  
  22170000.389   116504130.316        -616.154          47.000  
  25598628.453   134521709.159         904.083          44.000  
  23058386.802   121172635.703       -5413.146          38.000  
  26736092.251   140499125.597        1212.932          43.000  
  26559522.459   139571199.723       -1714.758          44.000  
  25853424.327   135860683.696        3054.901          40.000  
  25795734.124   135557502.527        2100.889          40.000  
  26731254.582   140473665.161       -1257.254          33.000  
  25601465.378   134536618.187        -365.707          39.000  
  24612368.227   129338840.697       -3153.902          44.000  
  26902031.836   141371149.065       -3508.254          37.000  
 24  2  6 19  9  6.0070000  0 17G 7G 8G10G18G21G23G27E10E18E25E24G 2
                                E11G15E12G16G26
  26647127.867   140031601.006        -923.127          37.000  
  22884531.131   120259028.622        1938.654          46.000  
  23123336.820   121513939.699         794.677          47.000  
  26838579.249   141037629.619       -3087.169          32.000  
  24046331.396   126364306.145        2556.107          43.000  
  24041015.475   126336390.485       -1659.442          46.000  
  22170117.969   116504746.694        -616.728          47.000  
  25598456.280   134520805.107         903.792          44.000  
  23059417.011   121178048.888       -5413.513          38.000  
  26735861.682   140497912.782        1212.588          43.000  
  26559848.542   139572914.804       -1715.138          44.000  
  25852843.043   135857628.943        3054.822          40.000  
  25795334.557   135555401.768        2100.577          40.000  
  26731494.697   140474922.677       -1258.229          33.000  
  25601534.996   134536984.135        -366.034          39.000  
  24612968.864   129341994.670       -3153.933          44.000  
  26902699.560   141374657.045       -3508.067          36.000  
 24  2  6 19  9  7.0070000  0 17G 7G 8G10G18G21G23G27E10E18E25E24G 2
                                E11G15E12G16G26
  26647303.896   140032523.945        -923.217          37.000  
  22884162.155   120257089.933        1938.635          46.000  
  23123186.207   121513145.257         794.321          47.000  
  26839169.136   141040717.572       -3088.447          32.000  
  24045844.736   126361750.305        2555.784          42.000  
  24041331.551   126338050.151       -1659.735          46.000  
  22170235.226   116505363.519        -616.910          47.000  
  25598284.535   134519901.297         903.736          44.000  
  23060447.350   121183462.664       -5414.053          41.000  
  26735630.824   140496700.384        1212.384          43.000  
  26560174.469   139574630.227       -1715.340          44.000  
  25852261.742   135854574.367        3054.346          40.000  
  25794935.043   135553301.192        2100.444          40.000  
  26731734.288   140476180.808       -1259.180          33.000  
  25601604.814   134537350.318        -366.152          39.000  
  24613569.361   129345148.938       -3154.447          44.000  
  26903366.882   141378164.949       -3508.059          37.000  
 24  2  6 19  9  8.0070000  0 17G 7G 8G10G18G21G23G27E10E18E25E24G 2
                                E11G15E12G16G26
  26647479.323   140033447.408        -924.003          37.000  
  22883793.100   120255151.696        1937.793          46.000  
  23123035.123   121512351.516         792.927          47.000  
  26839755.708   141043805.516       -3087.916          32.000  
  24045358.328   126359194.831        2555.083          42.000  
  24041647.138   126339710.429       -1660.793          46.000  
  22170352.727   116505980.891        -617.786          47.000  
  25598112.572   134518997.802         903.200          44.000  
  23061477.716   121188877.155       -5415.163          41.000  
  26735399.966   140495488.469        1211.673          43.000  
  26560500.701   139576346.074       -1716.178          44.000  
  25851680.676   135851519.995        3054.089          40.000  
  25794535.617   135551200.879        2099.938          40.000  
  26731974.019   140477439.500       -1259.113          33.000  
  25601674.214   134537716.801        -366.749          39.000  
  24614169.613   129348303.523       -3155.216          44.000  
  26904034.335   141381672.912       -3508.250          36.000  
 24  2  6 19  9  9.0070000  0 17G 7G 8G10G18G21G23G27E10E18E25E24G 2
                                E11G15E12G16G26
  26647655.178   140034371.604        -924.398          37.000  
  22883424.613   120253214.066        1937.506          46.000  
  23122884.484   121511558.637         792.539          47.000  
  26840342.725   141046893.817       -3088.612          32.000  
  24044872.157   126356639.926        2554.729          43.000  
  24041963.249   126341371.480       -1661.181          46.000  
  22170469.827   116506598.980        -618.319          47.000  
  25597940.513   134518094.828         902.836          44.000  
  23062508.177   121194292.525       -5415.341          41.000  
  26735169.606   140494277.253        1210.960          43.000  
  26560827.229   139578062.545       -1716.630          44.000  
  25851099.732   135848466.044        3054.217          41.000  
  25794135.972   135549101.007        2099.986          40.000  
  26732213.436   140478699.134       -1260.650          33.000  
  25601744.294   134538083.793        -367.224          39.000  
  24614770.084   129351458.653       -3155.236          44.000  
  26904701.754   141385181.033       -3508.095          37.000  
 24  2  6 19  9 10.0070000  0 17G 7G 8G10G18G21G23G27E10E18E25E24G 2
                                E11G15E12G16G26
  26647831.146   140035296.443        -925.640          37.000  
  22883055.759   120251277.004        1936.584          46.000  
  23122733.740   121510766.557         791.643          47.000  
  26840928.302   141049982.241       -3089.020          32.000  
  24044386.438   126354085.523        2554.007          42.000  
  24042279.534   126343033.266       -1662.415          46.000  
  22170587.336   116507217.725        -619.084          47.000  
  25597769.029   134517192.295         902.248          44.000  
  23063538.621   121199708.692       -5416.431          40.000  
  26734938.644   140493066.635        1210.307          43.000  
  26561154.839   139579779.544       -1717.245          44.000  
  25850519.006   135845412.487        3053.485          41.000  
  25793736.685   135547001.529        2099.296          39.000  
  26732453.229   140479959.499       -1260.632          32.000  
  25601814.295   134538451.182        -367.581          39.000  
  24615370.537   129354614.243       -3155.770          44.000  
  26905369.295   141388689.390       -3508.620          36.000  
 24  2  6 19  9 11.0070000  0 17G 7G 8G10G18G21G23G27E10E18E25E24G 2
                                E11G15E12G16G26
  26648007.245   140036221.543        -925.105          37.000  
  22882687.236   120249340.151        1937.000          46.000  
  23122583.206   121509974.915         791.597          47.000  
  26841519.515   141053070.524       -3088.282          32.000  
  24043900.214   126351531.251        2554.555          42.000  
  24042595.889   126344695.399       -1662.079          46.000  
  22170705.413   116507836.780        -618.932          47.000  
  25597596.743   134516289.848         902.662          44.000  
  23064568.899   121205125.339       -5416.614          40.000  
  26734708.737   140491856.273        1210.561          43.000  
  26561481.961   139581496.740       -1716.990          44.000  
  25849937.992   135842358.914        3053.821          41.000  
  25793337.048   135544902.077        2099.705          40.000  
  26732692.995   140481220.319       -1260.978          31.000  
  25601884.367   134538818.644        -367.199          39.000  
  24615971.069   129357769.949       -3155.464          44.000  
  26906036.984   141392197.466       -3507.964          35.000  
 24  2  6 19  9 12.0070000  0 17G 7G 8G10G18G21G23G27E10E18E25E24G 2
                                E11G15E12G16G26
  26648183.248   140037146.980        -925.908          37.000  
  22882318.539   120247403.554        1936.487          46.000  
  23122432.916   121509183.768         790.755          47.000  
  26842108.530   141056158.661       -3088.156          32.000  
  24043414.086   126348977.190        2554.019          42.000  
  24042912.305   126346357.947       -1662.875          46.000  
  22170823.036   116508456.171        -619.593          47.000  
  25597424.623   134515387.552         902.205          44.000  
  23065599.710   121210542.462       -5417.473          40.000  
  26734478.604   140490646.234        1209.706          43.000  
  26561808.725   139583214.172       -1717.533          44.000  
  25849356.821   135839305.387        3053.400          41.000  
  25792937.247   135542802.706        2099.201          39.000  
  26732932.569   140482481.613       -1261.074          31.000  
  25601954.028   134539186.245        -367.818          39.000  
  24616571.182   129360925.821       -3156.013          43.000  
  26906704.812   141395705.384       -3507.668          37.000  
 24  2  6 19  9 13.0070000  0 17G 7G 8G10G18G21G23G27E10E18E25E24G 2
                                E11G15E12G16G26
  26648359.748   140038072.792        -926.514          37.000  
  22881950.314   120245467.243        1936.066          46.000  
  23122282.251   121508393.146         790.355          47.000  
  26842692.763   141059246.804       -3088.297          32.000  
  24042928.106   126346423.343        2553.689          42.000  
  24043228.747   126348020.952       -1663.368          46.000  
  22170940.895   116509075.955        -620.096          47.000  
  25597252.861   134514485.426         901.890          44.000  
  23066630.651   121215960.148       -5418.238          40.000  
  26734248.514   140489436.531        1209.465          43.000  
  26562135.577   139584931.875       -1718.033          44.000  
  25848775.432   135836251.946        3053.406          41.000  
  25792537.427   135540703.466        2098.863          39.000  
  26733167.291   140483743.466       -1263.444          30.000  
  25602024.021   134539554.004        -367.940          39.000  
  24617171.696   129364081.898       -3156.230          43.000  
  26907372.265   141399213.255       -3508.062          34.000  
 24  2  6 19  9 14.0070000  0 17G 7G 8G10G18G21G23G27E10E18E25E24G 2
                                E11G15E12G16G26
  26648536.109   140038999.133        -926.426          36.000  
  22881582.070   120243531.328        1935.834          46.000  
  23122131.821   121507603.211         789.703          47.000  
  26843281.324   141062334.899       -3088.020          33.000  
  24042442.092   126343869.876        2553.306          42.000  
  24043545.469   126349684.535       -1663.850          46.000  
  22171058.745   116509696.269        -620.455          47.000  
  25597081.499   134513583.599         901.769          44.000  
  23067661.593   121221378.474       -5418.549          40.000  
  26734018.529   140488227.296        1209.099          43.000  
  26562462.742   139586649.997       -1718.383          44.000  
  25848194.192   135833198.710        3053.290          40.000  
  25792138.288   135538604.455        2098.723          39.000  
  26733403.393   140485005.867       -1261.941          30.000  
  25602093.874   134539922.041        -368.043          39.000  
  24617772.490   129367238.299       -3156.434          43.000  
  26908039.719   141402721.116       -3507.826          34.000  
 24  2  6 19  9 15.0070000  0 17G 7G 8G10G18G21G23G27E10E18E25E24G 2
                                E11G15E12G16G26
  26648712.312   140039925.855        -927.029          37.000  
  22881213.496   120241595.745        1935.278          46.000  
  23121981.365   121506813.803         789.138          47.000  
  26843868.201   141065422.993       -3087.660          32.000  
  24041956.321   126341316.641        2552.978          42.000  
  24043862.155   126351348.579       -1664.295          46.000  
  22171176.970   116510316.974        -621.098          47.000  
  25596909.903   134512681.977         901.478          44.000  
  23068692.779   121226797.375       -5418.962          40.000  
  26733788.683   140487018.425        1208.677          43.000  
  26562789.427   139588368.419       -1718.747          44.000  
  25847612.611   135830145.594        3052.997          40.000  
  25791738.975   135536505.560        2099.084          39.000  
  26733646.527   140486268.815       -1262.231          30.000  
  25602163.718   134540290.261        -368.237          39.000  
  24618373.353   129370394.924       -3156.778          43.000  
  26908707.094   141406228.778       -3507.869          37.000  
 24  2  6 19  9 16.0070000  0 17G 7G 8G10G18G21G23G27E10E18E25E24G 2
                                E11G15E12G16G26
  26648888.568   140040852.937        -926.943          36.000  
  22880845.610   120239660.465        1935.193          46.000  
  23121831.067   121506024.953         788.554          47.000  
  26844455.497   141068511.013       -3087.681          33.000  
  24041470.376   126338763.673        2552.874          42.000  
  24044178.606   126353013.089       -1664.591          46.000  
  22171294.908   116510938.089        -621.335          47.000  
  25596738.742   134511780.539         901.470          44.000  
  23069723.816   121232216.853       -5419.730          40.000  
  26733558.550   140485809.915        1208.526          43.000  
  26563116.366   139590087.138       -1718.583          44.000  
  25847031.013   135827092.545        3053.314          40.000  
  25791339.766   135534406.825        2099.255          39.000  
  26733891.859   140487532.403       -1264.153          30.000  
  25602233.999   134540658.655        -368.175          39.000  
  24618974.077   129373551.748       -3156.793          43.000  
  26909374.416   141409736.440       -3507.908          37.000  
 24  2  6 19  9 17.0070000  0 17G 7G 8G10G18G21G23G27E10E18E25E24G 2
                                E11G15E12G16G26
  26649065.156   140041780.537        -928.474          36.000  
  22880477.411   120237725.567        1934.454          46.000  
  23121681.161   121505236.715         787.667          47.000  
  26845044.145   141071599.050       -3087.687          32.000  
  24040984.274   126336210.992        2552.095          42.000  
  24044495.467   126354678.124       -1665.501          46.000  
  22171413.177   116511559.653        -622.195          47.000  
  25596567.416   134510879.360         900.785          44.000  
  23070755.377   121237636.900       -5420.696          40.000  
  26733328.756   140484601.832        1207.564          43.000  
  26563443.418   139591806.180       -1719.484          44.000  
  25846449.920   135824039.695        3052.362          40.000  
  25790940.357   135532308.286        2098.191          39.000  
  26734131.364   140488796.447       -1264.365          29.000  
  25602303.922   134541027.292        -369.075          39.000  
  24619574.460   129376708.846       -3157.540          43.000  
  26910041.931   141413244.009       -3507.525          37.000  
 24  2  6 19  9 18.0070000  0 17G 7G 8G10G18G21G23G27E10E18E25E24G 2
                                E11G15E12G16G26
  26649241.734   140042708.790        -929.155          37.000  
  22880109.063   120235791.313        1933.813          46.000  
  23121531.638   121504449.329         786.864          47.000  
  26845632.017   141074687.376       -3089.059          32.000  
  24040498.818   126333658.871        2551.529          42.000  
  24044812.119   126356343.943       -1666.346          46.000  
  22171531.829   116512181.935        -622.686          47.000  
  25596396.037   134509978.679         900.371          44.000  
  23071786.606   121243057.887       -5421.783          38.000  
  26733099.120   140483394.409        1207.100          43.000  
  26563770.505   139593525.859       -1719.992          44.000  
  25845868.706   135820987.213        3052.026          40.000  
  25790540.974   135530210.183        2097.931          39.000  
  26734370.789   140490061.436       -1265.333          29.000  
  25602374.177   134541396.396        -369.445          39.000  
  24620175.158   129379866.475       -3158.014          43.000  
  26910709.742   141416751.828       -3508.474          37.000  
 24  2  6 19  9 19.0070000  0 17G 7G 8G10G18G21G23G27E10E18E25E24G 2
                                E11G15E12G16G26
  26649418.365   140043637.466        -928.425          37.000  
  22879740.854   120233857.411        1934.015          46.000  
  23121381.811   121503662.545         786.972          47.000  
  26846219.879   141077775.601       -3088.141          32.000  
  24040013.187   126331107.041        2552.061          42.000  
  24045128.823   126358010.274       -1666.228          46.000  
  22171650.203   116512804.669        -622.532          47.000  
  25596224.240   134509078.246         900.723          44.000  
  23072818.219   121248479.422       -5421.527          38.000  
  26732869.301   140482187.411        1207.232          43.000  
  26564097.958   139595245.874       -1719.778          44.000  
  25845287.465   135817934.918        3052.502          40.000  
  25790141.853   135528112.286        2098.183          39.000  
  26734615.764   140491326.985       -1265.525          29.000  
  25602444.553   134541765.740        -369.051          39.000  
  24620775.821   129383024.370       -3157.425          43.000  
  26911377.239   141420259.551       -3507.448          38.000  
 24  2  6 19  9 20.0070000  0 17G 7G 8G10G18G21G23G27E10E18E25E24G 2
                                E11G15E12G16G26
  26649595.110   140044566.594        -929.542          37.000  
  22879372.594   120231923.928        1933.148          46.000  
  23121232.367   121502876.429         785.524          47.000  
  26846807.716   141080863.934       -3088.582          32.000  
  24039527.434   126328555.565        2551.212          42.000  
  24045445.894   126359677.174       -1667.325          46.000  
  22171768.768   116513427.915        -623.524          47.000  
  25596052.896   134508178.099         899.899          44.000  
  23073849.964   121253901.624       -5422.603          38.000  
  26732639.159   140480980.874        1206.136          43.000  
  26564425.132   139596966.256       -1720.463          44.000  
  25844706.731   135814882.808        3051.904          40.000  
  25789742.906   135526014.571        2097.627          39.000  
  26734849.065   140492593.097       -1266.349          29.000  
  25602515.131   134542135.352        -370.071          39.000  
  24621376.309   129386182.600       -3158.560          43.000  
  26912044.762   141423767.281       -3507.604          37.000  
 24  2  6 19  9 21.0070000  0 17G 7G 8G10G18G21G23G27E10E18E25E24G 2
                                E11G15E12G16G26
  26649772.413   140045496.293        -929.850          37.000  
  22879004.848   120229990.889        1932.764          46.000  
  23121083.002   121502090.968         785.028          47.000  
  26847395.300   141083952.295       -3087.969          32.000  
  24039041.986   126326004.472        2550.787          42.000  
  24045762.824   126361344.650       -1667.904          45.000  
  22171887.081   116514051.687        -624.159          47.000  
  25595881.509   134507278.269         899.554          44.000  
  23074882.214   121259324.473       -5423.392          38.000  
  26732409.566   140479774.806        1205.788          43.000  
  26564752.411   139598687.087       -1721.104          43.000  
  25844126.127   135811830.932        3051.733          40.000  
  25789344.194   135523917.159        2097.191          39.000  
  26735087.662   140493859.955       -1267.071          28.000  
  25602585.464   134542505.242        -370.020          39.000  
  24621977.041   129389341.162       -3158.958          42.000  
  26912712.381   141427275.031       -3507.790          37.000  
 24  2  6 19  9 22.0070000  0 17G 7G 8G10G18G21G23G27E10E18E25E24G 2
                                E11G15E12G16G26
  26649949.437   140046426.475        -930.193          37.000  
  22878637.198   120228058.289        1932.086          46.000  
  23120933.427   121501306.176         784.238          47.000  
  26847982.814   141087040.743       -3089.121          32.000  
  24038556.888   126323453.728        2550.490          42.000  
  24046080.418   126363012.704       -1668.285          46.000  
  22172006.039   116514675.988        -624.672          47.000  
  25595710.436   134506378.744         899.161          44.000  
  23075914.385   121264747.990       -5424.056          40.000  
  26732180.148   140478569.230        1205.237          43.000  
  26565080.013   139600408.310       -1721.512          43.000  
  25843545.297   135808779.264        3051.459          40.000  
  25788944.890   135521819.967        2097.082          39.000  
  26735321.695   140495127.345       -1267.163          27.000  
  25602656.041   134542875.438        -370.435          39.000  
  24622577.983   129392500.033       -3158.911          42.000  
  26913380.349   141430782.814       -3507.942          37.000  
 24  2  6 19  9 23.0070000  0 17G 7G 8G10G18G21G23G27E10E18E25E24G 2
                                E11G15E12G16G26
  26650126.600   140047356.957        -930.358          37.000  
  22878269.661   120226125.859        1932.495          46.000  
  23120783.748   121500521.801         784.088          47.000  
  26848570.302   141090129.003       -3088.863          31.000  
  24038071.414   126320903.112        2550.578          42.000  
  24046397.995   126364681.116       -1668.488          46.000  
  22172124.831   116515300.567        -624.753          47.000  
  25595539.450   134505479.298         899.486          44.000  
  23076946.513   121270171.995       -5424.275          41.000  
  26731950.381   140477363.893        1205.250          43.000  
  26565407.614   139602129.691       -1721.190          43.000  
  25842964.815   135805727.571        3051.794          40.000  
  25788545.690   135519722.800        2097.227          39.000  
  26735560.615                       -1269.259          26.000  
  25602726.165   134543245.693        -370.296          39.000  
  24623179.108   129395659.019       -3158.923          42.000  
  26914048.029   141434290.378       -3507.713          37.000  
 24  2  6 19  9 24.0070000  0 17G 7G 8G10G18G21G23G27E10E18E25E24G 2
                                E11G15E12G16G26
  26650303.999   140048288.057        -931.892          37.000  
  22877902.142   120224193.961        1931.580          46.000  
  23120634.418   121499738.191         783.208          47.000  
  26849158.112   141093217.381       -3088.253          32.000  
  24037586.542   126318352.954        2549.801          42.000  
  24046715.563   126366350.209       -1669.407          46.000  
  22172243.859   116515925.752        -625.497          47.000  
  25595368.621   134504580.254         898.836          44.000  
  23077979.086   121275596.750       -5425.219          41.000  
  26731721.251   140476159.127        1204.455          43.000  
  26565735.469   139603851.605       -1722.157          44.000  
  25842384.412   135802676.217        3051.092          41.000  
  25788146.839   135517625.944        2097.047          39.000  
  26735798.872                       -1270.409          26.000  
  25602796.821   134543616.338        -371.092          39.000  
  24623780.102   129398818.423       -3159.521          42.000  
  26914715.256   141437798.018       -3508.005          37.000  
 24  2  6 19  9 25.0070000  0 17G 7G 8G10G18G21G23G27E10E18E25E24G 2
                                E11G15E12G16G26
  26650481.546   140049219.452        -931.201          37.000  
  22877534.920   120222262.340        1931.482          46.000  
  23120485.341   121498955.114         782.862          47.000  
  26849745.879   141096305.711       -3088.288          31.000  
  24037101.348   126315803.011        2549.801          43.000  
  24047033.253   126368019.717       -1669.615          46.000  
  22172362.451   116516551.303        -625.617          46.000  
  25595197.408   134503681.368         898.940          44.000  
  23079011.799   121281022.004       -5425.248          41.000  
  26731492.191   140474954.676        1204.396          42.000  
  26566063.411   139605573.768       -1722.259          44.000  
  25841804.070   135799624.914        3051.379          40.000  
  25787747.674   135515529.230        2096.698          39.000  
  26736036.343                       -1268.495          25.000  
  25602867.730   134543987.103        -370.838          39.000  
  24624380.940   129401978.020       -3159.742          42.000  
  26915382.779   141441305.513       -3507.432          37.000  
 24  2  6 19  9 26.0070000  0 17G 7G 8G10G18G21G23G27E10E18E25E24G 2
                                E11G15E12G16G26
  26650658.910   140050151.399        -932.041          37.000  
  22877167.366   120220331.148        1930.951          46.000  
  23120336.124   121498172.719         782.176          47.000  
  26850333.603   141099394.106       -3088.557          31.000  
  24036616.284   126313253.457        2549.432          43.000  
  24047351.134   126369689.843       -1670.238          46.000  
  22172481.531   116517177.411        -626.337          46.000  
  25595026.178   134502782.816         898.525          44.000  
  23080044.311   121286447.948       -5426.252          41.000  
  26731263.506   140473750.738        1203.782          43.000  
  26566391.536   139607296.351       -1722.695          44.000  
  25841223.161   135796573.864        3051.038          40.000  
  25787348.657   135513432.784        2096.411          39.000  
  26736278.482                       -1270.090          26.000  
  25602938.456   134544358.197        -371.338          39.000  
  24624982.248   129405137.954       -3159.853          42.000  
  26916050.189   141444813.053       -3507.523          37.000  
 24  2  6 19  9 27.0070000  0 17G 7G 8G10G18G21G23G27E10E18E25E24G 2
                                E11G15E12G16G26
  26650836.571   140051083.945        -933.291          37.000  
  22876799.943   120218400.453        1930.237          46.000  
  23120187.780   121497391.049         781.153          47.000  
  26850921.247   141102482.644       -3089.661          31.000  
  24036131.185   126310704.317        2548.978          43.000  
  24047669.348   126371360.610       -1671.121          46.000  
  22172600.550   116517804.104        -627.127          46.000  
  25594854.817   134501884.623         897.925          44.000  
  23081076.893   121291874.656       -5427.221          40.000  
  26731034.681   140472547.335        1203.205          43.000  
  26566719.670   139609019.393       -1723.293          44.000  
  25840642.418   135793523.092        3050.214          40.000  
  25786949.283   135511336.630        2096.154          39.000  
  26736521.852                       -1270.803          26.000  
  25603008.780   134544729.639        -371.674          39.000  
  24625583.766   129408298.291       -3160.493          42.000  
  26916717.546   141448320.704       -3508.209          37.000  
 24  2  6 19  9 28.0070000  0 17G 7G 8G10G18G21G23G27E10E18E25E24G 2
                                E11G15E12G16G26
  26651013.839   140052016.882        -933.297          37.000  
  22876432.546   120216470.067        1930.060          46.000  
  23120039.558   121496609.965         780.637          47.000  
  26851504.756   141105571.128       -3088.450          31.000  
  24035646.192   126308155.483        2548.532          43.000  
  24047987.474   126373031.876       -1671.581          46.000  
  22172719.849   116518431.232        -627.381          46.000  
  25594684.101   134500986.671         897.818          44.000  
  23082109.998   121297301.961       -5427.584          39.000  
  26730805.403   140471344.342        1202.812          43.000  
  26567047.368   139610742.801       -1723.647          44.000  
  25840061.902   135790472.434        3050.445          40.000  
  25786550.397   135509240.681        2095.688          39.000  
  26736765.570                       -1271.084          26.000  
  25603079.610   134545101.316        -372.009          39.000  
  24626184.804   129411458.877       -3160.768          42.000  
  26917385.078   141451828.244       -3507.665          37.000  
 24  2  6 19  9 29.0070000  0 17G 7G 8G10G18G21G23G27E10E18E25E24G 2
                                E11G15E12G16G26
  26651191.543   140052950.525        -933.861          37.000  
  22876065.577   120214540.292        1929.571          46.000  
  23119891.588   121495829.733         779.882          47.000  
  26852093.492   141108659.823       -3087.864          31.000  
  24035161.250   126305607.204        2547.965          43.000  
  24048305.618   126374703.909       -1672.269          46.000  
  22172839.531   116519059.080        -628.165          46.000  
  25594513.726   134500089.228         897.120          44.000  
  23083143.138   121302730.053       -5428.360          39.000  
  26730577.101   140470142.004        1202.172          43.000  
  26567375.702   139612466.795       -1724.257          44.000  
  25839481.350   135787422.217        3049.799          39.000  
  25786151.756   135507145.144        2095.390          39.000  
  26737007.805                       -1273.403          26.000  
  25603150.205   134545473.454        -372.270          39.000  
  24626786.243   129414619.986       -3161.385          42.000  
  26918053.125   141455336.003       -3507.823          37.000  
 24  2  6 19  9 30.0070000  0 17G 7G 8G10G18G21G23G27E10E18E25E24G 2
                                E11G15E12G16G26
  26651369.143   140053884.601        -934.586          37.000  
  22875698.284   120212610.843        1929.449          46.000  
  23119743.645   121495050.058         779.490          47.000  
  26852676.643   141111748.568       -3088.189          30.000  
  24034676.308   126303059.156        2548.510          42.000  
  24048624.346   126376376.437       -1672.613          46.000  
  22172959.248   116519687.328        -628.402          46.000  
  25594343.229   134499191.983         897.174          44.000  
  23084176.374   121308158.788       -5428.686          41.000  
  26730347.997   140468940.062        1201.837          43.000  
  26567703.487   139614191.097       -1724.437          44.000  
  25838901.000   135784372.074        3050.238          39.000  
  25785753.219   135505049.764        2095.329          39.000  
  26737252.152                       -1272.636          26.000  
  25603220.966   134545845.795        -372.133          39.000  
  24627387.961   129417781.309       -3161.374          43.000  
  26918720.509   141458843.689       -3507.809          37.000  
 24  2  6 19  9 31.0070000  0 17G 7G 8G10G18G21G23G27E10E18E25E24G 2
                                E11G15E12G16G26
  26651547.013   140054819.039        -934.692          37.000  
  22875330.940   120210681.725        1928.900          46.000  
  23119595.964   121494270.947         778.932          47.000  
  26853266.051   141114837.189       -3088.378          30.000  
  24034191.367   126300511.400        2547.799          42.000  
  24048942.743   126378049.432       -1673.261          46.000  
  22173078.870   116520316.003        -628.805          46.000  
  25594172.566   134498294.938         896.935          44.000  
  23085209.235   121313588.055       -5429.328          40.000  
  26730119.434   140467738.483        1201.413          42.000  
  26568032.188   139615915.694       -1724.794          44.000  
  25838320.571   135781322.068        3049.988          39.000  
  25785354.438   135502954.515        2095.148          39.000  
  26737495.024   140506480.5283      -1273.307          27.000  
  25603291.927   134546218.306        -372.600          39.000  
  24627989.863   129420942.883       -3161.727          43.000  
  26919388.180   141462351.234       -3507.521          37.000  
 24  2  6 19  9 32.0070000  0 17G 7G 8G10G18G21G23G27E10E18E25E24G 2
                                E11G15E12G16G26
  26651724.778   140055754.038        -935.090          37.000  
  22874964.145   120208753.061        1928.631          46.000  
  23119447.978   121493492.526         778.231          47.000  
  26853847.361   141117925.961       -3088.493          29.000  
  24033706.696   126297964.026        2547.549          42.000  
  24049261.061   126379723.031       -1673.718          46.000  
  22173198.726   116520945.226        -629.418          47.000  
  25594001.815   134497398.236         896.724          44.000  
  23086242.628   121319018.049       -5430.335          40.000  
  26729891.186   140466537.407        1201.020          42.000  
  26568360.017   139617640.726       -1724.988          44.000  
  25837740.098   135778272.320        3049.762          40.000  
  25784955.953   135500859.548        2095.178          39.000  
  26737742.154   140507754.2382      -1274.918          27.000  
  25603362.941   134546591.142        -372.889          39.000  
  24628592.227   129424104.804       -3161.882          43.000  
  26920055.572   141465858.868       -3507.389          37.000  
 24  2  6 19  9 33.0070000  0 17G 7G 8G10G18G21G23G27E10E18E25E24G 2
                                E11G15E12G16G26
  26651902.762   140056689.254        -935.275          37.000  
  22874597.289   120206824.600        1928.235          46.000  
  23119300.157   121492714.502         777.903          48.000  
  26854425.042   141121014.503       -3088.211          29.000  
  24033222.025   126295416.781        2547.034          42.000  
  24049580.278   126381396.965       -1673.967          46.000  
  22173318.671   116521574.724        -629.594          47.000  
  25593831.117   134496501.589         896.750          44.000  
  23087275.812   121324448.437       -5430.601          40.000  
  26729662.466   140465336.566        1200.726          42.000  
  26568688.517   139619365.917       -1725.408          44.000  
  25837159.983   135775222.517        3050.208          40.000  
  25784557.608   135498764.584        2095.011          39.000  
  26737988.839   140509028.2002      -1274.473          28.000  
  25603433.763   134546964.038        -373.060          39.000  
  24629194.382   129427266.813       -3161.895          43.000  
  26920722.842   141469366.240       -3507.114          37.000  
 24  2  6 19  9 34.0070000  0 17G 7G 8G10G18G21G23G27E10E18E25E24G 2
                                E11G15E12G16G26
  26652080.632   140057624.910        -936.141          37.000  
  22874230.555   120204896.450        1927.673          46.000  
  23119152.388   121491937.045         776.788          48.000  
  26855015.260   141124103.025       -3088.617          29.000  
  24032737.528   126292869.770        2546.521          42.000  
  24049898.945   126383071.392       -1675.232          46.000  
  22173438.850   116522204.635        -630.483          47.000  
  25593660.419   134495605.163         895.964          44.000  
  23088309.572   121329879.417       -5431.690          40.000  
  26729434.095   140464136.102        1199.882          42.000  
  26569016.860   139621091.436       -1725.859          44.000  
  25836579.938   135772172.861        3048.950          40.000  
  25784158.775   135496669.749        2094.585          39.000  
  26738231.999   140510302.7822      -1275.323          28.000  
  25603504.942   134547337.081        -373.578          39.000  
  24629796.257   129430429.053       -3162.703          43.000  
  26921390.165   141472873.524       -3507.371          37.000  
 24  2  6 19  9 35.0070000  0 17G 7G 8G10G18G21G23G27E10E18E25E24G 2
                                E11G15E12G16G26
  26652258.868   140058561.053        -936.145          37.000  
  22873863.857   120202968.733        1927.380          46.000  
  23119005.030   121491160.270         776.501          48.000  
  26855604.851   141127191.586       -3088.682          29.000  
  24032252.735   126290323.132        2546.459          42.000  
  24050217.856   126384746.389       -1675.439          46.000  
  22173558.995   116522835.078        -630.908          47.000  
  25593489.948   134494709.033         896.025          44.000  
  23089343.366   121335311.012       -5432.098          40.000  
  26729205.610   140462936.112        1199.712          42.000  
  26569344.768   139622817.350       -1726.035          44.000  
  25836000.241   135769123.401        3049.133          40.000  
  25783759.941   135494575.189        2094.475          39.000  
  26738474.758   140511577.9822      -1275.831          28.000  
  25603575.877   134547710.436        -373.747          39.000  
  24630398.420   129433591.609       -3162.643          43.000  
  26922057.444   141476380.814       -3507.496          37.000  
 24  2  6 19  9 36.0070000  0 17G 7G 8G10G18G21G23G27E10E18E25E24G 2
                                E11G15E12G16G26
  26652437.044   140059498.071        -937.611          37.000  
  22873497.193   120201041.780        1926.740          46.000  
  23118857.593   121490384.507         775.524          48.000  
  26856192.452   141130280.560       -3089.117          29.000  
  24031767.828   126287777.203        2545.484          42.000  
  24050536.619   126386422.293       -1676.106          46.000  
  22173679.410   116523466.372        -631.543          47.000  
  25593319.442   134493813.553         895.417          44.000  
  23090377.082   121340743.687       -5432.719          38.000  
  26728976.908   140461736.932        1199.158          42.000  
  26569673.538   139624544.018       -1726.782          44.000  
  25835420.571   135766074.510        3048.657          41.000  
  25783361.701   135492481.203        2094.026          39.000  
  26738717.412   140512854.1662      -1276.784          29.000  
  25603647.118   134548084.405        -374.125          39.000  
  24631000.811   129436754.846       -3163.249          43.000  
  26922725.360   141479888.483       -3507.486          38.000  
 24  2  6 19  9 37.0070000  0 17G 7G 8G10G18G21G23G27E10E18E25E24G 2
                                E11G15E12G16G26
  26652615.202   140060435.496        -937.228          37.000  
  22873130.616   120199115.235        1926.520          46.000  
  23118710.217   121489609.373         774.965          48.000  
  26856792.722   141133369.527       -3088.792          30.000  
  24031283.201   126285231.557        2545.621          42.000  
  24050855.819   126388098.747       -1676.632          46.000  
  22173799.590   116524098.139        -631.840          47.000  
  25593149.084   134492918.345         895.218          44.000  
  23091411.077   121346176.964       -5433.583          38.000  
  26728748.336   140460538.201        1198.783          43.000  
  26570002.274   139626271.044       -1726.936          44.000  
  25834841.198   135763025.794        3048.883          41.000  
  25782963.548   135490387.440        2093.889          39.000  
  26738956.672   140514130.922       -1276.839          29.000  
  25603718.646   134548458.633        -374.032          39.000  
  24631603.175   129439918.363       -3163.566          43.000  
  26923392.804   141483396.087       -3507.513          38.000  
 24  2  6 19  9 38.0070000  0 17G 7G 8G10G18G21G23G27E10E18E25E24G 2
                                E11G15E12G16G26
  26652793.587   140061373.514        -938.824          37.000  
  22872763.760   120197189.168        1925.586          46.000  
  23118562.580   121488834.955         773.967          48.000  
  26857377.950   141136458.618       -3089.566          30.000  
  24030798.539   126282686.364        2544.778          42.000  
  24051174.669   126389775.851       -1677.676          46.000  
  22173920.206   116524730.490        -632.792          47.000  
  25592978.255   134492023.496         894.530          44.000  
  23092445.151   121351610.920       -5434.269          37.000  
  26728520.776   140459340.003        1197.951          43.000  
  26570330.609   139627998.534       -1727.739          44.000  
  25834261.659   135759977.356        3048.315          41.000  
  25782565.151   135488293.985        2093.037          39.000  
  26739204.404   140515408.463       -1278.976          30.000  
  25603789.730   134548833.231        -375.024          39.000  
  24632205.251   129443082.282       -3164.490          43.000  
  26924060.554   141486903.760       -3507.692          37.000  
 24  2  6 19  9 39.0070000  0 17G 7G 8G10G18G21G23G27E10E18E25E24G 2
                                E11G15E12G16G26
  26652972.067   140062311.670        -938.381          36.000  
  22872397.078   120195263.202        1925.586          46.000  
  23118414.890   121488060.848         773.791          47.000  
  26857974.207   141139547.448       -3088.583          31.000  
  24030313.789   126280141.184        2545.035          42.000  
  24051493.886   126391453.183       -1677.618          46.000  
  22174040.464   116525363.030        -632.752          47.000  
  25592808.011   134491128.618         894.825          44.000  
  23093479.713   121357045.242       -5434.987          37.000  
  26728292.964   140458141.952        1197.890          42.000  
  26570658.996   139629726.122       -1727.851          44.000  
  25833681.683   135756928.796        3048.438          41.000  
  25782166.867   135486200.414        2093.471          39.000  
  26739446.543   140516686.248       -1279.186          30.000  
  25603860.656   134549207.747        -374.463          39.000  
  24632807.248   129446246.182       -3164.104          43.000  
  26924727.886   141490411.155       -3507.460          37.000  
 24  2  6 19  9 40.0070000  0 17G 7G 8G10G18G21G23G27E10E18E25E24G 2
                                E11G15E12G16G26
  26653150.950   140063250.776        -939.137          37.000  
  22872030.580   120193338.052        1924.847          46.000  
  23118267.244   121487287.849         772.505          47.000  
  26858559.775   141142636.760       -3089.755          31.000  
  24029829.894   126277596.787        2544.115          42.000  
  24051813.321   126393131.525       -1678.661          46.000  
  22174161.001   116525996.509        -633.754          47.000  
  25592637.758   134490234.487         893.875          44.000  
  23094513.290   121362480.652       -5435.946          37.000  
  26728065.195   140456944.788        1197.030          42.000  
  26570987.767   139631454.516       -1728.493          44.000  
  25833101.848   135753880.890        3047.662          41.000  
  25781768.558   135484107.548        2092.596          40.000  
  26739698.742   140517965.061       -1278.993          30.000  
  25603932.176   134549583.007        -375.470          39.000  
  24633409.490   129449410.840       -3164.955          43.000  
  26925395.339   141493918.974       -3508.130          37.000  
 24  2  6 19  9 41.0070000  0 17G 7G 8G10G18G21G23G27E10E18E25E24G 2
                                E11G15E12G16G26
  26653329.788   140064190.628        -939.867          37.000  
  22871664.178   120191413.571        1924.359          46.000  
  23118120.077   121486515.739         771.712          47.000  
  26859145.613   141145726.332       -3089.672          31.000  
  24029345.581   126275053.001        2543.471          42.000  
  24052133.000   126394810.684       -1679.493          46.000  
  22174281.417   116526630.738        -634.439          47.000  
  25592467.845   134489340.880         893.526          44.000  
  23095547.913   121367916.954       -5436.600          37.000  
  26727837.583   140455748.362        1196.270          42.000  
  26571316.625   139633183.568       -1729.322          44.000  
  25832522.055   135750833.424        3047.443          41.000  
  25781370.518   135482015.139        2092.438          40.000  
  26739940.445   140519244.798       -1279.937          31.000  
  25604003.774   134549958.786        -375.927          39.000  
  24634011.785   129452576.071       -3165.386          43.000  
  26926063.168   141497426.998       -3508.013          37.000  
 24  2  6 19  9 42.0070000  0 17G 7G 8G10G18G21G23G27E10E18E25E24G 2
                                E11G15E12G16G26
  26653508.888   140065130.737        -939.974          36.000  
  22871297.819   120189489.282        1924.500          46.000  
  23117972.536   121485744.034         771.654          47.000  
  26859737.499   141148815.732       -3089.292          31.000  
  24028861.660   126272509.323        2544.005          42.000  
  24052452.653   126396490.164       -1679.446          46.000  
  22174402.268   116527265.247        -634.409          47.000  
  25592298.255   134488447.332         893.885          44.000  
  23096582.545   121373353.680       -5436.831          37.000  
  26727609.945   140454552.134        1196.395          42.000  
  26571646.155   139634912.769       -1729.276          44.000  
  25831941.888   135747785.920        3047.754          41.000  
  25780972.548   135479922.726        2092.857          40.000  
  26740182.916   140520524.918       -1279.360          31.000  
  25604075.590   134550334.589        -375.646          39.000  
  24634614.070   129455741.369       -3165.078          43.000  
  26926730.630   141500934.806       -3507.279          38.000  
 24  2  6 19  9 43.0070000  0 17G 7G 8G10G18G21G23G27E10E18E25E24G 2
                                E11G15E12G16G26
  26653687.849   140066071.037        -940.201          36.000  
  22870932.011   120187565.071        1924.072          46.000  
  23117825.465   121484972.702         770.956          47.000  
  26860322.273   141151904.846       -3089.104          31.000  
  24028377.748   126269965.726        2543.204          42.000  
  24052772.106   126398169.919       -1680.020          46.000  
  22174523.093   116527899.967        -635.023          47.000  
  25592128.212   134487553.808         893.392          44.000  
  23097616.698   121378790.775       -5437.266          37.000  
  26727382.621   140453356.098        1195.889          42.000  
  26571975.013   139636642.069       -1729.664          44.000  
  25831361.913   135744738.336        3047.443          41.000  
  25780574.448   135477830.292        2092.390          40.000  
  26740425.666   140521805.397       -1280.847          31.000  
  25604147.119   134550710.401        -376.202          39.000  
  24635216.425   129458906.700       -3165.370          42.000  
  26927398.301   141504442.326       -3507.334          38.000  
 24  2  6 19  9 44.0070000  0 17G 7G 8G10G18G21G23G27E10E18E25E24G 2
                                E11G15E12G16G26
  26653866.635   140067012.253        -941.639          36.000  
  22870565.957   120185641.676        1923.010          46.000  
  23117678.438   121484202.430         769.656          47.000  
  26860913.373   141154994.503       -3091.184          31.000  
  24027894.028   126267422.858        2542.576          42.000  
  24053091.680   126399850.663       -1681.453          46.000  
  22174644.076   116528535.590        -636.071          47.000  
  25591958.220   134486660.969         892.520          44.000  
  23098651.565   121384228.944       -5438.953          37.000  
  26727154.965   140452160.925        1194.686          42.000  
  26572304.368   139638372.158       -1730.442          44.000  
  25830781.946   135741691.359        3046.619          41.000  
  25780176.365   135475738.498        2091.324          40.000  
  26740668.486   140523086.873       -1281.356          31.000  
  25604218.700   134551086.855        -377.093          39.000  
  24635818.545   129462072.761       -3166.470          42.000  
  26928065.772   141507950.222       -3508.040          38.000  
 24  2  6 19  9 45.0070000  0 17G 7G 8G10G18G21G23G27E10E18E25E24G 2
                                E11G15E12G16G26
  26654045.631   140067953.997        -942.176          35.000  
  22870199.974   120183718.753        1922.559          46.000  
  23117531.656   121483432.842         769.127          47.000  
  26861502.361   141158084.124       -3090.066          31.000  
  24027410.491   126264880.398        2542.157          42.000  
  24053411.316   126401532.009       -1681.809          46.000  
  22174765.102   116529171.785        -636.659          47.000  
  25591788.430   134485768.480         892.300          44.000  
  23099686.669   121389667.793       -5439.311          37.000  
  26726927.798   140450966.278        1194.267          42.000  
  26572634.038   139640102.729       -1730.844          44.000  
  25830202.188   135738644.664        3046.246          41.000  
  25779778.107   135473646.968        2091.399          40.000  
  26740913.365   140524369.096       -1282.242          32.000  
  25604290.499   134551463.668        -377.376          39.000  
  24636420.901   129465239.182       -3166.677          42.000  
  26928733.356   141511458.181       -3507.952          38.000  
 24  2  6 19  9 46.0070000  0 17G 7G 8G10G18G21G23G27E10E18E25E24G 2
                                E11G15E12G16G26
  26654224.731   140068895.983        -941.610          35.000  
  22869834.008   120181796.036        1922.736          46.000  
  23117385.126   121482663.671         769.092          46.000  
  26862092.641   141161173.562       -3088.163          31.000  
  24026927.094   126262338.062        2542.619          42.000  
  24053731.109   126403213.691       -1681.685          46.000  
  22174886.285   116529808.257        -636.593          47.000  
  25591618.787   134484876.066         892.547          44.000  
  23100721.589   121395107.053       -5439.319          37.000  
  26726700.562   140449771.849        1194.481          42.000  
  26572963.149   139641833.452       -1730.539          44.000  
  25829622.082   135735597.917        3046.820          41.000  
  25779379.754   135471555.452        2091.555          40.000  
  26741157.100   140525651.732       -1283.223          32.000  
  25604361.966   134551840.503        -376.714          39.000  
  24637023.326   129468405.694       -3166.539          42.000  
  26929401.132   141514965.927       -3507.491          38.000  
 24  2  6 19  9 47.0070000  0 17G 7G 8G10G18G21G23G27E10E18E25E24G 2
                                E11G15E12G16G26
  26654403.579   140069838.349        -942.416          36.000  
  22869468.121   120179873.621        1922.443          46.000  
  23117238.911   121481895.010         768.555          47.000  
  26862676.648   141164263.048       -3089.733          30.000  
  24026443.261   126259795.929        2542.207          42.000  
  24054050.831   126404895.810       -1682.249          46.000  
  22175007.686   116530445.100        -637.015          47.000  
  25591449.241   134483983.796         892.480          44.000  
  23101756.805   121400546.838       -5439.604          37.000  
  26726473.107   140448577.763        1194.144          42.000  
  26573292.460   139643564.429       -1730.987          44.000  
  25829042.185   135732551.250        3046.698          40.000  
  25778981.688   135469464.044        2091.225          40.000  
  26741401.866   140526934.804       -1283.664          32.000  
  25604433.747   134552217.492        -376.729          39.000  
  24637626.117   129471572.371       -3166.609          42.000  
  26930068.368   141518473.513       -3507.141          38.000  
 24  2  6 19  9 48.0070000  0 17G 7G 8G10G18G21G23G27E10E18E25E24G 2
                                E11G15E12G16G26
  26654583.028   140070781.097        -942.854          36.000  
  22869102.355   120177951.535        1921.765          46.000  
  23117092.739   121481126.921         767.782          47.000  
  26863268.350   141167352.318       -3088.583          30.000  
  24025959.628   126257254.073        2541.707          42.000  
  24054370.589   126406578.406       -1682.943          46.000  
  22175129.200   116531082.356        -637.606          47.000  
  25591279.494   134483091.742         891.977          44.000  
  23102792.109   121405987.222       -5441.016          37.000  
  26726246.271   140447384.057        1193.431          42.000  
  26573622.174   139645295.715       -1731.585          44.000  
  25828462.402   135729504.686        3046.411          40.000  
  25778583.771   135467372.754        2091.154          40.000  
  26741646.125   140528218.439       -1283.924          32.000  
  25604505.572   134552594.690        -377.290          39.000  
  24638228.647   129474739.290       -3167.172          42.000  
  26930736.004   141521981.010       -3507.497          38.000  
 24  2  6 19  9 49.0070000  0 17G 7G 8G10G18G21G23G27E10E18E25E24G 2
                                E11G15E12G16G26
  26654762.486   140071724.364        -943.546          36.000  
  22868736.730   120176029.899        1921.307          46.000  
  23116947.440   121480359.511         766.944          47.000  
  26863848.386   141170441.833       -3090.726          30.000  
  24025476.196   126254712.577        2541.091          42.000  
  24054690.670   126408261.589       -1683.588          45.000  
  22175250.366   116531720.152        -638.335          47.000  
  25591109.424   134482200.013         891.399          44.000  
  23103827.649   121411428.231       -5441.431          37.000  
  26726019.157   140446190.832        1193.029          42.000  
  26573951.747   139647027.409       -1731.906          44.000  
  25827882.339   135726458.360        3046.069          40.000  
  25778185.862   135465281.744        2090.880          40.000  
  26741890.655   140529502.683       -1284.229          33.000  
  25604577.179   134552972.152        -377.547          39.000  
  24638831.596   129477906.537       -3167.306          42.000  
  26931403.362   141525488.541       -3507.954          38.000  
 24  2  6 19  9 50.0070000  0 17G 7G 8G10G18G21G23G27E10E18E25E24G 2
                                E11G15E12G16G26
  26654942.241   140072668.141        -944.042          36.000  
  22868371.200   120174108.692        1921.222          46.000  
  23116801.992   121479592.758         766.596          47.000  
  26864439.765   141173531.184       -3087.952          30.000  
  24024992.572   126252171.448        2541.246          42.000  
  24055011.178   126409945.355       -1683.806          46.000  
  22175371.942   116532358.450        -638.155          47.000  
  25590939.791   134481308.580         891.612          44.000  
  23104863.372   121416869.957       -5442.142          37.000  
  26725792.304   140444998.104        1192.760          42.000  
  26574281.251   139648759.519       -1731.985          44.000  
  25827302.259   135723412.258        3046.161          40.000  
  25777788.337   135463190.989        2090.778          40.000  
  26742135.002   140530787.656       -1285.356          32.000  
  25604649.144   134553349.939        -377.844          39.000  
  24639434.414   129481074.135       -3167.777          42.000  
  26932070.859   141528996.074       -3507.371          38.000  
 24  2  6 19  9 51.0070000  0 17G 7G 8G10G18G21G23G27E10E18E25E24G 2
                                E11G15E12G16G26
  26655122.309   140073612.537        -944.468          36.000  
  22868005.574   120172188.026        1920.422          46.000  
  23116656.379   121478826.789         765.737          47.000  
  26865029.713   141176620.932       -3089.755          30.000  
  24024509.227   126249630.802        2540.623          42.000  
  24055331.948   126411629.811       -1684.543          46.000  
  22175493.352   116532997.406        -639.202          47.000  
  25590770.297   134480417.586         891.003          44.000  
  23105898.824   121422312.429       -5442.986          37.000  
  26725564.980   140443805.952        1192.173          42.000  
  26574610.947   139650492.147       -1732.635          44.000  
  25826722.083   135720366.471        3045.898          40.000  
  25777390.228   135461100.594        2090.657          40.000  
  26742379.829   140532073.337       -1285.682          32.000  
  25604721.571   134553728.118        -378.149          39.000  
  24640037.336   129484242.152       -3168.232          42.000  
  26932738.321   141532503.712       -3507.552          38.000  
 24  2  6 19  9 52.0070000  0 17G 7G 8G10G18G21G23G27E10E18E25E24G 2
                                E11G15E12G16G26
  26655302.300   140074557.396        -945.109          36.000  
  22867639.922   120170267.736        1920.074          46.000  
  23116510.993   121478061.446         765.120          47.000  
  26865620.368   141179710.584       -3089.865          30.000  
  24024025.603   126247090.482        2540.322          42.000  
  24055652.727   126413314.804       -1685.101          45.000  
  22175615.006   116533636.824        -639.489          47.000  
  25590600.864   134479526.853         890.618          44.000  
  23106934.573   121427755.587       -5443.463          37.000  
  26725337.726   140442614.256        1191.571          42.000  
  26574940.450   139652225.158       -1733.112          44.000  
  25826142.256   135717320.867        3045.721          40.000  
  25776992.415   135459010.413        2090.180          40.000  
  26742624.690   140533359.634       -1286.622          32.000  
  25604793.239   134554106.553        -378.179          39.000  
  24640640.040   129487410.462       -3168.501          43.000  
  26933405.652   141536011.339       -3507.071          37.000  
 24  2  6 19  9 53.0070000  0 17G 7G 8G10G18G21G23G27E10E18E25E24G 2
                                E11G15E12G16G26
  26655482.107   140075502.608        -945.254          36.000  
  22867274.515   120168347.742        1919.818          46.000  
  23116365.737   121477296.648         764.557          47.000  
  26866206.774   141182800.228       -3090.486          31.000  
  24023542.337   126244550.396        2539.920          42.000  
  24055974.090   126415000.260       -1685.793          46.000  
  22175737.053   116534276.652        -640.080          47.000  
  25590431.710   134478636.297         890.491          44.000  
  23107970.409   121433199.216       -5443.984          37.000  
  26725110.751   140441422.892        1191.088          42.000  
  26575270.495   139653958.444       -1733.654          44.000  
  25825562.088   135714275.359        3045.386          40.000  
  25776595.091   135456920.361        2089.975          40.000  
  26742869.351   140534646.457       -1287.585          33.000  
  25604865.413   134554485.153        -378.642          39.000  
  24641243.111   129490578.984       -3168.825          43.000  
  26934072.931   141539518.831       -3507.467          37.000  
 24  2  6 19  9 54.0070000  0 17G 7G 8G10G18G21G23G27E10E18E25E24G 2
                                E11G15E12G16G26
  26655662.263   140076448.390        -945.951          36.000  
  22866909.299   120166428.211        1919.421          46.000  
  23116220.473   121476532.560         763.806          47.000  
  26866797.089   141185889.867       -3090.183          31.000  
  24023059.140   126242010.709        2539.737          42.000  
  24056294.964   126416686.336       -1686.652          46.000  
  22175858.785   116534917.023        -640.537          47.000  
  25590262.382   134477746.103         889.962          44.000  
  23109006.455   121438643.521       -5444.612          37.000  
  26724884.029   140440232.052        1190.762          42.000  
  26575600.173   139655692.158       -1733.870          44.000  
  25824982.078   135711230.121        3045.374          39.000  
  25776197.715   135454830.598        2089.497          40.000  
  26743114.081   140535933.946       -1288.224          32.000  
  25604937.666   134554864.083        -379.223          39.000  
  24641845.754   129493747.837       -3168.816          43.000  
  26934740.428   141543026.420       -3507.833          37.000  
 24  2  6 19  9 55.0070000  0 17G 7G 8G10G18G21G23G27E10E18E25E24G 2
                                E11G15E12G16G26
  26655842.305   140077394.537        -946.528          36.000  
  22866544.328   120164508.986        1919.006          46.000  
  23116075.505   121475769.016         763.200          47.000  
  26867383.783   141189054.0123      -3089.853          31.000  
  24022575.961   126239471.279        2538.966          42.000  
  24056615.944   126418372.858       -1686.932          46.000  
  22175980.658   116535557.794        -640.797          47.000  
  25590093.150   134476856.079         889.896          44.000  
  23110042.797   121444088.372       -5445.248          39.000  
  26724657.595   140439041.566        1190.161          42.000  
  26575930.209   139657426.160       -1734.149          44.000  
  25824402.417   135708184.947        3045.203          39.000  
  25775800.548   135452740.941        2089.416          40.000  
  26743359.388   140537221.989       -1289.000          32.000  
  25605009.823   134555243.159        -379.324          39.000  
  24642448.773   129496916.937       -3169.352          43.000  
  26935407.532   141546533.842       -3507.449          37.000  
 24  2  6 19  9 56.0070000  0 17G 7G 8G10G18G21G23G27E10E18E25E24G 2
                                E11G15E12G16G26
  26656022.339   140078341.319        -947.198          36.000  
  22866179.138   120162590.281        1918.854          46.000  
  23115930.424   121475006.214         762.803          47.000  
  26867972.562   141192143.7632      -3089.933          31.000  
  24022092.494   126236932.293        2538.990          42.000  
  24056937.525   126420060.043       -1687.223          46.000  
  22176102.835   116536199.175        -641.395          47.000  
  25589923.900   134475966.453         889.782          44.000  
  23111078.956   121449534.034       -5445.644          40.000  
  26724431.344   140437851.665        1189.789          42.000  
  26576260.376   139659160.691       -1734.359          44.000  
  25823822.895   135705140.112        3045.135          39.000  
  25775402.727   135450651.638        2089.331          40.000  
  26743604.921   140538510.688       -1288.983          32.000  
  25605082.154   134555622.623        -379.454          39.000  
  24643051.556   129500086.446       -3169.315          42.000  
  26936074.837   141550041.414       -3507.721          38.000  
 24  2  6 19  9 57.0070000  0 17G 7G 8G10G18G21G23G27E10E18E25E24G 2
                                E11G15E12G16G26
  26656202.347   140079288.279        -946.481          35.000  
  22865814.385   120160671.742        1918.646          46.000  
  23115785.404   121474243.844         762.445          47.000  
  26868558.994   141195233.3102      -3089.141          31.000  
  24021609.140   126234393.405        2538.782          42.000  
  24057258.609   126421747.559       -1687.410          46.000  
  22176224.917   116536840.840        -641.632          47.000  
  25589754.319   134475076.890         889.846          44.000  
  23112115.045   121454980.077       -5446.140          41.000  
  26724205.111   140436661.972        1189.748          42.000  
  26576590.473   139660895.361       -1734.531          44.000  
  25823243.495   135702095.252        3044.910          40.000  
  25775005.089   135448562.316        2089.469          39.000  
  26743850.193   140539799.829       -1288.507          32.000  
  25605154.450   134556002.139        -379.541          39.000  
  24643654.574   129503256.017       -3169.319          42.000  
  26936742.247   141553548.718       -3507.192          37.000  
 24  2  6 19  9 58.0070000  0 17G 7G 8G10G18G21G23G27E10E18E25E24G 2
                                E11G15E12G16G26
  26656382.957   140080235.895        -947.819          35.000  
  22865449.484   120158753.700        1917.786          46.000  
  23115640.349   121473482.211         761.263          47.000  
  26869151.115   141198323.0282      -3089.913          31.000  
  24021126.162   126231854.969        2538.163          42.000  
  24057580.007   126423435.744       -1688.459          46.000  
  22176347.060   116537483.093        -642.594          47.000  
  25589584.711   134474187.735         888.946          44.000  
  23113151.606   121460426.957       -5447.333          38.000  
  26723978.729   140435472.853        1188.960          42.000  
  26576920.718   139662630.519       -1735.360          44.000  
  25822664.017   135699050.663        3044.745          40.000  
  25774607.669   135446473.352        2088.781          40.000  
  26744095.822   140541089.717       -1290.494          32.000  
  25605226.842   134556382.031        -380.057          39.000  
  24644257.523   129506426.007       -3170.285          42.000  
  26937409.570   141557056.111       -3507.661          37.000  
 24  2  6 19  9 59.0070000  0 17G 7G 8G10G18G21G23G27E10E18E25E24G 2
                                E11G15E12G16G26
  26656563.139   140081184.238        -949.449          36.000  
  22865084.783   120156836.328        1916.858          46.000  
  23115495.373   121472721.487         760.032          47.000  
  26869735.592   141201413.0902      -3091.571          31.000  
  24020643.620   126229317.137        2537.430          42.000  
  24057901.728   126425124.745       -1689.506          46.000  
  22176469.072   116538126.110        -643.595          47.000  
  25589416.055   134473299.100         888.239          44.000  
  23114188.306   121465874.597       -5448.043          37.000  
  26723752.688   140434284.444        1187.994          42.000  
  26577250.964   139664366.318       -1736.189          44.000  
  25822084.914   135696006.552        3043.805          40.000  
  25774210.327   135444384.837        2088.255          39.000  
  26744341.399   140542380.464       -1291.792          31.000  
  25605299.566   134556762.429        -380.815          39.000  
  24644860.698   129509596.572       -3171.167          42.000  
  26938077.302   141560563.753       -3507.877          37.000  
 24  2  6 19 10  0.0070000  0 17G 7G 8G10G18G21G23G27E10E18E25E24G 2
                                E11G15E12G16G26
  26656744.133   140082133.183        -949.354          36.000  
  22864720.108   120154919.521        1917.029          46.000  
  23115350.370   121471961.548         759.670          47.000  
  26870324.048   141204503.2092      -3089.411          31.000  
  24020160.484   126226779.804        2537.322          42.000  
  24058223.440   126426814.443       -1689.599          46.000  
  22176591.380   116538769.761        -643.707          47.000  
  25589247.128   134472410.911         888.203          44.000  
  23115225.285   121471323.083       -5448.608          37.000  
  26723526.463   140433096.657        1187.733          42.000  
  26577581.741   139666102.656       -1736.356          44.000  
  25821505.968   135692962.791        3043.591          40.000  
  25773812.593   135442296.721        2088.260          40.000  
  26744587.080   140543671.935       -1291.270          31.000  
  25605371.854   134557143.242        -380.866          39.000  
  24645464.249   129512767.567       -3171.221          42.000  
  26938744.956   141564071.528       -3507.836          37.000  
 24  2  6 19 10  1.0070000  0 17G 7G 8G10G18G21G23G27E10E18E25E24G 2
                                E11G15E12G16G26
  26656925.039   140083082.630        -949.526          36.000  
  22864355.512   120153003.162        1915.991          46.000  
  23115205.577   121471202.261         758.757          47.000  
  26870911.414   141207593.4962      -3090.649          31.000  
  24019677.366   126224242.824        2536.665          42.000  
  24058545.039   126428504.728       -1690.602          46.000  
  22176713.602   116539413.938        -644.615          46.000  
  25589078.105   134471523.029         887.583          44.000  
  23116262.194   121476772.211       -5449.748          38.000  
  26723300.579   140431909.325        1186.860          42.000  
  26577912.187   139667839.405       -1737.097          44.000  
  25820926.778   135689919.251        3043.103          40.000  
  25773414.894   135440208.855        2087.620          40.000  
  26744832.989   140544964.074       -1291.811          31.000  
  25605444.490   134557524.361        -381.479          39.000  
  24646067.904   129515938.900       -3171.559          43.000  
  26939412.497   141567579.302       -3507.986          37.000  
 24  2  6 19 10  2.0070000  0 17G 7G 8G10G18G21G23G27E10E18E25E24G 2
                                E11G15E12G16G26
  26657105.780   140084032.409        -949.397          36.000  
  22863990.663   120151087.049        1916.040          46.000  
  23115061.351   121470443.459         758.589          47.000  
  26871498.911   141210683.5772      -3089.384          30.000  
  24019194.833   126221706.021        2536.657          42.000  
  24058866.708   126430195.408       -1690.877          46.000  
  22176836.093   116540058.467        -644.798          46.000  
  25588909.039   134470635.267         887.851          44.000  
  23117299.313   121482221.868       -5449.754          38.000  
  26723074.712   140430722.287        1187.230          42.000  
  26578242.651   139669576.358       -1736.871          44.000  
  25820347.152   135686875.708        3043.609          39.000  
  25773017.500   135438121.052        2087.885          40.000  
  26745078.862   140546256.712       -1293.133          31.000  
  25605517.292   134557905.572        -380.984          39.000  
  24646671.778   129519110.379       -3171.735          43.000  
  26940079.950   141571086.903       -3507.218          37.000  
 24  2  6 19 10  3.0070000  0 17G 7G 8G10G18G21G23G27E10E18E25E24G 2
                                E11G15E12G16G26
  26657286.660   140084982.716        -950.736          36.000  
  22863626.320   120149171.378        1915.668          46.000  
  23114916.566   121469685.323         758.009          47.000  
  26872086.198   141213773.9432      -3092.542          31.000  
  24018712.238   126219169.597        2536.299          42.000  
  24059188.437   126431886.675       -1691.463          46.000  
  22176958.542   116540703.515        -645.139          46.000  
  25588740.130   134469747.833         887.353          44.000  
  23118336.231   121487672.170       -5450.502          37.000  
  26722849.307   140429535.770        1186.254          43.000  
  26578573.045   139671313.757       -1737.565          44.000  
  25819767.962   135683832.420        3043.408          39.000  
  25772620.010   135436033.515        2087.377          40.000  
  26745324.937   140547550.004       -1294.377          30.000  
  25605589.144   134558287.104        -381.759          39.000  
  24647275.905   129522282.208       -3171.922          43.000  
  26940747.360   141574594.548       -3507.380          37.000  
 24  2  6 19 10  4.0070000  0 17G 7G 8G10G18G21G23G27E10E18E25E24G 2
                                E11G15E12G16G26
  26657467.575   140085933.220        -950.553          36.000  
  22863261.671   120147255.827        1915.839          46.000  
  23114772.113   121468927.565         757.816          47.000  
  26872676.722   141216863.7082      -3088.440          30.000  
  24018229.679   126216633.212        2536.607          42.000  
  24059510.246   126433578.235       -1691.569          46.000  
  22177081.435   116541348.784        -645.020          47.000  
  25588570.976   134468860.411         887.691          44.000  
  23119373.175   121493122.857       -5450.826          37.000  
  26722623.850   140428349.417        1186.449          43.000  
  26578903.822   139673051.248       -1737.350          44.000  
  25819188.580   135680789.048        3043.799          39.000  
  25772222.721   135433945.935        2087.647          40.000  
  26745567.948   140548843.600       -1293.657          30.000  
  25605661.161   134558668.612        -381.268          39.000  
  24647879.420   129525454.056       -3171.522          43.000  
  26941414.796   141578101.899       -3506.659          37.000  
 24  2  6 19 10  5.0070000  0 17G 7G 8G10G18G21G23G27E10E18E25E24G 2
                                E11G15E12G16G26
  26657648.665   140086883.890        -950.425          36.000  
  22862897.372   120145340.398        1915.167          47.000  
  23114627.826   121468170.154         757.028          47.000  
  26873264.262   141219953.4582      -3089.731          30.000  
  24017747.015   126214096.888        2536.050          42.000  
  24059831.966   126435270.040       -1692.023          46.000  
  22177204.485   116541994.266        -645.779          47.000  
  25588401.971   134467972.989         887.125          44.000  
  23120410.460   121498573.879       -5451.842          37.000  
  26722398.228   140427163.223        1185.983          43.000  
  26579234.827   139674788.844       -1737.899          44.000  
  25818609.328   135677745.589        3043.323          39.000  
  25771825.912   135431858.290        2087.324          40.000  
  26745814.590   140550137.551       -1294.218          30.000  
  25605733.666   134559050.104        -381.743          39.000  
  24648483.346   129528625.945       -3172.230          43.000  
  26942081.970   141581608.953       -3507.294          37.000  
 24  2  6 19 10  6.0070000  0 17G 7G 8G10G18G21G23G27E10E18E25E24G 2
                                E11G15E12G16G26
  26657829.885   140087835.117        -951.239          36.000  
  22862533.282   120143425.436        1914.581          47.000  
  23114483.836   121467413.461         756.052          47.000  
  26873848.024   141223043.1642      -3089.252          30.000  
  24017264.246   126211560.958        2535.602          42.000  
  24060153.757   126436962.486       -1693.042          46.000  
  22177327.439   116542640.310        -646.546          46.000  
  25588233.454   134467085.901         886.702          44.000  
  23121447.587   121504025.561       -5452.188          36.000  
  26722172.789   140425977.556        1185.135          43.000  
  26579565.857   139676526.879       -1738.407          43.000  
  25818029.850   135674702.377        3042.981          39.000  
  25771428.693   135429770.905        2087.187          40.000  
  26746059.504   140551432.252       -1295.345          30.000  
  25605806.381   134559431.947        -382.506          39.000  
  24649087.516   129531798.169       -3172.694          43.000  
  26942749.258   141585116.030       -3507.188          37.000  
 24  2  6 19 10  7.0070000  0 17G 7G 8G10G18G21G23G27E10E18E25E24G 2
                                E11G15E12G16G26
  26658011.158   140088787.430        -952.296          36.000  
  22862168.965   120141511.471        1913.599          47.000  
  23114339.950   121466657.982         754.999          47.000  
  26874434.665   141226133.1231      -3090.568          30.000  
  24016781.765   126209025.964        2534.707          42.000  
  24060475.688   126438656.054       -1693.862          46.000  
  22177450.795   116543287.429        -647.659          46.000  
  25588065.304   134466199.692         885.941          44.000  
  23122484.759   121509478.495       -5453.004          36.000  
  26721947.148   140424792.928        1184.222          43.000  
  26579896.286   139678265.887       -1739.281          43.000  
  25817450.922   135671659.940        3042.297          39.000  
  25771031.491   135427684.353        2086.564          40.000  
  26746302.751   140552728.090       -1296.228          29.000  
  25605879.158   134559814.588        -382.953          39.000  
  24649691.756   129534971.299       -3173.389          43.000  
  26943416.824   141588623.692       -3507.495          36.000  
 24  2  6 19 10  8.0070000  0 17G 7G 8G10G18G21G23G27E10E18E25E24G 2
                                E11G15E12G16G26
  26658192.126   140089740.063        -952.469          36.000  
  22861804.892   120139597.764        1913.971          47.000  
  23114196.335   121465903.003         755.103          47.000  
  26875019.963   141229223.420       -3090.325          29.000  
  24016299.449   126206491.176        2535.155          42.000  
  24060797.897   126440350.045       -1693.873          46.000  
  22177574.002   116543934.912        -647.260          47.000  
  25587896.473   134465313.609         886.433          44.000  
  23123522.340   121514931.945       -5453.144          36.000  
  26721721.753   140423608.615        1184.603          43.000  
  26580227.011   139680005.147       -1738.885          43.000  
  25816871.784   135668617.584        3043.018          39.000  
  25770634.368   135425597.915        2086.590          40.000  
  26746549.829   140554024.413       -1296.065          29.000  
  25605951.681   134560197.393        -382.640          39.000  
  24650296.075   129538144.584       -3173.082          44.000  
  26944084.208   141592131.224       -3507.206          36.000  
 24  2  6 19 10  9.0070000  0 17G 7G 8G10G18G21G23G27E10E18E25E24G 2
                                E11G15E12G16G26
  26658373.407   140090692.917        -952.767          36.000  
  22861440.715   120137684.198        1913.440          47.000  
  23114052.999   121465148.413         754.267          47.000  
  26875605.758   141232313.453       -3089.883          29.000  
  24015816.837   126203956.465        2534.581          42.000  
  24061120.281   126442044.321       -1694.617          46.000  
  22177697.209   116544582.630        -647.987          46.000  
  25587727.781   134464427.577         885.841          44.000  
  23124560.017   121520385.774       -5454.175          37.000  
  26721496.191   140422424.503        1183.836          43.000  
  26580557.867   139681744.531       -1739.763          43.000  
  25816292.960   135665575.138        3042.273          39.000  
  25770237.070   135423511.389        2086.279          40.000  
  26746797.622   140555321.064       -1296.853          29.000  
  25606024.579   134560580.200        -383.055          39.000  
  24650900.289   129541317.903       -3173.499          44.000  
  26944751.600   141595638.460       -3507.302          36.000  
 24  2  6 19 10 10.0070000  0 17G 7G 8G10G18G21G23G27E10E18E25E24G 2
                                E11G15E12G16G26
  26658554.811   140091646.496        -954.125          36.000  
  22861076.983   120135771.245        1912.811          47.000  
  23113909.828   121464394.692         753.334          47.000  
  26876196.614   141235403.754       -3088.941          30.000  
  24015334.496   126201422.309        2534.006          42.000  
  24061442.814   126443739.377       -1695.401          46.000  
  22177820.469   116545231.054        -648.804          47.000  
  25587559.291   134463542.026         885.372          44.000  
  23125598.122   121525840.416       -5454.999          37.000  
  26721270.883   140421241.053        1183.085          43.000  
  26580889.230   139683484.490       -1740.012          43.000  
  25815714.503   135662533.104        3041.779          40.000  
  25769839.955   135421425.338        2085.976          40.000  
  26747045.327   140556618.631       -1297.861          29.000  
  25606097.730   134560963.449        -383.572          39.000  
  24651504.651   129544491.750       -3174.034          44.000  
  26945418.949   141599145.907       -3507.477          36.000  
 24  2  6 19 10 11.0070000  0 17G 7G 8G10G18G21G23G27E10E18E25E24G 2
                                E11G15E12G16G26
  26658736.319   140092600.415        -954.683          36.000  
  22860713.294   120133858.608        1912.360          47.000  
  23113766.562   121463641.502         752.775          47.000  
  26876787.356   141238494.037       -3090.616          30.000  
  24014852.224   126198888.383        2533.672          42.000  
  24061765.390   126445434.876       -1696.066          46.000  
  22177944.008   116545879.859        -649.144          47.000  
  25587391.062   134462656.664         885.088          44.000  
  23126636.288   121531295.624       -5455.694          37.000  
  26721045.583   140420057.956        1182.756          43.000  
  26581220.539   139685224.751       -1740.682          43.000  
  25815135.932   135659491.147        3042.126          40.000  
  25769443.015   135419339.425        2085.404          40.000  
  26747286.882   140557916.664       -1298.396          29.000  
  25606170.786   134561346.890        -383.692          39.000  
  24652109.109   129547665.793       -3174.339          44.000  
  26946086.010   141602653.210       -3507.390          36.000  
 24  2  6 19 10 12.0070000  0 17G 7G 8G10G18G21G23G27E10E18E25E24G 2
                                E11G15E12G16G26
  26658917.741   140093554.598        -955.043          36.000  
  22860349.317   120131946.169        1911.999          47.000  
  23113623.680   121462888.715         752.302          47.000  
  26877370.691   141241584.086       -3090.111          30.000  
  24014370.066   126196354.604        2533.178          42.000  
  24062088.070   126447130.700       -1696.272          46.000  
  22178067.468   116546528.956        -649.529          47.000  
  25587222.641   134461771.370         884.921          44.000  
  23127674.000   121536751.246       -5456.204          37.000  
  26720821.130   140418875.095        1182.609          43.000  
  26581551.910   139686965.167       -1740.868          43.000  
  25814557.431   135656449.203        3041.388          40.000  
  25769045.708   135417253.482        2085.530          40.000  
  26747547.440   140559215.097       -1298.704          29.000  
  25606244.303   134561730.392        -383.714          39.000  
  24652712.956   129550839.927       -3174.529          44.000  
  26946753.463   141606160.277       -3507.234          36.000  
 24  2  6 19 10 13.0070000  0 17G 7G 8G10G18G21G23G27E10E18E25E24G 2
                                E11G15E12G16G26
  26659099.668   140094509.472        -954.224          36.000  
  22859985.175   120130034.417        1911.407          46.000  
  23113480.710   121462136.843         751.629          47.000  
  26877962.899   141244674.470       -3090.458          30.000  
  24013888.161   126193821.400        2532.829          42.000  
  24062410.847   126448827.343       -1696.987          46.000  
  22178191.068   116547178.801        -650.081          47.000  
  25587054.159   134460886.609         884.649          44.000  
  23128712.453   121542207.746       -5456.768          38.000  
  26720596.475   140417692.962        1181.766          43.000  
  26581883.107   139688706.217       -1741.301          43.000  
  25813979.114   135653407.679        3041.278          40.000  
  25768649.213   135415168.037        2085.190          40.000  
  26747792.083   140560514.370       -1299.004          30.000  
  25606317.045   134562114.403        -384.192          39.000  
  24653316.865   129554014.604       -3174.633          44.000  
  26947420.882   141609667.606       -3507.204          36.000  
 24  2  6 19 10 14.0070000  0 17G 7G 8G10G18G21G23G27E10E18E25E24G 2
                                E11G15E12G16G26
  26659281.674   140095464.638        -955.557          36.000  
  22859621.224   120128122.734        1911.584          46.000  
  23113337.819   121461385.339         751.103          47.000  
  26878549.889   141247764.531       -3089.785          31.000  
  24013406.290   126191288.239        2533.051          42.000  
  24062734.156   126450524.254       -1697.242          46.000  
  22178314.816   116547828.862        -650.346          47.000  
  25586885.599   134460001.848         884.591          44.000  
  23129750.724   121547664.614       -5456.895          37.000  
  26720371.298   140416510.987        1181.646          43.000  
  26582214.329   139690447.367       -1741.378          43.000  
  25813401.040   135650366.068        3041.492          40.000  
  25768252.221   135413082.518        2085.599          40.000  
  26748041.037   140561814.059       -1300.439          31.000  
  25606390.248   134562498.382        -384.166          39.000  
  24653920.502   129557189.319       -3174.690          43.000  
  26948088.222   141613174.622       -3507.121          36.000  
 24  2  6 19 10 15.0070000  0 17G 7G 8G10G18G21G23G27E10E18E25E24G 2
                                E11G15E12G16G26
  26659463.767   140096420.315        -955.951          36.000  
  22859257.283   120126211.591        1910.791          46.000  
  23113195.163   121460634.541         750.394          47.000  
  26879144.880   141250854.744       -3090.797          31.000  
  24012924.219   126188755.538        2532.442          42.000  
  24063057.456   126452221.815       -1697.998          46.000  
  22178438.800   116548479.511        -651.116          46.000  
  25586717.161   134459117.473         883.969          44.000  
  23130789.282   121553122.217       -5457.974          37.000  
  26720146.504   140415329.563        1180.938          43.000  
  26582545.761   139692188.992       -1741.904          43.000  
  25812822.409   135647324.736        3041.199          41.000  
  25767855.525   135410997.328        2084.751          40.000  
  26748287.748   140563114.405       -1300.926          31.000  
  25606463.269   134562882.720        -384.392          39.000  
  24654524.114   129560364.423       -3175.382          43.000  
  26948755.570   141616681.714       -3507.046          35.000  
 24  2  6 19 10 16.0070000  0 17G 7G 8G10G18G21G23G27E10E18E25E24G 2
                                E11G15E12G16G26
  26659645.659   140097376.667        -955.958          36.000  
  22858893.454   120124301.057        1910.535          46.000  
  23113052.551   121459884.621         750.018          47.000  
  26879726.645   141253945.182       -3090.307          31.000  
  24012442.620   126186223.399        2532.138          42.000  
  24063380.739   126453920.117       -1698.256          46.000  
  22178562.574   116549130.858        -651.203          46.000  
  25586549.220   134458233.582         883.966          44.000  
  23131828.172   121558580.654       -5458.660          36.000  
  26719921.597   140414148.787        1180.735          43.000  
  26582877.106   139693931.217       -1742.162          44.000  
  25812244.649   135644283.825        3041.052          41.000  
  25767458.759   135408912.573        2085.081          40.000  
  26748531.597   140564415.507       -1300.154          31.000  
  25606536.795   134563267.549        -384.842          39.000  
  24655127.569   129563540.035       -3175.352          42.000  
  26949422.727   141620189.001       -3506.984          35.000  
 24  2  6 19 10 17.0070000  0 17G 7G 8G10G18G21G23G27E10E18E25E24G 2
                                E11G15E12G16G26
  26659827.499   140098333.503        -957.207          36.000  
  22858530.045   120122390.894        1910.004          46.000  
  23112909.922   121459135.304         748.917          47.000  
  26880313.827   141257035.632       -3090.836          31.000  
  24011960.723   126183691.522        2531.779          42.000  
  24063703.943   126455618.956       -1699.263          46.000  
  22178686.506   116549782.676        -652.083          46.000  
  25586380.729   134457349.935         883.457          44.000  
  23132867.464   121564039.647       -5459.396          36.000  
  26719696.960   140412968.449        1180.008          43.000  
  26583208.843   139695673.768       -1742.801          44.000  
  25811666.340   135641243.073        3040.631          41.000  
  25767062.195   135406827.997        2084.469          40.000  
  26748778.928   140565717.355       -1302.596          30.000  
  25606609.912   134563652.573        -384.882          39.000  
  24655731.416   129566715.924       -3176.083          43.000  
  26950090.198   141623696.246       -3507.345          35.000  
 24  2  6 19 10 18.0070000  0 18G 7G 8G10G18G21G23G27E10E18E25E24G 2
                                E11G15E12G16G26G32
  26660009.383   140099290.514        -957.460          36.000  
  22858166.557   120120480.881        1909.686          46.000  
  23112767.459   121458386.355         748.522          47.000  
  26880903.348   141260125.780       -3089.326          31.000  
  24011478.739   126181159.753        2531.487          42.000  
  24064027.357   126457318.073       -1699.421          46.000  
  22178810.952   116550434.713        -652.437          46.000  
  25586212.448   134456466.297         883.556          44.000  
  23133906.310   121569499.042       -5459.814          37.000  
  26719472.472   140411788.294        1179.795          43.000  
  26583540.659   139697416.449       -1742.937          44.000  
  25811088.005   135638202.235        3040.662          41.000  
  25766665.970   135404743.405        2084.093          40.000  
  26749026.800   140567019.404       -1302.646          31.000  
  25606683.124   134564037.634        -385.326          39.000  
  24656335.237   129569891.854       -3176.284          42.000  
  26950757.276   141627203.195       -3507.545          35.000  
  27710829.456                        3244.000          13.000  
 24  2  6 19 10 19.0070000  0 17G 7G 8G10G18G21G23G27E10E18E25E24G 2
                                E11G15E12G16G26
  26660191.624   140100248.157        -958.132          35.000  
  22857803.182   120118571.385        1909.259          46.000  
  23112624.960   121457638.208         747.640          47.000  
  26881490.495   141263216.195       -3090.492          31.000  
  24010996.747   126178628.477        2530.961          42.000  
  24064350.805   126459017.890       -1700.220          46.000  
  22178935.233   116551087.400        -653.276          47.000  
  25586044.289   134455583.112         882.855          44.000  
  23134945.462   121574959.213       -5460.422          36.000  
  26719248.001   140410608.727        1179.279          43.000  
  26583872.423   139699159.666       -1743.538          43.000  
  25810509.251   135635161.759        3040.314          41.000  
  25766269.449   135402659.145        2084.055          40.000  
  26749276.224   140568322.282       -1303.828          32.000  
  25606756.066   134564423.073        -385.665          39.000  
  24656939.495   129573068.212       -3176.737          43.000  
  26951424.415   141630710.235       -3507.361          35.000  
 24  2  6 19 10 20.0070000  0 17G 7G 8G10G18G21G23G27E10E18E25E24G 2
                                E11G15E12G16G26
  26660373.987   140101206.417        -958.143          34.000  
  22857439.947   120116662.464        1908.893          46.000  
  23112482.566   121456890.826         747.276          47.000  
  26882078.925   141266306.754       -3090.794          31.000  
  24010515.260   126176097.651        2530.847          42.000  
  24064674.062   126460718.411       -1700.818          46.000  
  22179059.888   116551740.709        -653.350          47.000  
  25585876.366   134454700.340         882.827          44.000  
  23135984.971   121580420.169       -5460.988          36.000  
  26719023.740   140409429.772        1178.801          43.000  
  26584204.117   139700903.395       -1743.808          43.000  
  25809930.602   135632121.570        3040.289          41.000  
  25765872.910   135400575.277        2083.758          40.000  
  26749524.881   140569625.873       -1303.271          32.000  
  25606829.811   134564808.962        -385.709          39.000  
  24657543.857   129576245.024       -3176.897          43.000  
  26952091.651   141634217.466       -3507.190          35.000  
 24  2  6 19 10 21.0070000  0 17G 7G 8G10G18G21G23G27E10E18E25E24G 2
                                E11G15E12G16G26
  26660556.028   140102165.156        -958.888          35.000  
  22857076.773   120114753.953        1908.270          46.000  
  23112340.042   121456144.080         746.481          47.000  
  26882667.338   141269397.374       -3090.538          31.000  
  24010034.114   126173567.208        2530.137          42.000  
  24064997.816   126462419.477       -1701.446          46.000  
  22179184.073   116552394.525        -654.172          47.000  
  25585708.224   134453817.860         882.332          44.000  
  23137024.167   121585881.790       -5461.835          36.000  
  26718799.199   140408251.271        1178.235          43.000  
  26584535.679   139702647.505       -1744.327          43.000  
  25809352.058   135629081.631        3039.899          41.000  
  25765476.310   135398491.629        2083.358          40.000  
  26749772.796   140570930.118       -1304.759          33.000  
  25606903.302   134565195.077        -385.965          39.000  
  24658148.472   129579422.148       -3177.315          42.000  
  26952759.043   141637724.670       -3507.573          35.000  
 24  2  6 19 10 22.0070000  0 17G 7G 8G10G18G21G23G27E10E18E25E24G 2
                                E11G15E12G16G26
  26660738.697   140103124.663        -960.043          35.000  
  22856713.765   120112846.089        1907.489          46.000  
  23112198.032   121455398.255         745.345          47.000  
  26883255.585   141272488.229       -3090.981          31.000  
  24009552.279   126171037.321        2529.639          42.000  
  24065321.360   126464121.352       -1702.292          46.000  
  22179308.388   116553049.082        -655.022          47.000  
  25585540.554   134452935.916         881.585          44.000  
  23138063.615   121591344.250       -5462.612          37.000  
  26718574.859   140407073.485        1177.457          43.000  
  26584867.382   139704392.253       -1745.030          43.000  
  25808773.679   135626042.100        3039.398          41.000  
  25765079.841   135396408.458        2082.808          40.000  
  26750021.436   140572235.225       -1305.541          33.000  
  25606976.497   134565581.727        -386.702          39.000  
  24658752.895   129582599.809       -3177.872          42.000  
  26953426.261   141641232.095       -3507.592          35.000  
 24  2  6 19 10 23.0070000  0 17G 7G 8G10G18G21G23G27E10E18E25E24G 2
                                E11G15E12G16G26
  26660921.593   140104084.627        -960.030          36.000  
  22856350.993   120110938.657        1907.288          46.000  
  23112055.987   121454653.111         744.828          47.000  
  26883843.770   141275579.193       -3090.635          32.000  
  24009071.255   126168507.833        2529.552          42.000  
  24065645.236   126465823.820       -1702.666          45.000  
  22179432.895   116553704.181        -655.295          47.000  
  25585372.508   134452054.283         881.678          44.000  
  23139103.142   121596807.428       -5463.546          37.000  
  26718350.955   140405896.175        1177.255          43.000  
  26585199.704   139706137.430       -1745.201          43.000  
  25808195.527   135623002.829        3039.301          41.000  
  25764683.224   135394325.548        2083.003          40.000  
  26750269.875   140573541.016       -1305.961          33.000  
  25607050.015   134565968.686        -387.001          39.000  
  24659357.973   129585777.824       -3178.014          42.000  
  26954093.941   141644739.547       -3507.780          36.000  
 24  2  6 19 10 24.0070000  0 17G 7G 8G10G18G21G23G27E10E18E25E24G 2
                                E11G15E12G16G26
  26661104.122   140105044.879        -960.801          36.000  
  22855988.028   120109031.387        1906.830          46.000  
  23111914.256   121453908.375         744.206          47.000  
  26884432.026   141278669.919       -3090.491          32.000  
  24008590.187   126165978.475        2529.002          42.000  
  24065969.156   126467526.609       -1703.060          46.000  
  22179557.603   116554359.561        -655.818          47.000  
  25585204.907   134451172.731         881.265          44.000  
  23140142.459   121602270.975       -5463.784          37.000  
  26718127.121   140404719.130        1176.738          43.000  
  26585532.034   139707882.769       -1745.735          43.000  
  25807617.689   135619963.521        3039.130          41.000  
  25764287.078   135392242.642        2082.817          40.000  
  26750518.584   140574847.243       -1307.206          34.000  
  25607123.794   134566355.694        -387.296          39.000  
  24659963.277   129588955.898       -3178.215          43.000  
  26954761.176   141648246.724       -3507.022          35.000  
 24  2  6 19 10 25.0070000  0 17G 7G 8G10G18G21G23G27E10E18E25E24G 2
                                E11G15E12G16G26
  26661286.939   140106005.619        -961.890          36.000  
  22855625.334   120107124.493        1906.268          46.000  
  23111772.351   121453164.257         743.459          47.000  
  26885020.177   141281760.676       -3090.473          32.000  
  24008108.998   126163449.428        2528.439          42.000  
  24066293.581   126469229.951       -1704.026          45.000  
  22179682.547   116555015.416        -656.528          46.000  
  25585037.612   134450291.434         880.744          44.000  
  23141182.623   121607735.163       -5464.906          38.000  
  26717903.523   140403542.503        1175.937          43.000  
  26585864.217   139709628.468       -1746.342          43.000  
  25807039.555   135616924.401        3038.556          41.000  
  25763891.298   135390159.956        2082.217          39.000  
  26750767.511   140576153.964       -1307.607          34.000  
  25607197.609   134566742.928        -387.687          39.000  
  24660568.259   129592134.272       -3178.994          43.000  
  26955429.005   141651753.899       -3507.504          35.000  
 24  2  6 19 10 26.0070000  0 17G 7G 8G10G18G21G23G27E10E18E25E24G 2
                                E11G15E12G16G26
  26661469.591   140106966.809        -961.791          35.000  
  22855262.649   120105218.070        1905.945          47.000  
  23111630.647   121452420.825         742.863          47.000  
  26885608.712   141284851.505       -3090.078          32.000  
  24007627.677   126160920.766        2528.372          42.000  
  24066617.964   126470933.887       -1704.460          45.000  
  22179807.482   116555671.804        -656.829          46.000  
  25584870.238   134449410.471         880.698          44.000  
  23142222.264   121613200.001       -5465.410          38.000  
  26717679.872   140402366.379        1175.755          43.000  
  26586196.739   139711374.580       -1746.274          44.000  
  25806461.612   135613885.527        3038.330          41.000  
  25763494.759   135388077.537        2082.247          40.000  
  26751016.604   140577461.400       -1308.160          34.000  
  25607271.135   134567130.496        -388.215          39.000  
  24661173.589   129595312.982       -3179.077          43.000  
  26956096.441   141655261.122       -3507.695          35.000  
 24  2  6 19 10 27.0070000  0 17G 7G 8G10G18G21G23G27E10E18E25E24G 2
                                E11G15E12G16G26
  26661652.608   140107928.507        -961.843          35.000  
  22854900.007   120103312.018        1905.914          47.000  
  23111488.855   121451678.011         742.546          47.000  
  26886196.775   141287942.403       -3090.318          31.000  
  24007146.862   126158392.413        2528.346          42.000  
  24066941.962   126472638.339       -1704.684          46.000  
  22179932.923   116556328.671        -657.137          47.000  
  25584702.716   134448529.765         880.597          44.000  
  23143262.366   121618665.474       -5465.771          38.000  
  26717455.881   140401190.703        1175.368          43.000  
  26586529.419   139713121.073       -1746.651          44.000  
  25805883.766   135610846.793        3038.562          41.000  
  25763098.604   135385995.326        2082.012          39.000  
  26751265.654   140578769.402       -1307.823          34.000  
  25607344.967   134567518.286        -388.068          39.000  
  24661779.191   129598491.969       -3179.057          43.000  
  26956763.781   141658768.270       -3507.226          35.000  
 24  2  6 19 10 28.0070000  0 17G 7G 8G10G18G21G23G27E10E18E25E24G 2
                                E11G15E12G16G26
  26661835.940   140108890.507        -962.926          35.000  
  22854537.269   120101406.226        1905.554          47.000  
  23111347.683   121450935.683         741.843          46.000  
  26886784.935   141291033.126       -3091.234          31.000  
  24006665.734   126155864.237        2528.001          42.000  
  24067266.230   126474343.197       -1705.200          46.000  
  22180058.302   116556985.872        -657.498          47.000  
  25584535.177   134447649.190         880.422          44.000  
  23144302.539   121624131.404       -5466.529          38.000  
  26717232.292   140400015.297        1175.143          43.000  
  26586861.863   139714867.791       -1747.180          44.000  
  25805305.073   135607808.124        3038.592          41.000  
  25762702.231   135383913.188        2081.708          39.000  
  26751514.730   140580077.903       -1309.053          34.000  
  25607418.808   134567906.170        -388.142          39.000  
  24662384.259   129601671.100       -3179.066          43.000  
  26957431.251   141662275.272       -3507.215          35.000  
 24  2  6 19 10 29.0070000  0 17G 7G 8G10G18G21G23G27E10E18E25E24G 2
                                E11G15E12G16G26
  26662019.290   140109853.053        -962.406          35.000  
  22854174.828   120099500.940        1904.987          47.000  
  23111206.633   121450194.102         741.176          46.000  
  26887373.321   141294123.981       -3091.005          31.000  
  24006185.050   126153336.523        2527.593          42.000  
  24067590.988   126476048.711       -1705.891          46.000  
  22180183.560   116557643.686        -658.115          47.000  
  25584367.611   134446769.015         879.911          44.000  
  23145342.773   121629598.077       -5467.043          38.000  
  26717008.850   140398840.472        1174.628          43.000  
  26587194.482   139716614.984       -1747.269          43.000  
  25804726.249   135604769.775        3038.129          40.000  
  25762306.024   135381831.374        2081.255          40.000  
  26751763.701   140581387.089       -1309.492          34.000  
  25607492.753   134568294.430        -388.445          39.000  
  24662989.424   129604850.653       -3179.855          43.000  
  26958098.644   141665782.366       -3507.396          35.000  
