     2.11           OBSERVATION DATA    M (MIXED)           RINEX VERSION / TYPE
teqc  2019Feb25     Yann Meneroux       20231211 17:31:26UTCPGM / RUN BY / DATE
45                                                          MARKER NAME
0592                                                        MARKER NUMBER
                                                            OBSERVER / AGENCY
3230592             LEICA GS10          12.10.060/7.813     REC # / TYPE / VERS
                    LEIAS10         NONE                    ANT # / TYPE
  4201761.5924   177875.3945  4779296.4335                  APPROX POSITION XYZ
        0.0000        0.0000        0.0000                  ANTENNA: DELTA H/E/N
     1     1                                                WAVELENGTH FACT L1/2
    16    C1    L1    D1    P2    L2    D2    C2    C5    L5# / TYPES OF OBSERV
          D5    C7    L7    D7    C8    L8    D8            # / TYPES OF OBSERV
Linux 2.6.32-573.12.1.x86_64|x86_64|gcc|Linux 64|=+         COMMENT
GS10 V12.10                             2023 12 08 17:28    COMMENT
                                                            COMMENT
    30.0000                                                 INTERVAL
    18                                                      LEAP SECONDS
BIT 2 OF LLI FLAGS DATA COLLECTED UNDER A/S CONDITION       COMMENT
SNR is mapped to RINEX snr flag value [1-9]                 COMMENT
LX:    >= 25dBHz -> 1; 26-27dBHz -> 2; 28-31dBHz -> 3       COMMENT
       32-35dBHz -> 4; 36-38dBHz -> 5; 39-41dBHz -> 6       COMMENT
       42-44dBHz -> 7; 45-48dBHz -> 8; >= 49dBHz -> 9       COMMENT
teqc edited: all GLONASS satellites excluded                COMMENT
  2023    12     8    17    29    0.0000000     GPS         TIME OF FIRST OBS
                                                            END OF HEADER
 23 12  8 17 29  0.0000000  0 17G06G11G12G25G26G28G29G31G32E04E05E09
                                E13E21E26E31E33
  24665709.134   129619179.15816     -2659.106    24665710.593   101001961.57056
     -2072.029    24665711.088    24665709.887    96793545.27718     -1985.631


  23210695.317   121973034.28318      -841.940    23210694.054    95043921.62057
      -656.055    23210694.223    23210697.031    91083763.06819      -628.769


  22461538.453   118036177.69918     -2842.894    22461536.265    91976238.93558
     -2215.242    22461536.690


  20070682.720   105472151.36919     -1086.703    20070683.514    82186095.17559
      -846.782    20070683.999    20070682.645    78761673.27519      -811.543


  24775405.401   130195642.71315      3342.446    24775409.214   101451168.45855
      2604.503    24775409.241    24775407.572    97224017.71218      2496.104


  21149413.977   111140931.05519      1688.571    21149412.750    86603323.23157
      1315.771    21149412.885    21149416.083    82994856.94319      1260.973


  20814044.798   109378552.89219      1595.564    20814043.404    85230040.73459
      1243.298    20814043.876


  22568366.722   118597584.55019      2840.313    22568365.362    92413704.31457
      2213.232    22568365.696


  23455889.339   123261527.79018     -2768.442    23455891.229    96047944.56855
     -2157.228    23455891.320    23455889.392    92045942.78418     -2067.338


  26508450.417   139302843.77318     -2687.531
                                  26508452.684   104024851.09118     -2006.975
  26508451.259   106738541.53218     -2059.349    26508452.080   105381698.34518
     -2033.127
  26711029.827   140367425.84117      1854.093
                                  26711033.039   104819827.29417      1384.671
  26711031.119   107554255.07517      1420.887    26711032.370   106187044.71718
      1402.758
  25967767.214   136461541.59618      -607.119
                                  25967769.733   101903100.23018      -453.284
  25967768.663   104561441.52318      -465.187    25967769.331   103232275.41219
      -459.205
  25881127.564   136006247.25818      -786.418
                                  25881130.538   101563108.83218      -587.216
  25881128.950   104212580.79318      -602.526    25881129.979   102887849.34819
      -594.870
  26202212.131   137693552.78918     -2190.452
                                  26202214.749   102823107.45018     -1635.670
  26202213.321   105505449.05018     -1678.257    26202214.216   104164282.78719
     -1656.993
  25160744.488   132220622.35619      2041.198
                                  25160745.461    98736180.07418      1524.279
  25160743.969   101311903.62719      1564.039    25160744.938   100024044.38519
      1544.127
  25031170.006   131539698.20419      1883.376
                                  25031172.710    98227700.32118      1406.400
  25031171.632   100790161.40819      1443.098    25031172.285    99508935.40019
      1424.754
  27545051.967   144750248.77918      3293.152
                                  27545052.907   108092730.02217      2459.229
  27545054.022   110912535.21217      2523.293    27545053.642   109502632.15018
      2491.289
 23 12  8 17 29 30.0000000  0 17G06G11G12G25G26G28G29G31G32E04E05E09
                                E13E21E26E31E33
  24680925.507   129699141.656 5     -2672.145    24680926.940   101064270.01845
     -2082.189    24680927.442    24680926.285    96853257.541 8     -1995.460


  23215557.217   121998583.745 8      -861.564    23215555.955    95063830.31447
      -671.347    23215556.134    23215558.915    91102842.207 9      -643.441


  22477784.990   118121553.747 8     -2849.214    22477782.809    92042765.70648
     -2220.167    22477783.235


  20076922.423   105504941.236 9     -1099.593    20076923.208    82211645.72349
      -856.825    20076923.691    20076922.330    78786159.203 9      -821.099


  24756326.695   130095383.349 5      3341.238    24756330.469   101373044.24845
      2603.560    24756330.483    24756328.829    97149148.710 8      2494.913


  21139818.968   111090509.031 9      1672.507    21139817.740    86564033.35147
      1303.252    21139817.879    21139821.091    82957204.152 9      1248.919


  20804982.104   109330928.208 9      1579.080    20804980.713    85192930.61449
      1230.454    20804981.183


  22552182.197   118512534.274 8      2829.521    22552180.830    92347431.39647
      2204.823    22552181.166


  23471720.622   123344721.688 8     -2778.253    23471722.535    96112770.97546
     -2164.873    23471722.624    23471720.728    92108068.060 8     -2074.695


  26523809.655   139383557.053 8     -2693.682
                                  26523811.899   104085123.964 7     -2011.436
  26523810.513   106800386.753 8     -2063.994    26523811.340   105442757.395 8
     -2037.713
  26700474.923   140311959.636 6      1843.109
                                  26700478.065   104778407.780 6      1376.396
  26700476.278   107511755.073 7      1412.237    26700477.484   106145084.958 8
      1394.345
  25971273.214   136479965.867 8      -621.649
                                  25971275.768   101916858.634 8      -464.146
  25971274.632   104575558.844 8      -476.268    25971275.330   103246213.274 9
      -470.193
  25885658.213   136030056.108 8      -801.261
                                  25885661.187   101580888.188 8      -598.404
  25885659.593   104230823.949 8      -613.934    25885660.650   102905860.607 9
      -606.207
  26214724.099   137759303.576 8     -2193.331
                                  26214726.712   102872207.048 7     -1637.931
  26214725.302   105555829.515 8     -1680.624    26214726.187   104214022.821 9
     -1659.299
  25149123.921   132159555.910 8      2029.550
                                  25149124.902    98690578.525 8      1515.559
  25149123.413   101265112.479 9      1555.113    25149124.364    99977848.037 9
      1535.321
  25020428.126   131483249.364 9      1879.510
                                  25020430.803    98185547.010 8      1403.512
  25020429.724   100746908.447 9      1440.109    25020430.389    99466232.261 9
      1421.815
  27526252.276   144651455.780 7      3292.631
                                  27526253.176   108018956.089 6      2458.791
  27526254.289   110836836.740 7      2522.874    27526253.909   109427895.948 8
      2490.753
 23 12  8 17 30  0.0000000  0 17G06G11G12G25G26G28G29G31G32E04E05E09
                                E13E21E26E31E33
  24696216.707   129779497.505 6     -2685.156    24696218.109   101126885.00746
     -2092.329    24696218.611    24696217.508    96913263.576 8     -2004.977


  23220530.535   122024718.643 8      -880.861    23220529.270    95084195.17746
      -686.384    23220529.456    23220532.216    91122358.566 9      -657.736


  22494068.000   118207121.563 8     -2855.249    22494065.826    92109441.92348
     -2224.870    22494066.253


  20083235.567   105538117.051 9     -1112.123    20083236.354    82237497.00749
      -866.589    20083236.840    20083235.465    78810933.363 9      -830.507


  24737256.311   129995167.675 6      3339.903    24737260.076   101294954.11445
      2602.523    24737260.072    24737258.423    97074312.316 8      2493.996


  21130316.366   111040572.623 9      1656.666    21130315.131    86525121.87747
      1290.909    21130315.267    21130318.507    82919914.003 9      1237.075


  20796013.902   109283800.119 9      1562.771    20796012.517    85156207.45749
      1217.745    20796012.987


  22536060.039   118427811.771 9      2818.749    22536058.660    92281413.89847
      2196.429    22536058.999


  23487608.574   123428213.237 8     -2787.890    23487610.517    96177829.28946
     -2172.384    23487610.608    23487608.739    92170415.617 8     -2081.827


  26539203.527   139464452.360 8     -2699.358
                                  26539205.758   104145532.772 8     -2015.696
  26539204.404   106862371.456 8     -2068.397    26539205.235   105503954.153 8
     -2042.059
  26689983.699   140256828.121 7      1832.146
                                  26689986.783   104737238.205 6      1368.225
  26689985.104   107469511.494 7      1403.867    26689986.277   106103378.380 8
      1385.967
  25974862.202   136498826.219 9      -635.806
                                  25974864.800   101930942.677 8      -474.784
  25974863.576   104590010.299 8      -487.194    25974864.323   103260481.024 9
      -481.015
  25890274.242   136054313.711 8      -815.942
                                  25890277.233   101599002.651 8      -609.337
  25890275.620   104249410.959 9      -625.224    25890276.695   102924211.339 9
      -617.261
  26227253.932   137825148.281 8     -2196.305
                                  26227256.531   102921376.794 8     -1640.079
  26227255.134   105606281.933 8     -1682.761    26227256.010   104263833.898 8
     -1661.436
  25137569.605   132098837.677 9      2018.271
                                  25137570.592    98645237.021 8      1507.111
  25137569.099   101218588.149 9      1546.416    25137570.042    99931915.118 9
      1526.801
  25009708.828   131426919.212 9      1875.864
                                  25009711.459    98143482.343 8      1400.801
  25009710.399   100703746.438 9      1437.305    25009711.069    99423618.922 9
      1419.075
  27507456.259   144552682.151 8      3292.212
                                  27507457.105   107945196.623 7      2458.493
  27507458.233   110761153.116 8      2522.509    27507457.860   109353174.402 8
      2490.520
 23 12  8 17 30 30.0000000  0 17G06G11G12G25G26G28G29G31G32E04E05E09
                                E13E21E26E31E33
  24711581.677   129860240.933 6     -2698.143    24711583.057   101189801.97946
     -2102.448    24711583.556    24711582.500    96973559.034 7     -2014.844


  23225614.481   122051434.989 8      -900.494    23225613.203    95105013.13346
      -701.682    23225613.394    23225616.128    91142309.094 8      -672.381


  22510386.674   118292876.792 9     -2861.800    22510384.501    92176264.17449
     -2229.976    22510384.932


  20089621.424   105571675.004 9     -1125.226    20089622.214    82263646.06749
      -876.800    20089622.702    20089621.307    78835992.870 9      -840.178


  24718193.794   129894993.332 6      3338.199    24718197.553   101216896.15846
      2601.194    24718197.544    24718195.899    96999506.772 8      2492.765


  21120905.945   110991120.621 9      1640.152    21120904.699    86486587.86547
      1278.041    21120904.834    21120908.096    82882985.578 9      1224.765


  20787139.704   109237165.980 9      1545.990    20787138.337    85119869.18349
      1204.667    20787138.810


  22520000.055   118343415.967 9      2807.463    22519998.670    92215650.96147
      2187.635    22519999.016


  23503551.957   123511996.146 8     -2797.753    23503553.926    96243114.65546
     -2180.066    23503554.020    23503552.147    92232980.772 8     -2089.217


  26554631.043   139545524.491 8     -2705.552
                                  26554633.256   104206073.643 7     -2020.398
  26554631.934   106924491.644 8     -2073.011    26554632.762   105565284.683 8
     -2046.791
  26679555.835   140202029.532 7      1820.941
                                  26679558.862   104696317.228 6      1359.948
  26679557.286   107427522.993 8      1395.200    26679558.434   106061923.634 8
      1377.625
  25978533.448   136518118.841 9      -650.459
                                  25978536.101   101945349.518 8      -485.750
  25978534.787   104604792.982 8      -498.449    25978535.579   103275075.785 9
      -492.139
  25894974.920   136079016.090 9      -831.045
                                  25894977.950   101617449.253 8      -620.598
  25894976.301   104268338.767 9      -636.728    25894977.389   102942898.545 9
      -628.638
  26239800.985   137891083.448 8     -2199.566
                                  26239803.576   102970614.076 7     -1642.588
  26239802.194   105656803.659 8     -1685.390    26239803.061   104313713.401 8
     -1663.968
  25126081.241   132038466.057 9      2006.332
                                  25126082.257    98600154.346 8      1498.343
  25126080.743   101172329.395 9      1537.389    25126081.687    99886244.406 9
      1517.850
  24999011.595   131370704.881 9      1871.751
                                  24999014.172    98101504.143 8      1397.719
  24999013.148   100660673.158 9      1434.120    24999013.814    99381093.182 9
      1415.943
  27488663.655   144453926.564 8      3291.403
                                  27488664.446   107871450.656 7      2457.786
  27488665.577   110685483.318 8      2521.864    27488665.223   109278466.520 8
      2489.817
 23 12  8 17 31  0.0000000  0 17G06G11G12G25G26G28G29G31G32E04E05E09
                                E13E21E26E31E33
  24727020.752   129941373.805 6     -2710.955    24727022.119   101253022.40946
     -2112.430    24727022.610    24727021.589    97034145.287 8     -2024.514


  23230809.785   122078736.438 8      -919.774    23230808.503    95126286.97946
      -716.706    23230808.701    23230811.401    91162696.553 8      -687.013


  22526741.668   118378822.862 8     -2868.198    22526739.501    92243235.12448
     -2234.961    22526739.935


  20096080.742   105605618.986 9     -1137.985    20096081.537    82290095.92749
      -886.741    20096082.024    20096080.621    78861340.657 9      -849.877


  24699140.153   129794865.668 6      3336.706    24699143.904   101138874.56945
      2600.027    24699143.889    24699142.253    96924736.096 8      2491.574


  21111588.932   110942159.466 9      1623.660    21111587.677    86448436.33147
      1265.191    21111587.806    21111591.083    82846423.691 9      1212.436


  20778360.470   109191030.885 9      1529.380    20778359.125    85083919.77449
      1191.725    20778359.599


  22504003.547   118259353.778 9      2796.410    22504002.157    92150147.99246
      2179.022    22504002.508


  23519551.089   123596071.937 8     -2807.500    23519553.087    96308628.21646
     -2187.666    23519553.192    23519551.297    92295764.591 8     -2096.619


  26570092.692   139626775.953 8     -2711.576
                                  26570094.878   104266748.425 8     -2024.935
  26570093.602   106986749.237 8     -2077.643    26570094.419   105626750.872 8
     -2051.359
  26669192.427   140147569.724 6      1809.403
                                  26669195.408   104655649.240 6      1351.234
  26669193.932   107385794.093 8      1386.478    26669195.054   106020725.200 8
      1368.776
  25982287.681   136537847.533 9      -665.053
                                  25982290.382   101960081.993 8      -496.613
  25982288.971   104619909.777 8      -509.565    25982289.821   103290000.422 9
      -503.081
  25899760.944   136104166.966 9      -845.990
                                  25899764.006   101636230.763 8      -631.748
  25899762.326   104287610.233 9      -648.252    25899763.419   102961925.032 9
      -639.979
  26252366.055   137957113.323 8     -2202.724
                                  26252368.630   103019922.096 8     -1644.930
  26252367.274   105707397.971 8     -1687.839    26252368.118   104363664.567 8
     -1666.399
  25114660.008   131978447.121 9      1994.518
                                  25114661.073    98555335.030 9      1489.409
  25114659.534   101126340.876 9      1528.283    25114660.469    99840840.485 9
      1508.901
  24988337.298   131314611.153 9      1867.660
                                  24988339.813    98059616.019 8      1394.619
  24988338.825   100617692.291 9      1431.040    24988339.496    99338658.686 9
      1412.858
  27469875.702   144355195.374 8      3290.377
                                  27469876.460   107797722.882 7      2457.278
  27469877.592   110609832.198 8      2521.226    27469877.246   109203777.067 8
      2489.280
 23 12  8 17 31 30.0000000  0 17G06G11G12G25G26G28G29G31G32E04E05E09
                                E13E21E26E31E33
  24742532.879   130022890.678 6     -2723.562    24742534.232   101316542.08046
     -2122.255    24742534.724    24742533.730    97095018.336 7     -2033.992


  23236115.690   122106619.243 8      -939.244    23236114.414    95148013.84747
      -731.879    23236114.612    23236117.250    91183518.140 8      -701.343


  22543132.229   118464955.853 8     -2874.222    22543130.071    92310351.72948
     -2239.654    22543130.509


  20102612.870   105639945.537 9     -1150.749    20102613.669    82316843.88449
      -896.688    20102614.155    20102612.751    78886974.105 9      -859.270


  24680094.992   129694782.725 6      3335.528    24680098.739   101060887.89245
      2599.113    24680098.717    24680097.094    96849998.855 8      2490.634


  21102365.163   110893688.263 9      1607.432    21102363.895    86410666.57247
      1252.545    21102364.023    21102367.302    82810227.672 9      1200.387


  20769675.836   109145392.884 9      1512.778    20769674.508    85048357.70649
      1178.789    20769674.985


  22488070.432   118175624.737 9      2785.233    22488069.037    92084904.61547
      2170.313    22488069.391


  23535604.782   123680434.644 8     -2816.888    23535606.809    96374365.38346
     -2194.976    23535606.916    23535604.987    92358762.689 8     -2103.540


  26585587.543   139708201.894 8     -2717.235
                                  26585589.690   104327553.504 8     -2029.062
  26585588.469   107049140.547 8     -2081.943    26585589.273   105688349.059 8
     -2055.499
  26658893.222   140093447.279 6      1798.521
                                  26658896.169   104615233.164 7      1342.987
  26658894.783   107344323.667 7      1377.876    26658895.879   105979781.949 8
      1360.417
  25986124.224   136558008.768 9      -679.264
                                  25986126.958   101975137.478 8      -507.243
  25986125.455   104635358.020 8      -520.560    25986126.369   103305252.283 9
      -513.902
  25904631.630   136129762.676 8      -860.662
                                  25904634.722   101655344.450 8      -642.706
  25904633.025   104307222.542 9      -659.439    25904634.112   102981288.030 9
      -651.047
  26264948.584   138023234.896 8     -2205.681
                                  26264951.152   103069298.571 8     -1647.065
  26264949.827   105758062.539 8     -1690.055    26264950.639   104413685.089 8
     -1668.528
  25103305.596   131918779.512 9      1982.978
                                  25103306.701    98510778.084 8      1480.810
  25103305.143   101080621.577 9      1519.404    25103306.065    99795702.368 9
      1500.068
  24977685.488   131258635.555 9      1863.760
                                  24977687.962    98017816.093 8      1391.781
  24977686.994   100574801.924 9      1428.138    24977687.673    99296313.544 9
      1409.963
  27451092.187   144256487.606 7      3289.811
                                  27451092.920   107724012.611 7      2456.675
  27451094.063   110534199.031 8      2520.791    27451093.711   109129105.354 8
      2488.706
 23 12  8 17 32  0.0000000  0 17G06G11G12G25G26G28G29G31G32E04E05E09
                                E13E21E26E31E33
  24758117.622   130104789.173 5     -2736.830    24758118.963   101380359.11945
     -2132.595    24758119.452    24758118.473    97156176.336 8     -2043.713


  23241532.084   122135082.757 8      -958.929    23241530.819    95170193.22847
      -747.217    23241531.015    23241533.581    91204773.371 8      -716.147


  22559558.188   118551274.867 8     -2880.934    22559556.044    92377613.28748
     -2244.885    22559556.488


  20109217.716   105674654.240 9     -1163.694    20109218.509    82343889.63149
      -906.774    20109218.996    20109217.597    78912892.954 9      -869.062


  24661058.541   129594745.575 7      3333.428    24661062.299   100982936.90645
      2597.479    24661062.271    24661060.653    96775295.813 8      2489.118


  21093235.020   110845709.094 9      1590.634    21093233.744    86373280.21947
      1239.456    21093233.870    21093237.142    82774399.094 9      1187.766


  20761085.983   109100252.981 9      1495.917    20761084.663    85013183.77249
      1165.650    20761085.142


  22472201.198   118092231.387 8      2773.761    22472199.794    92019922.80946
      2161.374    22472200.148


  23551712.554   123765081.438 8     -2826.625    23551714.612    96440323.89146
     -2202.568    23551714.728    23551712.766    92421972.945 8     -2110.946


  26601115.266   139789800.516 8     -2723.254
                                  26601117.389   104388487.516 8     -2033.619
  26601116.211   107111664.134 8     -2086.706    26601117.001   105750077.859 8
     -2060.129
  26648658.543   140039663.830 6      1786.430
                                  26648661.470   104575070.200 7      1334.118
  26648660.146   107303112.966 7      1368.927    26648661.238   105939095.121 8
      1351.487
  25990043.003   136578602.112 9      -694.153
                                  25990045.761   101990515.629 8      -518.313
  25990044.178   104651137.336 8      -531.860    25990045.158   103320831.016 9
      -525.042
  25909586.846   136155802.609 9      -875.723
                                  25909589.944   101674789.874 8      -654.081
  25909588.249   104327175.231 9      -671.099    25909589.313   103000987.086 9
      -662.555
  26277548.521   138089448.055 8     -2209.059
                                  26277551.089   103118743.473 8     -1649.729
  26277549.783   105808797.295 8     -1692.699    26277550.556   104463774.918 8
     -1671.172
  25092018.358   131859464.970 9      1970.811
                                  25092019.493    98466484.786 8      1471.645
  25092017.922   101035172.787 9      1510.097    25092018.837    99750831.320 9
      1490.890
  24967056.235   131202778.576 9      1859.411
                                  24967058.693    97976104.754 8      1388.537
  24967057.725   100532002.456 9      1424.740    24967058.411    99254058.139 9
      1406.598
  27432313.528   144157805.368 7      3288.553
                                  27432314.236   107650321.400 7      2455.710
  27432315.406   110458585.448 8      2519.708    27432315.040   109054452.955 8
      2487.736
 23 12  8 17 32 30.0000000  0 17G06G11G12G25G26G28G29G31G32E04E05E09
                                E13E21E26E31E33
  24773773.512   130187061.618 6     -2748.659    24773774.841   101444467.54946
     -2141.812    24773775.336    24773774.382    97217613.586 8     -2052.692


  23247057.853   122164121.025 8      -977.691    23247056.602    95192820.46646
      -761.836    23247056.789    23247059.292    91226457.813 9      -730.126


  22576018.414   118637773.947 8     -2886.465    22576016.292    92445015.15448
     -2249.195    22576016.738


  20115894.228   105709739.517 9     -1175.874    20115895.012    82371228.80149
      -916.266    20115895.499    20115894.107    78939092.991 9      -878.133


  24642030.002   129494750.045 7      3332.202    24642033.760   100905018.32345
      2596.523    24642033.720    24642032.127    96700623.860 8      2488.408


  21084197.928   110798218.889 9      1574.662    21084196.648    86336274.87447
      1227.009    21084196.773    21084200.026    82738935.631 9      1175.925


  20752589.993   109055606.326 9      1479.791    20752588.669    84978394.19049
      1153.084    20752589.146


  22456395.364   118009171.218 9      2762.918    22456393.949    91955200.62746
      2152.924    22456394.302


  23567872.835   123850004.235 8     -2835.474    23567874.900    96506497.48746
     -2209.460    23567875.024    23567873.024    92485389.284 8     -2117.385


  26616674.492   139871564.751 9     -2728.370
                                  26616676.598   104449545.224 8     -2037.469
  26616675.448   107174314.647 8     -2090.520    26616676.219   105811931.971 8
     -2064.008
  26638487.634   139986215.650 6      1775.806
                                  26638490.548   104535157.633 7      1326.205
  26638489.260   107262159.186 8      1360.700    26638490.358   105898661.947 8
      1343.471
  25994042.893   136599621.753 9      -707.833
                                  25994045.653   102006212.140 8      -528.680
  25994044.017   104667243.319 8      -542.410    25994045.051   103336732.264 9
      -535.551
  25914625.519   136182280.928 9      -890.061
                                  25914628.618   101694562.643 8      -664.644
  25914626.944   104347463.822 9      -682.009    25914627.978   103021017.768 9
      -673.360
  26290164.945   138155747.649 8     -2211.615
                                  26290167.538   103168252.870 8     -1651.492
  26290166.245   105859598.259 8     -1694.530    26290166.970   104513930.098 8
     -1673.049
  25080797.697   131800500.071 9      1959.440
                                  25080798.844    98422452.559 8      1463.252
  25080797.278   100989991.896 9      1501.409    25080798.191    99706224.758 9
      1482.371
  24956448.657   131147035.510 9      1856.036
                                  24956451.126    97934478.463 9      1386.023
  24956450.144   100489290.260 9      1422.136    24956450.839    99211888.899 9
      1404.039
  27413539.143   144059145.547 8      3288.097
                                  27413539.817   107576646.922 7      2455.426
  27413541.005   110382989.004 8      2519.421    27413540.640   108979817.497 8
      2487.446
 23 12  8 17 33  0.0000000  0 17G06G11G12G25G26G28G29G31G32E04E05E09
                                E13E21E26E31E33
  24789501.517   130269713.070 5     -2761.512    24789502.816   101508871.31245
     -2151.829    24789503.323    24789502.417    97279333.838 8     -2062.319


  23252694.279   122193740.721 8      -997.476    23252693.040    95215900.75646
      -777.252    23252693.227    23252695.661    91248576.427 9      -744.858


  22592514.200   118724459.906 8     -2893.140    22592512.103    92512562.64648
     -2254.395    22592512.550


  20122643.720   105745208.347 9     -1189.118    20122644.492    82398866.85249
      -926.586    20122644.981    20122643.595    78965579.459 9      -887.966


  24623010.967   129394804.637 7      3330.182    24623014.728   100827138.82444
      2594.948    24623014.676    24623013.102    96625989.381 7      2486.922


  21075255.707   110751227.188 9      1557.659    21075254.418    86299657.97047
      1213.761    21075254.540    21075257.773    82703844.434 9      1163.203


  20744189.514   109011461.538 9      1462.717    20744188.172    84943995.66449
      1139.780    20744188.650


  22440654.824   117926454.156 9      2751.081    22440653.396    91890745.79547
      2143.699    22440653.746


  23584086.544   123935207.616 8     -2845.148    23584088.611    96572889.68346
     -2217.001    23584088.739    23584086.722    92549015.147 8     -2124.611


  26632266.334   139953500.249 8     -2734.413
                                  26632268.440   104510730.798 8     -2041.982
  26632267.293   107237096.381 8     -2095.250    26632268.048   105873915.622 8
     -2068.557
  26628382.246   139933111.835 6      1764.001
                                  26628385.165   104495502.217 7      1317.304
  26628383.901   107221469.268 8      1351.582    26628385.009   105858489.279 8
      1334.410
  25998125.249   136621074.709 8      -722.679
                                  25998128.006   102022232.220 8      -539.745
  25998126.337   104683681.308 8      -553.763    25998127.410   103352961.299 9
      -546.740
  25919748.900   136209204.444 8      -905.192
                                  25919751.966   101714667.870 8      -675.955
  25919750.325   104368093.533 9      -693.585    25919751.338   103041385.236 9
      -684.804
  26302799.192   138222141.015 8     -2215.044
                                  26302801.806   103217832.323 8     -1654.043
  26302800.515   105910471.104 8     -1697.219    26302801.206   104564156.248 8
     -1675.663
  25069645.288   131741893.905 9      1947.213
                                  25069646.434    98378688.265 8      1454.069
  25069644.870   100945085.906 9      1491.979    25069645.791    99661889.621 9
      1473.004
  24945864.251   131091414.320 9      1851.547
                                  24945866.752    97892943.195 8      1382.701
  24945865.749   100446671.459 9      1418.773    24945866.446    99169811.861 9
      1400.757
  27394770.838   143960517.664 7      3286.505
                                  27394771.475   107502996.291 7      2454.253
  27394772.680   110307417.037 8      2518.369    27394772.317   108905206.199 8
      2486.282
 23 12  8 17 33 30.0000000  0 17G06G11G12G25G26G28G29G31G32E04E05E09
                                E13E21E26E31E33
  24805300.905   130352739.659 5     -2773.544    24805302.177   101573567.37945
     -2161.202    24805302.684    24805301.848    97341334.231 8     -2071.200


  23258440.927   122223939.676 8     -1016.165    23258439.682    95239432.43846
      -791.815    23258439.866    23258442.252    91271127.614 9      -758.834


  22609045.115   118811330.436 8     -2898.711    22609043.040    92580253.95848
     -2258.736    22609043.488


  20129465.851   105781058.906 9     -1201.271    20129466.611    82426802.35649
      -936.055    20129467.101    20129465.720    78992350.981 9      -897.004


  24604001.423   129294909.059 7      3329.033    24604005.199   100749298.17944
      2594.053    24604005.131    24604003.579    96551392.098 7      2486.088


  21066408.466   110704734.653 9      1541.493    21066407.169    86263430.03447
      1201.164    21066407.289    21066410.497    82669126.002 9      1151.152


  20735884.457   108967818.225 9      1446.402    20735883.087    84909987.91049
      1127.067    20735883.566


  22424979.807   117844081.501 8      2740.139    22424978.361    91826559.35547
      2135.176    22424978.705


  23600352.820   124020687.293 8     -2853.845    23600354.880    96639497.19246
     -2223.777    23600355.007    23600352.974    92612847.325 8     -2131.094


  26647890.153   140035603.793 8     -2739.503
                                  26647892.271   104572041.868 8     -2045.728
  26647891.094   107300006.863 8     -2099.002    26647891.851   105936026.404 8
     -2072.412
  26618342.387   139880352.450 7      1753.040
                                  26618345.305   104456104.026 7      1309.083
  26618344.068   107181043.278 8      1343.172    26618345.174   105818577.184 8
      1326.117
  26002289.679   136642959.014 8      -736.442
                                  26002292.428   102038574.414 8      -550.144
  26002290.752   104700449.815 8      -564.408    26002291.846   103369516.647 9
      -557.244
  25924956.615   136236571.054 9      -919.486
                                  25924959.630   101735103.976 8      -686.612
  25924958.035   104389062.763 9      -704.538    25924959.040   103062087.902 9
      -695.548
  26315451.020   138288626.765 8     -2217.588
                                  26315453.639   103267480.778 8     -1656.022
  26315452.344   105961414.732 8     -1699.166    26315453.015   104614452.292 8
     -1677.585
  25058561.212   131683646.838 9      1935.631
                                  25058562.347    98335192.098 8      1445.443
  25058560.787   100900455.051 9      1483.160    25058561.706    99617826.110 9
      1464.293
  24935302.879   131035914.162 9      1848.062
                                  24935305.428    97851498.297 9      1380.144
  24935304.396   100404145.397 9      1416.060    24935305.099    99127826.384 9
      1398.101
  27376008.704   143861922.315 7      3286.082
                                  27376009.316   107429369.975 7      2453.910
  27376010.543   110231870.043 8      2517.859    27376010.170   108830619.540 8
      2485.878
 23 12  8 17 34  0.0000000  0 17G06G11G12G25G26G28G29G31G32E04E05E09
                                E13E21E26E31E33
  24821170.792   130436136.638 5     -2786.287    24821172.051   101638552.04044
     -2171.133    24821172.564    24821171.788    97403611.200 8     -2080.652


  23264297.249   122254714.828 8     -1035.522    23264295.995    95263413.08247
      -806.900    23264296.181    23264298.530    91294109.066 9      -773.339


  22625610.538   118898382.290 8     -2904.854    22625608.481    92648086.56248
     -2263.523    22625608.930


  20136360.096   105817288.428 9     -1214.106    20136360.849    82455033.15649
      -946.057    20136361.340    20136359.966    79019405.493 9      -906.656


  24585001.079   129195062.022 7      3327.298    24585004.842   100671495.37444
      2592.701    24585004.771    24585003.229    96476831.120 7      2484.526


  21057656.183   110658741.083 9      1524.674    21057654.879    86227590.89248
      1188.058    21057654.995    21057658.178    82634780.157 9      1138.570


  20727674.519   108924674.769 9      1429.624    20727673.117    84876369.65549
      1113.994    20727673.595


  22409370.369   117762053.387 8      2728.342    22409368.915    91762641.36846
      2125.981    22409369.254


  23616670.684   124106438.062 8     -2863.010    23616672.727    96706315.94446
     -2230.918    23616672.851    23616670.810    92676881.975 8     -2138.037


  26663545.170   140117871.226 8     -2745.134
                                  26663547.307   104633475.311 8     -2049.890
  26663546.082   107363042.921 8     -2103.410    26663546.849   105998261.152 9
     -2076.679
  26608367.990   139827936.822 7      1741.295
                                  26608370.899   104416962.507 7      1300.313
  26608369.692   107140880.678 8      1334.135    26608370.777   105778925.126 8
      1317.234
  26006535.664   136665271.817 8      -751.011
                                  26006538.410   102055236.568 8      -560.784
  26006536.734   104717546.638 8      -575.502    26006537.841   103386396.141 9
      -568.142
  25930248.089   136264377.811 8      -934.404
                                  25930251.041   101755868.761 8      -697.723
  25930249.494   104410369.235 9      -715.962    25930250.504   103083123.534 9
      -706.865
  26328120.006   138355202.582 8     -2220.890
                                  26328122.635   103317196.461 8     -1658.371
  26328121.338   106012427.369 8     -1701.775    26328121.995   104664816.446 9
     -1679.987
  25047545.348   131625758.191 9      1923.490
                                  25047546.465    98291963.585 8      1436.312
  25047544.909   100856098.837 8      1473.784    25047545.820    99574033.744 9
      1455.062
  24924764.181   130980533.215 9      1843.916
                                  24924766.765    97810142.446 9      1376.848
  24924765.701   100361710.684 9      1412.816    24924766.413    99085931.100 9
      1394.844
  27357252.744   143763359.369 7      3284.666
                                  27357253.353   107355767.837 7      2452.836
  27357254.589   110156347.817 8      2516.911    27357254.205   108756057.360 8
      2484.869
 23 12  8 17 34 30.0000000  0 17G06G11G12G25G26G28G29G31G32E04E05E09
                                E13E21E26E31E33
  24837111.032   130519903.423 5     -2798.277    24837112.285   101703824.88645
     -2180.475    24837112.783    24837112.075    97466164.348 8     -2090.016


  23270263.417   122286067.233 8     -1055.129    23270262.147    95287843.54546
      -822.178    23270262.335    23270264.655    91317521.584 9      -787.917


  22642210.640   118985616.330 8     -2911.349    22642208.599    92716061.11548
     -2268.585    22642209.048


  20143326.733   105853898.406 9     -1227.100    20143327.479    82483560.41949
      -956.182    20143327.971    20143326.617    79046744.114 9      -916.226


  24566010.561   129095266.538 6      3325.112    24566014.320   100593732.77545
      2590.999    24566014.247    24566012.696    96402308.611 7      2483.150


  21048999.592   110613250.403 9      1507.527    21048998.287    86192143.61648
      1174.697    21048998.404    21049001.553    82600809.853 9      1125.809


  20719560.180   108882033.684 9      1412.527    20719558.749    84843142.85249
      1100.671    20719559.229


  22393827.329   117680374.364 8      2716.332    22393825.865    91698995.43347
      2116.623    22393826.203


  23633039.948   124192458.923 8     -2872.202    23633041.961    96773345.15746
     -2238.082    23633042.087    23633040.046    92741118.313 8     -2144.897


  26679231.379   140200302.597 8     -2750.837
                                  26679233.554   104695031.179 8     -2054.109
  26679232.253   107426204.607 8     -2107.661    26679233.040   106060619.930 8
     -2080.893
  26598459.683   139775868.310 7      1729.349
                                  26598462.558   104378080.209 7      1291.609
  26598461.364   107100984.034 8      1325.150    26598462.418   105739535.655 8
      1308.362
  26010863.424   136688014.415 8      -765.588
                                  26010866.146   102072219.705 8      -571.706
  26010864.476   104734972.794 8      -586.653    26010865.590   103403600.784 9
      -579.180
  25935623.512   136292625.889 8      -949.284
                                  25935626.387   101776963.111 8      -708.887
  25935624.890   104432013.877 9      -727.408    25935625.907   103104493.032 9
      -718.186
  26340806.473   138421870.304 8     -2224.139
                                  26340809.134   103366980.768 8     -1660.872
  26340807.820   106063510.404 8     -1704.270    26340808.469   104715250.122 9
     -1682.583
  25036598.406   131568231.586 9      1911.131
                                  25036599.514    98249005.427 8      1427.145
  25036597.952   100812020.017 8      1464.430    25036598.863    99530515.256 9
      1445.792
  24914248.650   130925273.908 9      1839.532
                                  24914251.273    97768877.406 9      1373.739
  24914250.186   100319369.175 9      1409.540    24914250.897    99044127.825 9
      1391.626
  27338503.684   143664832.738 7      3283.350
                                  27338504.294   107282192.824 7      2451.769
  27338505.536   110080853.451 8      2515.729    27338505.145   108681522.674 8
      2483.737
 23 12  8 17 35  0.0000000  0 17G06G11G12G25G26G28G29G31G32E04E05E09
                                E13E21E26E31E33
  24853120.995   130604036.618 5     -2810.032    24853122.247   101769383.25445
     -2189.633    24853122.732    24853122.070    97528991.125 8     -2098.839


  23276339.112   122317995.146 8     -1073.818    23276337.825    95312722.44346
      -836.740    23276338.008    23276340.324    91341363.866 9      -801.898


  22658845.115   119073030.975 8     -2916.852    22658843.096    92784176.39248
     -2272.873    22658843.545


  20150365.524   105890887.451 9     -1239.281    20150366.274    82512383.03249
      -965.674    20150366.760    20150365.446    79074365.788 9      -925.453


  24547029.837   128995522.721 7      3323.818    24547033.552   100516010.38344
      2589.989    24547033.487    24547031.929    96327824.746 7      2482.039


  21040438.895   110568263.738 9      1491.083    21040437.601    86157089.09448
      1161.883    21040437.721    21040440.821    82567215.931 9      1113.440


  20711541.337   108839894.448 9      1396.207    20711539.884    84810307.09849
      1087.954    20711540.361


  22378351.025   117599045.953 8      2705.062    22378349.558    91635622.67447
      2107.842    22378349.897


  23649459.899   124278746.103 8     -2880.699    23649461.899    96840581.86646
     -2244.701    23649462.026    23649460.006    92805553.472 8     -2151.184


  26694948.256   140282895.184 8     -2755.740
                                  26694950.475   104756707.441 8     -2057.772
  26694949.070   107489489.817 8     -2111.594    26694949.907   106123100.661 8
     -2084.644
  26588617.558   139724147.548 7      1718.140
                                  26588620.389   104339457.619 7      1283.041
  26588619.204   107061353.885 8      1316.572    26588620.211   105700409.291 8
      1299.741
  26015272.699   136711185.352 8      -779.531
                                  26015275.377   102089522.699 8      -582.182
  26015273.734   104752727.159 8      -597.393    26015274.850   103421129.464 9
      -589.760
  25941082.627   136321313.701 8      -963.640
                                  25941085.462   101798385.826 8      -719.542
  25941083.995   104453995.444 9      -738.408    25941085.020   103126195.168 9
      -728.931
  26353510.216   138488628.962 8     -2226.770
                                  26353512.908   103416833.018 8     -1662.935
  26353511.571   106114663.144 8     -1706.229    26353512.220   104765752.614 9
     -1684.614
  25025720.490   131511067.749 9      1899.340
                                  25025721.573    98206318.164 8      1418.315
  25025720.009   100768219.170 8      1455.341    25025720.925    99487271.202 9
      1436.842
  24903756.206   130870135.873 9      1835.822
                                  24903758.852    97727702.929 9      1370.973
  24903757.750   100277120.579 9      1406.682    24903758.457    99002416.286 9
      1388.831
  27319761.773   143566343.645 7      3282.262
                                  27319762.374   107208645.821 7      2451.060
  27319763.624   110005387.841 8      2514.931    27319763.249   108607016.367 8
      2482.945
 23 12  8 17 35 30.0000000  0 17G06G11G12G25G26G28G29G31G32E04E05E09
                                E13E21E26E31E33
  24869199.965   130688532.230 5     -2822.070    24869201.242   101835223.97345
     -2199.016    24869201.711    24869201.081    97592088.478 8     -2107.660


  23282523.852   122350496.111 8     -1092.890    23282522.543    95338047.88546
      -851.602    23282522.726    23282525.037    91365634.076 9      -816.074


  22675513.515   119160623.920 8     -2922.695    22675511.518    92852430.61348
     -2277.425    22675511.964


  20157476.057   105928253.572 9     -1251.729    20157476.811    82541499.48349
      -975.374    20157477.293    20157476.024    79102269.061 9      -934.727


  24528058.866   128895830.109 6      3322.226    24528062.552   100438327.97244
      2588.752    24528062.480    24528060.907    96253379.104 7      2480.911


  21031974.205   110523781.589 9      1474.386    21031972.937    86122427.69548
      1148.873    21031973.061    21031976.102    82533998.752 9      1100.965


  20703617.949   108798256.836 9      1379.535    20703616.482    84777862.21749
      1074.963    20703616.961


  22362941.628   117518069.262 8      2693.534    22362940.164    91572524.00547
      2098.859    22362940.498


  23665929.636   124365295.094 8     -2889.257    23665931.621    96908022.61746
     -2251.368    23665931.744    23665929.781    92870184.202 8     -2157.633


  26710695.173   140365645.630 8     -2761.043
                                  26710697.441   104818501.566 8     -2061.742
  26710695.932   107552895.955 8     -2115.556    26710696.827   106185700.793 8
     -2088.643
  26578841.635   139672774.568 7      1706.724
                                  26578844.415   104301094.716 7      1274.499
  26578843.262   107021990.226 8      1307.672    26578844.207   105661546.003 8
      1291.147
  26019763.081   136734782.482 8      -793.676
                                  26019765.717   102107143.948 8      -592.564
  26019764.092   104770808.070 8      -608.113    26019765.212   103438980.544 9
      -600.388
  25946624.972   136350438.975 8      -978.048
                                  25946627.786   101820135.237 8      -730.375
  25946626.320   104476312.227 9      -749.464    25946627.366   103148228.267 9
      -739.878
  26366230.996   138555477.009 8     -2229.804
                                  26366233.714   103466751.991 8     -1665.029
  26366232.360   106165884.369 8     -1708.537    26366233.013   104816322.713 9
     -1686.787
  25014911.643   131454266.815 9      1887.330
                                  25014912.691    98163901.900 8      1409.384
  25014911.120   100724696.390 9      1446.155    25014912.043    99444301.680 9
      1427.766
  24893286.647   130815118.062 9      1831.933
                                  24893289.296    97686618.231 9      1368.039
  24893288.187   100234964.104 9      1403.715    24893288.898    98960795.701 9
      1385.893
  27301027.103   143467892.609 7      3281.160
                                  27301027.682   107135127.241 7      2450.155
  27301028.936   109929951.373 8      2514.027    27301028.588   108532538.836 8
      2482.142
 23 12  8 17 36  0.0000000  0 17G06G11G12G25G26G28G29G31G32E04E05E09
                                E13E21E26E31E33
  24885347.625   130773388.992 6     -2834.256    24885348.909   101901346.16345
     -2208.510    24885349.364    24885348.745    97655455.547 8     -2116.430


  23288817.712   122383570.490 8     -1111.690    23288816.386    95363820.13946
      -866.251    23288816.565    23288818.880    91390332.476 9      -830.141


  22692215.910   119248395.493 8     -2928.221    22692213.934    92920824.02048
     -2281.731    22692214.378


  20164658.488   105965997.525 9     -1264.054    20164659.243    82570910.35149
      -984.977    20164659.722    20164658.501    79130454.477 9      -943.899


  24509098.055   128796190.987 6      3320.637    24509101.701   100360687.24745
      2587.514    24509101.640    24509100.035    96178973.429 7      2479.778


  21023606.138   110479807.190 9      1457.783    21023604.901    86088161.94648
      1135.935    21023605.025    21023608.010    82501160.743 9      1088.573


  20695790.332   108757122.523 9      1363.072    20695788.860    84745809.51849
      1062.135    20695789.338


  22347599.882   117437448.024 8      2681.876    22347598.425    91509702.29647
      2089.776    22347598.752


  23682448.877   124452104.249 8     -2897.482    23682450.846    96975666.09346
     -2257.779    23682450.977    23682449.061    92935009.183 8     -2163.736


  26726471.958   140448553.227 8     -2765.897
                                  26726474.263   104880413.081 8     -2065.382
  26726472.661   107616422.537 8     -2119.348    26726473.613   106248419.842 8
     -2092.396
  26569132.402   139621752.059 7      1695.289
                                  26569135.116   104262993.531 6      1266.015
  26569134.006   106982895.088 7      1299.034    26569134.896   105622947.844 8
      1282.522
  26024334.682   136758806.375 8      -807.505
                                  26024337.284   102125083.875 8      -603.062
  26024335.665   104789215.991 8      -618.736    26024336.786   103457154.470 9
      -610.907
  25952250.640   136380002.184 8      -992.297
                                  25952253.442   101842211.683 8      -741.036
  25952251.959   104498964.570 9      -760.351    25952253.030   103170592.658 9
      -750.680
  26378969.001   138622415.607 8     -2232.442
                                  26378971.740   103516738.594 8     -1667.136
  26378970.369   106217174.979 8     -1710.550    26378971.034   104866961.327 9
     -1688.926
  25004172.372   131397831.603 9      1875.485
                                  25004173.373    98121758.755 8      1400.519
  25004171.801   100681453.863 9      1437.029    25004172.721    99401608.843 9
      1418.794
  24882840.314   130760222.227 9      1828.132
                                  24882842.952    97645624.608 9      1365.205
  24882841.839   100192901.079 9      1400.845    24882842.561    98919267.379 9
      1383.020
  27282300.297   143369482.903 7      3279.858
                                  27282300.858   107061639.535 7      2449.307
  27282302.112   109854546.579 8      2513.217    27282301.783   108458092.592 8
      2481.288
 23 12  8 17 36 30.0000000  0 17G06G11G12G25G26G28G29G31G32E04E05E09
                                E13E21E26E31E33
  24901563.421   130858603.801 5     -2846.304    24901564.693   101967747.35745
     -2217.898    24901565.134    24901564.529    97719090.020 8     -2125.496


  23295220.403   122417216.753 8     -1130.962    23295219.059    95390038.00546
      -881.269    23295219.237    23295221.570    91415457.935 9      -844.504


  22708952.014   119336344.244 8     -2934.527    22708950.051    92989355.50148
     -2286.646    22708950.495


  20171912.624   106004118.263 9     -1276.861    20171913.377    82600614.81949
      -994.956    20171913.856    20171912.674    79158921.259 9      -953.483


  24490147.490   128696605.816 6      3318.655    24490151.098   100283088.57145
      2585.972    24490151.050    24490149.400    96104608.074 7      2478.341


  21015334.957   110436341.922 9      1440.481    21015333.752    86054292.92448
      1122.453    21015333.877    21015336.811    82468702.926 9      1075.693


  20688058.571   108716491.913 9      1346.033    20688057.098    84714149.31249
      1048.857    20688057.577


  22332326.133   117357184.153 8      2669.532    22332324.692    91447159.06547
      2080.156    22332325.014


  23699016.974   124539170.059 8     -2906.158    23699018.946    97043509.52646
     -2264.540    23699019.085    23699017.222    93000025.816 8     -2170.280


  26742278.210   140531615.586 8     -2771.179
                                  26742280.570   104942440.123 8     -2069.399
  26742278.886   107680067.693 8     -2123.367    26742279.883   106311255.944 8
     -2096.394
  26559490.038   139571080.942 7      1683.419
                                  26559492.680   104225154.729 6      1256.946
  26559491.624   106944069.154 7      1289.853    26559492.465   105584615.466 8
      1273.481
  26028987.250   136783255.830 8      -821.828
                                  26028989.819   102143341.611 8      -613.791
  26028988.195   104807950.011 8      -629.778    26028989.320   103475650.350 9
      -621.833
  25957959.404   136410002.008 8     -1007.057
                                  25957962.222   101864614.171 8      -752.037
  25957960.715   104521951.455 9      -771.714    25957961.806   103193287.344 9
      -761.862
  26391724.108   138689444.135 8     -2235.626
                                  26391726.875   103566792.354 8     -1669.457
  26391725.494   106268534.494 8     -1713.005    26391726.165   104917667.959 9
     -1691.276
  24993502.921   131341763.207 9      1862.957
                                  24993503.888    98079889.515 8      1391.144
  24993502.310   100638492.376 8      1427.432    24993503.234    99359193.477 9
      1409.340
  24872417.164   130705448.292 9      1823.929
                                  24872419.784    97604722.030 9      1362.007
  24872418.670   100150931.475 9      1397.536    24872419.407    98877831.288 9
      1379.779
  27263581.653   143271115.998 8      3278.342
                                  27263582.211   106988183.774 7      2448.057
  27263583.460   109779174.586 8      2511.938    27263583.139   108383678.712 8
      2480.029
 23 12  8 17 37  0.0000000  0 17G06G11G12G25G26G28G29G31G32E04E05E09
                                E13E21E26E31E33
  24917846.709   130944173.055 5     -2858.140    24917847.982   102034424.67645
     -2227.123    24917848.417    24917847.828    97782989.131 8     -2134.517


  23301731.500   122451432.772 8     -1150.069    23301730.146    95416699.84846
      -896.157    23301730.325    23301732.681    91441008.884 9      -858.939


  22725721.470   119424468.257 8     -2940.482    22725719.517    93058023.54848
     -2291.285    22725719.964


  20179238.139   106042614.130 9     -1289.488    20179238.894    82630611.60349
     -1004.795    20179239.368    20179238.212    79187668.177 9      -963.013


  24471207.201   128597074.575 6      3316.488    24471210.785   100205531.90345
      2584.281    24471210.748    24471209.036    96030282.970 7      2476.605


  21007160.846   110393386.630 9      1423.124    21007159.670    86020821.26348
      1108.928    21007159.797    21007162.696    82436625.928 9      1062.710


  20680422.548   108676364.429 9      1328.976    20680421.076    84682881.15949
      1035.566    20680421.554


  22317120.696   117277279.293 8      2657.321    22317119.278    91384895.58247
      2070.640    22317119.598


  23715633.109   124626488.432 8     -2914.968    23715635.070    97111549.80046
     -2271.404    23715635.217    23715633.372    93065231.055 7     -2176.690


  26758113.318   140614829.720 8     -2776.511
                                  26758115.738   105004580.520 8     -2073.326
  26758113.966   107743829.143 8     -2127.449    26758115.024   106374206.865 8
     -2100.402
  26549914.594   139520761.502 7      1671.341
                                  26549917.148   104187578.526 6      1248.073
  26549916.183   106905512.704 7      1280.551    26549916.972   105546549.149 7
      1264.196
  26033720.450   136808129.015 8      -836.303
                                  26033722.992   102161915.763 8      -624.602
  26033721.359   104827008.693 8      -640.870    26033722.487   103494466.761 8
      -632.716
  25963750.870   136440436.516 8     -1021.885
                                  25963753.701   101887341.255 8      -763.122
  25963752.184   104545271.411 9      -783.023    25963753.279   103216310.864 9
      -773.037
  26404496.093   138756561.380 8     -2238.914
                                  26404498.866   103616912.371 8     -1671.953
  26404497.492   106319961.985 8     -1715.555    26404498.174   104968441.710 9
     -1693.760
  24982903.338   131286062.033 9      1850.411
                                  24982904.270    98038294.514 8      1381.767
  24982902.680   100595812.283 9      1417.868    24982903.615    99317055.935 9
      1399.821
  24862017.103   130650795.655 9      1819.613
                                  24862019.714    97563910.013 9      1358.776
  24862018.594   100109054.791 9      1394.198    24862019.350    98836486.934 9
      1376.508
  27244871.332   143172792.847 8      3276.486
                                  27244871.885   106914760.695 7      2446.729
  27244873.109   109703836.100 7      2510.564    27244872.812   108309297.929 8
      2478.674
 23 12  8 17 37 30.0000000  0 17G06G11G12G25G26G28G29G31G32E04E05E09
                                E13E21E26E31E33
  24934197.338   131030096.361 6     -2870.058    24934198.611   102101377.91146
     -2236.409    24934199.044    24934198.462    97847152.630 8     -2143.253


  23308351.235   122486219.769 8     -1169.096    23308349.888    95443806.61147
      -910.984    23308350.067    23308352.448    91466986.193 9      -872.993


  22742524.511   119512768.709 8     -2946.210    22742522.570    93126829.07248
     -2295.749    22742523.015


  20186635.366   106081486.833 9     -1301.929    20186636.121    82660902.02749
     -1014.490    20186636.599    20186635.456    79216696.498 9      -972.306


  24452277.777   128497600.448 6      3314.953    24452281.342   100128019.75446
      2583.086    24452281.307    24452279.528    95956000.528 7      2475.356


  20999084.558   110350945.428 9      1406.127    20999083.397    85987750.20248
      1095.683    20999083.528    20999086.407    82404932.833 9      1049.984


  20672882.747   108636742.564 9      1312.337    20672881.280    84652006.98949
      1022.601    20672881.759


  22301984.412   117197737.892 8      2645.374    22301983.015    91322915.32747
      2061.333    22301983.333


  23732297.199   124714058.627 8     -2923.078    23732299.165    97179786.26046
     -2277.726    23732299.323    23732297.464    93130624.356 7     -2182.893


  26773977.360   140698195.869 8     -2781.286
                                  26773979.831   105066834.419 8     -2076.895
  26773978.012   107807707.072 8     -2131.168    26773979.111   106437272.784 8
     -2104.058
  26540406.761   139470797.456 7      1659.531
                                  26540409.215   104150267.721 6      1239.139
  26540408.357   106867228.576 7      1271.525    26540409.095   105508751.680 7
      1255.317
  26038534.577   136833427.464 8      -850.291
                                  26038537.115   102180807.465 8      -635.022
  26038535.478   104846393.223 8      -651.549    26038536.597   103513604.882 9
      -643.293
  25969625.311   136471307.081 8     -1036.332
                                  25969628.147   101910393.981 8      -773.866
  25969626.644   104568925.505 9      -794.063    25969627.722   103239664.274 9
      -783.939
  26417285.378   138823769.481 8     -2241.720
                                  26417288.172   103667100.208 8     -1674.059
  26417286.806   106371459.073 8     -1717.755    26417287.494   105019284.177 9
     -1695.918
  24972374.362   131230731.888 9      1838.146
                                  24972375.263    97996976.575 8      1372.575
  24972373.659   100553416.485 9      1408.427    24972374.603    99275199.062 9
      1390.522
  24851640.610   130596266.956 9      1815.530
                                  24851643.225    97523190.556 9      1355.751
  24851642.089   100067273.079 9      1391.143    24851642.869    98795236.351 9
      1373.464
  27226170.152   143074517.655 8      3274.960
                                  27226170.696   106841373.409 7      2445.701
  27226171.896   109628534.363 8      2509.304    27226171.628   108234953.418 8
      2477.537
 23 12  8 17 38  0.0000000  0 18G06G11G12G18G25G26G28G29G31G32E04E05
                                E09E13E21E26E31E33
  24950614.707   131116370.486 6     -2881.542    24950615.963   102168604.53846
     -2245.356    24950616.394    24950615.841    97911578.148 8     -2152.163


  23315079.295   122521576.099 7     -1188.344    23315077.975    95471357.00846
      -925.982    23315078.154    23315080.555    91493388.646 9      -887.364


  22759360.840   119601244.158 8     -2952.247    22759358.900    93195770.97748
     -2300.452    22759359.343


  25773966.088   135443109.84115      3698.943    25773967.028   105540084.17454
      2882.293    25773972.286    25773970.079   101142586.97615      2761.891


  20194104.090   106120735.236 9     -1314.816    20194104.842    82691485.20249
     -1024.532    20194105.322    20194104.190    79246005.365 9      -981.818


  24433359.307   128398183.854 6      3312.576    24433362.877   100050552.46945
      2581.238    24433362.842    24433360.971    95881761.035 8      2473.756


  20991106.337   110309019.591 9      1388.715    20991105.185    85955080.72948
      1082.116    20991105.317    20991108.193    82373624.596 9      1036.963


  20665439.252   108597626.762 9      1295.231    20665437.787    84621527.14549
      1009.271    20665438.267


  22286917.644   117118561.743 8      2632.800    22286916.268    91261219.67047
      2051.535    22286916.580


  23749008.479   124801876.990 8     -2931.788    23749010.445    97248216.15146
     -2284.510    23749010.611    23749008.680    93196202.977 7     -2189.287


  26789869.860   140781711.577 8     -2786.684
                                  26789872.367   105129200.017 7     -2081.061
  26789870.530   107871699.591 8     -2135.173    26789871.640   106500451.840 8
     -2108.093
  26530966.701   139421189.569 7      1647.268
                                  26530969.062   104113222.872 7      1230.257
  26530968.283   106829217.346 7      1262.270    26530969.007   105471223.645 8
      1246.231
  26043429.362   136859149.851 8      -864.646
                                  26043431.925   102200015.741 8      -645.719
  26043430.282   104866102.589 8      -662.604    26043431.381   103533063.702 9
      -654.147
  25975582.485   136502612.271 8     -1051.044
                                  25975585.317   101933771.246 8      -784.846
  25975583.853   104592912.602 9      -805.355    25975584.904   103263346.456 9
      -795.100
  26430091.794   138891067.700 8     -2245.130
                                  26430094.631   103717355.352 8     -1676.516
  26430093.248   106423025.228 8     -1720.265    26430093.949   105070194.825 9
     -1698.375
  24961916.183   131175773.687 9      1825.427
                                  24961917.061    97955936.370 8      1363.176
  24961915.449   100511305.671 9      1398.709    24961916.407    99233623.555 9
      1380.940
  24841287.660   130541862.063 9      1811.209
                                  24841290.295    97482563.555 9      1352.461
  24841289.146   100025586.241 9      1387.770    24841289.942    98754079.431 9
      1370.108
  27207478.327   142976291.806 7      3273.187
                                  27207478.846   106768023.019 7      2444.121
  27207480.018   109553270.468 7      2507.911    27207479.786   108160646.277 8
      2476.014
 23 12  8 17 38 30.0000000  0 18G06G11G12G18G25G26G28G29G31G32E04E05
                                E09E13E21E26E31E33
  24967098.626   131202994.124 6     -2893.644    24967099.881   102236103.46246
     -2254.788    24967100.311    24967099.783    97976264.616 8     -2160.720


  23321915.674   122557501.786 7     -1207.275    23321914.401    95499351.07446
      -940.732    23321914.575    23321916.982    91520216.295 9      -901.529


  22776230.526   119689894.866 8     -2958.274    22776228.577    93264849.44348
     -2305.149    22776229.018


  25752839.508   135332089.922 5      3701.800    25752839.053   105453570.30754
      2884.533    25752842.556    25752843.734   101059682.724 5      2764.295


  20201644.426   106160359.916 9     -1327.427    20201645.178    82722361.57049
     -1034.358    20201645.664    20201644.535    79275595.233 9      -991.296


  24414452.194   128298826.994 6      3310.586    24414455.741    99973131.67045
      2579.683    24414455.708    24414453.773    95807566.168 8      2472.158


  20983226.770   110267612.184 9      1371.299    20983225.625    85922815.22548
      1068.545    20983225.761    20983228.635    82342703.494 9      1023.978


  20658092.350   108559018.602 9      1278.109    20658090.883    84591442.87749
       995.930    20658091.360


  22271921.107   117039754.623 9      2620.310    22271919.742    91199811.55947
      2041.801    22271920.053


  23765766.687   124889941.749 8     -2939.814    23765768.673    97316837.98546
     -2290.767    23765768.839    23765766.833    93261965.557 7     -2195.306


  26805790.688   140865376.065 8     -2791.696
                                  26805793.211   105191676.700 7     -2084.697
  26805791.403   107935806.087 8     -2139.066    26805792.495   106563743.429 8
     -2111.856
  26521594.890   139371940.408 7      1635.172
                                  26521597.182   104076445.919 7      1221.250
  26521596.443   106791480.995 7      1253.047    26521597.169   105433966.994 8
      1237.150
  26048404.872   136885296.547 8      -878.741
                                  26048407.474   102219540.881 8      -656.308
  26048405.827   104886137.091 8      -673.547    26048406.902   103552843.520 9
      -664.931
  25981622.407   136534352.339 8     -1065.511
                                  25981625.208   101957473.261 8      -795.647
  25981623.797   104617232.922 9      -816.454    25981624.814   103287357.624 9
      -806.037
  26442915.572   138958457.117 8     -2248.197
                                  26442918.460   103767678.584 8     -1678.820
  26442917.051   106474661.242 8     -1722.610    26442917.770   105121174.444 9
     -1700.676
  24951529.281   131121190.113 9      1812.821
                                  24951530.122    97915175.928 8      1353.785
  24951528.516   100469481.914 9      1389.074    24951529.481    99192331.455 9
      1371.375
  24830958.582   130487582.609 9      1806.896
                                  24830961.244    97442030.215 9      1349.284
  24830960.075    99983995.499 9      1384.548    24830960.892    98713017.393 9
      1366.925
  27188796.509   142878118.506 8      3271.268
                                  27188797.026   106694711.850 7      2442.794
  27188798.149   109478046.811 7      2506.492    27188797.962   108086378.865 8
      2474.617
 23 12  8 17 39  0.0000000  0 18G06G11G12G18G25G26G28G29G31G32E04E05
                                E09E13E21E26E31E33
  24983647.397   131289958.764 6     -2904.235    24983648.650   102303868.15646
     -2263.040    24983649.077    24983648.549    98041205.814 8     -2168.782


  23328859.099   122593989.987 8     -1225.584    23328857.878    95527783.45446
      -955.001    23328858.046    23328860.456    91547463.995 9      -915.166


  22793132.300   119778714.157 8     -2963.276    22793130.350    93334059.25848
     -2309.047    22793130.788


  25731693.416   135220967.855 5      3706.200    25731694.062   105366981.85443
      2887.961    25731695.839    25731697.843   100976702.201 5      2767.277


  20209255.154   106200354.496 9     -1339.196    20209255.912    82753526.16849
     -1043.530    20209256.398    20209255.266    79305461.305 9     -1000.033


  24395555.564   128199525.080 6      3309.220    24395559.098    99895753.68345
      2578.617    24395559.063    24395557.083    95733412.289 8      2471.129


  20975445.099   110226719.221 9      1354.618    20975443.961    85890950.58548
      1055.547    20975444.101    20975446.968    82312166.548 9      1011.542


  20650841.002   108520912.600 9      1261.884    20650839.530    84561749.90649
       983.287    20650840.007


  22256994.153   116961313.096 9      2608.786    22256992.786    91138688.31647
      2032.821    22256993.100


  23782570.061   124978244.049 8     -2947.417    23782572.074    97385644.95746
     -2296.690    23782572.251    23782570.128    93327905.562 7     -2200.878


  26821738.333   140949181.511 8     -2795.694
                                  26821740.848   105254258.675 7     -2087.836
  26821739.101   108000020.655 8     -2142.187    26821740.145   106627141.699 8
     -2114.948
  26512290.472   139323045.478 7      1624.078
                                  26512292.720   104039933.515 7      1212.756
  26512291.988   106754016.073 7      1244.524    26512292.714   105396978.329 8
      1228.569
  26053459.881   136911861.016 8      -892.421
                                  26053462.535   102239377.978 8      -666.299
  26053460.874   104906491.669 8      -683.742    26053461.939   103572939.361 9
      -675.054
  25987743.824   136566520.624 8     -1079.292
                                  25987746.573   101981495.042 8      -806.045
  25987745.212   104641881.359 8      -827.062    25987746.196   103311692.737 9
      -816.586
  26455755.564   139025931.798 8     -2250.672
                                  26455758.509   103818065.497 8     -1680.598
  26455757.076   106526362.593 8     -1724.370    26455757.808   105172218.582 9
     -1702.506
  24941212.813   131066976.810 9      1800.978
                                  24941213.594    97874691.988 8      1344.937
  24941212.018   100427941.883 9      1379.910    24941212.989    99151319.471 9
      1362.411
  24820652.357   130433423.237 9      1803.382
                                  24820655.049    97401586.548 9      1346.710
  24820653.854    99942496.778 9      1381.846    24820654.691    98672046.199 9
      1364.264
  27170123.965   142779993.934 7      3270.000
                                  27170124.494   106621437.067 7      2441.945
  27170125.562   109402860.512 7      2505.586    27170125.407   108012148.321 8
      2473.766
 23 12  8 17 39 30.0000000  0 18G06G11G12G18G25G26G28G29G31G32E04E05
                                E09E13E21E26E31E33
  25000261.329   131377265.714 6     -2915.719    25000262.586   102371899.56746
     -2271.988    25000262.998    25000262.462    98106402.598 8     -2177.448


  23335910.070   122631043.320 8     -1244.524    23335908.878    95556656.19947
      -969.758    23335909.042    23335911.464    91575133.714 9      -929.282


  22810066.679   119867704.859 8     -2968.957    22810064.729    93403402.65748
     -2313.473    22810065.168


  25710529.180   135109749.968 6      3708.670    25710530.122   105280318.78244
      2889.880    25710531.295    25710533.785   100893650.098 6      2769.624


  20216936.881   106240722.234 9     -1351.774    20216937.639    82784981.55149
     -1053.330    20216938.130    20216936.993    79335606.053 9     -1009.389


  24376670.321   128100282.951 6      3306.990    24376673.848    99818422.28546
      2576.877    24376673.803    24376671.799    95659303.039 8      2469.696


  20967762.401   110186346.376 9      1337.171    20967761.270    85859491.23748
      1041.952    20967761.414    20967764.255    82282018.003 9       998.540


  20643686.159   108483313.707 9      1244.860    20643684.680    84532452.08249
       970.021    20643685.155


  22242138.002   116883243.584 9      2596.128    22242136.625    91077854.94048
      2022.958    22242136.940


  23799418.802   125066784.665 8     -2955.285    23799420.855    97454637.60946
     -2302.821    23799421.037    23799418.807    93394023.539 7     -2206.716


  26837713.206   141033129.896 8     -2800.518
                                  26837715.711   105316947.363 8     -2091.349
  26837714.018   108064344.710 8     -2145.845    26837715.023   106690648.075 8
     -2118.604
  26503054.466   139274509.993 7      1611.759
                                  26503056.706   104003689.523 7      1203.630
  26503055.950   106716826.584 7      1235.005    26503056.663   105360261.588 8
      1219.333
  26058594.948   136938846.224 8      -906.332
                                  26058597.634   102259529.278 8      -676.803
  26058595.974   104927168.658 8      -694.525    26058597.029   103593353.500 9
      -685.622
  25993947.318   136599120.047 8     -1093.814
                                  25993950.026   102005838.757 8      -816.726
  25993948.701   104666860.132 8      -838.085    25993949.666   103336353.980 9
      -827.489
  26468612.466   139093495.402 8     -2253.489
                                  26468615.446   103868518.843 8     -1682.843
  26468613.999   106578132.118 8     -1726.723    26468614.742   105223330.013 9
     -1704.781
  24930967.842   131013139.165 9      1788.391
                                  24930968.576    97834488.572 8      1335.450
  24930967.025   100386689.671 9      1370.348    24930968.016    99110591.658 9
      1352.897
  24810369.810   130379388.215 9      1799.121
                                  24810372.523    97361235.736 9      1343.495
  24810371.302    99901093.329 9      1378.609    24810372.152    98631169.066 9
      1361.067
  27151461.789   142681923.865 8      3268.143
                                  27151462.320   106548202.993 7      2440.449
  27151463.338   109327715.965 7      2504.279    27151463.215   107937959.012 8
      2472.398
 23 12  8 17 40  0.0000000  0 18G06G11G12G18G25G26G28G29G31G32E04E05
                                E09E13E21E26E31E33
  25016940.133   131464913.541 6     -2926.984    25016941.395   102440196.59246
     -2280.765    25016941.802    25016941.246    98171853.922 8     -2185.861


  23343068.625   122668661.848 8     -1263.414    23343067.446    95585969.33547
      -984.478    23343067.614    23343070.047    91603225.481 9      -943.415


  22827033.804   119956867.543 8     -2974.903    22827031.866    93472880.04348
     -2318.107    22827032.303


  25689347.381   134998439.650 6      3711.794    25689348.254   105193583.63245
      2892.309    25689349.224    25689352.145   100810528.977 6      2771.965


  20224689.732   106281463.723 9     -1364.215    20224690.485    82816728.16849
     -1063.024    20224690.972    20224689.851    79366029.896 9     -1018.813


  24357796.830   128001102.724 6      3305.021    24357800.319    99741139.13445
      2575.346    24357800.277    24357798.271    95585240.062 8      2468.035


  20960179.253   110146496.639 9      1319.608    20960178.130    85828439.49848
      1028.266    20960178.277    20960181.068    82252260.077 9       985.414


  20636628.008   108446222.899 9      1227.979    20636626.522    84503550.16349
       956.867    20636626.996


  22227353.311   116805549.656 8      2583.556    22227351.922    91017314.24348
      2013.162    22227352.236


  23816312.549   125155561.805 7     -2963.119    23816314.643    97523814.57146
     -2308.924    23816314.833    23816312.494    93460318.130 7     -2212.727


  26853715.150   141117220.446 8     -2805.383
                                  26853717.670   105379742.185 7     -2094.946
  26853716.014   108128777.705 8     -2149.574    26853716.986   106754261.979 8
     -2122.209
  26493887.324   139226336.462 7      1599.951
                                  26493889.581   103967715.847 7      1194.647
  26493888.783   106679914.469 8      1225.862    26493889.469   105323818.692 8
      1210.276
  26063810.164   136966252.565 8      -920.464
                                  26063812.861   102279995.064 8      -687.456
  26063811.212   104948168.337 8      -705.302    26063812.262   103614086.231 9
      -696.335
  26000232.878   136632150.800 8     -1108.240
                                  26000235.523   102030504.592 8      -827.545
  26000234.245   104692169.418 9      -849.153    26000235.197   103361341.536 9
      -838.345
  26481486.517   139161149.030 8     -2256.555
                                  26481489.518   103919039.405 8     -1685.182
  26481488.069   106629970.609 8     -1729.114    26481488.815   105274509.542 9
     -1707.122
  24920794.842   130959679.758 9      1775.758
                                  24920795.532    97794567.623 8      1326.016
  24920794.004   100345727.307 9      1360.618    24920795.010    99070150.001 9
      1343.319
  24800111.241   130325479.175 9      1794.876
                                  24800113.954    97320979.015 9      1340.266
  24800112.714    99859786.430 9      1375.277    24800113.574    98590387.253 9
      1357.813
  27132810.600   142583911.505 7      3266.122
                                  27132811.120   106475012.004 7      2438.983
  27132812.087   109252615.629 7      2502.643    27132812.016   107863813.350 8
      2470.800
 23 12  8 17 40 30.0000000  0 18G06G11G12G18G25G26G28G29G31G32E04E05
                                E09E13E21E26E31E33
  25033683.109   131552898.646 6     -2938.087    25033684.379   102508756.44546
     -2289.418    25033684.775    25033684.199    98237557.118 7     -2194.052


  23350334.362   122706843.509 8     -1281.858    23350333.178    95615721.27047
      -998.851    23350333.348    23350335.793    91631737.746 9      -957.191


  22844033.232   120046200.014 8     -2980.322    22844031.310    93542489.73248
     -2322.330    22844031.746


  25668148.328   134887038.541 5      3715.259    25668149.099   105106777.73745
      2895.010    25668149.947    25668153.210   100727340.042 6      2774.333


  20232513.426   106322577.509 9     -1376.335    20232514.174    82848764.88749
     -1072.468    20232514.659    20232513.559    79396731.746 9     -1027.770


  24338935.188   127901984.636 6      3302.933    24338938.654    99663904.37345
      2573.719    24338938.612    24338936.626    95511223.437 8      2466.732


  20952695.819   110107170.905 9      1302.321    20952694.699    85797796.07248
      1014.796    20952694.851    20952697.581    82222893.458 9       972.565


  20629666.571   108409640.336 9      1211.206    20629665.076    84475044.28349
       943.797    20629665.547


  22212640.360   116728232.740 8      2571.184    22212638.953    90957067.32548
      2003.522    22212639.267


  23833250.572   125244571.564 8     -2970.364    23833252.714    97593172.77446
     -2314.571    23833252.905    23833250.493    93526786.389 7     -2218.248


  26869743.568   141201450.276 8     -2809.828
                                  26869746.112   105442641.061 7     -2098.150
  26869744.459   108193317.397 8     -2152.869    26869745.418   106817981.264 8
     -2125.501
  26484789.186   139178525.408 6      1587.977
                                  26484791.499   103932012.812 8      1185.728
  26484790.642   106643280.046 8      1216.798    26484791.293   105287649.962 8
      1201.251
  26069105.221   136994078.338 8      -934.206
                                  26069107.925   102300774.044 8      -697.526
  26069106.286   104969489.385 8      -715.780    26069107.330   103635136.250 9
      -706.674
  26006600.186   136665611.118 8     -1122.112
                                  26006602.776   102055491.192 8      -837.989
  26006601.543   104717807.833 8      -859.836    26006602.480   103386654.047 9
      -848.955
  26494377.530   139228891.680 8     -2259.181
                                  26494380.543   103969626.430 8     -1687.115
  26494379.095   106681877.291 8     -1731.083    26494379.839   105325756.398 9
     -1709.103
  24910693.925   130906599.194 9      1763.386
                                  24910694.577    97754929.560 8      1316.837
  24910693.074   100305055.216 9      1351.149    24910694.086    99029994.925 9
      1333.986
  24789876.593   130271695.705 9      1791.025
                                  24789879.290    97280816.048 9      1337.427
  24789878.032    99818575.729 9      1372.320    24789878.906    98549700.423 9
      1354.901
  27114170.597   142485957.920 8      3264.375
                                  27114171.092   106401864.905 7      2437.671
  27114172.019   109177560.351 8      2501.299    27114171.999   107789712.168 8
      2469.398
 23 12  8 17 41  0.0000000  0 18G06G11G12G18G25G26G28G29G31G32E04E05
                                E09E13E21E26E31E33
  25050489.291   131641215.913 6     -2949.500    25050490.559   102577575.14746
     -2298.311    25050490.961    25050490.346    98303508.385 7     -2202.815


  23357706.566   122745584.637 8     -1301.086    23357705.359    95645909.16747
     -1013.834    23357705.534    23357707.983    91660667.823 9      -971.645


  22861064.311   120135698.915 8     -2986.335    22861062.407    93612229.11948
     -2327.015    22861062.843


  25646932.038   134775546.672 6      3717.318    25646932.741   105019901.14045
      2896.618    25646933.463    25646936.987   100644083.312 6      2776.028


  20240407.402   106364060.579 9     -1389.368    20240408.147    82881089.35349
     -1082.624    20240408.630    20240407.548    79427709.357 9     -1037.511


  24320085.090   127802927.258 6      3300.180    24320088.538    99586716.92946
      2571.572    24320088.493    24320086.536    95437252.158 8      2464.548


  20945311.979   110068368.576 9      1284.216    20945310.854    85767560.49748
      1000.687    20945311.010    20945313.698    82193917.697 9       959.018


  20622801.383   108373563.551 9      1193.774    20622799.884    84446932.51549
       930.214    20622800.355


  22197999.180   116651292.975 8      2557.922    22197997.762    90897114.28948
      1993.187    22197998.076


  23850231.787   125333808.474 8     -2978.851    23850233.954    97662708.02646
     -2321.181    23850234.142    23850231.682    93593424.317 7     -2224.392


  26885797.648   141285815.034 8     -2814.798
                                  26885800.217   105505640.714 7     -2101.984
  26885798.574   108257960.505 8     -2156.882    26885799.503   106881802.644 8
     -2129.509
  26475759.771   139131075.674 6      1575.393
                                  26475762.184   103896579.611 8      1176.268
  26475761.257   106606922.498 7      1206.982    26475761.861   105251754.590 8
      1191.646
  26074479.495   137022320.303 8      -948.827
                                  26074482.200   102321863.816 8      -708.454
  26074480.560   104991129.329 8      -726.888    26074481.601   103656501.112 9
      -717.716
  26013048.573   136699497.639 8     -1137.080
                                  26013051.116   102080796.057 8      -849.120
  26013049.913   104743772.842 8      -871.248    26013050.835   103412288.980 9
      -860.135
  26507285.005   139296720.803 8     -2262.798
                                  26507288.032   104020278.024 8     -1689.801
  26507286.581   106733850.240 8     -1733.891    26507287.321   105377068.673 9
     -1711.900
  24900664.918   130853896.515 9      1750.052
                                  24900665.546    97715573.687 8      1306.870
  24900664.055   100264672.658 9      1340.954    24900665.077    98990125.709 9
      1323.886
  24779665.474   130218035.844 9      1786.238
                                  24779668.140    97240745.399 9      1333.836
  24779666.864    99777459.751 9      1368.635    24779667.749    98509107.112 9
      1351.225
  27095541.713   142388062.746 7      3261.846
                                  27095542.187   106328761.427 7      2435.606
  27095543.088   109102549.823 7      2499.203    27095543.096   107715655.162 8
      2467.372
 23 12  8 17 41 30.0000000  0 18G06G11G12G18G25G26G28G29G31G32E04E05
                                E09E13E21E26E31E33
  25067358.714   131729865.256 5     -2960.563    25067359.986   102646652.55445
     -2306.932    25067360.388    25067359.749    98369707.530 7     -2210.583


  23365185.446   122784886.267 8     -1319.244    23365184.210    95676533.81547
     -1027.981    23365184.386    23365186.825    91690016.443 9      -985.067


  22878127.378   120225365.973 8     -2991.560    22878125.501    93682099.54248
     -2331.086    22878125.936


  25625699.357   134663968.751 6      3720.662    25625699.983   104932957.46344
      2899.224    25625700.631    25625704.343   100560762.357 7      2778.490


  20248371.962   106405914.541 9     -1401.182    20248372.708    82913702.81749
     -1091.830    20248373.189    20248372.117    79458963.929 9     -1046.299


  24301247.182   127703933.809 7      3298.815    24301250.615    99509579.29246
      2570.510    24301250.563    24301248.638    95363328.593 8      2463.435


  20938028.493   110030093.609 9      1267.074    20938027.360    85737735.84548
       987.331    20938027.516    20938030.197    82165335.747 9       946.320


  20616032.987   108337995.390 9      1177.310    20616031.491    84419217.06749
       917.384    20616031.963


  22183430.624   116574734.879 8      2545.663    22183429.192    90837458.66648
      1983.636    22183429.508


  23867256.114   125423271.706 8     -2985.755    23867258.296    97732419.58246
     -2326.563    23867258.488    23867256.011    93660231.231 7     -2229.643


  26901877.447   141370314.988 8     -2818.700
                                  26901880.035   105568741.339 7     -2104.911
  26901878.402   108322707.206 8     -2159.787    26901879.290   106945726.306 8
     -2132.343
  26466799.827   139083990.853 6      1563.478
                                  26466802.387   103861418.836 8      1167.668
  26466801.384   106570844.498 8      1198.131    26466801.935   105216135.199 8
      1182.891
  26079933.223   137050979.789 8      -962.063
                                  26079935.919   102343265.383 8      -718.456
  26079934.279   105013089.203 8      -737.166    26079935.315   103678181.828 9
      -727.844
  26019578.298   136733811.581 8     -1150.718
                                  26019580.822   102106420.105 8      -859.316
  26019579.625   104770065.354 8      -881.730    26019580.556   103438247.263 9
      -870.499
  26520209.337   139364638.458 8     -2265.241
                                  26520212.368   104070995.733 8     -1691.469
  26520210.904   106785891.020 8     -1735.651    26520211.645   105428447.915 9
     -1713.580
  24890708.510   130801575.337 9      1737.897
                                  24890709.140    97676502.710 9      1297.754
  24890707.657   100224582.437 9      1331.592    24890708.677    98950545.104 9
      1314.718
  24769478.378   130164502.200 9      1782.535
                                  24769481.015    97200768.994 9      1331.115
  24769479.722    99736440.477 9      1365.873    24769480.613    98468609.269 9
      1348.512
  27076924.721   142290230.102 8      3260.250
                                  27076925.207   106255704.649 7      2434.653
  27076926.052   109027587.199 7      2498.136    27076926.091   107641645.463 8
      2466.330
 23 12  8 17 42  0.0000000  0 18G06G11G12G18G25G26G28G29G31G32E04E05
                                E09E13E21E26E31E33
  25084290.651   131818843.227 5     -2971.187    25084291.932   102715986.04245
     -2315.212    25084292.337    25084291.690    98436152.109 7     -2218.654


  23372770.649   122824746.612 8     -1337.533    23372769.384    95707593.82547
     -1042.234    23372769.560    23372771.988    91719782.299 9      -998.874


  22895222.174   120315199.714 8     -2996.950    22895220.333    93752099.83248
     -2335.287    22895220.768


  25604450.711   134552306.891 5      3723.596    25604451.318   104845948.45045
      2901.515    25604451.871    25604455.731   100477378.716 7      2780.749


  20256406.877   106448138.278 9     -1413.364    20256407.614    82946604.43249
     -1101.323    20256408.098    20256407.027    79490494.636 9     -1055.309


  24282421.586   127605004.879 7      3296.784    24282425.001    99432491.88146
      2568.926    24282424.954    24282423.059    95289453.169 8      2461.962


  20930845.582   109992347.219 9      1249.771    20930844.435    85708323.07948
       973.848    20930844.591    20930847.293    82137148.530 9       933.223


  20609361.402   108302936.028 9      1160.426    20609359.910    84391898.09749
       904.229    20609360.380


  22168935.091   116498560.478 9      2533.096    22168933.647    90778102.01647
      1973.842    22168933.960


  23884322.806   125512957.694 8     -2993.007    23884324.977    97802304.74746
     -2332.214    23884325.172    23884322.683    93727204.530 7     -2234.949


  26917982.538   141454947.716 7     -2822.957
                                  26917985.163   105631941.066 8     -2107.992
  26917983.537   108387555.639 7     -2162.978    26917984.382   107009750.387 8
     -2135.447
  26457909.455   139037271.719 7      1551.432
                                  26457912.146   103826531.161 8      1158.638
  26457911.080   106535046.721 7      1188.874    26457911.579   105180792.474 8
      1173.793
  26085466.152   137080055.433 9      -975.764
                                  26085468.824   102364977.713 8      -728.643
  26085467.202   105035367.957 8      -747.642    26085468.231   103700177.370 9
      -738.134
  26026189.069   136768551.461 8     -1164.551
                                  26026191.579   102132362.247 8      -869.821
  26026190.385   104796684.231 8      -892.393    26026191.339   103464527.770 9
      -881.104
  26533150.411   139432644.062 8     -2267.961
                                  26533153.434   104121779.115 8     -1693.582
  26533151.962   106837999.167 8     -1737.803    26533152.702   105479893.673 9
     -1715.648
  24880824.876   130749636.593 9      1725.247
                                  24880825.513    97637717.308 9      1288.321
  24880824.030   100184785.232 9      1321.972    24880825.053    98911253.805 9
      1305.133
  24759315.306   130111094.801 9      1778.463
                                  24759317.917    97160886.859 9      1328.074
  24759316.609    99695517.936 9      1362.760    24759317.504    98428206.929 9
      1345.429
  27058319.933   142192461.547 8      3258.145
                                  27058320.436   106182695.716 7      2433.091
  27058321.213   108952673.687 7      2496.599    27058321.293   107567684.234 8
      2464.832
 23 12  8 17 42 30.0000000  0 18G06G11G12G18G25G26G28G29G31G32E04E05
                                E09E13E21E26E31E33
  25101284.580   131908147.059 4     -2981.807    25101285.866   102785573.46545
     -2323.486    25101286.261    25101285.623    98502840.119 6     -2227.093


  23380461.904   122865164.238 8     -1356.520    23380460.615    95739088.07247
     -1057.030    23380460.793    23380463.202    91749964.283 9     -1013.050


  22912348.425   120405198.742 8     -3002.750    22912346.618    93822228.91948
     -2339.806    22912347.053


  25583186.502   134440563.258 5      3725.747    25583187.081   104758875.66945
      2903.185    25583187.576    25583191.560   100393934.019 7      2782.586


  20264512.021   106490731.061 9     -1425.929    20264512.750    82979793.60849
     -1111.113    20264513.235    20264512.172    79522300.942 9     -1064.840


  24263608.422   127506141.283 7      3294.240    24263611.813    99355455.38746
      2566.943    24263611.769    24263609.905    95215626.537 8      2460.051


  20923763.565   109955131.030 9      1231.727    20923762.401    85679323.45348
       959.787    20923762.556    20923765.297    82109357.235 9       919.717


  20602786.623   108268385.372 9      1143.195    20602785.138    84364975.51749
       890.801    20602785.609


  22154513.049   116422772.185 9      2519.821    22154511.586    90719046.21648
      1963.497    22154511.899


  23901431.320   125602863.306 8     -3000.350    23901433.479    97872361.00545
     -2337.940    23901433.672    23901431.196    93794341.784 7     -2240.774


  26934112.482   141539711.059 8     -2827.504
                                  26934115.172   105695238.314 7     -2111.432
  26934113.528   108452504.165 7     -2166.574    26934114.352   107073873.282 8
     -2139.061
  26449088.896   138990919.380 7      1538.842
                                  26449091.672   103791917.408 7      1149.179
  26449090.547   106499530.022 7      1179.170    26449091.017   105145727.252 8
      1164.162
  26091078.073   137109546.187 8      -990.009
                                  26091080.709   102387000.033 8      -739.415
  26091079.108   105057964.763 8      -758.567    26091080.135   103722486.931 9
      -748.938
  26032880.684   136803716.170 8     -1179.287
                                  26032883.183   102158621.600 8      -880.584
  26032882.011   104823628.618 8      -903.561    26032882.974   103491129.644 9
      -892.073
  26546108.131   139500737.248 8     -2271.239
                                  26546111.144   104172627.915 8     -1696.097
  26546109.670   106890174.451 8     -1740.356    26546110.407   105531405.709 9
     -1718.211
  24871014.252   130698081.532 9      1712.119
                                  24871014.891    97599218.409 9      1278.545
  24871013.410   100145282.016 9      1311.848    24871014.438    98872252.749 9
      1295.199
  24749176.298   130057813.887 9      1773.857
                                  24749178.896    97121099.173 9      1324.695
  24749177.568    99654692.310 9      1359.213    24749178.467    98387900.272 9
      1341.986
  27039727.695   142094758.878 8      3255.682
                                  27039728.188   106109735.980 7      2431.096
  27039728.903   108877810.647 7      2494.539    27039729.039   107493772.842 8
      2462.861
 23 12  8 17 43  0.0000000  0 18G06G11G12G18G25G26G28G29G31G32E04E05
                                E09E13E21E26E31E33
  25118339.835   131997765.74914     -2992.891    25118341.642   102855409.25554
     -2332.118    25118342.155    25118340.582    98569769.900 6     -2235.115


  23388259.050   122906138.389 8     -1375.135    23388257.738    95771015.98147
     -1071.534    23388257.915    23388260.305    91780561.871 9     -1026.894


  22929506.095   120495362.923 8     -3008.340    22929504.314    93892486.71048
     -2344.162    22929504.750


  25561907.285   134328740.876 6      3728.426    25561907.828   104671741.55045
      2905.279    25561908.287    25561912.360   100310430.538 7      2784.340


  20272687.362   106533692.815 9     -1438.161    20272688.089    83013270.30749
     -1120.645    20272688.572    20272687.510    79554382.780 9     -1074.016


  24244807.986   127407344.594 7      3291.967    24244811.352    99278471.03246
      2565.172    24244811.308    24244809.467    95141849.872 8      2458.355


  20916782.874   109918447.301 9      1213.859    20916781.694    85650738.73248
       945.864    20916781.845    20916784.619    82081963.543 9       906.425


  20596308.842   108234344.468 9      1126.134    20596307.361    84338450.15249
       877.507    20596307.833


  22140165.008   116347372.806 9      2506.739    22140163.521    90660293.48147
      1953.303    22140163.831


  23918581.100   125692985.989 8     -3007.621    23918583.214    97942586.46145
     -2343.600    23918583.411    23918580.938    93861641.145 7     -2245.980


  26950266.967   141624603.590 8     -2831.858
                                  26950269.726   105758632.085 7     -2114.851
  26950268.036   108517551.662 8     -2169.903    26950268.863   107138093.909 8
     -2142.348
  26440338.522   138944935.719 7      1526.598
                                  26440341.322   103757578.975 8      1139.855
  26440340.134   106464295.815 7      1169.650    26440340.614   105110940.931 8
      1154.726
  26096768.920   137139451.693 8     -1003.740
                                  26096771.519   102409332.065 8      -749.596
  26096769.950   105080879.378 8      -769.110    26096770.972   103745110.250 9
      -759.311
  26039653.031   136839305.246 8     -1193.416
                                  26039655.526   102185197.845 8      -891.207
  26039654.381   104850898.157 8      -914.437    26039655.342   103518052.537 9
      -902.842
  26559082.619   139568918.499 7     -2274.251
                                  26559085.611   104223542.476 8     -1698.299
  26559084.131   106942417.217 8     -1742.602    26559084.872   105582984.378 9
     -1720.410
  24861277.026   130646912.127 9      1699.071
                                  24861277.682    97561007.511 9      1268.792
  24861276.188   100106074.299 9      1301.887    24861277.225    98833543.441 9
      1285.303
  24739061.539   130004660.482 9      1769.475
                                  24739064.136    97081406.714 9      1321.419
  24739062.777    99613964.384 9      1355.865    24739063.686    98347690.082 9
      1338.636
  27021148.501   141997124.677 8      3253.162
                                  27021148.989   106036827.355 7      2429.330
  27021149.635   108803000.057 8      2492.766    27021149.831   107419913.232 8
      2461.153
 23 12  8 17 43 30.0000000  0 18G06G11G12G18G25G26G28G29G31G32E04E05
                                E09E13E21E26E31E33
  25135456.447   132087714.213 5     -3003.826    25135458.286   102925498.97945
     -2340.642    25135458.828    25135457.231    98636939.230 6     -2242.998


  23396161.755   122947667.370 8     -1393.460    23396160.414    95803376.24547
     -1085.812    23396160.586    23396162.955    91811573.788 9     -1040.655


  22946694.901   120585690.726 8     -3013.582    22946693.134    93962872.00548
     -2348.245    22946693.574


  25540613.516   134216841.913 6      3731.158    25540614.012   104584547.72045
      2907.401    25540614.437    25540618.566   100226869.835 7      2786.331


  20280932.719   106577022.497 9     -1450.314    20280933.452    83047033.69349
     -1130.115    20280933.932    20280932.871    79586739.365 9     -1083.177


  24226020.404   127308615.461 7      3290.092    24226023.759    99201539.29646
      2563.709    24226023.715    24226021.874    95068123.649 8      2456.705


  20909903.743   109882297.316 9      1196.067    20909902.554    85622569.92848
       932.000    20909902.700    20909905.485    82054968.439 9       893.155


  20589928.134   108200813.663 9      1109.209    20589926.651    84312322.26549
       864.319    20589927.126


  22125891.357   116272364.227 9      2493.781    22125889.839    90601845.24448
      1943.207    22125890.147


  23935771.559   125783322.353 8     -3015.030    23935773.604    98012978.41446
     -2349.375    23935773.792    23935771.344    93929100.078 7     -2251.311


  26966445.615   141709622.997 8     -2836.126
                                  26966448.432   105822120.582 7     -2117.940
  26966446.723   108582696.392 8     -2173.175    26966447.540   107202410.519 8
     -2145.496
  26431658.506   138899321.630 7      1514.277
                                  26431661.285   103723516.508 7      1130.793
  26431660.036   106429344.773 7      1160.243    26431660.559   105076434.177 8
      1145.511
  26102538.434   137169770.676 9     -1017.521
                                  26102540.980   102431972.884 7      -759.827
  26102539.450   105104110.827 8      -779.708    26102540.477   103768046.388 9
      -769.767
  26046505.826   136875317.219 8     -1207.494
                                  26046508.319   102212089.923 8      -901.635
  26046507.206   104878491.779 8      -925.250    26046508.168   103545295.386 9
      -913.437
  26572073.760   139637187.277 7     -2277.110
                                  26572076.736   104274522.387 7     -1700.447
  26572075.250   106994727.041 8     -1744.822    26572076.000   105634629.247 8
     -1722.593
  24851613.361   130596129.323 9      1686.296
                                  24851614.034    97523085.315 9      1259.242
  24851612.525   100067162.824 9      1292.108    24851613.565    98795126.606 9
      1275.630
  24728971.044   129951634.653 9      1765.425
                                  24728973.649    97041809.529 9      1318.284
  24728972.261    99573334.232 9      1352.599    24728973.176    98307576.415 9
      1335.436
  27002582.601   141899560.416 8      3250.882
                                  27002583.097   105963970.980 7      2427.748
  27002583.674   108728243.098 8      2490.962    27002583.921   107346106.574 8
      2459.307
 23 12  8 17 44  0.0000000  0 18G06G11G12G18G25G26G28G29G31G32E04E05
                                E09E13E21E26E31E33
  25152633.453   132177979.335 5     -3014.838    25152635.070   102995835.47245
     -2349.224    25152635.560    25152634.157    98704345.064 5     -2250.710


  23404169.539   122989748.426 7     -1411.636    23404168.185    95836166.65547
     -1099.978    23404168.358    23404170.709    91842997.942 9     -1054.219


  22963914.397   120676179.769 8     -3018.763    22963912.639    94033382.93848
     -2352.283    22963913.082


  25519305.327   134104867.346 6      3733.898    25519305.770   104497294.99245
      2909.535    25519306.149    25519310.307   100143252.703 7      2788.292


  20289247.695   106620718.059 9     -1462.452    20289248.428    83081082.19149
     -1139.573    20289248.910    20289247.842    79619369.160 9     -1092.103


  24207245.607   127209953.528 7      3287.700    24207248.960    99124659.91946
      2561.845    24207248.913    24207247.070    94994447.603 8      2455.129


  20903126.230   109846681.334 9      1178.473    20903125.039    85594817.22948
       918.292    20903125.184    20903127.964    82028372.102 9       879.993


  20583644.282   108167791.822 9      1092.454    20583642.796    84286590.97249
       851.263    20583643.275


  22111692.288   116197747.640 9      2480.847    22111690.737    90543702.47448
      1933.128    22111691.045


  23953001.848   125873867.838 7     -3021.484    23953003.847    98083533.27145
     -2354.404    23953004.032    23953001.608    93996715.160 8     -2256.391


  26982647.739   141794765.843 8     -2839.974
                                  26982650.592   105885701.287 7     -2120.879
  26982648.867   108647935.687 8     -2176.138    26982649.676   107266820.517 8
     -2148.503
  26423048.774   138854076.926 7      1501.996
                                  26423051.511   103689729.885 7      1121.679
  26423050.202   106394676.747 7      1151.014    26423050.791   105042206.848 8
      1136.401
  26108386.195   137200500.778 9     -1031.072
                                  26108388.678   102454920.694 8      -769.949
  26108387.184   105127657.268 8      -790.037    26108388.223   103791293.512 9
      -779.984
  26053438.651   136911749.713 8     -1221.180
                                  26053441.144   102239296.029 8      -912.026
  26053440.059   104906407.592 8      -935.777    26053441.032   103572856.344 9
      -923.899
  26585081.235   139705541.993 7     -2279.774
                                  26585084.189   104325566.484 8     -1702.419
  26585082.704   107047102.709 8     -1746.790    26585083.469   105686339.130 8
     -1724.585
  24842023.267   130545733.096 9      1673.618
                                  24842023.955    97485451.787 9      1249.732
  24842022.444   100028547.553 9      1282.354    24842023.470    98757002.204 9
      1266.058
  24718904.645   129898735.427 9      1761.330
                                  24718907.271    97002306.870 9      1315.267
  24718905.851    99532801.065 9      1349.572    24718906.768    98267558.504 9
      1332.397
  26984030.123   141802066.738 8      3248.859
                                  26984030.634   105891167.328 7      2425.954
  26984031.122   108653540.196 8      2489.307    26984031.424   107272353.292 8
      2457.675
 23 12  8 17 44 30.0000000  0 18G06G11G12G18G25G26G28G29G31G32E04E05
                                E09E13E21E26E31E33
  25169870.748   132268560.971 4     -3023.846    25169872.102   103066418.60944
     -2356.239    25169872.560    25169871.238    98771987.236 5     -2258.468


  23412282.555   123032382.683 8     -1430.271    23412281.202    95869388.15546
     -1114.499    23412281.374    23412283.710    91874835.218 9     -1068.023


  22981164.942   120766831.988 8     -3024.368    22981163.195    94104021.02448
     -2356.650    22981163.641


  25497983.736   133992822.365 6      3735.900    25497984.161   104409987.41745
      2911.097    25497984.495    25497988.646   100059582.978 7      2789.928


  20297632.678   106664781.429 9     -1474.816    20297633.415    83115417.27549
     -1149.207    20297633.895    20297632.827    79652273.614 9     -1101.329


  24188484.262   127111362.324 7      3285.417    24188487.608    99047835.67046
      2560.067    24188487.558    24188485.712    94920824.387 8      2453.246


  20896451.147   109811603.568 9      1160.304    20896449.955    85567483.91148
       904.133    20896450.097    20896452.874    82002177.670 9       866.507


  20577457.759   108135281.457 9      1075.262    20577456.270    84261258.23349
       837.867    20577456.753


  22097568.707   116123527.741 9      2467.458    22097567.122    90485868.81148
      1922.696    22097567.426


  23970271.797   125964621.969 8     -3028.383    23970273.754    98154250.75746
     -2359.781    23970273.940    23970271.521    94064486.063 8     -2261.521


  26998873.498   141880032.746 8     -2844.111
                                  26998876.379   105949374.589 7     -2123.887
  26998874.665   108713270.010 7     -2179.275    26998875.445   107331324.333 8
     -2151.555
  26414509.999   138809205.373 6      1489.623
                                  26414512.699   103656221.937 7      1112.319
  26414511.333   106360294.661 7      1141.444    26414512.013   105008261.835 8
      1126.856
  26114312.492   137231643.579 8     -1044.932
                                  26114314.927   102478176.685 8      -780.313
  26114313.444   105151519.921 8      -800.560    26114314.500   103814852.839 8
      -790.477
  26060451.775   136948604.184 8     -1235.533
                                  26060454.291   102266817.225 8      -922.519
  26060453.232   104934646.730 8      -946.651    26060454.206   103600736.508 9
      -934.556
  26598105.517   139773985.049 7     -2282.890
                                  26598108.441   104376676.549 8     -1704.731
  26598106.978   107099546.079 8     -1749.236    26598107.747   105738115.846 8
     -1726.993
  24832507.468   130495727.308 9      1660.445
                                  24832508.161    97448109.819 8      1239.900
  24832506.659    99990231.448 9      1272.264    24832507.664    98719173.169 9
      1256.073
  24708862.893   129845965.781 9      1756.975
                                  24708865.535    96962900.992 9      1311.954
  24708864.082    99492367.199 9      1346.190    24708865.005    98227638.632 9
      1329.052
  26965491.938   141704648.133 8      3246.167
                                  26965492.478   105818419.718 7      2424.071
  26965492.874   108578894.832 8      2487.223    26965493.240   107198656.810 8
      2455.654
 23 12  8 17 45  0.0000000  0 18G06G11G12G18G25G26G28G29G31G32E04E05
                                E09E13E21E26E31E33

                                  25187167.950    98839864.965 5     -2266.366


  23420500.838   123075570.271 7     -1448.517    23420499.504    95903040.83747
     -1128.716    23420499.674    23420501.993    91907085.706 8     -1081.705


  22998446.670   120857647.942 8     -3029.844    22998444.942    94174786.66248
     -2360.918    22998445.390


  25476649.511   133880710.946 7      3738.159    25476649.925   104322628.04845
      2912.853    25476650.245    25476654.365    99975863.617 7      2791.704


  20306087.820   106709213.505 9     -1487.111    20306088.564    83150039.66649
     -1158.789    20306089.044    20306087.973    79685453.403 9     -1110.457


  24169736.885   127012844.447 7      3282.957    24169740.227    98971068.57246
      2558.150    24169740.180    24169738.313    94847255.912 8      2451.506


  20889879.088   109777067.153 9      1142.332    20889877.883    85540572.42148
       890.129    20889878.025    20889880.805    81976387.494 9       853.085


  20571368.930   108103284.457 9      1058.179    20571367.440    84236325.51349
       824.556    20571367.926


  22083521.402   116049708.675 9      2454.009    22083519.785    90428347.48848
      1912.215    22083520.085


  23987581.149   126055583.176 7     -3035.058    23987583.087    98225129.59946
     -2364.982    23987583.276    23987580.860    94132411.604 7     -2266.603


  27015122.749   141965423.176 8     -2848.241
                                  27015125.651   106013140.160 7     -2126.840
  27015123.948   108778699.045 7     -2182.306    27015124.687   107395921.630 8
     -2154.494
  26406042.737   138764709.726 6      1477.135
                                  26406045.417   103622994.680 7      1103.018
  26406043.986   106326200.608 7      1131.781    26406044.780   104974601.178 8
      1117.422
  26120317.422   137263199.618 9     -1058.631
                                  26120319.834   102501741.262 8      -790.420
  26120318.335   105175699.222 8      -811.103    26120319.410   103838724.777 9
      -800.743
  26067545.247   136985881.081 8     -1249.338
                                  26067547.798   102294653.883 8      -932.948
  26067546.750   104963209.551 8      -957.258    26067547.709   103628936.253 9
      -945.128
  26611146.886   139842517.841 8     -2285.737
                                  26611149.801   104427853.594 8     -1706.829
  26611148.354   107152058.191 8     -1751.398    26611149.127   105789960.427 8
     -1729.109
  24823066.514   130446114.822 9      1647.406
                                  24823067.206    97411061.553 8      1230.221
  24823065.713    99952216.704 9      1262.290    24823066.695    98681641.659 9
      1246.262
  24698846.185   129793327.687 9      1752.553
                                  24698848.843    96923593.328 8      1308.787
  24698847.363    99452034.120 9      1342.926    24698848.296    98187818.258 9
      1325.888
  26946968.671   141607308.037 7      3243.653
                                  26946969.239   105745730.757 7      2422.146
  26946969.544   108504309.646 8      2485.329    26946969.976   107125019.736 8
      2453.739
 23 12  8 17 45 30.0000000  0 18G06G11G12G18G25G26G28G29G31G32E04E05
                                E09E13E21E26E31E33

                                  25204523.450    98907971.402 4     -2274.225


  23428822.908   123119303.388 7     -1467.140    23428821.616    95937118.61547
     -1143.227    23428821.785    23428824.079    91939743.575 8     -1095.542


  23015758.093   120948620.087 8     -3035.296    23015756.370    94245674.05048
     -2365.166    23015756.825


  25455301.860   133768529.116 7      3740.358    25455302.256   104235213.82045
      2914.568    25455302.553    25455306.650    99892091.710 7      2793.032


  20314611.772   106754007.190 9     -1499.350    20314612.527    83184943.83349
     -1168.324    20314613.009    20314611.931    79718903.235 9     -1119.630


  24151002.451   126914394.520 7      3280.309    24151005.774    98894354.38345
      2556.087    24151005.728    24151003.835    94773738.167 8      2449.628


  20883409.145   109743067.332 9      1124.154    20883407.914    85514079.05548
       875.965    20883408.052    20883410.853    81950998.024 9       839.437


  20565376.640   108071794.785 9      1040.893    20565375.153    84211788.11149
       811.086    20565375.639


  22069549.583   115976286.248 9      2440.577    22069547.932    90371135.22548
      1901.748    22069548.233


  24004928.108   126146742.030 7     -3042.018    24004930.050    98296162.44346
     -2370.402    24004930.243    24004927.829    94200484.749 8     -2271.757


  27031393.956   142050928.830 8     -2852.404
                                  27031396.889   106076991.740 8     -2129.923
  27031395.173   108844216.326 7     -2185.385    27031395.893   107460606.076 8
     -2157.755
  26397646.002   138720584.823 6      1464.316
                                  26397648.667   103590044.301 7      1093.594
  26397647.162   106292390.653 7      1122.119    26397648.075   104941221.016 8
      1107.856
  26126399.583   137295161.534 9     -1072.362
                                  26126401.995   102525608.938 8      -800.847
  26126400.449   105200189.519 8      -821.655    26126401.540   103862903.764 8
      -811.279
  26074717.699   137023572.926 8     -1263.551
                                  26074720.315   102322800.413 8      -943.484
  26074719.259   104992090.348 8      -968.213    26074720.194   103657449.912 9
      -955.815
  26624204.051   139911133.765 8     -2288.817
                                  26624206.958   104479092.751 8     -1709.151
  26624205.511   107204634.036 8     -1753.773    26624206.301   105841867.925 8
     -1731.427
  24813699.449   130396890.573 9      1634.120
                                  24813700.149    97374303.197 8      1220.380
  24813698.667    99914499.443 9      1252.174    24813699.630    98644403.857 9
      1236.241
  24688853.374   129740815.218 9      1748.119
                                  24688856.032    96884379.488 9      1305.440
  24688854.538    99411797.313 9      1339.497    24688855.483    98148092.936 9
      1322.463
  26928459.507   141510042.077 8      3240.944
                                  26928460.124   105673097.165 8      2420.098
  26928460.321   108429781.251 7      2483.117    26928460.814   107051438.736 8
      2451.652
 23 12  8 17 46  0.0000000  0 18G06G11G12G18G25G26G28G29G31G32E04E05
                                E09E13E21E26E31E33

                                  25221937.159    98976306.273 4     -2281.155


  23437248.977   123163582.950 7     -1484.574    23437247.741    95971622.17047
     -1156.811    23437247.912    23437250.189    91972809.491 9     -1108.642


  23033099.570   121039750.062 8     -3039.814    23033097.852    94316684.39748
     -2368.687    23033098.311


  25433941.768   133656281.778 6      3743.186    25433942.160   104147748.54645
      2916.775    25433942.417    25433946.504    99808270.834 7      2795.119


  20323204.880   106799164.224 9     -1510.909    20323205.648    83220131.11849
     -1177.332    20323206.130    20323205.041    79752624.378 9     -1128.216


  24132281.585   126816015.909 7      3278.540    24132284.858    98817695.73446
      2554.705    24132284.821    24132282.899    94700273.694 8      2448.269


  20877042.060   109709608.037 9      1106.723    20877040.794    85488006.87848
       862.381    20877040.930    20877043.759    81926012.186 9       826.467


  20559481.381   108040815.050 9      1024.552    20559479.899    84187648.06749
       798.352    20559480.387


  22055654.146   115903265.220 9      2427.689    22055652.458    90314235.74448
      1891.707    22055652.760


  24022312.537   126238097.780 7     -3047.959    24022314.508    98367348.70646
     -2375.035    24022314.700    24022312.281    94268704.906 8     -2276.159


  27047687.145   142136549.987 8     -2855.609
                                  27047690.101   106140929.592 7     -2132.454
  27047688.347   108909822.150 7     -2187.883    27047689.066   107525377.909 8
     -2160.239
  26389320.469   138676834.211 6      1452.713
                                  26389323.127   103557373.447 7      1084.713
  26389321.547   106258867.515 7      1112.910    26389322.571   104908124.013 8
      1098.840
  26132559.236   137327530.666 8     -1085.349
                                  26132561.668   102549780.701 8      -810.490
  26132560.067   105224991.843 8      -831.607    26132561.160   103887390.806 9
      -821.052
  26081969.376   137061680.984 8     -1276.667
                                  26081972.059   102351257.736 8      -953.407
  26081970.972   105021290.047 8      -978.349    26081971.908   103686278.432 9
      -965.905
  26637277.481   139979835.055 8     -2291.207
                                  26637280.382   104530395.638 8     -1710.880
  26637278.922   107257275.270 8     -1755.449    26637279.745   105893839.989 8
     -1733.162
  24804406.946   130348058.183 9      1621.538
                                  24804407.646    97337837.473 8      1210.917
  24804406.184    99877082.444 9      1242.523    24804407.125    98607462.492 9
      1226.733
  24678884.995   129688431.150 9      1744.345
                                  24678887.647    96845261.539 8      1302.627
  24678886.145    99371658.891 9      1336.659    24678887.098    98108464.748 9
      1319.634
  26909965.316   141412854.586 8      3238.520
                                  26909966.005   105600522.130 7      2418.533
  26909966.059   108355312.926 8      2481.656    26909966.617   106977917.066 8
      2450.071
 23 12  8 17 46 30.0000000  0 18G06G11G12G18G25G26G28G29G31G32E04E05
                                E09E13E21E26E31E33

                                  25239409.064    99044869.102 4     -2289.161


  23445779.106   123208409.426 7     -1503.664    23445777.905    96006551.92847
     -1171.684    23445778.074    23445780.336    92006283.826 9     -1122.730


  23050471.260   121131038.816 8     -3045.758    23050469.549    94387818.47348
     -2373.318    23050470.012


  25412570.067   133543973.448 7      3744.388    25412570.426   104060235.73346
      2917.711    25412570.654    25412574.749    99724404.415 8      2796.153


  20331867.358   106844685.826 9     -1523.577    20331868.134    83255602.49549
     -1187.203    20331868.620    20331867.516    79786617.780 9     -1137.700


  24113574.894   126717711.642 7      3275.483    24113578.130    98741095.03146
      2552.323    24113578.102    24113576.129    94626864.699 7      2446.030


  20870778.506   109676692.821 9      1087.991    20870777.206    85462358.66248
       847.785    20870777.340    20870780.197    81901432.649 9       812.466


  20553683.590   108010347.543 9      1006.882    20553682.118    84163907.16749
       784.584    20553682.606


  22041835.930   115830649.953 9      2413.546    22041834.204    90257652.43448
      1880.686    22041834.508


  24039734.198   126329649.294 7     -3055.105    24039736.182    98438687.55246
     -2380.602    24039736.374    24039733.949    94337071.259 8     -2281.307


  27064002.350   142222286.707 8     -2860.018
                                  27064005.324   106204953.714 7     -2135.649
  27064003.505   108975516.471 7     -2191.338    27064004.263   107590237.126 8
     -2163.526
  26381066.799   138633461.107 6      1439.335
                                  26381069.466   103524984.462 7      1074.861
  26381067.804   106225633.594 7      1102.768    26381068.937   104875312.564 8
      1088.783
  26138796.559   137360307.977 8     -1099.451
                                  26138799.025   102574257.262 8      -821.100
  26138797.379   105250106.930 8      -842.437    26138798.463   103912186.632 9
      -831.799
  26089300.441   137100206.125 8     -1291.216
                                  26089303.194   102380026.519 8      -964.243
  26089302.060   105050809.296 8      -989.309    26089303.003   103715422.441 9
      -976.768
  26650367.500   140048623.499 8     -2294.481
                                  26650370.398   104581763.603 8     -1713.420
  26650368.939   107309983.270 8     -1758.046    26650369.781   105945877.970 9
     -1735.719
  24795189.628   130299620.936 9      1607.867
                                  24795190.331    97301666.817 9      1200.695
  24795188.879    99839968.198 9      1232.001    24795189.807    98570820.044 9
      1216.328
  24668941.519   129636177.903 9      1739.459
                                  24668944.165    96806241.271 9      1298.960
  24668942.664    99331620.710 9      1332.827    24668943.620    98068935.522 9
      1315.910
  26891486.776   141315749.386 7      3235.328
                                  26891487.522   105528008.575 7      2416.002
  26891487.427   108280907.715 8      2479.070    26891488.053   106904457.678 8
      2447.535
 23 12  8 17 47  0.0000000  0 18G06G11G12G18G25G26G28G29G31G32E04E05
                                E09E13E21E26E31E33
  25256936.003                       -3075.472    25256938.588
     -2396.469    25256937.978    25256937.373    99113654.365 4     -2296.805


  23454412.174   123253776.594 7     -1521.076    23454410.992    96041902.96547
     -1185.253    23454411.161    23454413.421    92040161.917 9     -1135.968


  23067872.109   121222480.759 8     -3050.757    23067870.407    94459071.90548
     -2377.214    23067870.874


  25391186.339   133431601.852 7      3746.591    25391186.660   103972673.57646
      2919.423    25391186.877    25391190.978    99640490.729 8      2797.853


  20340598.190   106890566.602 9     -1535.500    20340598.972    83291353.74749
     -1196.494    20340599.460    20340598.342    79820879.395 9     -1146.587


  24094881.634   126619477.938 7      3273.258    24094884.827    98664549.31445
      2550.590    24094884.808    24094882.767    94553508.402 7      2444.261


  20864617.872   109644318.463 9      1070.026    20864616.544    85437131.89848
       833.787    20864616.675    20864619.551    81877256.998 9       799.021


  20547982.389   107980387.590 9       990.141    20547980.925    84140561.76249
       771.539    20547981.413


  22028094.420   115758437.857 9      2400.249    22028092.659    90201383.29848
      1870.325    22028092.965


  24057191.671   126421388.757 7     -3061.250    24057193.678    98510172.79946
     -2385.392    24057193.873    24057191.463    94405577.956 8     -2285.893


  27080338.224   142308132.139 7     -2863.359
                                  27080341.186   106269059.059 7     -2138.210
  27080339.304   109041294.108 7     -2194.058    27080340.110   107655178.620 8
     -2166.151
  26372884.257   138590461.822 7      1427.144
                                  26372886.932   103492874.649 7      1065.597
  26372885.193   106192686.131 7      1093.441    26372886.417   104842783.923 8
      1079.515
  26145110.441   137393487.662 8     -1112.704
                                  26145112.953   102599034.300 8      -830.865
  26145111.268   105275530.330 8      -852.702    26145112.331   103937286.845 9
      -841.691
  26096709.737   137139142.389 8     -1304.761
                                  26096712.527   102409102.329 8      -974.424
  26096711.358   105080643.588 8      -999.709    26096712.300   103744877.493 9
      -987.072
  26663473.152   140117494.163 8     -2297.073
                                  26663476.043   104633192.986 8     -1715.392
  26663474.595   107362754.294 8     -1760.112    26663475.445   105997978.174 9
     -1737.750
  24786046.846   130251575.328 9      1594.904
                                  24786047.556    97265788.616 9      1191.012
  24786046.115    99803154.047 9      1222.090    24786047.030    98534473.862 9
      1206.587
  24659022.115   129584051.146 9      1735.375
                                  24659024.750    96767315.458 8      1295.913
  24659023.249    99291679.438 9      1329.688    24659024.216    98029501.983 9
      1312.780
  26873023.375   141218723.741 8      3232.707
                                  26873024.182   105455554.417 7      2414.099
  26873023.929   108206563.442 8      2477.138    26873024.637   106831058.464 8
      2445.563
 23 12  8 17 47 30.0000000  0 18G06G11G12G18G25G26G28G29G31G32E04E05
                                E09E13E21E26E31E33
  25274523.235   132818508.01413     -3084.641    25274524.724   103494945.41453
     -2403.621    25274526.361    25274523.211    99182663.582 4     -2303.749


  23463148.784   123299687.865 7     -1538.990    23463147.588    96077678.00347
     -1199.212    23463147.753    23463150.021    92074446.323 9     -1149.410


  23085302.827   121314079.758 8     -3055.485    23085301.123    94530447.74148
     -2380.898    23085301.591


  25369792.022   133319174.491 7      3748.848    25369792.318   103885067.95546
      2921.182    25369792.521    25369796.628    99556535.370 8      2799.306


  20349398.182   106936810.823 9     -1547.286    20349398.967    83327388.20949
     -1205.678    20349399.458    20349398.328    79855412.417 9     -1155.429


  24076202.937   126521320.790 7      3270.950    24076206.085    98588063.26146
      2548.791    24076206.074    24076203.951    94480209.275 7      2442.536


  20858561.393   109612491.445 9      1051.985    20858560.049    85412331.63548
       819.729    20858560.180    20858563.059    81853490.071 9       785.595


  20542378.800   107950940.530 9       973.300    20542377.334    84117616.00649
       758.415    20542377.822


  22014431.069   115686636.464 9      2386.746    22014429.278    90145434.17347
      1859.803    22014429.585


  24074685.243   126513317.994 8     -3067.196    24074687.261    98581805.94446
     -2390.023    24074687.460    24074685.063    94474226.371 8     -2290.490


  27096695.374   142394089.272 8     -2866.760
                                  27096698.342   106333247.779 7     -2140.799
  27096696.395   109107157.326 7     -2196.639    27096697.235   107720204.582 8
     -2168.633
  26364774.044   138547842.541 6      1414.430
                                  26364776.731   103461048.587 7      1056.252
  26364774.933   106160029.811 7      1083.849    26364776.226   104810542.735 8
      1070.037
  26151501.623   137427073.611 8     -1126.071
                                  26151504.183   102624114.720 8      -840.897
  26151502.475   105301265.017 8      -862.794    26151503.508   103962694.401 9
      -851.786
  26104198.035   137178493.647 8     -1318.337
                                  26104200.845   102438488.003 8      -984.483
  26104199.646   105110795.847 8     -1010.141    26104200.574   103774646.462 9
      -997.333
  26676595.377   140186451.843 8     -2299.781
                                  26676598.249   104684687.347 8     -1717.346
  26676596.808   107415591.989 8     -1762.169    26676597.673   106050144.207 9
     -1739.796
  24776979.754   130203927.557 9      1581.898
                                  24776980.466    97230207.512 9      1181.264
  24776979.043    99766644.740 9      1212.057    24776979.945    98498428.659 9
      1196.703
  24649127.802   129532056.260 9      1731.213
                                  24649130.424    96728488.130 8      1292.830
  24649128.911    99251839.216 9      1326.529    24649129.895    97990168.206 9
      1309.678
  26854576.438   141121784.543 8      3230.118
                                  26854577.315   105383164.798 8      2412.110
  26854576.921   108132285.408 8      2475.102    26854577.689   106757724.637 8
      2443.557
 23 12  8 17 48  0.0000000  0 18G06G11G12G18G25G26G28G29G31G32E04E05
                                E09E13E21E26E31E33
  25292165.885                       -3094.958    25292166.936
     -2411.657    25292166.529    25292166.082    99251897.700 4     -2311.788


  23471989.397   123346145.496 8     -1557.795    23471988.180    96113878.74746
     -1213.869    23471988.342    23471990.637    92109138.710 9     -1163.344


  23102764.025   121405838.949 8     -3061.592    23102762.309    94601948.40248
     -2385.657    23102762.784


  25348388.257   133206697.581 7      3749.888    25348388.528   103797423.76846
      2921.996    25348388.710    25348392.826    99472543.035 8      2800.267


  20358267.932   106983421.566 9     -1559.990    20358268.728    83363708.25849
     -1215.577    20358269.220    20358268.077    79890219.131 9     -1164.855


  24057539.729   126423245.050 6      3267.509    24057542.843    98511640.66946
      2546.112    24057542.842    24057540.626    94406970.942 7      2440.227


  20852610.077   109581217.063 9      1033.104    20852608.725    85387961.99248
       805.016    20852608.853    20852611.737    81830135.831 9       771.477


  20536873.567   107922010.343 9       955.612    20536872.089    84095073.01949
       744.633    20536872.578


  22000847.003   115615251.776 9      2372.431    22000845.190    90089809.75848
      1848.648    22000845.496


  24092215.085   126605437.721 8     -3073.839    24092217.101    98653587.51046
     -2395.202    24092217.300    24092214.909    94543017.011 7     -2295.392


  27113074.097   142480159.847 8     -2870.970
                                  27113077.051   106397521.243 7     -2143.951
  27113075.028   109173107.471 7     -2199.884    27113075.916   107785316.388 8
     -2171.863
  26356737.093   138505608.166 6      1401.442
                                  26356739.798   103429509.927 7      1046.399
  26356737.974   106127668.413 8      1073.748    26356739.303   104778592.704 8
      1060.127
  26157970.636   137461068.546 8     -1140.118
                                  26157973.227   102649500.552 8      -851.447
  26157971.526   105327313.092 8      -873.605    26157972.519   103988411.358 9
      -862.568
  26111765.833   137218262.512 8     -1332.624
                                  26111768.667   102468185.535 8      -995.236
  26111767.419   105141268.097 8     -1021.102    26111768.342   103804731.353 9
     -1008.165
  26689734.873   140255500.187 8     -2303.340
                                  26689737.728   104736249.388 8     -1719.968
  26689736.294   107468499.125 8     -1764.846    26689737.169   106102378.791 9
     -1742.396
  24767989.310   130156682.659 9      1568.062
                                  24767990.035    97194927.262 9      1170.922
  24767988.617    99730444.128 9      1201.471    24767989.512    98462688.230 9
      1186.198
  24639259.382   129480197.447 9      1726.274
                                  24639261.992    96689762.419 8      1289.088
  24639260.470    99212103.267 9      1322.679    24639261.464    97950937.378 9
      1305.890
  26836147.019   141024937.459 8      3226.536
                                  26836147.977   105310843.980 8      2409.455
  26836147.454   108058077.959 8      2472.378    26836148.262   106684460.506 8
      2440.907
 23 12  8 17 48 30.0000000  0 18G06G11G12G18G25G26G28G29G31G32E04E05
                                E09E13E21E26E31E33

                                  25309864.924    99321350.696 4     -2318.866


  23480932.718   123393142.798 8     -1575.566    23480931.477    96150500.00747
     -1227.715    23480931.635    23480933.964    92144234.067 9     -1176.612


  23120254.518   121497752.037 8     -3066.288    23120252.789    94673568.97048
     -2389.316    23120253.262


  25326974.572   133094168.587 6      3751.810    25326974.796   103709738.96646
      2923.492    25326974.970    25326979.099    99388511.821 8      2801.652


  20367206.319   107030393.007 9     -1571.777    20367207.132    83400309.37249
     -1224.762    20367207.624    20367206.459    79925295.202 9     -1173.719


  24038891.206   126325246.582 6      3265.198    24038894.297    98435278.30246
      2544.312    24038894.306    24038891.988    94333790.337 7      2438.305


  20846763.240   109550491.714 9      1014.895    20846761.882    85364020.16348
       790.827    20846762.010    20846764.889    81807191.576 9       757.988


  20531465.732   107893591.938 9       938.696    20531464.236    84072928.81649
       731.452    20531464.726


  21987341.681   115544280.945 9      2358.738    21987339.848    90034507.82947
      1837.978    21987340.155


  24109779.615   126697739.673 8     -3079.879    24109781.632    98725511.05446
     -2399.906    24109781.833    24109779.415    94611943.741 7     -2299.863


  27129473.078   142566336.769 8     -2874.299
                                  27129476.017   106461874.089 7     -2146.544
  27129473.942   109239139.104 7     -2202.426    27129474.864   107850508.630 8
     -2174.466
  26348772.599   138463754.703 6      1388.545
                                  26348775.295   103398255.753 7      1037.053
  26348773.496   106095598.912 8      1064.041    26348774.832   104746930.865 8
      1050.541
  26164516.296   137495466.265 8     -1153.358
                                  26164518.906   102675187.150 8      -861.278
  26164517.232   105353669.785 8      -883.714    26164518.191   104014432.998 9
      -872.451
  26119411.909   137258442.685 8     -1346.228
                                  26119414.757   102498190.212 8     -1005.283
  26119413.441   105172055.510 8     -1031.441    26119414.382   103835127.399 9
     -1018.389
  26702890.589   140324633.805 8     -2305.949
                                  26702893.440   104787875.115 8     -1721.911
  26702892.006   107521471.616 8     -1766.806    26702892.885   106154677.907 9
     -1744.343
  24759074.788   130109836.710 9      1554.880
                                  24759075.538    97159944.924 9      1161.064
  24759074.114    99694549.199 9      1191.350    24759075.012    98427249.595 9
      1176.216
  24629415.977   129428470.065 9      1721.987
                                  24629418.576    96651134.845 8      1285.943
  24629417.060    99172468.016 9      1319.484    24629418.050    97911805.962 9
      1302.733
  26817734.517   140928179.337 8      3223.673
                                  26817735.561   105238589.603 8      2407.284
  26817734.922   107983938.695 8      2470.073    26817735.758   106611263.684 8
      2438.725
 23 12  8 17 49  0.0000000  0 18G06G11G12G18G25G26G28G29G31G32E04E05
                                E09E13E21E26E31E33

                                  25327618.230    99391018.427 4     -2326.104


  23489977.855   123440675.206 8     -1593.525    23489976.580    96187538.24847
     -1241.711    23489976.736    23489979.106    92179729.038 9     -1189.921


  23137773.536   121589815.004 8     -3071.603    23137771.796    94745306.32148
     -2393.458    23137772.267


  25305550.924   132981587.182 6      3753.466    25305551.110   103622013.35746
      2924.785    25305551.269    25305555.413    99304441.458 8      2802.894


  20376212.649   107077721.516 9     -1583.628    20376213.477    83437188.72749
     -1233.996    20376213.965    20376212.775    79960637.917 9     -1182.649


  24020257.033   126227323.494 7      3262.865    24020260.123    98358974.67046
      2542.495    24020260.136    24020257.695    94260666.007 7      2436.470


  20841020.599   109520313.897 9       996.622    20841019.231    85340504.97748
       776.588    20841019.358    20841022.232    81784656.189 9       744.278


  20526154.782   107865682.651 9       921.800    20526153.270    84051181.32249
       718.286    20526153.764


  21973914.992   115473723.315 9      2344.951    21973913.137    89979527.86847
      1827.235    21973913.438


  24127377.647   126790217.774 7     -3085.726    24127379.657    98797571.88246
     -2404.462    24127379.857    24127377.384    94681002.038 7     -2304.219


  27145891.331   142652615.062 8     -2877.740
                                  27145894.231   106526302.662 7     -2149.057
  27145892.126   109305248.424 7     -2205.067    27145893.079   107915777.578 8
     -2177.070
  26340880.239   138422280.278 6      1375.957
                                  26340882.919   103367284.620 7      1027.526
  26340881.173   106063819.837 8      1054.383    26340882.496   104715555.756 8
      1041.045
  26171137.824   137530262.730 8     -1166.596
                                  26171140.443   102701171.515 8      -871.100
  26171138.807   105380332.004 8      -893.959    26171139.743   104040756.290 9
      -882.507
  26127135.445   137299030.007 8     -1359.717
                                  26127138.286   102528498.954 8     -1015.490
  26127136.897   105203154.897 8     -1041.980    26127137.854   103865831.460 9
     -1028.780
  26716061.945   140393849.612 8     -2308.728
                                  26716064.790   104839562.227 8     -1723.998
  26716063.345   107574507.092 8     -1769.048    26716064.230   106207039.191 8
     -1746.469
  24750235.844   130063387.986 9      1541.517
                                  24750236.605    97125259.214 9      1151.195
  24750235.170    99658958.641 9      1181.138    24750236.079    98392111.460 9
      1166.181
  24619597.097   129376871.575 9      1717.702
                                  24619599.678    96612603.525 8      1282.629
  24619598.182    99132931.532 9      1316.095    24619599.163    97872772.061 9
      1299.375
  26799338.768   140831509.199 8      3220.632
                                  26799339.898   105166400.915 8      2405.150
  26799339.135   107909866.818 8      2467.775    26799340.013   106538133.403 8
      2436.464
 23 12  8 17 49 30.0000000  0 18G06G11G12G18G25G26G28G29G31G32E04E05
                                E09E13E21E26E31E33

                                  25345425.941    99460895.15613     -2332.625


  23499125.094   123488744.188 8     -1611.024    23499123.779    96224994.60747
     -1255.344    23499123.935    23499126.351    92215624.720 8     -1203.065


  23155321.501   121682030.203 8     -3076.434    23155319.734    94817162.32648
     -2397.221    23155320.202


  25284118.372   132868958.883 7      3755.530    25284118.514   103534251.17146
      2926.392    25284118.668    25284122.842    99220336.054 8      2804.287


  20385287.385   107125409.446 9     -1595.481    20385288.227    83474348.13349
     -1243.232    20385288.719    20385287.503    79996249.015 9     -1191.338


  24001637.988   126129479.968 7      3260.231    24001641.067    98282733.02346
      2540.441    24001641.082    24001638.541    94187601.109 8      2434.700


  20835383.005   109490688.140 9       978.511    20835381.623    85317419.97548
       762.476    20835381.747    20835384.617    81762533.062 9       730.725


  20520941.316   107838285.673 9       904.860    20520939.794    84029833.03249
       705.086    20520940.289


  21960567.967   115403584.326 9      2331.169    21960566.088    89924874.12347
      1816.497    21960566.388


  24145009.211   126882872.066 8     -3091.361    24145011.210    98869769.99246
     -2408.854    24145011.405    24145008.876    94750191.893 7     -2308.329


  27162329.095   142738995.802 8     -2880.745
                                  27162331.948   106590807.702 7     -2151.254
  27162329.859   109371436.212 7     -2207.344    27162330.825   107981123.993 8
     -2179.335
  26333060.810   138381189.152 6      1363.447
                                  26333063.480   103336599.711 7      1018.150
  26333061.809   106032334.467 8      1044.697    26333063.113   104684470.625 8
      1031.379
  26177835.600   137565459.910 8     -1179.790
                                  26177838.231   102727455.124 8      -881.003
  26177836.623   105407301.270 8      -903.906    26177837.540   104067382.732 9
      -892.442
  26134936.854   137340026.410 8     -1373.148
                                  26134939.694   102559113.144 8     -1025.402
  26134938.245   105234567.728 8     -1052.163    26134939.208   103896844.969 9
     -1038.763
  26729249.501   140463150.537 8     -2311.192
                                  26729252.330   104891312.898 8     -1725.956
  26729250.878   107627607.769 8     -1770.922    26729251.778   106259464.873 8
     -1748.470
  24741473.333   130017340.790 9      1528.472
                                  24741474.111    97090873.346 9      1141.408
  24741472.654    99623675.734 9      1171.157    24741473.585    98357277.078 9
      1156.252
  24609803.415   129325405.510 9      1713.580
                                  24609805.973    96574171.091 8      1279.591
  24609804.514    99093496.513 9      1312.988    24609805.481    97833838.336 9
      1296.314
  26780960.689   140734932.022 8      3218.020
                                  26780961.904   105094281.673 8      2402.922
  26780961.006   107835866.177 8      2465.677    26780961.926   106465073.459 8
      2434.316
 23 12  8 17 50  0.0000000  0 17G11G12G18G25G26G28G29G31G32E04E05E09
                                E13E21E26E31E33
  23508374.126   123537348.075 7     -1629.465    23508372.783    96262867.76147
     -1269.714    23508372.937    23508375.393    92251919.831 8     -1216.797


  23172898.264   121774396.642 8     -3082.112    23172896.475    94889136.15948
     -2401.646    23172896.944


  25262677.370   132756286.155 7      3756.113    25262677.472   103446454.36045
      2926.846    25262677.620    25262681.847    99136197.462 8      2804.872


  20394430.346   107173456.017 9     -1607.983    20394431.197    83511787.02349
     -1252.974    20394431.687    20394430.456    80032127.957 9     -1200.736


  23983034.248   126031716.910 7      3256.863    23983037.305    98206554.08646
      2537.818    23983037.325    23983034.718    94114596.319 7      2432.209


  20829850.731   109461615.832 9       959.381    20829849.332    85294766.23148
       747.569    20829849.456    20829852.323    81740823.213 9       716.537


  20515825.302   107811400.833 9       887.186    20515823.780    84008883.80949
       691.314    20515824.279


  21947301.021   115333866.103 9      2316.514    21947299.114    89870548.24548
      1805.077    21947299.404


  24162673.678   126975699.312 7     -3097.517    24162675.660    98942102.87246
     -2413.652    24162675.860    24162673.287    94819510.901 8     -2313.085


  27178785.947   142825476.862 8     -2884.701
                                  27178788.734   106655387.657 7     -2154.081
  27178786.704   109437700.885 7     -2210.355    27178787.662   108046546.307 8
     -2182.212
  26325314.465   138340482.252 6      1350.325
                                  26325317.134   103306201.743 7      1008.108
  26325315.544   106001143.501 8      1034.521    26325316.828   104653676.155 8
      1021.326
  26184609.392   137601056.552 8     -1193.539
                                  26184612.034   102754037.045 8      -891.337
  26184610.432   105434576.632 8      -914.548    26184611.344   104094311.369 8
      -902.918
  26142815.849   137381430.558 8     -1387.345
                                  26142818.688   102590031.821 8     -1035.914
  26142817.177   105266292.999 8     -1063.002    26142818.155   103928166.945 9
     -1049.445
  26742453.175   140532536.263 8     -2314.588
                                  26742455.975   104943126.923 8     -1728.602
  26742454.517   107680773.454 8     -1773.549    26742455.429   106311954.719 8
     -1751.007
  24732787.423   129971696.184 9      1514.330
                                  24732788.206    97056788.121 9      1130.877
  24732786.726    99588701.323 9      1160.335    24732787.673    98322747.254 9
      1145.656
  24600034.997   129274072.221 9      1708.449
                                  24600037.535    96535837.804 8      1275.780
  24600036.122    99054163.230 9      1309.114    24600037.071    97795005.047 9
      1292.482
  26762600.661   140638449.643 8      3214.036
                                  26762601.969   105022233.198 8      2400.061
  26762600.974   107761938.191 8      2462.695    26762601.900   106392085.229 9
      2431.412
 23 12  8 17 50 30.0000000  0 17G11G12G18G25G26G28G29G31G32E04E05E09
                                E13E21E26E31E33
  23517724.652   123586485.317 8     -1646.577    23517723.296    96301156.51047
     -1283.046    23517723.450    23517725.924    92288613.214 8     -1229.482


  23190503.550   121866913.010 8     -3086.034    23190501.744    94961226.82248
     -2404.703    23190502.215


  25241228.384   132643571.573 6      3758.039    25241228.444   103358624.93946
      2928.347    25241228.589    25241232.885    99052027.635 8      2806.396


  20403641.443   107221860.592 9     -1619.118    20403642.305    83549504.86249
     -1261.651    20403642.796    20403641.557    80068274.222 9     -1209.077


  23964446.020   125934035.408 7      3255.154    23964449.058    98130438.72546
      2536.486    23964449.080    23964446.422    94041652.446 7      2430.692


  20824424.054   109433098.437 9       941.610    20824422.639    85272544.88748
       733.722    20824422.762    20824425.634    81719527.769 9       703.204


  20510806.828   107785028.614 9       870.802    20510805.312    83988334.03749
       678.548    20510805.811


  21934114.629   115264571.128 9      2303.001    21934112.692    89816552.16048
      1794.546    21934112.981


  24180370.461   127068696.506 8     -3102.577    24180372.415    99014568.19945
     -2417.593    24180372.605    24180370.028    94888956.797 8     -2316.629


  27195261.501   142912056.295 8     -2887.243
                                  27195264.184   106720041.110 7     -2156.077
  27195262.241   109504040.949 8     -2212.276    27195263.192   108112043.067 8
     -2184.190
  26317641.532   138300160.865 7      1337.758
                                  26317644.211   103276091.581 7       999.177
  26317642.703   105970247.847 8      1025.201    26317643.974   104623173.247 8
      1012.142
  26191459.016   137637051.666 8     -1206.148
                                  26191461.672   102780916.520 8      -900.727
  26191460.064   105462157.299 8      -924.227    26191460.976   104121541.441 9
      -912.447
  26150772.218   137423241.354 8     -1400.064
                                  26150775.057   102621254.188 8     -1045.547
  26150773.489   105298329.851 8     -1072.767    26150774.485   103959796.551 9
     -1059.124
  26755672.998   140602006.706 8     -2316.790
                                  26755675.771   104995004.176 8     -1730.012
  26755674.312   107734004.031 8     -1775.243    26755675.235   106364508.637 8
     -1752.639
  24724178.379   129926455.428 9      1501.621
                                  24724179.174    97023004.464 9      1121.393
  24724177.666    99554036.346 9      1150.602    24724178.626    98288522.939 9
      1135.965
  24590291.940   129222872.195 9      1704.753
                                  24590294.457    96497604.028 9      1273.088
  24590293.089    99014932.060 9      1306.216    24590294.029    97756272.577 9
      1289.646
  26744259.039   140542064.070 8      3211.501
                                  26744260.442   104950257.027 8      2398.195
  26744259.359   107688084.367 8      2460.826    26744260.289   106319170.233 9
      2429.484
 23 12  8 17 51  0.0000000  0 17G11G12G18G25G26G28G29G31G32E04E05E09
                                E13E21E26E31E33
  23527176.607   123636155.613 7     -1664.279    23527175.241    96339860.62847
     -1296.841    23527175.396    23527177.881    92325704.662 8     -1242.901


  23208137.623   121959580.606 8     -3091.212    23208135.815    95033435.30948
     -2408.739    23208136.289


  25219772.228   132530819.178 6      3759.260    25219772.254   103270766.03146
      2929.296    25219772.406    25219776.768    98967829.532 8      2807.201


  20412920.774   107270623.818 9     -1631.182    20412921.647    83587502.18449
     -1271.052    20412922.139    20412920.890    80104688.324 9     -1218.110


  23945873.784   125836437.982 6      3252.152    23945876.795    98054388.86246
      2534.144    23945876.819    23945874.137    93968771.363 8      2428.468


  20819103.506   109405138.753 9       922.934    20819102.081    85250758.12248
       719.169    20819102.204    20819105.078    81698648.787 9       689.145


  20505886.101   107759170.058 9       853.588    20505884.594    83968184.51649
       665.134    20505885.092


  21921009.452   115195702.998 9      2288.702    21921007.482    89762888.69947
      1783.404    21921007.771


  24198099.243   127161861.901 7     -3107.979    24198101.161    99087164.60346
     -2421.804    24198101.340    24198098.791    94958528.355 7     -2321.023


  27211755.673   142998733.501 8     -2890.635
                                  27211758.234   106784767.565 7     -2158.671
  27211756.407   109570455.920 8     -2214.916    27211757.340   108177613.776 8
     -2186.727
  26310042.421   138260227.287 7      1324.958
                                  26310045.088   103246271.004 7       989.387
  26310043.664   105939649.341 8      1015.151    26310044.919   104592963.705 8
      1002.238
  26198384.526   137673445.467 8     -1219.641
                                  26198387.212   102808093.701 8      -910.781
  26198385.576   105490043.439 8      -934.517    26198386.486   104149073.104 9
      -922.607
  26158805.990   137465458.931 8     -1413.947
                                  26158808.819   102652780.302 8     -1055.790
  26158807.221   105330678.386 8     -1083.368    26158808.222   103991733.877 9
     -1069.587
  26768909.155   140671563.067 8     -2319.817
                                  26768911.909   105046945.613 8     -1732.270
  26768910.431   107787300.451 8     -1777.429    26768911.358   106417127.567 8
     -1754.918
  24715646.693   129881621.086 9      1487.931
                                  24715647.501    96989524.289 9      1111.072
  24715645.967    99519682.769 9      1140.113    24715646.932    98254606.058 9
      1125.635
  24580574.595   129171807.316 9      1700.153
                                  24580577.096    96459471.179 9      1269.624
  24580575.762    98975804.443 9      1302.694    24580576.700    97717642.346 9
      1286.147
  26725936.482   140445778.634 8      3207.965
                                  26725937.968   104878355.619 8      2395.621
  26725936.786   107614307.267 8      2458.044    26725937.746   106246330.975 9
      2426.865
 23 12  8 17 51 30.0000000  0 17G11G12G18G25G26G28G29G31G32E04E05E09
                                E13E21E26E31E33
  23536729.542   123686356.750 7     -1682.309    23536728.172    96378978.41847
     -1310.889    23536728.325    23536730.800    92363192.543 8     -1256.153


  23225800.056   122052397.284 8     -3096.355    23225798.260    95105759.96848
     -2412.745    23225798.733


  25198309.255   132418030.945 6      3760.184    25198309.241   103182879.19445
      2930.018    25198309.401    25198313.820    98883604.672 8      2807.979


  20422268.116   107319744.419 9     -1643.330    20422269.004    83625777.97149
     -1280.516    20422269.497    20422268.234    80141369.291 9     -1227.087


  23927317.582   125738925.082 6      3249.029    23927320.568    97978404.91846
      2531.715    23927320.587    23927317.907    93895953.458 8      2426.276


  20813889.253   109377737.651 9       904.085    20813887.821    85229406.62048
       704.482    20813887.947    20813890.821    81678186.928 9       675.159


  20501063.121   107733825.199 9       836.301    20501061.618    83948435.28649
       651.663    20501062.117


  21907985.837   115127263.491 9      2274.164    21907983.834    89709559.23148
      1772.076    21907984.123


  24215859.397   127255191.937 8     -3113.759    24215861.301    99159889.24646
     -2426.308    24215861.464    24215858.948    95028222.807 8     -2325.095


  27228267.994   143085505.951 8     -2893.965
                                  27228270.441   106849565.111 7     -2160.988
  27228268.744   109636943.874 8     -2217.419    27228269.646   108243256.529 8
     -2189.179
  26302517.258   138220682.011 7      1311.862
                                  26302519.914   103216740.332 7       979.654
  26302518.560   105909348.306 8      1005.177    26302519.799   104563047.860 8
       992.353
  26205385.568   137710236.244 8     -1232.838
                                  26205388.284   102835567.350 8      -920.644
  26205386.598   105518233.786 8      -944.681    26205387.511   104176905.104 9
      -932.673
  26166916.794   137508081.477 8     -1427.391
                                  26166919.597   102684608.849 8     -1065.947
  26166917.996   105363337.237 8     -1093.735    26166918.976   104023977.580 9
     -1079.910
  26782161.533   140741204.621 8     -2322.700
                                  26782164.285   105098950.660 8     -1734.470
  26782162.765   107840662.170 8     -1779.712    26782163.700   106469810.944 8
     -1757.018
  24707192.465   129837193.738 9      1474.166
                                  24707193.265    96956348.030 9      1100.840
  24707191.730    99485641.053 9      1129.587    24707192.692    98220997.076 9
      1115.226
  24570882.941   129120877.445 9      1695.549
                                  24570885.437    96421439.150 9      1266.140
  24570884.129    98936780.277 9      1299.138    24570885.060    97679114.246 9
      1282.674
  26707633.268   140349594.743 8      3204.434
                                  26707634.817   104806530.013 8      2392.929
  26707633.533   107540607.939 8      2455.431    26707634.551   106173568.509 8
      2424.238
 23 12  8 17 52  0.0000000  0 17G11G12G18G25G26G28G29G31G32E04E05E09
                                E13E21E26E31E33
  23546382.747   123737084.708 7     -1699.782    23546381.397    96418506.66947
     -1324.507    23546381.552    23546384.006    92401073.803 8     -1269.331


  23243490.291   122145360.089 8     -3101.234    23243488.510    95178198.50148
     -2416.546    23243488.982


  25176839.515   132305207.179 5      3761.498    25176839.463   103094964.68245
      2931.042    25176839.614    25176844.087    98799353.292 8      2808.741


  20431682.884   107369219.343 9     -1655.108    20431683.783    83664329.85549
     -1289.695    20431684.278    20431683.002    80178314.851 9     -1236.004


  23908777.239   125641495.465 7      3246.124    23908780.211    97902485.86545
      2529.450    23908780.222    23908777.565    93823197.722 8      2424.040


  20808781.103   109350894.137 9       885.371    20808779.672    85208489.60248
       689.899    20808779.801    20808782.670    81658141.457 9       661.143


  20496337.384   107708991.382 9       819.124    20496335.881    83929084.27449
       638.279    20496336.379


  21895043.774   115059252.542 9      2259.688    21895041.749    89656563.70048
      1760.797    21895042.042


  24233649.826   127348681.085 8     -3119.187    24233651.721    99232737.89346
     -2430.535    24233651.877    24233649.378    95098036.091 8     -2329.237


  27244797.592   143172369.259 8     -2897.107
                                  27244799.944   106914430.523 7     -2163.393
  27244798.360   109703501.442 8     -2219.816    27244799.233   108308968.024 8
     -2191.689
  26295065.754   138181524.166 6      1298.602
                                  26295068.382   103187499.097 8       969.748
  26295067.074   105879344.240 8       995.073    26295068.288   104533425.195 8
       982.433
  26212461.502   137747420.521 8     -1246.115
                                  26212464.260   102863334.837 8      -930.566
  26212462.512   105546725.640 8      -954.862    26212463.421   104205034.773 9
      -942.741
  26175104.027   137551105.486 8     -1440.883
                                  26175106.822   102716737.168 8     -1075.982
  26175105.238   105396303.708 8     -1104.148    26175106.185   104056524.971 9
     -1090.017
  26795429.661   140810928.890 8     -2325.725
                                  26795432.428   105151017.462 8     -1736.639
  26795430.837   107894087.235 8     -1781.929    26795431.799   106522556.885 8
     -1759.294
  24698815.453   129793172.207 9      1460.550
                                  24698816.225    96923474.821 9      1090.583
  24698814.692    99451910.277 9      1119.100    24698815.653    98187695.086 9
      1104.832
  24561216.646   129070080.743 9      1690.847
                                  24561219.143    96383506.556 9      1262.652
  24561217.849    98897858.130 9      1295.609    24561218.770    97640686.878 9
      1279.122
  26689349.277   140253511.986 8      3200.973
                                  26689350.869   104734779.961 8      2390.284
  26689349.496   107466986.132 8      2452.632    26689350.568   106100882.585 8
      2421.444
 23 12  8 17 52 30.0000000  0 17G11G12G18G25G26G28G29G31G32E04E05E09
                                E13E21E26E31E33
  23556136.027   123788338.783 7     -1717.381    23556134.701    96458444.92247
     -1338.219    23556134.860    23556137.281    92439347.980 8     -1282.581


  23261208.343   122238469.035 7     -3106.304    23261206.577    95250750.90947
     -2420.498    23261207.044


  25155363.684   132192351.395 5      3762.161    25155363.606   103007025.21645
      2931.555    25155363.749    25155368.265    98715077.994 8      2809.253


  20441165.144   107419048.966 9     -1667.161    20441166.052    83703158.12949
     -1299.086    20441166.548    20441165.258    80215525.286 9     -1245.056


  23890253.151   125544151.260 6      3243.088    23890256.095    97826633.36146
      2527.088    23890256.104    23890253.474    93750505.765 8      2421.698


  20803779.520   109324610.632 9       866.465    20803778.095    85188008.95448
       675.168    20803778.227    20803781.082    81638514.172 9       646.972


  20491709.149   107684669.949 9       801.837    20491707.642    83910132.52449
       624.809    20491708.141


  21882183.859   114991673.280 9      2245.087    21882181.824    89603904.54748
      1749.419    21882182.116


  24251470.171   127442327.380 8     -3124.543    24251472.057    99305708.99346
     -2434.711    24251472.210    24251469.726    95167966.710 8     -2333.292


  27261344.294   143259322.483 8     -2900.237
                                  27261346.565   106979363.094 7     -2165.802
  27261345.083   109770127.909 8     -2222.348    27261345.917   108374747.537 8
     -2194.048
  26287688.338   138142755.656 6      1285.402
                                  26287690.987   103158548.588 8       959.901
  26287689.687   105849638.484 8       984.953    26287690.873   104504097.067 8
       972.442
  26219612.299   137784998.184 9     -1259.526
                                  26219615.104   102891396.085 8      -940.585
  26219613.297   105575518.931 8      -965.160    26219614.191   104233462.041 9
      -952.879
  26183367.588   137594530.722 8     -1454.449
                                  26183370.362   102749165.121 8     -1086.245
  26183368.802   105429577.604 8     -1114.538    26183369.730   104089375.895 9
     -1100.392
  26808713.667   140880736.723 8     -2328.633
                                  26808716.450   105203146.692 8     -1738.973
  26808714.792   107947576.371 8     -1784.368    26808715.780   106575366.067 8
     -1761.668
  24690516.079   129749558.676 9      1446.602
                                  24690516.832    96890906.298 9      1080.212
  24690515.282    99418492.132 9      1108.407    24690516.260    98154701.747 9
      1094.306
  24551575.971   129019418.689 9      1686.153
                                  24551578.468    96345674.528 9      1259.092
  24551577.181    98859039.179 9      1291.951    24551578.089    97602361.390 9
      1275.509
  26671085.106   140157533.334 8      3197.068
                                  26671086.760   104663107.620 8      2387.579
  26671085.316   107393444.072 8      2449.759    26671086.414   106028275.377 8
      2418.690
 23 12  8 17 53  0.0000000  0 17G11G12G18G25G26G28G29G31G32E04E05E09
                                E13E21E26E31E33
  23565989.351   123840118.581 8     -1734.481    23565988.059    96498792.82846
     -1351.543    23565988.221    23565990.610    92478014.717 8     -1295.301


  23278954.263   122331724.395 7     -3110.740    23278952.521    95323417.39647
     -2423.955    23278952.984


  25133882.505   132079467.459 5      3763.475    25133882.407   102919063.79645
      2932.582    25133882.535    25133887.103    98630781.658 8      2810.214


  20450714.998   107469233.805 9     -1678.665    20450715.919    83742263.18849
     -1308.051    20450716.415    20450715.112    80253000.970 9     -1253.585


  23871745.724   125446894.751 7      3240.616    23871748.622    97750849.21046
      2525.162    23871748.620    23871746.027    93677879.338 8      2419.842


  20798885.004   109298889.742 9       848.080    20798883.590    85167966.69848
       660.842    20798883.727    20798886.559    81619307.018 9       633.235


  20487178.612   107660861.906 9       785.206    20487177.098    83891580.81649
       611.850    20487177.594


  21869406.839   114924529.621 9      2230.909    21869404.801    89551584.82348
      1738.372    21869405.096


  24269320.070   127536128.940 8     -3129.149    24269321.952    99378801.07446
     -2438.299    24269322.102    24269319.651    95238013.271 8     -2336.794


  27277907.983   143346364.890 8     -2902.835
                                  27277910.201   107044362.239 7     -2167.680
  27277908.809   109836822.706 8     -2224.240    27277909.600   108440594.510 8
     -2195.958
  26280385.387   138104378.779 6      1272.816
                                  26280388.086   103129890.605 7       950.469
  26280386.775   105820232.877 8       975.223    26280387.912   104475065.270 8
       962.861
  26226837.978   137822969.292 9     -1272.261
                                  26226840.823   102919751.133 8      -950.053
  26226838.962   105604613.672 8      -974.819    26226839.839   104262186.940 9
      -962.433
  26191707.484   137638357.184 8     -1467.446
                                  26191710.228   102781892.688 8     -1095.930
  26191708.717   105463158.924 8     -1124.437    26191709.614   104122530.336 9
     -1110.149
  26822013.801   140950629.224 8     -2331.104
                                  26822016.603   105255339.124 8     -1740.769
  26822014.883   108001130.352 8     -1786.175    26822015.901   106628239.273 8
     -1763.520
  24682294.779   129706355.534 9      1433.320
                                  24682295.506    96858644.227 9      1070.331
  24682293.948    99385388.451 9      1098.266    24682294.936    98122018.873 9
      1084.292
  24541961.262   128968893.002 9      1681.968
                                  24541963.755    96307944.317 9      1256.014
  24541962.474    98820324.702 9      1288.795    24541963.367    97564139.042 9
      1272.439
  26652841.334   140061662.015 8      3193.900
                                  26652843.051   104591515.463 8      2385.047
  26652841.532   107319984.267 8      2447.257    26652842.651   105955749.400 8
      2416.185
 23 12  8 17 53 30.0000000  0 17G11G12G18G25G26G28G29G31G32E04E05E09
                                E13E21E26E31E33
  23575942.374   123892422.290 7     -1752.384    23575941.110    96539548.98347
     -1365.493    23575941.272    23575943.642    92517072.687 8     -1308.428


  23296727.920   122425125.557 7     -3115.761    23296726.198    95396197.51347
     -2427.866    23296726.661


  25112396.459   131966557.917 5      3764.245    25112396.332   102831082.39845
      2933.179    25112396.456    25112401.081    98546466.196 8      2810.807


  20460332.288   107519773.055 9     -1690.653    20460333.216    83781644.41949
     -1317.392    20460333.709    20460332.396    80290741.317 9     -1262.534


  23853255.242   125349727.069 7      3237.351    23853258.110    97675134.25846
      2522.615    23853258.102    23853255.527    93605319.187 8      2417.463


  20794097.790   109273732.746 9       829.017    20794096.389    85148363.84448
       645.987    20794096.528    20794099.325    81600520.944 9       619.141


  20482745.788   107637567.341 9       767.850    20482744.275    83873429.21849
       598.325    20482744.771


  21856713.090   114857823.528 9      2216.136    21856711.060    89499606.05248
      1726.859    21856711.357


  24287198.927   127630082.650 8     -3134.467    24287200.800    99452011.71046
     -2442.445    24287200.948    24287198.556    95308173.422 8     -2340.570


  27294488.233   143433494.395 8     -2905.770
                                  27294490.423   107109426.445 7     -2169.921
  27294489.093   109903584.248 8     -2226.592    27294489.842   108506507.381 8
     -2198.266
  26273157.183   138066394.480 6      1259.540
                                  26273159.969   103101525.716 7       940.577
  26273158.636   105791128.015 8       965.193    26273159.707   104446330.398 8
       952.882
  26234138.287   137861332.580 9     -1285.396
                                  26234141.167   102948399.041 8      -959.852
  26234139.275   105634008.935 8      -984.919    26234140.122   104291208.521 9
      -972.355
  26200123.472   137682583.559 8     -1480.931
                                  26200126.182   102814918.888 8     -1105.927
  26200124.733   105497046.671 8     -1134.741    26200125.590   104155987.315 9
     -1120.340
  26835329.993   141020606.157 8     -2333.932
                                  26835332.818   105307594.599 8     -1742.932
  26835331.052   108054749.030 8     -1788.516    26835332.099   106681176.344 8
     -1765.674
  24674151.780   129663563.857 9      1419.532
                                  24674152.490    96826689.430 9      1059.976
  24674150.946    99352600.060 9      1087.584    24674151.933    98089647.279 9
      1073.780
  24532372.602   128918504.153 9      1677.265
                                  24532375.073    96270316.295 9      1252.506
  24532373.798    98781715.071 9      1285.209    24532374.682    97526020.216 9
      1268.907
  26634618.356   139965899.875 8      3190.277
                                  26634620.134   104520004.807 8      2382.287
  26634618.554   107246608.123 8      2444.403    26634619.686   105883305.993 8
      2413.438
 23 12  8 17 54  0.0000000  0 18G04G11G12G18G25G26G28G29G31G32E04E05
                                E09E13E21E26E31E33
  25531611.251                        2435.737
                                  25531611.796   100191524.80216      1818.907


  23585994.262   123945245.428 8     -1769.551    23585993.020    96580709.88047
     -1378.873    23585993.179    23585995.542    92556518.574 8     -1321.452


  23314528.595   122518668.561 8     -3120.462    23314526.909    95469088.12247
     -2431.529    23314527.372


  25090905.520   131853622.683 5      3765.023    25090905.379   102743081.01845
      2933.787    25090905.484    25090910.175    98462131.543 8      2811.316


  20470016.375   107570663.303 9     -1702.421    20470017.307    83821299.14949
     -1326.562    20470017.799    20470016.474    80328743.760 9     -1271.215


  23834781.315   125252646.490 7      3234.390    23834784.148    97599487.20446
      2520.309    23834784.134    23834781.563    93532824.115 8      2415.363


  20789417.599   109249138.218 9       810.269    20789416.217    85129199.28548
       631.379    20789416.356    20789419.104    81582154.908 9       605.022


  20478410.169   107614783.573 9       750.748    20478408.664    83855675.63949
       584.998    20478409.162


  21844102.537   114791554.693 9      2201.509    21844100.518    89447968.01448
      1715.462    21844100.814


  24305105.623   127724182.662 8     -3139.240    24305107.498    99525336.34546
     -2446.162    24305107.646    24305105.333    95378442.878 8     -2344.230


  27311084.156   143520706.285 8     -2908.687
                                  27311086.351   107174552.165 7     -2172.053
  27311085.057   109970408.900 8     -2228.728    27311085.767   108572482.567 8
     -2200.360
  26266003.398   138028801.100 7      1246.285
                                  26266006.256   103073452.710 7       930.755
  26266004.934   105762322.689 8       954.966    26266005.921   104417891.230 8
       942.882
  26241512.487   137900084.135 9     -1298.344
                                  26241515.398   102977336.882 8      -969.539
  26241513.476   105663701.694 8      -994.901    26241514.304   104320523.822 9
      -982.222
  26208614.807   137727205.849 8     -1494.265
                                  26208617.503   102848240.714 8     -1115.805
  26208616.102   105531237.783 8     -1144.928    26208616.926   104189743.783 9
     -1130.336
  26848661.696   141090664.651 8     -2336.949
                                  26848664.536   105359910.982 8     -1745.026
  26848662.749   108108430.173 8     -1790.477    26848663.817   106734175.115 9
     -1767.774
  24666086.763   129621182.001 9      1405.679
                                  24666087.453    96795040.652 9      1049.685
  24666085.925    99320125.654 9      1077.100    24666086.919    98057585.685 9
      1063.424
  24522809.539   128868249.862 9      1672.692
                                  24522811.987    96232788.764 9      1249.091
  24522810.709    98743208.549 9      1281.734    24522811.591    97488003.192 9
      1265.394
  26616416.013   139870246.200 8      3186.419
                                  26616417.827   104448575.157 8      2379.458
  26616416.211   107173315.083 8      2441.586    26616417.360   105810944.651 8
      2410.536
 23 12  8 17 54 30.0000000  0 18G04G11G12G18G25G26G28G29G31G32E04E05
                                E09E13E21E26E31E33
  25517743.808   134096654.32614      2422.314
                  25517743.914    25517746.941   100137104.623 6      1809.117


  23596145.694   123998591.581 7     -1786.781    23596144.473    96622278.31647
     -1392.296    23596144.628    23596146.984    92596355.013 8     -1334.360


  23332357.085   122612357.838 7     -3125.305    23332355.433    95542092.72948
     -2435.303    23332355.897


  25069411.190   131740669.656 6      3765.661    25069411.021   102655065.74945
      2934.284    25069411.108    25069415.876    98377783.607 8      2811.781


  20479768.126   107621909.149 9     -1714.241    20479769.053    83861230.97749
     -1335.773    20479769.543    20479768.210    80367011.757 9     -1280.030


  23816325.189   125155659.470 7      3231.272    23816327.983    97523913.04946
      2517.881    23816327.964    23816325.387    93460398.917 8      2413.016


  20784845.708   109225112.821 9       791.335    20784844.353    85110478.20448
       616.625    20784844.494    20784847.186    81564213.875 9       590.922


  20474172.782   107592516.000 9       733.576    20474171.287    83838324.28549
       571.617    20474171.787


  21831576.555   114725730.350 9      2186.778    21831574.550    89396676.34248
      1703.984    21831574.850


  24323040.586   127818431.261 8     -3143.946    24323042.483    99598776.76246
     -2449.830    24323042.631    24323040.384    95448823.311 7     -2347.798


  27327696.379   143608003.960 8     -2911.347
                                  27327698.594   107239741.960 7     -2174.057
  27327697.322   110037299.281 8     -2230.752    27327697.997   108638522.651 8
     -2202.345
  26258925.213   137991604.957 7      1233.250
                                  26258928.107   103045676.336 7       920.952
  26258926.832   105733821.724 8       945.099    26258927.736   104389752.562 8
       933.032
  26248961.364   137939228.129 9     -1311.382
                                  26248964.291   103006567.781 8      -979.160
  26248962.355   105693695.144 8     -1004.733    26248963.169   104350135.995 9
      -991.913
  26217182.253   137772228.158 8     -1507.535
                                  26217184.941   102881861.264 8     -1125.682
  26217183.572   105565735.413 8     -1154.983    26217184.390   104223802.873 9
     -1140.292
  26862009.883   141160809.841 8     -2339.585
                                  26862012.723   105412292.124 8     -1747.071
  26862010.957   108162177.781 8     -1792.678    26862012.012   106787239.488 8
     -1769.899
  24658100.935   129579216.413 9      1391.976
                                  24658101.594    96763702.744 9      1039.470
  24658100.082    99287970.238 9      1066.546    24658101.089    98025839.026 9
      1053.002
  24513273.192   128818135.971 9      1668.082
                                  24513275.620    96195366.067 9      1245.698
  24513274.339    98704809.602 9      1278.143    24513275.223    97450092.369 9
      1261.932
  26598235.695   139774708.241 8      3182.543
                                  26598237.529   104377231.910 8      2376.670
  26598235.916   107100110.721 8      2438.671    26598237.066   105738670.851 8
      2407.677
 23 12  8 17 55  0.0000000  0 18G04G11G12G18G25G26G28G29G31G32E04E05
                                E09E13E21E26E31E33
  25503949.824   134024170.550 5      2408.962    25503950.298   104434415.42554
      1877.115    25503950.529    25503953.642   100082977.121 6      1799.197


  23606394.922   124052451.610 8     -1804.065    23606393.714    96664247.17746
     -1405.767    23606393.862    23606396.213    92636575.155 8     -1347.139


  23350211.835   122706185.172 7     -3130.058    23350210.210    95615204.92347
     -2439.006    23350210.674


  25047912.608   131627694.112 6      3766.445    25047912.398   102567032.90345
      2934.892    25047912.469    25047917.327    98293418.819 8      2812.379


  20489586.004   107673502.495 9     -1725.756    20489586.919    83901433.58749
     -1344.745    20489587.407    20489586.068    80405539.249 9     -1288.616


  23797885.673   125058759.707 7      3228.278    23797888.442    97448406.90246
      2515.548    23797888.417    23797885.816    93388038.874 8      2410.825


  20780380.950   109201650.395 9       772.497    20780379.621    85092195.79748
       601.946    20780379.762    20780382.405    81546693.230 9       576.958


  20470032.220   107570757.240 9       716.628    20470030.730    83821369.41049
       558.412    20470031.233


  21819134.221   114660345.573 9      2171.866    21819132.240    89345727.18048
      1692.364    21819132.540


  24341001.817   127912818.008 7     -3148.631    24341003.761    99672324.83046
     -2453.481    24341003.909    24341001.702    95519306.866 7     -2351.227


  27344323.130   143695377.971 8     -2913.757
                                  27344325.367   107304988.741 7     -2175.817
  27344324.125   110104248.149 8     -2232.657    27344324.765   108704620.482 8
     -2204.228
  26251921.413   137954799.775 7      1220.245
                                  26251924.297   103018191.948 7       911.060
  26251923.099   105705620.365 8       934.881    26251923.924   104361909.691 8
       922.983
  26256483.275   137978755.911 9     -1324.022
                                  26256486.198   103036085.272 8      -988.692
  26256484.279   105723982.672 8     -1014.546    26256485.078   104380038.506 9
     -1001.651
  26225824.135   137817641.742 8     -1520.375
                                  26225826.809   102915774.016 8     -1135.393
  26225825.473   105600532.840 8     -1164.934    26225826.301   104258157.963 9
     -1150.201
  26875373.149   141231034.228 8     -2342.185
                                  26875376.004   105464732.382 8     -1748.992
  26875374.250   108215986.056 8     -1794.687    26875375.295   106840363.750 9
     -1771.800
  24650193.136   129537660.782 9      1378.197
                                  24650193.777    96732670.956 9      1029.244
  24650192.280    99256128.929 9      1056.106    24650193.299    97994402.477 9
      1042.669
  24503762.242   128768155.552 9      1663.740
                                  24503764.645    96158043.038 9      1242.429
  24503763.357    98666512.924 9      1274.773    24503764.252    97412282.516 9
      1258.622
  26580076.362   139679280.554 8      3179.042
                                  26580078.204   104305971.026 8      2373.866
  26580076.592   107026990.834 8      2435.825    26580077.740   105666480.464 8
      2404.879
 23 12  8 17 55 30.0000000  0 18G04G11G12G18G25G26G28G29G31G32E04E05
                                E09E13E21E26E31E33
  25490232.410   133952086.620 5      2397.396    25490233.358   104378246.13344
      1868.105    25490233.375    25490236.387   100029148.273 6      1789.537


  23616742.644   124106829.186 8     -1820.671    23616741.435    96706619.31546
     -1418.704    23616741.585    23616743.944    92677181.784 8     -1359.543


  23368093.718   122800154.998 7     -3134.064    23368092.122    95688428.12947
     -2442.129    23368092.587


  25026411.288   131514704.164 6      3767.275    25026411.026   102478988.84645
      2935.539    25026411.090    25026416.043    98209043.277 8      2813.119


  20499470.919   107725448.076 9     -1736.771    20499471.813    83941910.66049
     -1353.328    20499472.301    20499470.966    80444329.780 9     -1296.907


  23779464.004   124961953.836 7      3225.777    23779466.751    97372973.91346
      2513.598    23779466.717    23779464.092    93315748.967 8      2408.843


  20776024.626   109178757.756 9       754.118    20776023.314    85074357.37448
       587.624    20776023.457    20776026.068    81529598.083 9       563.146


  20465989.495   107549512.597 9       700.198    20465988.005    83804815.14949
       545.609    20465988.511


  21806777.020   114595408.243 9      2157.732    21806775.062    89295126.69148
      1681.351    21806775.363


  24358989.746   128007345.245 7     -3152.644    24358991.759    99745982.39046
     -2456.607    24358991.912    24358989.720    95589895.380 7     -2354.246


  27360965.069   143782831.861 8     -2915.847
                                  27360967.325   107370295.182 7     -2177.429
  27360966.109   110171258.238 8     -2234.257    27360966.720   108770778.750 8
     -2205.888
  26244993.247   137918391.977 7      1207.696
                                  26244996.076   102991004.322 7       901.746
  26244994.965   105677723.510 8       925.213    26244995.729   104334367.445 8
       913.525
  26264079.040   138018671.773 9     -1336.388
                                  26264081.942   103065892.559 8      -997.955
  26264080.049   105754567.540 8     -1024.011    26264080.842   104410234.589 9
     -1011.008
  26234541.287   137863450.855 8     -1533.034
                                  26234543.955   102949982.126 8     -1144.704
  26234542.668   105635633.332 8     -1174.667    26234543.496   104292812.264 9
     -1159.693
  26888752.485   141301343.119 7     -2344.495
                                  26888755.359   105517235.757 8     -1750.664
  26888753.599   108269859.087 8     -1796.453    26888754.651   106893551.953 9
     -1773.555
  24642364.595   129496521.676 9      1364.928
                                  24642365.217    96701950.218 9      1019.239
  24642363.744    99224606.779 9      1045.846    24642364.765    97963281.032 9
      1032.551
  24494277.826   128718314.618 9      1659.572
                                  24494280.209    96120824.173 9      1239.329
  24494278.909    98628323.116 9      1271.666    24494279.815    97374578.177 9
      1255.524
  26561939.448   139583970.611 8      3175.514
                                  26561941.302   104234798.056 8      2371.291
  26561939.677   106953961.157 8      2433.242    26561940.822   105594379.134 8
      2402.318
 23 12  8 17 56  0.0000000  0 18G04G11G12G18G25G26G28G29G31G32E04E05
                                E09E13E21E26E31E33
  25476591.366   133880402.854 5      2382.576    25476592.490   104322388.70044
      1856.559    25476592.397    25476595.155    99975618.197 6      1779.201


  23627188.084   124161720.356 8     -1838.271    23627186.865    96749391.67646
     -1432.419    23627187.015    23627189.383    92718171.978 8     -1372.804


  23386002.210   122894264.732 8     -3139.360    23386000.632    95761760.37748
     -2446.253    23386001.095


  25004907.342   131401700.383 6      3766.872    25004907.034   102390934.03045
      2935.231    25004907.077    25004912.136    98124657.401 8      2812.779


  20509422.340   107777743.132 9     -1749.217    20509423.209    83982660.04849
     -1363.026    20509423.694    20509422.369    80483381.285 9     -1306.206


  23761060.021   124865240.862 7      3221.802    23761062.743    97297613.30946
      2510.501    23761062.703    23761060.055    93243528.423 8      2406.088


  20771776.562   109156434.035 9       734.397    20771775.257    85056962.26648
       572.257    20771775.401    20771778.001    81512927.776 9       548.464


  20462044.198   107528779.953 9       682.412    20462042.704    83788659.85449
       531.750    20462043.210


  21794504.962   114530918.293 9      2142.059    21794503.025    89244874.79648
      1669.138    21794503.326


  24377003.450   128102007.949 6     -3157.777    24377005.545    99819745.49846
     -2460.608    24377005.703    24377003.502    95660584.994 8     -2358.182


  27377621.413   143870361.517 8     -2919.142
                                  27377623.688   107435658.212 7     -2179.775
  27377622.496   110238326.400 7     -2236.768    27377623.078   108836994.340 8
     -2208.250
  26238140.516   137882380.466 7      1193.558
                                  26238143.267   102964112.612 8       891.338
  26238142.236   105650130.269 8       914.566    26238142.962   104307124.973 8
       902.980
  26271748.023   138058972.377 9     -1349.961
                                  26271750.899   103095987.149 8     -1008.015
  26271749.040   105785447.214 8     -1034.376    26271749.826   104440721.720 9
     -1021.243
  26243333.062   137909652.102 8     -1546.784
                                  26243335.735   102984483.067 8     -1155.151
  26243334.493   105671034.283 8     -1185.189    26243335.309   104327763.207 9
     -1170.151
  26902147.473   141371734.272 7     -2348.003
                                  26902150.377   105569800.565 8     -1753.270
  26902148.599   108323795.145 8     -1799.140    26902149.654   106946802.391 9
     -1776.237
  24634615.140   129455798.088 9      1350.239
                                  24634615.766    96671539.764 9      1008.321
  24634614.294    99193402.996 9      1034.690    24634615.319    97932473.914 9
      1021.504
  24484819.638   128668611.557 9      1654.318
                                  24484822.013    96083708.265 9      1235.359
  24484820.700    98590238.960 9      1267.577    24484821.612    97336978.146 9
      1251.509
  26543824.911   139488778.247 8      3170.843
                                  26543826.778   104163712.888 8      2367.851
  26543825.153   106881021.600 8      2429.659    26543826.280   105522366.780 8
      2398.761
 23 12  8 17 56 30.0000000  0 18G04G11G12G18G25G26G28G29G31G32E04E05
                                E09E13E21E26E31E33
  25463026.638   133809119.607 5      2369.270    25463027.738   104266843.32145
      1846.180    25463027.639    25463030.084    99922387.284 7      1769.372


  23637730.609   124217121.565 8     -1855.339    23637729.374    96792561.44347
     -1445.719    23637729.526    23637731.905    92759543.001 9     -1385.419


  23403936.770   122988511.415 7     -3143.861    23403935.190    95835199.33947
     -2449.763    23403935.653


  24983400.922   131288683.540 6      3767.264    24983400.569   102302868.99445
      2935.532    24983400.589    24983405.745    98040261.756 7      2813.228


  20519439.768   107830385.049 9     -1760.498    20519440.609    84023679.72049
     -1371.817    20519441.093    20519439.777    80522691.804 9     -1314.735


  23742673.568   124768620.047 7      3219.216    23742676.260    97222324.53747
      2508.487    23742676.210    23742673.539    93171376.713 8      2403.884


  20767636.638   109134678.613 9       715.695    20767635.333    85040009.99248
       557.685    20767635.477    20767638.088    81496681.852 9       534.406


  20458195.979   107508557.429 9       665.450    20458194.476    83772902.05449
       518.532    20458194.982


  21782318.072   114466875.879 9      2127.231    21782316.149    89194971.62748
      1657.582    21782316.454


  24395041.924   128196801.089 7     -3162.152    24395044.070    99893610.30546
     -2464.014    24395044.237    24395042.029    95731372.029 8     -2361.275


  27394291.479   143957963.164 8     -2921.178
                                  27394293.787   107501074.967 7     -2181.496
  27394292.607   110305449.696 7     -2238.414    27394293.170   108903264.371 8
     -2209.995
  26231363.063   137846764.394 7      1180.495
                                  26231365.735   102937516.180 8       881.598
  26231364.756   105622840.022 8       904.571    26231365.460   104280181.638 8
       893.105
  26279489.644   138099654.670 8     -1362.509
                                  26279492.502   103126366.755 8     -1017.383
  26279490.675   105816619.336 8     -1043.988    26279491.453   104471497.583 9
     -1030.674
  26252198.869   137956242.329 8     -1559.577
                                  26252201.560   103019274.455 8     -1164.636
  26252200.345   105706733.293 8     -1194.998    26252201.159   104363008.406 9
     -1179.777
  26915557.738   141442205.701 7     -2350.588
                                  26915560.685   105622425.315 8     -1755.145
  26915558.886   108377792.719 8     -1800.929    26915559.937   107000113.555 8
     -1778.070
  24626944.605   129415489.230 9      1336.635
                                  24626945.232    96641439.025 9       998.119
  24626943.749    99162517.020 9      1024.174    24626944.779    97901980.559 9
      1011.102
  24475387.441   128619045.065 9      1649.911
                                  24475389.819    96046694.331 9      1232.008
  24475388.490    98552259.438 9      1264.171    24475389.401    97299481.416 9
      1248.131
  26525732.774   139393703.603 8      3167.078
                                  26525734.646   104092715.639 8      2365.009
  26525733.027   106808172.240 8      2426.713    26525734.126   105450443.473 8
      2395.856
 23 12  8 17 57  0.0000000  0 18G04G11G12G18G25G26G28G29G31G32E04E05
                                E09E13E21E26E31E33
  25449539.454   133738243.557 5      2355.178    25449540.457   104211615.26044
      1835.206    25449540.370    25449542.519    99869460.320 7      1758.988


  23648370.618   124273035.063 8     -1872.658    23648369.348    96836130.40546
     -1459.213    23648369.505    23648371.914    92801296.583 9     -1398.245


  23421898.052   123082898.540 8     -3148.900    23421896.475    95908747.73248
     -2453.688    23421896.937


  24961893.296   131175660.430 6      3767.373    24961892.903   102214799.10745
      2935.625    24961892.904    24961898.128    97955861.449 7      2813.224


  20529523.855   107883377.246 9     -1772.507    20529524.665    84064972.34149
     -1381.174    20529525.146    20529523.844    80562263.882 9     -1323.550


  23724305.709   124672096.786 8      3215.576    23724308.383    97147111.74846
      2505.647    23724308.324    23724305.618    93099297.807 8      2401.252


  20763605.881   109113496.868 9       696.347    20763604.571    85023504.73448
       542.608    20763604.715    20763607.353    81480864.312 9       519.990


  20454445.587   107488848.987 9       648.111    20454444.068    83757544.83849
       505.022    20454444.577


  21770217.614   114403287.685 9      2111.741    21770215.695    89145422.40148
      1645.512    21770215.999


  24413105.520   128291725.863 7     -3166.642    24413107.714    99967577.60546
     -2467.516    24413107.889    24413105.728    95802257.355 7     -2364.572


  27410975.656   144045638.960 8     -2924.008
                                  27410977.999   107566547.096 7     -2183.373
  27410976.807   110372629.817 8     -2240.417    27410977.377   108969590.493 8
     -2211.932
  26224661.832   137811548.994 8      1166.946
                                  26224664.425   102911219.001 8       871.466
  26224663.458   105595856.836 8       894.208    26224664.161   104253541.458 8
       882.764
  26287304.432   138140721.531 9     -1375.450
                                  26287307.278   103157033.547 8     -1027.104
  26287305.472   105848086.125 8     -1053.879    26287306.251   104502564.374 9
     -1040.514
  26261139.223   138003224.393 8     -1572.836
                                  26261141.915   103054358.459 8     -1174.430
  26261140.700   105742732.544 8     -1205.074    26261141.538   104398550.038 9
     -1189.757
  26928984.034   141512761.401 7     -2353.404
                                  26928987.019   105675113.000 8     -1757.488
  26928985.197   108431854.865 8     -1803.326    26928986.252   107053488.468 9
     -1780.362
  24619353.992   129375600.287 9      1322.421
                                  24619354.609    96611651.842 9       987.482
  24619353.121    99131952.772 9      1013.326    24619354.157    97871804.842 9
      1000.403
  24465982.109   128569619.776 9      1644.990
                                  24465984.491    96009785.842 9      1228.373
  24465983.156    98514388.117 9      1260.414    24465984.061    97262091.516 9
      1244.356
  26507664.195   139298752.745 8      3162.779
                                  26507666.070   104021810.827 8      2361.709
  26507664.442   106735417.708 8      2423.434    26507665.525   105378613.799 8
      2392.571
 23 12  8 17 57 30.0000000  0 19G04G11G12G18G25G26G28G29G31G32E04E05
                                E09E13E21E24E26E31E33
  25436129.420   133667772.947 5      2341.719    25436130.331   104156703.06245
      1824.716    25436130.298    25436132.279    99816836.138 7      1748.664


  23659106.999   124329455.057 8     -1889.683    23659105.682    96880094.05846
     -1472.479    23659105.843    23659108.298    92843428.387 9     -1411.077


  23439885.095   123177421.062 8     -3153.619    23439883.520    95982401.63848
     -2457.366    23439883.982


  24940384.250   131062629.797 6      3767.524    24940383.820   102126723.30045
      2935.733    24940383.831    24940389.091    97871455.504 7      2813.259


  20539673.730   107936715.111 9     -1784.261    20539674.517    84106534.29949
     -1390.334    20539674.996    20539673.721    80602094.093 9     -1332.361


  23705955.871   124575668.172 7      3212.064    23705958.513    97071972.69746
      2502.912    23705958.448    23705955.713    93027289.575 8      2398.667


  20759683.766   109092886.040 9       676.987    20759682.456    85007444.34548
       527.522    20759682.602    20759685.271    81465473.115 9       505.504


  20450792.264   107469650.676 9       630.936    20450790.734    83742585.13149
       491.639    20450791.243


  21758203.263   114340152.016 9      2096.366    21758201.348    89096225.79647
      1633.533    21758201.652


  24431192.825   128386775.168 7     -3170.924    24431195.042   100041641.94646
     -2470.850    24431195.215    24431193.143    95873235.709 7     -2367.942


  27427672.813   144133382.997 8     -2926.440
                                  27427675.158   107632070.211 7     -2185.313
  27427673.947   110439862.203 8     -2242.329    27427674.550   109035968.250 8
     -2213.896
  26218036.240   137776731.211 7      1153.475
                                  26218038.785   102885218.769 8       861.300
  26218037.770   105569178.335 7       883.770    26218038.513   104227202.096 8
       872.408
  26295191.397   138182167.738 9     -1388.387
                                  26295194.222   103187983.632 8     -1036.746
  26295192.431   105879843.602 8     -1063.793    26295193.221   104533918.150 9
     -1050.281
  26270153.141   138050593.029 8     -1585.886
                                  26270155.826   103089731.165 8     -1184.294
  26270154.602   105779027.997 8     -1215.176    26270155.465   104434384.113 9
     -1199.690
  26942425.602   141583397.275 8     -2356.438
                                  26942428.619   105727860.533 8     -1759.609
  26942426.789   108485978.424 8     -1805.528    26942427.844   107106924.012 9
     -1782.566
  28808224.598   151388242.26116      2551.035
                                  28808227.173   113049663.65415      1905.032
  28808227.795   115998787.94915      1954.541    28808226.981   114524227.83416
      1929.729
  24611842.723   129336128.359 9      1308.271
                                  24611843.315    96582176.085 9       976.956
  24611841.823    99101708.079 9      1002.426    24611842.866    97841944.617 9
       989.696
  24456602.989   128520332.259 9      1640.043
                                  24456605.380    95972980.235 9      1224.764
  24456604.051    98476622.364 9      1256.658    24456604.933    97224805.832 9
      1240.709
  26489618.807   139203923.716 8      3158.349
                                  26489620.686   103950996.975 7      2358.578
  26489619.042   106662756.534 8      2420.067    26489620.121   105306876.289 8
      2389.319
 23 12  8 17 58  0.0000000  0 19G04G11G12G18G25G26G28G29G31G32E04E05
                                E09E13E21E24E26E31E33
  25422797.640   133597713.862 6      2328.225    25422798.514   104102111.56445
      1814.198    25422798.510    25422800.359    99764519.290 7      1738.818


  23669940.117   124386383.380 8     -1905.889    23669938.755    96924453.80146
     -1485.108    23669938.910    23669941.441    92885939.819 9     -1423.340


  23457898.484   123272081.941 8     -3157.515    23457896.908    96056163.33148
     -2460.402    23457897.371


  24918874.993   130949598.008 7      3767.693    24918874.546   102038646.61945
      2935.868    24918874.557    24918879.835    97787048.683 7      2813.471


  20549889.929   107990401.579 9     -1795.336    20549890.702    84148367.90649
     -1398.963    20549891.181    20549889.930    80642184.630 9     -1340.662


  23687624.959   124479339.064 7      3209.554    23687627.560    96996911.19046
      2500.956    23687627.489    23687624.742    92955355.668 8      2396.540


  20755871.215   109072851.012 9       658.305    20755869.915    84991832.63748
       512.964    20755870.058    20755872.758    81450511.891 9       491.520


  20447236.755   107450966.369 9       614.241    20447235.222    83728025.93849
       478.629    20447235.733


  21746276.196   114277475.001 9      2081.551    21746274.285    89047386.57748
      1621.987    21746274.587


  24449303.978   128481949.726 7     -3174.464    24449306.166   100115803.89546
     -2473.610    24449306.336    24449304.376    95944307.562 7     -2370.653


  27444383.312   144221197.026 8     -2928.229
                                  27444385.642   107697645.563 7     -2186.691
  27444384.434   110507148.222 7     -2243.636    27444385.057   109102398.924 8
     -2215.131
  26211487.198   137742315.743 7      1140.632
                                  26211489.749   102859518.941 8       851.647
  26211488.639   105542808.075 7       873.877    26211489.441   104201167.043 8
       862.803
  26303151.014   138223995.731 8     -1400.621
                                  26303153.817   103219218.813 8     -1045.921
  26303152.035   105911893.610 8     -1073.162    26303152.842   104565560.745 9
     -1059.530
  26279241.119   138098350.613 8     -1598.501
                                  26279243.816   103125394.296 8     -1193.592
  26279242.584   105815621.452 8     -1224.773    26279243.457   104470512.412 9
     -1209.212
  26955883.084   141654116.865 7     -2358.609
                                  26955886.106   105780670.610 8     -1761.325
  26955884.295   108540166.150 8     -1807.354    26955885.339   107160422.914 9
     -1784.324
  28793658.344   151311695.278 7      2551.751
                                  28793661.413   112992501.753 5      1905.607
  28793661.538   115940134.937 5      1955.120    28793660.893   114466320.371 6
      1930.524
  24604411.722   129297078.169 9      1294.644
                                  24604412.297    96553015.259 9       966.782
  24604410.787    99071786.523 9       992.019    24604411.845    97812403.428 9
       979.347
  24447250.886   128471186.717 9      1635.817
                                  24447253.280    95936280.657 9      1221.555
  24447251.969    98438965.404 9      1253.435    24447252.818    97187627.565 9
      1237.482
  26471597.678   139109222.163 8      3154.660
                                  26471599.539   103880278.323 8      2355.753
  26471597.908   106590193.056 8      2417.134    26471598.964   105235235.222 8
      2386.466
 23 12  8 17 58 30.0000000  0 19G04G11G12G18G25G26G28G29G31G32E04E05
                                E09E13E21E24E26E31E33
  25409544.250   133528066.751 6      2315.027    25409545.076   104047841.09645
      1803.916    25409545.095    25409546.875    99712510.122 7      1728.822


  23680869.285   124443816.445 8     -1922.805    23680867.895    96969206.83646
     -1498.290    23680868.050    23680870.649    92928828.155 9     -1435.626


  23475937.653   123366878.387 8     -3161.831    23475936.069    96130030.68748
     -2463.765    23475936.531


  24897365.654   130836565.886 7      3768.060    24897365.192   101950569.69245
      2936.156    24897365.194    24897370.479    97702641.635 7      2813.760


  20560171.981   108044434.174 9     -1806.578    20560172.744    84190471.23249
     -1407.722    20560173.223    20560171.990    80682533.644 9     -1348.996


  23669312.893   124383108.898 7      3206.317    23669315.452    96921926.75946
      2498.436    23669315.374    23669312.640    92883495.621 8      2394.350


  20752168.117   109053391.198 9       639.268    20752166.842    84976669.15248
       498.131    20752166.983    20752169.708    81435980.215 9       477.434


  20443778.618   107432793.777 9       597.550    20443777.076    83713865.48949
       465.624    20443777.586


  21734436.435   114215256.779 9      2066.534    21734434.531    88998904.86148
      1610.286    21734434.832


  24467438.093   128577244.771 7     -3178.339    24467440.233   100190059.69546
     -2476.631    24467440.399    24467438.572    96015469.392 7     -2373.328


  27461106.417   144309077.277 8     -2930.124
                                  27461108.720   107763270.370 7     -2188.050
  27461107.514   110574484.976 7     -2245.064    27461108.162   109168879.706 8
     -2216.534
  26205014.515   137708301.909 7      1127.308
                                  26205017.088   102834119.107 8       841.836
  26205015.867   105516745.607 8       863.831    26205016.733   104175435.897 8
       852.809
  26311182.703   138266202.478 9     -1412.874
                                  26311185.498   103250736.816 8     -1055.019
  26311183.721   105944233.832 8     -1082.588    26311184.549   104597489.856 9
     -1068.787
  26288402.501   138146494.016 8     -1610.827
                                  26288405.201   103161345.560 8     -1202.913
  26288403.952   105852510.580 8     -1234.232    26288404.822   104506932.608 9
     -1218.635
  26969356.157   141724918.282 8     -2361.147
                                  26969359.186   105833541.764 8     -1763.113
  26969357.393   108594416.564 8     -1809.188    26969358.427   107213983.697 9
     -1786.112
  28779089.593   151235134.787 6      2552.494
                                  28779092.541   112935329.778 5      1906.154
  28779093.170   115881471.498 5      1955.920    28779092.147   114408402.667 6
      1930.988
  24597060.842   129258448.933 9      1280.890
                                  24597061.405    96524168.764 9       956.555
  24597059.874    99042187.508 9       981.487    24597060.939    97783180.672 9
       969.010
  24437925.577   128422181.911 9      1631.437
                                  24437927.961    95899686.165 8      1218.318
  24437926.688    98401416.287 9      1250.051    24437927.496    97150555.761 9
      1234.192
  26453600.844   139014648.313 8      3150.611
                                  26453602.676   103809655.041 8      2352.706
  26453601.078   106517727.407 8      2414.195    26453602.102   105163690.757 8
      2383.440
 23 12  8 17 59  0.0000000  0 19G04G11G12G18G25G26G28G29G31G32E04E05
                                E09E13E21E24E26E31E33
  25396369.471   133458832.724 6      2300.374    25396370.201   103993892.50745
      1792.498    25396370.242    25396371.970    99660809.382 8      1717.802


  23691893.869   124501750.994 8     -1939.906    23691892.460    97014350.63646
     -1511.615    23691892.616    23691895.292    92972090.976 9     -1448.690


  23494002.224   123461808.218 8     -3167.013    23494000.642    96204001.95648
     -2467.804    23494001.101


  24875856.548   130723534.914 7      3767.062    24875856.073   101862493.63345
      2935.372    24875856.066    24875861.348    97618235.424 7      2813.088


  20570519.518   108098810.847 9     -1818.822    20570520.286    84232842.65749
     -1417.265    20570520.761    20570519.544    80723139.598 9     -1358.249


  23651019.590   124286977.454 7      3202.336    23651022.089    96847019.25746
      2495.331    23651022.002    23651019.309    92811709.326 8      2391.240


  20748574.441   109034506.411 9       619.425    20748573.197    84961953.74248
       482.669    20748573.335    20748576.081    81421877.953 9       462.547


  20440417.649   107415131.792 9       579.735    20440416.095    83700102.91149
       451.742    20440416.603


  21722684.185   114153498.403 9      2050.442    21722682.282    88950781.46348
      1597.748    21722682.580


  24485594.273   128672655.853 7     -3182.901    24485596.349   100264405.94545
     -2480.185    24485596.506    24485594.785    96086717.897 7     -2376.799


  27477841.505   144397020.510 8     -2933.058
                                  27477843.756   107828942.231 7     -2190.243
  27477842.551   110641870.007 7     -2247.353    27477843.224   109235408.151 8
     -2218.799
  26198618.163   137674689.156 7      1113.198
                                  26198620.771   102809018.759 8       831.293
  26198619.460   105490990.461 7       853.033    26198620.366   104150008.148 8
       842.167
  26319285.953   138308785.377 9     -1426.164
                                  26319288.743   103282535.736 8     -1065.057
  26319286.953   105976862.284 8     -1092.863    26319287.814   104629703.547 9
     -1079.004
  26297636.813   138195020.630 8     -1624.348
                                  26297639.517   103197582.967 8     -1213.011
  26297638.227   105889693.326 8     -1244.674    26297639.104   104543642.681 9
     -1228.841
  26982844.518   141795800.066 8     -2364.554
                                  26982847.557   105886472.943 8     -1765.779
  26982845.766   108648728.558 8     -1811.842    26982846.803   107267605.284 9
     -1788.804
  28764518.022   151158559.912 7      2552.177
                                  28764520.840   112878147.063 6      1905.950
  28764521.739   115822797.101 7      1955.564    28764520.602   114350474.112 7
      1930.805
  24589789.995   129220240.390 9      1266.084
                                  24589790.541    96495636.448 9       945.430
  24589788.995    99012910.860 9       970.118    24589790.052    97754276.186 9
       957.812
  24428626.915   128373317.095 9      1625.975
                                  24428629.267    95863196.211 8      1214.258
  24428628.052    98363974.427 9      1245.892    24428628.818    97113589.854 9
      1230.060
  26435628.446   138920202.796 8      3145.440
                                  26435630.240   103739127.574 7      2348.949
  26435628.699   106445360.107 8      2410.227    26435629.683   105092243.374 8
      2379.568
 23 12  8 17 59 30.0000000  0 19G04G11G12G18G25G26G28G29G31G32E04E05
                                E09E13E21E24E26E31E33
  25383274.400   133390017.347 5      2286.714    25383275.019   103940270.12745
      1781.856    25383275.061    25383276.815    99609421.264 7      1707.523


  23703014.105   124560188.416 7     -1956.432    23703012.677    97059886.32646
     -1524.491    23703012.830    23703015.577    93015729.311 9     -1461.091


  23512092.625   123556873.886 8     -3171.216    23512091.053    96278079.08948
     -2471.077    23512091.514


  24854348.776   130610510.971 7      3766.971    24854348.289   101774423.06846
      2935.303    24854348.293    24854353.519    97533834.470 7      2812.980


  20580933.007   108153534.114 9     -1830.038    20580933.788    84275484.15349
     -1426.004    20580934.264    20580933.051    80764004.360 9     -1366.635


  23632745.970   124190949.283 7      3198.733    23632748.424    96772192.20446
      2492.523    23632748.332    23632745.689    92740000.097 8      2388.836


  20745091.047   109016201.080 9       600.319    20745089.830    84947689.84248
       467.781    20745089.967    20745092.730    81408208.383 9       448.224


  20437154.352   107397983.072 9       562.777    20437152.783    83686740.27949
       438.528    20437153.289


  21711020.455   114092205.134 9      2034.955    21711018.547    88903020.47747
      1585.679    21711018.844


  24503772.578   128768183.286 7     -3186.652    24503774.584   100338842.88945
     -2483.106    24503774.750    24503773.067    96158053.245 7     -2379.608


  27494588.849   144485027.993 8     -2934.953
                                  27494591.036   107894662.054 7     -2191.667
  27494589.820   110709304.295 7     -2248.760    27494590.532   109301985.208 8
     -2220.247
  26192298.958   137641481.739 7      1099.829
                                  26192301.598   102784221.065 7       821.284
  26192300.223   105465545.865 7       842.753    26192301.156   104124886.998 8
       831.997
  26327461.173   138351746.410 9     -1438.599
                                  26327463.969   103314617.012 8     -1074.271
  26327462.159   106009780.464 8     -1102.399    26327463.045   104662203.270 9
     -1088.276
  26306944.449   138243932.414 8     -1637.134
                                  26306947.172   103234107.996 8     -1222.505
  26306945.819   105927171.182 8     -1254.348    26306946.721   104580644.121 9
     -1238.391
  26996348.781   141866765.359 8     -2367.288
                                  26996351.834   105939466.477 8     -1767.721
  26996350.031   108703104.543 8     -1813.809    26996351.079   107321290.044 9
     -1790.803
  28749944.288   151081973.953 6      2552.499
                                  28749947.106   112820956.144 6      1906.189
  28749947.957   115764114.244 6      1955.900    28749946.899   114292537.230 7
      1931.039
  24582600.016   129182456.783 9      1252.064
                                  24582600.558    96467421.442 9       934.910
  24582599.007    98983959.798 9       959.368    24582600.046    97725693.154 9
       947.159
  24419355.618   128324596.051 9      1621.261
                                  24419357.924    95826813.618 8      1210.703
  24419356.780    98326642.734 9      1242.304    24419357.505    97076732.711 9
      1226.494
  26417681.464   138825890.840 8      3141.110
                                  26417683.198   103668699.844 7      2345.683
  26417681.728   106373095.153 8      2406.830    26417682.687   105020897.031 8
      2376.328
 23 12  8 18  0  0.0000000  0 19G04G11G12G18G25G26G28G29G31G32E04E05
                                E09E13E21E24E26E31E33
  25370258.637   133321618.953 6      2273.193    25370259.161   103886972.67645
      1771.318    25370259.194    25370260.968    99558344.527 7      1697.305


  23714228.936   124619122.914 7     -1972.464    23714227.503    97105809.33546
     -1536.984    23714227.653    23714230.468    93059738.859 9     -1472.995


  23530208.013   123652070.840 8     -3175.483    23530206.439    96352258.52648
     -2474.403    23530206.902


  24832842.101   130497492.846 7      3767.234    24832841.596   101686357.03845
      2935.509    24832841.616    24832846.764    97449437.872 8      2813.232


  20591411.572   108208599.414 9     -1841.059    20591412.362    84318392.18149
     -1434.592    20591412.840    20591411.633    80805124.554 9     -1374.862


  23614491.454   124095021.579 7      3196.200    23614493.868    96697443.46546
      2490.549    23614493.770    23614491.163    92668365.910 7      2386.572


  20741717.392   108998472.426 9       581.479    20741716.192    84933875.30148
       453.099    20741716.333    20741719.107    81394969.453 9       434.173


  20433988.017   107381343.886 9       546.292    20433986.431    83673774.68849
       425.682    20433986.936


  21699444.932   114031375.337 9      2019.948    21699443.009    88855620.63448
      1573.985    21699443.304


  24521971.710   128863820.119 7     -3189.701    24521973.672   100413365.06046
     -2485.483    24521973.849    24521972.187    96229470.320 7     -2381.885


  27511347.316   144573093.928 8     -2936.331
                                  27511349.429   107960425.547 7     -2192.768
  27511348.162   110776783.346 7     -2250.032    27511348.946   109368606.482 8
     -2221.373
  26186056.302   137608676.771 7      1086.895
                                  26186058.979   102759723.926 8       811.606
  26186057.560   105440409.652 8       832.896    26186058.506   104100070.323 8
       822.255
  26335707.376   138395080.417 9     -1450.605
                                  26335710.180   103346976.796 8     -1083.202
  26335708.345   106042984.421 8     -1111.514    26335709.261   104694985.144 9
     -1097.332
  26316324.357   138293224.089 8     -1649.143
                                  26316327.095   103270916.731 8     -1231.561
  26316325.690   105964940.127 8     -1263.792    26316326.617   104617932.963 9
     -1247.681
  27009868.174   141937810.123 8     -2369.415
                                  27009871.242   105992519.363 8     -1769.395
  27009869.414   108757541.429 8     -1815.490    27009870.476   107375034.930 9
     -1792.453
  28735367.792   151005373.430 6      2553.703
                                  28735370.610   112763754.368 6      1906.984
  28735371.364   115705420.242 6      1956.785    28735370.400   114234589.342 7
      1931.821
  24575490.357   129145095.236 9      1238.422
                                  24575490.901    96439521.592 9       924.766
  24575489.363    98955332.132 9       948.890    24575490.374    97697429.396 9
       936.816
  24410111.047   128276015.453 9      1617.040
                                  24410113.305    95790535.905 9      1207.577
  24410112.230    98289418.644 9      1239.075    24410112.923    97039981.810 9
      1223.293
  26399759.524   138731710.552 8      3137.171
                                  26399761.185   103598370.457 8      2342.679
  26399759.774   106300931.076 8      2403.754    26399760.735   104949650.301 9
      2373.209
 23 12  8 18  0 30.0000000  0 19G04G11G12G18G25G26G28G29G31G32E04E05
                                E09E13E21E24E26E31E33
  25357323.337   133253643.338 6      2258.909    25357323.776   103834004.63146
      1760.188    25357323.813    25357325.623    99507583.473 7      1686.808


  23725538.681   124678556.061 7     -1989.431    23725537.261    97152120.86646
     -1550.207    23725537.406    23725540.262    93104120.759 8     -1485.496


  23548348.812   123747401.231 8     -3179.741    23548347.234    96426541.92548
     -2477.721    23548347.699


  24811337.693   130384486.684 6      3766.654    24811337.178   101598300.33445
      2935.057    24811337.198    24811342.272    97365050.216 8      2812.830


  20601955.752   108264009.432 9     -1852.790    20601956.553    84361568.80349
     -1443.733    20601957.031    20601955.836    80846502.142 9     -1383.466


  23596256.978   123999199.034 7      3192.502    23596259.363    96622776.63246
      2487.667    23596259.258    23596256.658    92596810.206 7      2383.919


  20738454.328   108981324.950 9       561.944    20738453.135    84920513.63148
       437.878    20738453.277    20738456.056    81382164.520 9       419.629


  20430919.271   107365217.531 9       528.978    20430917.668    83661208.70549
       412.191    20430918.170


  21687958.699   113971014.760 9      2004.284    21687956.750    88808586.42247
      1561.780    21687957.046


  24540191.716   128959566.773 7     -3193.492    24540193.654   100487972.83246
     -2488.437    24540193.841    24540192.166    96300969.389 7     -2384.623


  27528117.200   144661219.802 8     -2938.425
                                  27528119.228   108026233.796 7     -2194.390
  27528117.909   110844308.310 6     -2251.523    27528118.763   109435273.088 8
     -2222.983
  26179891.049   137576278.488 7      1073.183
                                  26179893.795   102735530.429 8       801.438
  26179892.358   105415585.031 8       822.317    26179893.293   104075561.263 8
       811.870
  26344024.936   138438789.496 9     -1463.079
                                  26344027.745   103379616.690 8     -1092.599
  26344025.891   106076475.793 8     -1121.114    26344026.832   104728050.780 9
     -1106.919
  26325776.919   138342897.732 8     -1662.021
                                  26325779.652   103308010.694 8     -1241.118
  26325778.220   106003001.757 8     -1273.585    26325779.145   104655510.762 9
     -1257.363
  27023403.328   142008937.679 8     -2372.242
                                  27023406.417   106045634.061 8     -1771.488
  27023404.559   108812041.744 8     -1817.660    27023405.646   107428842.442 9
     -1794.613
  28720789.161   150928761.946 6      2554.137
                                  28720792.049   112706544.477 5      1907.328
  28720792.553   115646717.912 5      1957.069    28720791.722   114176633.234 6
      1932.141
  24568461.823   129108160.161 9      1224.152
                                  24568462.357    96411940.236 9       914.105
  24568460.843    98927031.260 9       937.943    24568461.823    97669488.285 9
       926.032
  24400893.956   128227579.278 9      1612.177
                                  24400896.170    95754366.046 8      1203.930
  24400895.156    98252305.226 9      1235.318    24400895.822    97003340.169 9
      1219.646
  26381863.669   138637667.318 8      3132.535
                                  26381865.261   103528143.419 8      2339.206
  26381863.895   106228872.009 8      2400.268    26381864.859   104878507.246 9
      2369.760
 23 12  8 18  1  0.0000000  0 19G04G11G12G18G25G26G28G29G31G32E04E05
                                E09E13E21E24E26E31E33
  25344468.582   133186091.121 6      2244.476    25344468.927   103781366.57046
      1748.940    25344468.974    25344470.823    99457138.677 7      1676.159


  23736942.612   124738484.188 7     -2005.490    23736941.200    97198818.11146
     -1562.718    23736941.340    23736944.213    93148872.306 9     -1497.912


  23566514.635   123842863.115 8     -3184.317    23566513.051    96500927.78648
     -2481.286    23566513.518


  24789835.800   130271493.649 6      3765.958    24789835.273   101510253.84645
      2934.513    24789835.286    24789840.306    97280672.335 8      2812.361


  20612565.073   108319761.802 9     -1864.126    20612565.872    84405012.20549
     -1452.566    20612566.349    20612565.183    80888135.406 9     -1392.096


  23578042.419   123903481.203 7      3188.530    23578044.792    96548191.43746
      2484.572    23578044.685    23578042.054    92525332.701 7      2381.280


  20735301.766   108964758.142 9       542.564    20735300.577    84907604.42448
       422.776    20735300.721    20735303.502    81369793.200 9       405.124


  20427947.774   107349602.256 9       512.058    20427946.155    83649040.97349
       399.006    20427946.656


  21676561.809   113911123.726 9      1988.585    21676559.834    88761918.09447
      1549.547    21676560.130


  24558431.741   129055418.603 7     -3196.562    24558433.689   100562662.53346
     -2490.827    24558433.894    24558432.218    96372547.009 7     -2387.295


  27544897.847   144749402.065 8     -2940.480
                                  27544899.784   108092084.110 7     -2195.765
  27544898.437   110911876.503 7     -2253.084    27544899.351   109501982.334 8
     -2224.314
  26173803.032   137544286.247 7      1059.664
                                  26173805.851   102711640.177 8       791.305
  26173804.409   105391071.549 8       811.897    26173805.319   104051359.404 8
       801.534
  26352413.310   138482870.720 9     -1475.582
                                  26352416.129   103412534.483 8     -1101.939
  26352414.264   106110252.315 8     -1130.623    26352415.221   104761397.934 9
     -1116.288
  26335301.622   138392950.385 8     -1674.696
                                  26335304.362   103345387.678 8     -1250.596
  26335302.902   106041353.801 8     -1283.261    26335303.822   104693375.277 9
     -1266.943
  27036953.892   142080146.270 8     -2374.971
                                  27036956.999   106098809.287 8     -1773.579
  27036955.116   108866604.150 8     -1819.831    27036956.224   107482711.255 9
     -1796.685
  28706208.251   150852138.347 6      2554.373
                                  28706211.250   112649325.515 6      1907.416
  28706211.416   115588006.307 6      1957.090    28706210.744   114118667.945 7
      1932.187
  24561514.324   129071650.885 9      1209.817
                                  24561514.865    96384676.836 9       903.420
  24561513.360    98899056.628 9       927.046    24561514.319    97641869.265 9
       915.224
  24391704.150   128179286.486 9      1607.414
                                  24391706.321    95718303.260 8      1200.218
  24391705.359    98215301.670 9      1231.573    24391706.005    96966806.998 9
      1215.895
  26363993.973   138543761.483 8      3127.912
                                  26363995.516   103458018.962 8      2335.766
  26363994.194   106156918.226 8      2396.609    26363995.150   104807468.131 8
      2366.187
 23 12  8 18  1 30.0000000  0 19G04G11G12G18G25G26G28G29G31G32E04E05
                                E09E13E21E24E26E31E33
  25331694.592   133118963.072 6      2230.495    25331694.859   103729058.98745
      1738.048    25331694.911    25331696.814    99407010.584 8      1665.500


  23748440.077   124798903.880 7     -2022.435    23748438.680    97245898.40546
     -1575.921    23748438.813    23748441.676    93193990.884 9     -1510.231


  23584704.957   123938453.774 8     -3188.698    23584703.363    96575414.00448
     -2484.700    23584703.829


  24768336.566   130158514.755 6      3765.577    24768336.013   101422218.39245
      2934.216    24768336.031    24768340.994    97196305.058 8      2811.839


  20623239.125   108375854.265 9     -1875.598    20623239.913    84448720.60249
     -1461.506    20623240.393    20623239.257    80930022.618 9     -1400.638


  23559847.707   123807867.706 7      3184.868    23559850.068    96473687.51146
      2481.717    23559849.959    23559847.297    92453933.118 8      2378.513


  20732259.606   108948771.523 9       522.972    20732258.416    84895147.32248
       407.510    20732258.560    20732261.337    81357855.136 9       390.557


  20425073.190   107334496.246 9       494.869    20425071.554    83637270.06949
       385.612    20425072.056


  21665254.386   113851702.937 9      1972.672    21665252.390    88715616.20247
      1537.148    21665252.687


  24576690.918   129151371.083 7     -3200.398    24576692.898   100637430.65246
     -2493.818    24576693.116    24576691.465    96444199.788 7     -2389.888


  27561688.530   144837637.154 8     -2942.265
                                  27561690.373   108157973.890 7     -2197.200
  27561688.987   110979485.164 7     -2254.512    27561689.984   109568731.563 8
     -2225.868
  26167792.179   137512699.481 7      1045.996
                                  26167795.058   102688052.721 8       781.039
  26167793.608   105366868.761 7       801.357    26167794.499   104027464.275 8
       791.214
  26360871.971   138527321.234 8     -1488.099
                                  26360874.802   103445728.024 8     -1111.144
  26360872.950   106144311.776 9     -1140.188    26360873.903   104795024.434 9
     -1125.639
  26344897.905   138443379.096 8     -1687.307
                                  26344900.668   103383045.483 8     -1260.081
  26344899.171   106079993.980 8     -1292.923    26344900.098   104731524.272 9
     -1276.521
  27050519.563   142151434.189 8     -2377.866
                                  27050522.678   106152043.735 8     -1775.576
  27050520.796   108921227.322 8     -1821.956    27050521.909   107536640.062 8
     -1798.728
  28691624.762   150775501.234 6      2554.742
                                  28691627.880   112592096.451 5      1907.610
  28691627.685   115529284.328 5      1957.360    28691627.221   114060692.422 6
      1932.540
  24554647.735   129035566.792 9      1195.515
                                  24554648.282    96357730.931 9       892.772
  24554646.779    98871407.789 9       916.056    24554647.719    97614571.893 9
       904.398
  24382541.422   128131136.022 9      1602.419
                                  24382543.562    95682346.751 9      1196.622
  24382542.652    98178407.167 9      1227.851    24382543.278    96930381.490 9
      1212.249
  26346150.482   138449993.452 8      3123.074
                                  26346152.000   103387997.421 8      2332.090
  26346150.690   106085070.026 8      2392.985    26346151.652   104736533.259 8
      2362.520
 23 12  8 18  2  0.0000000  0 19G04G11G12G18G25G26G28G29G31G32E04E05
                                E09E13E21E24E26E31E33
  25319001.700   133052261.221 5      2215.766    25319001.941   103677083.51045
      1726.573    25319001.989    25319003.930    99357200.720 8      1654.943


  23760030.664   124859812.934 6     -2038.475    23760029.287    97293360.01746
     -1588.423    23760029.408    23760032.260    93239474.903 9     -1522.247


  23602919.632   124034172.308 8     -3192.994    23602918.037    96649999.84248
     -2488.048    23602918.500


  24746840.556   130045552.659 6      3764.865    24746840.016   101334196.02746
      2933.661    24746840.046    24746844.928    97111950.273 8      2811.534


  20633977.706   108432285.844 9     -1886.828    20633978.474    84492693.25649
     -1470.256    20633978.954    20633977.852    80972163.079 9     -1408.985


  23541673.034   123712359.556 7      3181.891    23541675.380    96399265.66446
      2479.398    23541675.268    23541672.587    92382612.215 8      2376.096


  20729328.015   108933365.905 9       503.731    20729326.829    84883142.94248
       392.517    20729326.975    20729329.740    81346350.933 9       376.211


  20422295.447   107319899.105 9       478.006    20422293.797    83625895.67749
       372.473    20422294.296


  21654036.846   113792754.456 9      1956.874    21654034.843    88669682.32548
      1524.838    21654035.139


  24594968.642   129247420.950 7     -3203.180    24594970.666   100712274.63046
     -2495.987    24594970.890    24594969.289    96515925.286 7     -2392.018


  27578488.831   144925922.957 8     -2943.626
                                  27578490.586   108223901.566 7     -2198.318
  27578489.170   111047132.673 7     -2255.521    27578490.243   109635519.149 8
     -2226.851
  26161858.634   137481518.774 7      1032.604
                                  26161861.560   102664768.454 7       771.164
  26161860.106   105342977.093 7       791.094    26161860.989   104003876.312 8
       781.082
  26369400.594   138572139.452 8     -1500.175
                                  26369403.438   103479196.156 8     -1120.177
  26369401.617   106178653.003 8     -1149.441    26369402.551   104828929.113 9
     -1134.796
  26354565.465   138494182.343 8     -1699.666
                                  26354568.267   103420982.961 8     -1269.275
  26354566.740   106118921.132 8     -1302.370    26354567.667   104769956.580 9
     -1285.826
  27064100.249   142222801.125 8     -2380.143
                                  27064103.362   106205337.214 7     -1777.417
  27064101.499   108975911.054 8     -1823.844    27064102.605   107590628.669 8
     -1800.643
  28677038.683   150698850.718 6      2554.886
                                  28677041.876   112534857.436 6      1907.923
  28677041.315   115470552.093 6      1958.022    28677041.117   114002706.794 7
      1933.032
  24547862.201   128999908.638 9      1181.476
                                  24547862.758    96331103.106 9       882.247
  24547861.263    98844085.328 9       905.210    24547862.174    97587596.752 9
       893.715
  24373405.835   128083128.276 9      1597.888
                                  24373407.955    95646496.828 9      1193.200
  24373407.093    98141622.029 9      1224.332    24373407.702    96894063.962 9
      1208.754
  26328333.522   138356364.963 8      3118.521
                                  26328335.034   103318080.107 8      2328.804
  26328333.709   106013328.767 8      2389.549    26328334.685   104665703.968 8
      2359.228
 23 12  8 18  2 30.0000000  0 19G04G11G12G18G25G26G28G29G31G32E04E05
                                E09E13E21E24E26E31E33
  25306390.879   132985990.942 6      2201.680    25306391.097   103625444.33645
      1715.594    25306391.149    25306393.106    99307713.177 8      1644.130


  23771714.612   124921212.538 7     -2055.067    23771713.270    97341203.85146
     -1601.351    23771713.385    23771716.210    93285325.261 8     -1534.539


  23621159.020   124130020.820 8     -3197.269    23621157.414    96724686.98948
     -2491.377    23621157.877


  24725348.818   129932613.170 6      3764.419    24725348.280   101246191.28946
      2933.313    24725348.313    24725353.135    97027612.419 8      2810.957


  20644781.300   108489059.032 9     -1898.155    20644782.049    84536932.09749
     -1479.081    20644782.532    20644781.458    81014558.631 9     -1417.462


  23523519.277   123616961.213 7      3178.053    23523521.614    96324929.36745
      2476.407    23523521.504    23523518.822    92311373.279 8      2373.150


  20726507.784   108918545.475 9       484.124    20726506.602    84871594.55648
       377.240    20726506.751    20726509.502    81335283.718 9       361.574


  20419615.048   107305813.528 9       460.907    20419613.385    83614919.90949
       359.148    20419613.880


  21642910.201   113734283.607 9      1941.022    21642908.197    88624120.62648
      1512.485    21642908.492


  24613264.898   129343568.423 6     -3206.748    24613266.948   100787194.71246
     -2498.764    24613267.171    24613265.621    96587723.689 7     -2394.460


  27595299.014   145014260.724 8     -2945.500
                                  27595300.699   108289868.030 7     -2199.540
  27595299.286   111114820.005 7     -2256.762    27595300.409   109702346.055 8
     -2228.195
  26156003.142   137450748.221 7      1018.962
                                  26156006.078   102641790.481 7       760.865
  26156004.631   105319399.689 8       780.688    26156005.518   103980598.614 8
       770.807
  26377999.538   138617327.244 8     -1512.481
                                  26378002.387   103512940.284 8     -1129.406
  26378000.601   106213277.411 9     -1158.886    26378001.514   104863113.380 9
     -1144.152
  26364304.592   138545361.875 8     -1712.293
                                  26364307.404   103459201.466 8     -1278.654
  26364305.866   106158136.634 8     -1312.021    26364306.788   104808673.586 9
     -1295.334
  27077696.540   142294250.128 8     -2383.016
                                  27077699.632   106258691.989 7     -1779.541
  27077697.808   109030657.669 8     -1825.927    27077698.897   107644679.358 8
     -1802.678
  28662450.686   150622190.108 6      2555.518
                                  28662453.948   112477610.861 6      1908.359
  28662453.063   115411812.151 6      1958.097    28662453.116   113944713.544 7
      1933.120
  24541158.520   128964680.539 9      1167.000
                                  24541159.095    96304796.425 9       871.488
  24541157.593    98817092.375 9       894.244    24541158.483    97560946.934 9
       882.886
  24364298.129   128035267.027 9      1592.869
                                  24364300.236    95610756.289 9      1189.477
  24364299.423    98104949.131 9      1220.524    24364300.014    96857857.247 9
      1204.951
  26310544.137   138262881.244 8      3113.618
                                  26310545.648   103248270.867 8      2325.039
  26310544.311   105941698.420 8      2385.828    26310545.301   104594984.179 9
      2355.430
 23 12  8 18  3  0.0000000  0 19G04G11G12G18G25G26G28G29G31G32E04E05
                                E09E13E21E24E26E31E33
  25293862.050   132920151.388 6      2187.619    25293862.255   103574140.79446
      1704.643    25293862.299    25293864.284    99258547.278 8      1633.561


  23783490.943   124983097.542 6     -2070.702    23783489.659    97389425.89046
     -1613.532    23783489.773    23783492.560    93331538.080 8     -1546.410


  23639422.445   124225995.550 8     -3201.058    23639420.821    96799472.47148
     -2494.332    23639421.284


  24703861.325   129819695.922 6      3763.770    24703860.790   101158203.87745
      2932.809    24703860.817    24703865.614    96943291.161 8      2810.519


  20655649.155   108546169.923 9     -1909.228    20655649.892    84581434.08249
     -1487.711    20655650.376    20655649.323    81057206.370 9     -1425.721


  23505386.036   123521670.658 7      3174.703    23505388.359    96250677.06046
      2473.797    23505388.258    23505385.586    92240214.831 8      2370.656


  20723798.500   108904308.067 9       465.142    20723797.326    84860500.47348
       362.448    20723797.480    20723800.223    81324651.890 9       347.209


  20417031.423   107292236.484 9       444.204    20417029.754    83604340.39549
       346.133    20417030.248


  21631874.215   113676289.174 9      1925.320    21631872.215    88578930.16648
      1500.250    21631872.512


  24631578.561   129439807.283 7     -3209.102    24631580.633   100862185.98745
     -2500.601    24631580.859    24631579.376    96659590.355 7     -2396.591


  27612118.083   145102645.358 7     -2946.836
                                  27612119.719   108355869.493 6     -2200.516
  27612118.345   111182543.268 7     -2257.813    27612119.490   109769208.414 8
     -2229.144
  26150225.283   137420385.540 7      1005.365
                                  26150228.198   102619117.081 7       750.799
  26150226.785   105296134.816 8       770.367    26150227.677   103957629.483 8
       760.547
  26386667.962   138662880.097 8     -1524.347
                                  26386670.822   103546957.006 8     -1138.324
  26386669.084   106248181.532 8     -1168.048    26386669.964   104897573.802 9
     -1153.148
  26374114.483   138596913.186 8     -1724.448
                                  26374117.300   103497697.576 8     -1287.777
  26374115.764   106197636.984 8     -1321.373    26374116.670   104847671.819 9
     -1304.668
  27091307.823   142365777.896 8     -2385.500
                                  27091310.872   106312105.587 6     -1781.346
  27091309.093   109085464.651 7     -1827.823    27091310.169   107698789.651 8
     -1804.561
  28647860.216   150545516.582 6      2556.273
                                  28647863.570   112420354.619 5      1908.853
  28647862.410   115353062.292 5      1958.632    28647862.666   113886710.490 6
      1933.747
  24534536.237   128929880.250 9      1153.007
                                  24534536.807    96278809.206 9       861.067
  24534535.291    98790427.236 9       883.462    24534536.167    97534620.753 9
       872.263
  24355217.779   127987549.617 9      1588.294
                                  24355219.872    95575123.175 9      1186.111
  24355219.110    98068386.465 9      1217.012    24355219.688    96821759.355 9
      1201.520
  26292782.090   138169541.043 8      3108.987
                                  26292783.578   103178568.777 8      2321.635
  26292782.256   105870178.036 8      2382.272    26292783.250   104524372.937 9
      2352.013
 23 12  8 18  3 30.0000000  0 19G04G11G12G18G25G26G28G29G31G32E04E05
                                E09E13E21E24E26E31E33
  25281415.804   132854745.817 6      2172.958    25281415.970   103523175.43446
      1693.215    25281416.009    25281418.019    99209705.508 8      1622.498


  23795359.429   125045467.009 7     -2087.163    23795358.198    97438025.47447
     -1626.361    23795358.310    23795361.056    93378112.667 9     -1558.637


  23657710.003   124322097.046 8     -3205.776    23657708.370    96874356.71448
     -2498.008    23657708.832


  24682378.795   129706804.683 6      3762.637    24682378.261   101070236.74546
      2931.927    24682378.277    24682383.078    96858989.312 8      2809.560


  20666581.329   108603618.811 9     -1920.815    20666582.064    84626199.43849
     -1496.739    20666582.548    20666581.501    81100106.507 9     -1434.335


  23487273.754   123426490.219 7      3170.632    23487276.062    96176510.52046
      2470.623    23487275.979    23487273.319    92169138.599 8      2367.682


  20721200.547   108890655.734 9       445.301    20721199.387    84849862.29648
       346.988    20721199.543    20721202.292    81314456.976 9       332.460


  20414544.735   107279168.868 9       426.911    20414543.065    83594157.84249
       332.658    20414543.561


  21620929.547   113618774.611 9      1908.966    21620927.557    88534113.63448
      1487.506    21620927.854


  24649909.210   129536135.635 7     -3212.335    24649911.287   100937247.06246
     -2503.118    24649911.511    24649910.078    96731523.865 7     -2399.017


  27628945.857   145191075.996 7     -2948.637
                                  27628947.449   108421905.338 6     -2201.945
  27628946.161   111250301.775 7     -2259.359    27628947.301   109836105.589 7
     -2230.716
  26144525.435   137390432.640 7       991.421
                                  26144528.307   102596749.663 7       740.363
  26144526.944   105273183.888 8       759.786    26144527.836   103934970.313 8
       750.035
  26395405.797   138708797.730 8     -1536.837
                                  26395408.661   103581246.131 8     -1147.599
  26395406.979   106283365.158 9     -1177.594    26395407.828   104932310.183 9
     -1162.639
  26383995.062   138648835.940 8     -1737.097
                                  26383997.890   103536471.054 8     -1297.228
  26383996.360   106237421.954 8     -1331.052    26383997.245   104886951.040 9
     -1314.097
  27104934.293   142437385.385 8     -2388.461
                                  27104937.301   106365578.695 6     -1783.540
  27104935.562   109140332.712 7     -1830.002    27104936.624   107752960.241 8
     -1806.783
  28633267.550   150468831.570 6      2556.160
                                  28633270.998   112363089.779 5      1908.863
  28633269.560   115294303.573 5      1958.547    28633270.056   113828698.712 6
      1933.747
  24527995.746   128895509.727 9      1138.382
                                  24527996.310    96253142.920 9       850.029
  24527994.781    98764091.396 9       872.215    24527995.645    97508619.691 9
       861.154
  24346165.119   127939977.717 9      1583.107
                                  24346167.204    95539598.718 9      1182.259
  24346166.481    98031935.287 9      1213.058    24346167.057    96785771.535 9
      1197.666
  26275047.921   138076347.428 8      3103.898
                                  26275049.374   103108976.182 8      2317.817
  26275048.078   105798769.975 8      2378.278    26275049.071   104453872.613 9
      2348.016
 23 12  8 18  4  0.0000000  0 19G04G11G12G18G25G26G28G29G31G32E04E05
                                E09E13E21E24E26E31E33
  25269052.602   132789776.694 6      2158.169    25269052.715   103472550.13245
      1681.691    25269052.762    25269054.774    99161189.594 8      1611.706


  23807319.738   125108319.075 7     -2103.277    23807318.529    97487001.14047
     -1638.918    23807318.640    23807321.354    93425047.661 8     -1570.535


  23676021.385   124418323.948 8     -3209.772    23676019.729    96949338.72248
     -2501.121    23676020.190


  24660901.766   129593942.404 7      3761.517    24660901.216   100982292.17745
      2931.055    24660901.237    24660906.047    96774709.108 8      2808.926


  20677577.725   108661405.202 9     -1931.938    20677578.456    84671227.78949
     -1505.406    20677578.941    20677577.895    81143258.664 9     -1442.608


  23469182.686   123331421.276 7      3167.167    23469184.994    96102430.89146
      2467.925    23469184.923    23469182.254    92098145.625 8      2365.060


  20718714.165   108877589.668 9       425.860    20718713.021    84839680.93848
       331.839    20718713.177    20718715.949    81304699.846 9       317.879


  20412154.905   107266610.272 9       409.969    20412153.239    83584371.93149
       319.457    20412153.735


  21610076.609   113561742.057 9      1892.978    21610074.635    88489672.68748
      1475.048    21610074.934


  24668256.400   129632550.740 7     -3215.345    24668258.475   101012375.71345
     -2505.464    24668258.701    24668257.291    96803522.094 7     -2400.964


  27645782.033   145279550.925 7     -2949.918
                                  27645783.562   108487974.261 6     -2202.898
  27645782.425   111318094.207 7     -2260.295    27645783.530   109903036.273 7
     -2231.715
  26138903.744   137360890.579 7       977.993
                                  26138906.566   102574689.079 7       730.100
  26138905.254   105250547.795 8       749.171    26138906.137   103912621.966 8
       739.671
  26404212.822   138755078.939 8     -1548.717
                                  26404215.673   103615806.759 8     -1156.514
  26404214.051   106318827.368 8     -1186.686    26404214.874   104967321.596 9
     -1171.580
  26393946.087   138701128.922 8     -1749.316
                                  26393948.932   103575521.001 8     -1306.300
  26393947.393   106277490.593 8     -1340.360    26393948.277   104926510.333 9
     -1323.390
  27118575.925   142509072.673 8     -2391.071
                                  27118578.895   106419111.425 5     -1785.494
  27118577.177   109195261.905 7     -1831.913    27118578.222   107807191.195 7
     -1808.658
  28618672.779   150392135.557 7      2556.819
                                  28618676.336   112305816.725 5      1909.182
  28618674.625   115235536.477 5      1958.974    28618675.356   113770678.639 6
      1934.013
  24521537.257   128861570.081 9      1124.132
                                  24521537.821    96227798.388 9       839.399
  24521536.282    98738085.701 9       861.320    24521537.139    97482944.581 9
       850.359
  24337140.283   127892552.073 9      1578.400
                                  24337142.360    95504183.495 9      1178.661
  24337141.669    97995596.191 9      1209.395    24337142.244    96749894.374 9
      1194.046
  26257342.038   137983302.526 8      3098.888
                                  26257343.483   103039494.646 8      2314.160
  26257342.209   105727475.887 8      2374.484    26257343.188   104383484.803 9
      2344.250
 23 12  8 18  4 30.0000000  0 19G04G11G12G18G25G26G28G29G31G32E04E05
                                E09E13E21E24E26E31E33
  25256772.764   132725245.449 6      2143.139    25256772.877   103422266.02645
      1669.976    25256772.915    25256774.940    99113000.668 8      1600.610


  23819371.426   125171651.169 7     -2119.267    23819370.231    97536350.81847
     -1651.378    23819370.342    23819373.039    93472341.092 8     -1582.600


  23694356.470   124514675.297 7     -3213.925    23694354.789    97024417.67247
     -2504.358    23694355.245


  24639430.628   129481111.130 6      3760.389    24639430.052   100894371.75946
      2930.176    24639430.078    24639434.906    96690452.071 8      2807.887


  20688638.068   108719527.670 9     -1943.259    20688638.795    84716518.02349
     -1514.228    20688639.281    20688638.239    81186661.804 9     -1451.104


  23451112.963   123236464.476 7      3163.172    23451115.276    96028438.61747
      2464.810    23451115.213    23451112.516    92027236.386 8      2362.039


  20716339.399   108865110.136 9       406.046    20716338.259    84829956.61648
       316.399    20716338.416    20716341.217    81295380.705 9       303.093


  20409861.745   107254559.682 9       392.949    20409860.085    83574981.86849
       306.195    20409860.580


  21599315.670   113505193.017 9      1876.559    21599313.709    88445608.51948
      1462.255    21599314.011


  24686619.396   129729048.836 7     -3218.189    24686621.466   101087569.02846
     -2507.681    24686621.699    24686620.290    96875582.360 7     -2403.292


  27662626.146   145368067.546 7     -2951.491
                                  27662627.628   108554074.284 6     -2204.018
  27662626.680   111385918.606 7     -2261.537    27662627.715   109969998.474 7
     -2232.719
  26133360.298   137331759.591 7       963.860
                                  26133363.091   102552935.420 7       719.829
  26133361.822   105228226.643 8       738.532    26133362.698   103890584.561 8
       729.176
  26413088.669   138801721.713 8     -1561.129
                                  26413091.514   103650637.375 8     -1165.727
  26413089.927   106354566.631 8     -1196.174    26413090.738   105002606.534 9
     -1180.912
  26403967.161   138753790.060 8     -1761.774
                                  26403970.022   103614845.875 8     -1315.584
  26403968.471   106317841.326 8     -1349.956    26403969.356   104966348.137 9
     -1332.783
  27132232.567   142580838.938 8     -2393.917
                                  27132235.487   106472703.152 5     -1787.643
  27132233.802   109250251.646 6     -1834.389    27132234.824   107861481.936 7
     -1811.079
  28604075.841   150315428.324 7      2556.763
                                  28604079.462   112248535.342 5      1909.422
  28604077.548   115176760.802 5      1959.051    28604078.475   113712650.104 6
      1934.239
  24515160.787   128828061.515 9      1109.489
                                  24515161.355    96202775.775 9       828.516
  24515159.800    98712410.323 9       850.054    24515160.652    97457595.584 9
       839.269
  24328143.282   127845272.633 9      1573.182
                                  24328145.364    95468877.433 9      1174.826
  24328144.686    97959369.100 9      1205.454    24328145.271    96714127.802 9
      1190.125
  26239664.716   137890407.677 8      3093.692
                                  26239666.167   102970125.158 8      2310.279
  26239664.895   105656296.747 8      2370.507    26239665.857   104313210.483 9
      2340.350
 23 12  8 18  5  0.0000000  0 19G04G11G12G18G25G26G28G29G31G32E04E05
                                E09E13E21E24E26E31E33
  25244577.170   132661157.125 6      2129.036    25244577.277   103372327.05045
      1658.986    25244577.316    25244579.351    99065142.494 8      1589.834


  23831514.597   125235463.932 7     -2135.120    23831513.420    97586075.02847
     -1663.733    23831513.534    23831516.218    93519993.494 8     -1594.361


  23712715.560   124611152.862 7     -3218.022    23712713.852    97099594.98247
     -2507.550    23712714.308


  24617966.491   129368316.498 6      3758.942    24617965.918   100806479.89345
      2929.048    24617965.934    24617970.786    96606222.345 8      2807.295


  20699762.760   108777988.276 9     -1954.216    20699763.488    84762071.73549
     -1522.766    20699763.974    20699762.925    81230317.449 9     -1459.353


  23433065.336   123141623.807 8      3159.483    23433067.654    95954536.84746
      2461.935    23433067.597    23433064.853    91956413.876 8      2359.264


  20714076.944   108853220.834 9       386.658    20714075.797    84820692.22148
       301.292    20714075.955    20714078.785    81286502.325 9       288.628


  20407665.787   107243019.894 9       376.205    20407664.126    83565989.83649
       293.147    20407664.621


  21588647.754   113449132.730 9      1860.638    21588645.807    88401925.18048
      1449.848    21588646.114


  24704998.220   129825629.863 6     -3220.562    24705000.311   101162826.90546
     -2509.532    24705000.553    24704999.108    96947704.481 8     -2404.924


  27679478.362   145456626.700 7     -2952.523
                                  27679479.818   108620206.060 6     -2204.687
  27679479.045   111453775.600 7     -2262.212    27679480.012   110036992.865 8
     -2233.438
  26127895.748   137303043.269 7       950.251
                                  26127898.514   102531491.433 7       709.637
  26127897.262   105206223.247 8       728.168    26127898.149   103868860.876 8
       718.903
  26422033.582   138848727.463 8     -1572.906
                                  26422036.421   103685739.064 8     -1174.461
  26422034.830   106390583.994 8     -1205.143    26422035.655   105038166.065 9
     -1189.802
  26414058.562   138806820.728 7     -1773.764
                                  26414061.440   103654446.706 8     -1324.512
  26414059.879   106358475.215 8     -1359.114    26414060.760   105006465.500 9
     -1341.838
  27145904.771   142652686.898 7     -2396.232
                                  27145907.658   106526355.848 6     -1789.366
  27145906.011   109305303.963 6     -1836.004    27145906.988   107915834.442 7
     -1812.672
  28589477.279   150238712.902 7      2557.516
                                  28589480.887   112191247.959 5      1909.782
  28589478.872   115117978.967 5      1959.445    28589479.947   113654615.502 6
      1934.660
  24508867.040   128794987.736 9      1095.267
                                  24508867.612    96178077.833 9       817.916
  24508866.048    98687068.091 9       839.234    24508866.889    97432575.497 9
       828.570
  24319174.758   127798142.780 9      1568.580
                                  24319176.848    95433683.075 9      1171.321
  24319176.160    97923256.628 9      1201.835    24319176.765    96678474.386 9
      1186.559
  26222016.883   137797667.658 8      3088.784
                                  26222018.334   102900871.255 8      2306.553
  26222017.065   105585236.227 8      2366.728    26222018.024   104243053.267 9
      2336.720
 23 12  8 18  5 30.0000000  0 19G04G11G12G18G25G26G28G29G31G32E04E05
                                E09E13E21E24E26E31E33
  25232465.370   132597509.111 5      2114.474    25232465.480   103322731.19644
      1647.644    25232465.507    25232467.595    99017613.115 8      1578.896


  23843747.924   125299750.485 8     -2150.785    23843746.754    97636168.44147
     -1675.936    23843746.863    23843749.532    93567999.688 8     -1606.014


  23731097.636   124707751.146 7     -3222.024    23731095.913    97174866.32847
     -2510.670    23731096.366


  24596508.867   129255556.277 7      3758.127    24596508.263   100718614.83345
      2928.414    24596508.270    24596513.172    96522018.370 8      2806.439


  20710950.730   108836781.408 9     -1965.284    20710951.458    84807884.56049
     -1531.391    20710951.947    20710950.880    81274221.405 9     -1467.557


  23415039.158   123046895.695 8      3155.877    23415041.480    95880722.76246
      2459.124    23415041.433    23415038.624    91885675.383 8      2356.602


  20711926.050   108841917.802 9       366.972    20711924.888    84811884.66348
       285.952    20711925.047    20711927.891    81278061.742 9       274.082


  20405566.054   107231985.754 9       359.423    20405564.385    83557391.81349
       280.071    20405564.880


  21578072.214   113393557.880 9      1844.449    21578070.270    88358620.11048
      1437.233    21578070.582


  24723391.305   129922285.958 7     -3223.004    24723393.425   101238143.29646
     -2511.434    24723393.668    24723392.175    97019882.646 8     -2406.781


  27696337.376   145545221.632 7     -2953.755
                                  27696338.821   108686364.588 6     -2205.737
  27696338.185   111521660.003 7     -2263.274    27696339.090   110104014.326 8
     -2234.475
  26122509.348   137274737.500 7       936.752
                                  26122512.107   102510354.000 8       699.445
  26122510.830   105184534.402 8       717.815    26122511.745   103847447.738 8
       708.645
  26431046.379   138896089.898 9     -1584.592
                                  26431049.208   103721107.109 8     -1183.309
  26431047.604   106426874.670 8     -1214.129    26431048.443   105073995.426 9
     -1198.695
  26424219.106   138860214.696 7     -1785.889
                                  26424222.008   103694318.829 8     -1333.549
  26424220.433   106399387.473 8     -1368.338    26424221.310   105046857.687 9
     -1350.942
  27159591.552   142724611.524 7     -2398.753
                                  27159594.420   106580065.795 6     -1791.227
  27159592.811   109360415.050 6     -1838.020    27159593.740   107970244.961 7
     -1814.653
  28574876.305   150161984.876 7      2557.881
                                  28574879.857   112133951.214 5      1910.053
  28574877.808   115059187.501 6      1959.860    28574878.978   113596571.384 6
      1935.011
  24502655.267   128762344.707 9      1080.918
                                  24502655.855    96153701.551 9       807.303
  24502654.298    98662055.912 9       828.278    24502655.123    97407881.268 9
       817.781
  24310233.886   127751158.213 9      1563.837
                                  24310235.989    95398597.213 9      1167.766
  24310235.263    97887255.472 9      1198.261    24310235.898    96642930.876 9
      1183.047
  26204397.938   137705079.528 8      3083.740
                                  26204399.370   102831730.796 8      2302.831
  26204398.115   105514292.099 8      2362.944    26204399.078   104173010.980 9
      2332.894
 23 12  8 18  6  0.0000000  0 19G04G11G12G18G25G26G28G29G31G32E04E05
                                E09E13E21E24E26E31E33
  25220438.484   132534307.577 5      2099.498    25220438.577   103273483.28745
      1635.979    25220438.597    25220440.741    98970417.179 8      1567.783


  23856071.794   125364512.868 8     -2166.307    23856070.607    97686632.65546
     -1688.032    23856070.712    23856073.375    93616361.228 8     -1617.812


  23749503.271   124804473.349 7     -3225.747    23749501.555    97250234.24047
     -2513.571    23749502.004


  24575059.117   129142837.405 6      3756.809    24575058.474   100630782.00046
      2927.384    24575058.493    24575063.434    96437845.266 8      2805.380


  20722202.619   108895910.434 9     -1976.305    20722203.339    84853959.12549
     -1539.978    20722203.826    20722202.754    81318376.197 9     -1475.790


  23397035.456   122952285.710 8      3151.879    23397037.778    95807000.74547
      2456.011    23397037.738    23397034.862    91815025.116 8      2353.715


  20709887.684   108831206.110 9       347.455    20709886.507    84803537.89348
       270.744    20709886.665    20709889.509    81270062.748 9       259.433


  20403563.331   107221461.387 9       342.598    20403561.646    83549191.01749
       266.960    20403562.138


  21567590.272   113338474.846 9      1828.170    21567588.319    88315698.27148
      1424.549    21567588.634


  24741798.872   130019018.195 7     -3225.429    24741801.012   101313519.03246
     -2513.321    24741801.251    24741799.722    97092117.731 7     -2408.532


  27713203.640   145633854.545 8     -2954.745
                                  27713205.093   108752551.467 7     -2206.515
  27713204.573   111589573.516 7     -2264.088    27713205.414   110171064.521 8
     -2235.258
  26117202.019   137246847.473 7       922.827
                                  26117204.777   102489527.094 8       689.172
  26117203.436   105163164.175 8       707.239    26117204.394   103826349.171 8
       698.189
  26440127.580   138943811.766 9     -1596.410
                                  26440130.392   103756743.566 8     -1192.118
  26440128.770   106463440.790 8     -1223.326    26440129.621   105110096.714 9
     -1207.740
  26434449.270   138913974.642 7     -1797.896
                                  26434452.189   103734464.250 8     -1342.673
  26434450.613   106440580.168 8     -1377.606    26434451.477   105087526.745 9
     -1360.137
  27173293.691   142796616.855 7     -2401.390
                                  27173296.537   106633836.010 6     -1793.145
  27173294.955   109415587.984 6     -1840.132    27173295.854   108024716.532 7
     -1816.631
  28560273.716   150085248.637 7      2558.211
                                  28560277.180   112076648.438 5      1910.337
  28560275.124   115000389.814 5      1960.162    28560276.354   113538521.152 6
      1935.315
  24496526.382   128730137.400 9      1066.548
                                  24496526.985    96129650.665 9       796.422
  24496525.440    98637377.613 9       817.161    24496526.255    97383516.673 9
       806.812
  24301321.575   127704323.718 9      1558.878
                                  24301323.701    95363623.414 9      1164.097
  24301322.914    97851369.305 9      1194.491    24301323.593    96607500.898 9
      1179.243
  26186809.056   137612649.408 8      3078.673
                                  26186810.473   102762708.332 8      2298.909
  26186809.242   105443469.051 8      2358.916    26186810.201   104103088.225 9
      2328.926
 23 12  8 18  6 30.0000000  0 19G04G11G12G18G25G26G28G29G31G32E04E05
                                E09E13E21E24E26E31E33
  25208496.585   132471552.463 5      2083.918    25208496.678   103224583.15745
      1623.829    25208496.704    25208498.913    98923554.568 8      1556.087


  23868485.397   125429746.740 7     -2182.637    23868484.178    97737464.26147
     -1700.756    23868484.280    23868486.941    93665074.830 8     -1629.977


  23767931.803   124901315.940 7     -3230.432    23767930.103    97325695.96947
     -2517.220    23767930.550


  24553617.340   129030160.348 7      3754.865    24553616.664   100542981.72345
      2925.867    24553616.679    24553621.663    96353703.361 8      2803.737


  20733517.861   108955372.316 9     -1987.951    20733518.580    84900293.03749
     -1549.054    20733519.067    20733517.994    81362779.518 9     -1484.541


  23379053.968   122857792.418 8      3147.467    23379056.292    95733369.64647
      2452.574    23379056.260    23379053.314    91744461.979 8      2350.222


  20707961.557   108821084.232 9       327.131    20707960.369    84795650.72048
       254.908    20707960.527    20707963.358    81262504.206 9       244.216


  20401656.916   107211443.128 9       325.088    20401655.211    83541384.59049
       253.315    20401655.702


  21557201.876   113283883.386 9      1811.106    21557199.899    88273159.47848
      1411.252    21557200.219


  24760219.978   130115821.387 7     -3228.655    24760222.130   101388950.02145
     -2515.837    24760222.380    24760220.814    97164405.823 7     -2410.847


  27730076.326   145722521.186 7     -2956.523
                                  27730077.809   108818763.540 7     -2207.932
  27730077.365   111657512.868 7     -2265.508    27730078.157   110238140.239 8
     -2236.759
  26111973.505   137219371.413 7       908.517
                                  26111976.301   102469009.264 8       678.425
  26111974.870   105142111.101 8       696.150    26111975.868   103805563.722 8
       687.255
  26449276.488   138991889.362 8     -1608.939
                                  26449279.301   103792645.654 8     -1201.565
  26449277.630   106500279.443 8     -1232.847    26449278.497   105146467.088 9
     -1217.272
  26444748.353   138968096.813 7     -1810.577
                                  26444751.291   103774880.147 8     -1352.084
  26444749.730   106482050.402 8     -1387.316    26444750.573   105128469.812 9
     -1369.672
  27187010.708   142868700.400 7     -2404.525
                                  27187013.523   106687664.657 7     -1795.686
  27187011.928   109470820.859 6     -1842.458    27187012.834   108079247.293 7
     -1819.062
  28545669.157   150008502.121 7      2558.015
                                  28545672.516   112019338.021 5      1910.090
  28545670.466   114941584.302 5      1959.967    28545671.747   113480463.217 6
      1934.877
  24490480.136   128698364.351 9      1051.362
                                  24490480.759    96105924.047 9       785.076
  24490479.223    98613032.032 9       805.600    24490480.038    97359480.573 9
       795.365
  24292437.483   127657637.519 9      1553.269
                                  24292439.635    95328760.360 9      1159.846
  24292438.771    97815596.771 9      1190.145    24292439.496    96572183.099 9
      1175.017
  26169250.171   137520376.934 8      3072.705
                                  26169251.602   102693803.586 8      2294.521
  26169250.375   105372766.785 8      2354.342    26169251.327   104033284.719 9
      2324.452
 23 12  8 18  7  0.0000000  0 19G04G11G12G18G25G26G28G29G31G32E04E05
                                E09E13E21E24E26E31E33
  25196639.934   132409245.188 5      2069.127    25196640.037   103176032.00545
      1612.304    25196640.069    25196642.356    98877026.386 8      1545.122


  23880988.221   125495449.366 8     -2198.265    23880986.988    97788661.09947
     -1712.935    23880987.092    23880989.755    93714138.479 8     -1641.414


  23786383.092   124998278.210 8     -3234.147    23786381.405    97401250.97948
     -2520.115    23786381.851


  24532183.937   128917527.223 6      3753.264    24532183.243   100455215.71446
      2924.623    24532183.250    24532188.257    96269594.245 8      2802.947


  20744896.170   109015165.650 9     -1999.009    20744896.892    84946885.22649
     -1557.670    20744897.378    20744896.308    81407430.366 9     -1492.628


  23361094.820   122763416.594 8      3143.637    23361097.150    95659830.09247
      2449.589    23361097.125    23361094.118    91673986.575 8      2347.537


  20706147.723   108811552.406 9       307.632    20706146.527    84788223.31948
       239.708    20706146.688    20706149.499    81255386.275 9       229.772


  20399846.716   107201930.473 9       308.440    20399844.995    83533972.13749
       240.343    20399845.483


  21546907.304   113229784.982 9      1794.734    21546905.302    88231004.88848
      1398.495    21546905.626


  24778653.828   130212691.830 7     -3230.297    24778655.962   101464433.48645
     -2517.115    24778656.207    24778654.597    97236744.150 7     -2412.324


  27746954.982   145811219.046 7     -2957.238
                                  27746956.519   108884998.898 6     -2208.294
  27746956.115   111725476.125 7     -2266.005    27746956.870   110305239.547 8
     -2237.168
  26106823.829   137192309.544 7       894.858
                                  26106826.692   102448800.710 8       668.267
  26106825.152   105121375.383 8       685.619    26106826.177   103785091.580 8
       676.972
  26458492.695   139040320.603 8     -1620.565
                                  26458495.533   103828811.817 8     -1210.147
  26458493.793   106537389.076 8     -1241.617    26458494.679   105183104.985 9
     -1225.858
  26455115.953   139022579.121 7     -1822.217
                                  26455118.918   103815564.991 7     -1360.707
  26455117.385   106523796.591 8     -1396.294    26455118.207   105169685.332 9
     -1378.551
  27200742.539   142940861.495 7     -2406.664
                                  27200745.362   106741551.137 7     -1797.290
  27200743.732   109526113.130 6     -1844.218    27200744.661   108133836.667 8
     -1820.760
  28531062.623   149931745.077 8      2558.423
                                  28531065.875   111962019.718 4      1910.649
  28531063.833   114882770.674 5      1960.554    28531065.134   113422397.231 5
      1935.567
  24484516.540   128667025.692 9      1037.216
                                  24484517.171    96082521.819 9       774.512
  24484515.653    98589019.324 9       794.687    24484516.470    97335773.104 9
       784.620
  24283581.593   127611099.566 9      1548.578
                                  24283583.782    95294008.011 9      1156.389
  24283582.841    97779937.835 9      1186.551    24283583.606    96536977.461 9
      1171.467
  26151721.537   137428263.442 8      3067.585
                                  26151722.997   102625017.562 8      2290.702
  26151721.761   105302186.327 8      2350.458    26151722.698   103963601.478 9
      2320.591
 23 12  8 18  7 30.0000000  0 19G04G11G12G18G25G26G28G29G31G32E04E05
                                E09E13E21E24E26E31E33
  25184869.280   132347389.684 5      2054.429    25184869.377   103127832.84845
      1600.851    25184869.414    25184871.770    98830835.525 7      1533.943


  23893580.164   125561620.378 8     -2213.434    23893578.922    97840222.92547
     -1724.753    23893579.024    23893581.692    93763551.907 8     -1652.968


  23804857.322   125095360.875 8     -3238.064    23804855.651    97476899.77348
     -2523.168    23804856.104


  24510759.698   128804942.478 7      3751.943    24510758.964   100367487.42446
      2923.591    24510758.980    24510763.993    96185521.327 8      2801.801


  20756337.741   109075291.442 9     -2009.695    20756338.465    84993736.48249
     -1565.996    20756338.951    20756337.872    81452329.487 9     -1500.766


  23343158.608   122669161.321 8      3139.876    23343160.950    95586384.47747
      2446.658    23343160.929    23343157.880    91603601.189 8      2344.697


  20704446.666   108802613.208 9       287.992    20704445.462    84781257.70448
       224.408    20704445.624    20704448.421    81248710.893 9       215.131


  20398133.017   107192924.953 9       291.695    20398131.285    83526954.85849
       227.295    20398131.775


  21536707.247   113176183.292 9      1778.415    21536705.225    88189237.35248
      1385.779    21536705.549


  24797100.228   130309628.349 7     -3232.009    24797102.354   101539968.45946
     -2518.447    24797102.601    24797100.927    97309131.807 7     -2413.614


  27763839.546   145899947.991 7     -2958.085
                                  27763841.125   108951257.500 6     -2209.009
  27763840.723   111793463.175 7     -2266.658    27763841.462   110372362.372 8
     -2237.862
  26101753.424   137165664.461 7       881.158
                                  26101756.348   102428903.455 7       658.081
  26101754.699   105100959.057 8       675.210    26101755.742   103764934.791 8
       666.607
  26467776.247   139089105.813 8     -1632.010
                                  26467779.105   103865242.324 7     -1218.707
  26467777.300   106574769.939 8     -1250.564    26467778.204   105220010.668 8
     -1234.627
  26465552.136   139077421.897 7     -1833.943
                                  26465555.151   103856519.042 7     -1369.582
  26465553.649   106565818.977 8     -1405.340    26465554.441   105211173.543 9
     -1387.512
  27214489.403   143013101.705 6     -2409.357
                                  27214492.264   106795496.714 8     -1799.255
  27214490.581   109581466.005 6     -1846.125    27214491.541   108188485.890 8
     -1822.692
  28516454.439   149854979.498 7      2559.025
                                  28516457.586   111904695.081 4      1910.874
  28516455.544   114823950.615 5      1960.785    28516456.864   113364324.886 6
      1935.711
  24478636.133   128636124.054 9      1022.718
                                  24478636.784    96059445.933 9       763.740
  24478635.272    98565341.457 9       783.635    24478636.094    97312396.233 9
       773.652
  24274754.364   127564712.246 9      1543.707
                                  24274756.595    95259368.139 9      1152.800
  24274755.587    97744394.309 9      1182.843    24274756.384    96501885.760 9
      1167.811
  26134223.848   137336312.603 8      3062.320
                                  26134225.327   102556353.006 8      2286.842
  26134224.102   105231730.521 8      2346.411    26134225.013   103894041.297 9
      2316.598
 23 12  8 18  8  0.0000000  0 19G04G11G12G18G25G26G28G29G31G32E04E05
                                E09E13E21E24E26E31E33
  25173184.974   132285988.413 5      2039.126    25173185.024   103079987.72845
      1588.929    25173185.065    25173187.443    98784983.939 7      1522.753


  23906260.852   125628257.823 8     -2228.961    23906259.604    97892148.21947
     -1736.853    23906259.710    23906262.373    93813313.657 8     -1664.427


  23823354.286   125192563.031 8     -3241.969    23823352.619    97552641.69248
     -2526.210    23823353.078


  24489345.270   128692409.237 6      3750.427    24489344.510   100279799.25245
      2922.414    24489344.533    24489349.554    96101486.855 8      2800.601


  20767842.477   109135749.153 9     -2020.753    20767843.204    85040846.36949
     -1574.614    20767843.694    20767842.595    81497476.471 9     -1508.927


  23325245.609   122575028.084 7      3135.666    23325247.960    95513033.95147
      2443.377    23325247.942    23325244.864    91533306.941 8      2341.673


  20702858.578   108794267.645 9       268.472    20702857.372    84774754.65348
       209.198    20702857.535    20702860.326    81242478.808 9       200.424


  20396515.796   107184426.427 9       274.887    20396514.057    83520332.63449
       214.197    20396514.544


  21526602.219   113123080.995 9      1761.869    21526600.180    88147858.95248
      1372.885    21526600.502


  24815558.695   130406628.301 6     -3234.464    24815560.831   101615552.84446
     -2520.360    24815561.075    24815559.346    97381566.840 7     -2415.094


  27780729.725   145988706.344 7     -2959.061
                                  27780731.347   109017538.038 6     -2209.702
  27780730.930   111861472.768 7     -2267.366    27780731.663   110439507.436 7
     -2238.527
  26096762.514   137139437.107 7       867.429
                                  26096765.505   102409318.131 7       647.716
  26096763.767   105080862.802 8       664.610    26096764.809   103745093.998 8
       656.229
  26477126.918   139138243.789 8     -1643.656
                                  26477129.775   103901936.265 7     -1227.476
  26477127.938   106612421.085 8     -1259.358    26477128.845   105257183.213 8
     -1243.471
  26476056.671   139132623.913 7     -1845.910
                                  26476059.728   103897741.345 8     -1378.525
  26476058.268   106608116.633 8     -1414.386    26476059.021   105252933.526 9
     -1396.438
  27228251.348   143085421.131 6     -2411.816
                                  27228254.289   106849501.414 8     -1801.103
  27228252.546   109636879.567 7     -1848.065    27228253.546   108243195.027 8
     -1824.592
  28501844.727   149778205.941 8      2559.337
                                  28501847.783   111847364.495 5      1911.112
  28501845.742   114765124.410 6      1961.176    28501847.063   113306246.485 6
      1936.191
  24472839.091   128605660.433 9      1008.210
                                  24472839.763    96036697.136 9       752.917
  24472838.247    98541999.214 9       772.525    24472839.071    97289350.710 9
       762.710
  24265955.955   127518476.382 9      1538.785
                                  24265958.216    95224841.371 9      1149.056
  24265957.159    97708966.832 9      1179.093    24265957.977    96466908.637 9
      1164.072
  26116757.545   137244526.665 8      3056.805
                                  26116759.027   102487811.576 8      2282.739
  26116757.829   105161401.032 8      2342.285    26116758.713   103824605.839 9
      2312.478
 23 12  8 18  8 30.0000000  0 19G04G11G12G18G25G26G28G29G31G32E04E05
                                E09E13E21E24E26E31E33
  25161587.083   132225040.745 6      2024.242    25161587.137   103032495.99945
      1577.330    25161587.173    25161589.573    98739471.019 7      1511.541


  23919029.397   125695357.030 7     -2244.172    23919028.150    97944433.33847
     -1748.705    23919028.258    23919030.906    93863420.224 8     -1675.752


  23841873.350   125289881.266 8     -3245.785    23841871.678    97628474.06048
     -2529.184    23841872.138


  24467940.669   128579927.595 6      3748.392    24467939.890   100192151.29746
      2920.827    24467939.919    24467944.947    96017490.897 8      2799.319


  20779409.731   109196535.424 9     -2031.551    20779410.462    85088212.27949
     -1583.027    20779410.951    20779409.836    81542868.805 9     -1517.041


  23307355.554   122481015.531 7      3131.955    23307357.898    95439777.46747
      2440.487    23307357.883    23307354.795    91463102.841 8      2338.722


  20701383.086   108786513.890 9       248.555    20701381.877    84768712.77348
       193.679    20701382.041    20701384.823    81236688.677 9       185.749


  20394994.488   107176431.927 9       258.299    20394992.743    83514103.16049
       201.272    20394993.228


  21516592.051   113070477.191 9      1745.317    21516589.989    88106868.98748
      1359.988    21516590.311


  24834028.181   130503686.094 6     -3236.088    24834030.354   101691182.26745
     -2521.630    24834030.592    24834028.793    97454045.036 7     -2416.516


  27797624.611   146077489.533 7     -2959.693
                                  27797626.280   109083837.136 6     -2210.254
  27797625.833   111929501.403 6     -2267.856    27797626.570   110506671.303 7
     -2239.053
  26091850.748   137113625.641 7       853.555
                                  26091853.790   102390043.367 7       637.362
  26091851.992   105061085.197 8       654.029    26091853.019   103725567.815 8
       645.654
  26486543.937   139187730.446 8     -1655.113
                                  26486546.790   103938890.575 7     -1235.959
  26486544.939   106650339.438 8     -1268.266    26486545.844   105294619.545 8
     -1252.135
  26486628.804   139188181.097 8     -1857.666
                                  26486631.901   103939228.853 8     -1387.218
  26486630.474   106650686.431 8     -1423.395    26486631.190   105294962.181 8
     -1405.339
  27242027.836   143157817.052 6     -2414.524
                                  27242030.856   106903563.261 8     -1802.945
  27242029.046   109692351.720 8     -1849.945    27242030.095   108297962.030 8
     -1826.468
  28487233.053   149701422.119 7      2559.744
                                  28487236.027   111790026.246 6      1911.515
  28487234.004   114706290.344 6      1961.504    28487235.311   113248160.330 7
      1936.551
  24467125.054   128575632.980 9       993.783
                                  24467125.741    96014274.059 9       742.141
  24467124.215    98518991.184 9       761.452    24467125.044    97266635.156 9
       751.776
  24257185.981   127472389.964 9      1533.872
                                  24257188.264    95190426.202 9      1145.407
  24257187.182    97673653.877 9      1175.312    24257188.007    96432044.574 9
      1160.352
  26099322.477   137152904.927 8      3051.407
                                  26099323.941   102419392.778 8      2278.624
  26099322.788   105091197.383 8      2338.158    26099323.645   103755294.616 9
      2308.382
 23 12  8 18  9  0.0000000  0 19G04G11G12G18G25G26G28G29G31G32E04E05
                                E09E13E21E24E26E31E33
  25150075.940   132164549.057 5      2008.321    25150075.981   102985359.57045
      1564.925    25150076.025    25150078.433    98694298.609 7      1499.793


  23931885.465   125762916.168 8     -2260.233    23931884.236    97997076.83247
     -1761.220    23931884.349    23931886.965    93913870.239 8     -1687.656


  23860414.443   125387315.192 8     -3250.105    23860412.769    97704396.56648
     -2532.550    23860413.228


  24446546.451   128467500.584 6      3746.138    24446545.646   100104545.92046
      2919.074    24446545.685    24446550.713    95933535.759 8      2797.563


  20791039.406   109257649.775 9     -2043.109    20791040.137    85135833.85349
     -1592.033    20791040.626    20791039.496    81588506.141 9     -1525.630


  23289488.756   122387125.230 7      3126.970    23289491.091    95366616.26446
      2436.603    23289491.077    23289487.994    91392990.041 8      2335.274


  20700020.403   108779352.944 9       228.353    20700019.198    84763132.81348
       177.937    20700019.364    20700022.129    81231341.225 9       170.571


  20393569.097   107168941.491 9       240.818    20393567.347    83508266.46749
       187.651    20393567.832


  21506677.182   113018374.154 9      1727.868    21506675.093    88066269.22648
      1346.391    21506675.416


  24852508.167   130600799.089 6     -3238.366    24852510.385   101766854.70045
     -2523.399    24852510.615    24852508.738    97526564.413 7     -2418.232


  27814523.912   146166295.928 8     -2961.058
                                  27814525.618   109150153.581 7     -2211.197
  27814525.124   111997547.825 6     -2268.752    27814525.875   110573852.746 7
     -2240.031
  26087018.305   137088231.058 7       839.138
                                  26087021.372   102371079.912 7       626.642
  26087019.531   105041627.034 7       643.084    26087020.557   103706357.005 8
       634.830
  26496027.073   139237564.612 8     -1667.223
                                  26496029.931   103976104.394 7     -1245.043
  26496028.057   106688524.052 8     -1277.641    26496028.966   105332318.754 8
     -1261.349
  26497268.285   139244092.234 8     -1870.015
                                  26497271.409   103980980.685 8     -1396.356
  26497270.007   106693527.446 8     -1432.888    26497270.693   105337258.606 8
     -1414.624
  27255818.912   143230289.591 6     -2417.337
                                  27255822.005   106957682.317 8     -1805.190
  27255820.158   109747882.597 8     -1852.311    27255821.231   108352786.994 9
     -1828.788
  28472619.532   149624628.613 8      2559.473
                                  28472622.456   111732680.757 6      1911.303
  28472620.427   114647448.855 6      1961.154    28472621.725   113190066.840 7
      1936.318
  24461494.204   128546042.726 9       978.596
                                  24461494.900    95992177.467 9       730.787
  24461493.360    98496318.147 9       749.914    24461494.193    97244250.342 9
       740.355
  24248444.621   127426453.875 9      1528.283
                                  24248446.913    95156123.289 9      1141.286
  24248445.830    97638456.103 9      1171.035    24248446.645    96397294.229 9
      1156.182
  26081919.104   137061449.632 8      3045.257
                                  26081920.542   102351098.240 8      2274.144
  26081919.466   105021121.263 8      2333.471    26081920.280   103686109.290 9
      2303.776
 23 12  8 18  9 30.0000000  0 19G04G11G12G18G25G26G28G29G31G32E04E05
                                E09E13E21E24E26E31E33
  25138652.293   132104517.367 6      1993.091    25138652.319   102938581.59244
      1553.055    25138652.375    25138654.774    98649469.709 7      1488.574


  23944828.988   125830934.921 8     -2274.937    23944827.785    98050078.47147
     -1772.676    23944827.903    23944830.469    93964663.507 8     -1698.844


  23878977.770   125484865.961 8     -3253.687    23878976.097    97780410.12948
     -2535.342    23878976.554


  24425163.536   128355132.949 7      3744.525    24425162.721   100016986.79946
      2917.814    24425162.756    24425167.783    95849624.956 8      2796.207


  20802731.745   109319093.366 9     -2053.625    20802732.482    85183711.96649
     -1600.228    20802732.972    20802731.833    81634389.335 9     -1533.577


  23271645.833   122293360.407 7      3123.370    23271648.143    95293552.82547
      2433.799    23271648.130    23271645.072    91322970.952 8      2332.321


  20698771.031   108772787.498 9       209.029    20698769.835    84758016.88348
       162.881    20698770.001    20698772.740    81226438.458 9       155.960


  20392239.837   107161956.228 9       224.357    20392238.082    83502823.41649
       174.824    20392238.568


  21496858.363   112966775.896 9      1711.475    21496856.246    88026062.80748
      1333.618    21496856.571


  24870998.475   130697966.177 7     -3239.581    24871000.736   101842569.25746
     -2524.351    24871000.974    24870999.044    97599124.219 7     -2419.371


  27831427.647   146255125.526 8     -2961.319
                                  27831429.385   109216487.350 7     -2211.406
  27831428.850   112065612.095 6     -2269.187    27831429.599   110641051.759 8
     -2240.383
  26082265.712   137063256.061 7       825.452
                                  26082268.776   102352429.763 7       616.398
  26082266.901   105022490.343 7       632.583    26082267.958   103687463.586 8
       624.493
  26505576.436   139287746.796 8     -1678.650
                                  26505579.310   104013578.068 7     -1253.434
  26505577.418   106726975.289 8     -1286.174    26505578.339   105370281.217 8
     -1269.848
  26507975.230   139300357.791 8     -1881.508
                                  26507978.374   104022997.203 8     -1404.939
  26507976.989   106736640.031 8     -1441.610    26507977.650   105379823.152 8
     -1423.342
  27269624.931   143302840.604 6     -2419.822
                                  27269628.092   107011859.961 8     -1806.934
  27269626.230   109803473.569 8     -1854.126    27269627.308   108407671.297 9
     -1830.520
  28458004.587   149547827.706 7      2560.171
                                  28458007.480   111675329.751 6      1911.693
  28458005.423   114588601.681 7      1961.642    28458006.715   113131967.757 7
      1936.605
  24455947.069   128516892.378 9       964.245
                                  24455947.765    95970409.367 9       720.040
  24455946.217    98473982.183 9       738.856    24455947.051    97222198.307 9
       729.478
  24239732.351   127380670.635 9      1523.474
                                  24239734.639    95121934.523 9      1137.701
  24239733.570    97603375.451 9      1167.351    24239734.364    96362659.522 9
      1152.513
  26064548.125   136970164.673 8      3039.909
                                  26064549.522   102282930.942 8      2269.988
  26064548.533   104951175.682 8      2329.278    26064549.291   103617052.847 9
      2299.642
 23 12  8 18 10  0.0000000  0 19G04G11G12G18G25G26G28G29G31G32E04E05
                                E09E13E21E24E26E31E33
  25127316.403   132044946.739 6      1978.018    25127316.442   102892162.94544
      1541.314    25127316.492    25127318.930    98604985.160 8      1476.955


  23957859.393   125899410.172 8     -2290.295    23957858.215    98103435.81047
     -1784.645    23957858.333    23957860.844    94015797.653 8     -1710.226


  23897562.999   125582531.798 8     -3257.490    23897561.331    97856513.34947
     -2538.305    23897561.790


  24403792.274   128242826.500 7      3742.498    24403791.450    99929475.35246
      2916.232    24403791.481    24403796.506    95765759.836 8      2794.589


  20814486.399   109380864.397 9     -2064.551    20814487.153    85231845.21449
     -1608.742    20814487.642    20814486.502    81680517.036 9     -1541.671


  23253826.848   122199721.346 8      3119.011    23253829.127    95220587.41146
      2430.400    23253829.116    23253826.089    91253045.781 8      2329.099


  20697634.915   108766817.230 9       189.053    20697633.737    84753364.72648
       147.314    20697633.904    20697636.613    81221980.141 9       141.114


  20391006.439   107155474.686 9       207.485    20391004.673    83497772.87049
       161.677    20391005.157


  21487135.773   112915683.369 9      1694.430    21487133.639    87986250.46748
      1320.336    21487133.963


  24889498.332   130795183.478 7     -3241.735    24889500.639   101918322.95846
     -2526.028    24889500.876    24889498.896    97671721.515 7     -2420.592


  27848335.287   146343975.506 8     -2962.000
                                  27848337.064   109282836.313 7     -2211.955
  27848336.480   112133691.922 7     -2269.628    27848337.236   110708266.151 8
     -2240.746
  26077592.881   137038700.291 7       811.422
                                  26077595.907   102334092.678 7       605.969
  26077594.038   105003674.917 7       621.707    26077595.132   103668887.337 8
       613.831
  26515191.503   139338274.413 8     -1690.148
                                  26515194.371   104051309.727 7     -1262.129
  26515192.482   106765691.255 7     -1295.018    26515193.413   105408505.021 8
     -1278.579
  26518749.184   139356975.304 8     -1893.260
                                  26518752.337   104065276.530 8     -1413.733
  26518750.968   106780022.279 8     -1450.600    26518751.602   105422653.935 8
     -1432.145
  27283445.632   143375468.857 7     -2422.474
                                  27283448.840   107066095.314 8     -1808.887
  27283446.992   109859123.763 8     -1856.083    27283448.057   108462614.073 9
     -1832.479
  28443388.132   149471018.688 7      2560.310
                                  28443391.021   111617972.613 6      1911.934
  28443388.957   114529748.247 7      1961.869    28443390.227   113073862.471 8
      1936.851
  24450483.591   128488181.665 9       949.533
                                  24450484.287    95948969.565 9       709.169
  24450482.730    98451983.080 9       727.586    24450483.567    97200478.856 9
       718.380
  24231049.101   127335039.863 9      1518.390
                                  24231051.375    95087859.610 9      1133.920
  24231050.335    97568411.626 9      1163.438    24231051.094    96328140.151 9
      1148.686
  26047209.738   136879050.943 8      3034.139
                                  26047211.125   102214891.492 8      2265.730
  26047210.188   104881361.279 8      2324.881    26047210.904   103548125.922 8
      2295.306
 23 12  8 18 10 30.0000000  0 19G04G11G12G18G25G26G28G29G31G32E04E05
                                E09E13E21E24E26E31E33
  25116068.695   131985839.348 6      1962.713    25116068.734   102846105.16145
      1529.384    25116068.786    25116071.282    98560846.456 7      1465.546


  23970976.283   125968339.932 8     -2304.962    23970975.113    98157147.32646
     -1796.073    23970975.229    23970977.683    94067271.213 8     -1721.398


  23916169.990   125680311.989 8     -3261.338    23916168.329    97932705.67148
     -2541.303    23916168.789


  24382433.238   128130584.190 7      3740.301    24382432.404    99842013.88746
      2914.524    24382432.436    24382437.456    95681942.597 8      2793.102


  20826303.244   109442962.338 9     -2075.376    20826304.018    85280233.21449
     -1617.176    20826304.507    20826303.364    81726888.880 9     -1549.792


  23236032.128   122106209.581 7      3114.942    23236034.384    95147721.16546
      2427.229    23236034.370    23236031.375    91183215.618 8      2326.116


  20696612.238   108761443.069 9       169.327    20696611.078    84749177.06448
       131.942    20696611.247    20696613.928    81217966.957 9       126.376


  20389868.856   107149496.678 9       190.798    20389867.076    83493114.69449
       148.674    20389867.561


  21477509.819   112865098.711 9      1677.662    21477507.679    87946833.86848
      1307.270    21477508.006


  24908007.220   130892448.219 7     -3242.819    24908009.568   101994113.64246
     -2526.875    24908009.796    24908007.783    97744354.267 7     -2421.611


  27865246.458   146432844.089 7     -2962.362
                                  27865248.282   109349199.182 7     -2212.247
  27865247.650   112201786.005 7     -2269.953    27865248.409   110775494.625 8
     -2241.110
  26072999.995   137014564.722 7       797.309
                                  26073002.960   102316069.389 7       595.489
  26073001.146   104985181.441 7       611.085    26073002.251   103650628.944 8
       603.384
  26524872.079   139389146.240 8     -1701.412
                                  26524874.905   104089298.428 7     -1270.465
  26524873.024   106804670.942 8     -1303.603    26524873.988   105446989.219 8
     -1286.965
  26529589.881   139413943.484 8     -1904.776
                                  26529593.031   104107817.700 8     -1422.316
  26529591.673   106823673.218 8     -1459.351    26529592.282   105465749.993 8
     -1440.890
  27297281.068   143448174.509 7     -2424.790
                                  27297284.304   107120388.469 8     -1810.705
  27297282.481   109914833.256 8     -1857.975    27297283.525   108517615.398 9
     -1834.345
  28428770.241   149394202.130 7      2560.793
                                  28428773.141   111560609.827 7      1912.108
  28428771.076   114470889.015 7      1962.088    28428772.315   113015751.456 8
      1937.112
  24445103.943   128459911.489 9       934.995
                                  24445104.652    95927858.742 9       698.279
  24445103.084    98430321.528 9       716.439    24445103.921    97179092.675 9
       707.320
  24222395.044   127289562.427 9      1513.376
                                  24222397.290    95053899.193 9      1130.160
  24222396.290    97533565.287 9      1159.597    24222397.015    96293736.774 9
      1144.883
  26029904.361   136788110.681 8      3028.501
                                  26029905.747   102146981.578 8      2261.556
  26029904.821   104811679.791 8      2320.495    26029905.524   103479330.218 8
      2290.984
 23 12  8 18 11  0.0000000  0 19G04G11G12G18G25G26G28G29G31G32E04E05
                                E09E13E21E24E26E31E33
  25104909.285   131927196.360 6      1947.309    25104909.295   102800409.32244
      1517.382    25104909.353    25104911.878    98517054.601 7      1454.168


  23984179.063   126037721.041 8     -2320.034    23984177.890    98211210.54546
     -1807.816    23984178.008    23984180.402    94119081.780 8     -1732.385


  23934798.359   125778204.611 7     -3264.748    23934796.691    98008985.62047
     -2543.961    23934797.156


  24361086.749   128018407.773 7      3738.479    24361085.906    99754603.76446
      2913.103    24361085.934    24361090.948    95598174.559 8      2791.686


  20838181.945   109505385.335 9     -2085.749    20838182.732    85328874.50749
     -1625.259    20838183.221    20838182.076    81773503.456 9     -1557.641


  23218261.658   122012825.325 8      3111.045    23218263.870    95074954.28946
      2424.192    23218263.851    23218260.894    91113480.704 8      2323.106


  20695702.909   108756664.588 9       149.591    20695701.761    84745453.57748
       116.564    20695701.931    20695704.597    81214398.617 9       111.753


  20388826.877   107144021.079 9       174.509    20388825.084    83488848.01049
       135.982    20388825.571


  21467980.648   112815022.709 9      1660.918    21467978.509    87907813.63348
      1294.222    21467978.835


  24926524.400   130989756.502 7     -3244.292    24926526.773   102069938.26046
     -2528.022    24926526.996    24926524.956    97817019.504 7     -2422.452


  27882160.636   146521728.478 6     -2962.714
                                  27882162.538   109415573.833 7     -2212.373
  27882161.860   112269892.149 7     -2270.214    27882162.606   110842735.029 8
     -2241.303
  26068486.987   136990848.875 7       783.749
                                  26068489.887   102298359.516 7       585.350
  26068488.160   104967009.559 7       600.642    26068489.254   103632688.073 8
       592.992
  26534617.686   139440359.759 8     -1712.489
                                  26534620.458   104127542.280 7     -1278.718
  26534618.603   106843912.460 7     -1312.087    26534619.590   105485731.904 8
     -1295.375
  26540496.791   139471259.773 8     -1916.048
                                  26540499.896   104150618.845 8     -1430.824
  26540498.547   106867590.948 8     -1468.185    26540499.144   105509109.434 8
     -1449.551
  27311131.032   143520956.411 8     -2426.993
                                  27311134.292   107174738.548 8     -1812.392
  27311132.492   109970601.174 8     -1859.709    27311133.515   108572674.394 9
     -1836.021
  28414150.830   149317377.317 7      2561.326
                                  28414153.758   111503240.792 7      1912.592
  28414151.684   114412023.374 7      1962.607    28414152.905   112957634.119 8
      1937.628
  24439808.057   128432081.556 9       920.638
                                  24439808.781    95907076.676 9       687.511
  24439807.212    98408997.319 9       705.436    24439808.035    97158039.532 9
       696.489
  24213770.068   127244237.878 9      1508.584
                                  24213772.272    95020052.967 9      1126.471
  24213771.312    97498836.102 9      1155.926    24213772.008    96259449.067 9
      1141.201
  26012632.154   136697344.752 8      3022.954
                                  26012633.538   102079201.856 8      2257.337
  26012632.600   104742131.882 8      2316.241    26012633.303   103410666.401 9
      2286.775
 23 12  8 18 11 30.0000000  0 19G04G11G12G18G25G26G28G29G31G32E04E05
                                E09E13E21E24E26E31E33
  25093838.929   131869020.970 6      1931.748    25093838.935   102755077.83645
      1505.256    25093838.984    25093841.590    98473611.923 7      1442.366


  23997467.534   126107552.529 8     -2335.057    23997466.350    98265624.72546
     -1819.525    23997466.472    23997468.819    94171228.708 8     -1743.776


  23953448.307   125876210.707 7     -3268.864    23953446.626    98085354.00247
     -2547.167    23953447.089


  24339753.594   127906301.420 7      3735.806    24339752.728    99667248.20946
      2911.018    24339752.761    24339757.762    95514458.849 8      2789.677


  20850122.637   109568134.050 9     -2097.025    20850123.425    85377769.60449
     -1634.045    20850123.914    20850122.769    81820361.251 9     -1565.945


  23200515.998   121919571.322 8      3106.271    23200518.170    95002288.89346
      2420.474    23200518.150    23200515.230    91043843.025 8      2319.619


  20694907.339   108752483.851 9       129.416    20694906.197    84742195.85548
       100.844    20694906.365    20694909.033    81211276.634 9        96.677


  20387880.609   107139048.436 9       157.419    20387878.803    83484973.23749
       122.665    20387879.288


  21458549.052   112765459.415 9      1643.605    21458546.918    87869192.89748
      1280.732    21458547.245


  24945049.576   131087106.675 7     -3245.581    24945051.958   102145795.50245
     -2529.025    24945052.181    24945050.134    97889716.055 7     -2423.663


  27899077.686   146610628.109 6     -2963.515
                                  27899079.734   109481959.836 7     -2212.986
  27899079.016   112338009.976 7     -2270.786    27899079.721   110909986.940 8
     -2241.886
  26064054.236   136967554.828 7       769.530
                                  26064057.076   102280964.646 7       574.588
  26064055.443   104949160.902 7       589.613    26064056.497   103615066.309 8
       582.102
  26544428.287   139491914.805 8     -1724.119
                                  26544431.007   104166041.171 7     -1287.441
  26544429.175   106883415.670 7     -1321.075    26544430.172   105524732.952 8
     -1304.263
  26551469.970   139528924.074 8     -1927.833
                                  26551473.042   104193679.847 8     -1439.623
  26551471.688   106911775.296 8     -1477.215    26551472.291   105552732.104 9
     -1458.360
  27324995.728   143593815.725 8     -2430.021
                                  27324998.997   107229146.450 8     -1814.548
  27324997.211   110026428.409 9     -1861.820    27324998.221   108627791.961 9
     -1838.178
  28399530.190   149240545.957 7      2561.095
                                  28399533.142   111445866.839 7      1912.561
  28399531.060   114353152.696 7      1962.522    28399532.274   112899511.802 8
      1937.519
  24434596.323   128404693.897 9       905.601
                                  24434597.062    95886624.883 9       676.231
  24434595.484    98388011.989 9       693.933    24434596.300    97137320.972 9
       685.104
  24205174.571   127199068.206 9      1503.160
                                  24205176.742    94986322.378 9      1122.458
  24205175.816    97464225.588 9      1151.728    24205176.490    96225278.517 9
      1137.091
  25995393.771   136606756.457 8      3016.674
                                  25995395.145   102011554.762 8      2252.667
  25995394.206   104672720.078 8      2311.488    25995394.900   103342136.955 9
      2282.093
 23 12  8 18 12  0.0000000  0 19G04G11G12G18G25G26G28G29G31G32E04E05
                                E09E13E21E24E26E31E33
  25082857.728   131811314.113 6      1916.036    25082857.709   102710111.42845
      1493.016    25082857.756    25082860.456    98430519.112 7      1430.635


  24010841.098   126177831.099 7     -2349.983    24010839.907    98320387.26346
     -1831.156    24010840.027    24010842.349    94223709.478 8     -1754.897


  23972119.407   125974328.006 7     -3272.673    23972117.714    98161809.04547
     -2550.135    23972118.174


  24318434.070   127794266.742 7      3733.439    24318433.186    99579948.52846
      2909.175    24318433.227    24318438.211    95430796.670 8      2787.848


  20862124.946   109631206.489 9     -2107.739    20862125.742    85426916.93349
     -1642.395    20862126.232    20862125.083    81867460.775 9     -1573.963


  23182795.108   121826447.615 7      3101.697    23182797.227    94929725.02846
      2416.909    23182797.205    23182794.328    90974302.680 8      2316.421


  20694225.400   108748900.271 9       109.502    20694224.250    84739403.45648
        85.325    20694224.416    20694227.101    81208600.583 9        81.783


  20387029.781   107134577.267 9       140.690    20387027.959    83481489.21049
       109.629    20387028.445


  21449215.103   112716409.204 9      1626.366    21449212.967    87830971.96148
      1267.298    21449213.293


  24963581.964   131184494.733 6     -3246.482    24963584.340   102221682.26945
     -2529.729    24963584.566    24963582.510    97962440.877 7     -2424.484


  27915997.004   146699539.831 6     -2963.817
                                  27915999.207   109548354.903 7     -2213.255
  27915998.442   112406137.082 7     -2270.974    27915999.102   110977248.031 8
     -2242.068
  26059701.712   136944682.256 7       755.253
                                  26059704.506   102263884.482 7       564.093
  26059702.962   104931635.146 7       578.822    26059703.966   103597763.341 8
       571.615
  26554303.365   139543808.698 8     -1735.341
                                  26554306.042   104204793.102 7     -1295.905
  26554304.224   106923178.520 7     -1329.753    26554305.230   105563990.348 8
     -1312.830
  26562508.873   139586933.706 8     -1939.461
                                  26562511.918   104236998.731 8     -1448.277
  26562510.556   106956224.230 8     -1486.114    26562511.170   105596616.011 9
     -1467.133
  27338874.904   143666751.133 8     -2432.330
                                  27338878.174   107283611.187 8     -1816.443
  27338876.403   110082313.976 9     -1863.774    27338877.399   108682967.115 9
     -1840.074
  28384908.194   149163707.224 7      2561.564
                                  28384911.169   111388487.314 7      1912.724
  28384909.077   114294276.301 7      1962.681    28384910.298   112841383.848 8
      1937.629
  24429468.667   128377748.043 9       890.879
                                  24429469.416    95866502.996 9       665.255
  24429467.819    98367365.184 9       682.598    24429468.642    97116936.623 9
       673.941
  24196608.439   127154052.846 9      1498.056
                                  24196610.584    94952707.022 9      1118.638
  24196609.675    97429733.306 9      1147.793    24196610.336    96191224.696 9
      1133.237
  25978189.310   136516346.512 8      3010.647
                                  25978190.655   101944040.880 8      2248.108
  25978189.734   104603444.952 8      2306.893    25978190.407   103273742.451 9
      2277.477
