     2.11           OBSERVATION DATA    M (MIXED)           RINEX VERSION / TYPE
RTKCONV 2.4.2                           20230831 194853 UTC PGM / RUN BY / DATE 
log: C:\Users\oo\Desktop\divers\verniquet\Reseau\verniquet  COMMENT             
format: u-blox                                              COMMENT             
                                                            MARKER NAME         
                                                            MARKER NUMBER       
                                                            OBSERVER / AGENCY   
                                                            REC # / TYPE / VERS 
                                                            ANT # / TYPE        
  4200342.7925   178223.0416  4780599.3580                  APPROX POSITION XYZ 
        0.0000        0.0000        0.0000                  ANTENNA: DELTA H/E/N
     1     1                                                WAVELENGTH FACT L1/2
     4    C1    L1    D1    S1                              # / TYPES OF OBSERV 
  2023     8    31    16    25   13.9910000     GPS         TIME OF FIRST OBS   
  2023     8    31    17     8   53.9920000     GPS         TIME OF LAST OBS    
                                                            END OF HEADER       
 23  8 31 16 25 13.9910000  0 10G 5G 7G13G 9G14G20G11G30G22G15
  18090259.810    95064950.887         806.482          48.000  
  19492036.202   102431328.946       -2204.768          45.000  
  18689266.768    98212760.154        2222.179          46.000  
  22489384.701   118182515.881       -3340.368          33.000  
  20334458.551   106858293.341        2903.675          44.000  
  18004329.301    94613378.348       -1476.239          47.000  
  21748681.643   114290089.562       -3523.190          40.000  
  18103091.758    95132378.756        -662.573          48.000  
  21256603.651   111704221.777        3318.848          38.000  
  21626869.107   113649970.347        3488.159          34.000  
 23  8 31 16 25 14.9910000  0 10G 5G 7G13G 9G14G20G11G30G22G15
  18090106.597    95064145.059         805.347          47.000  
  19492456.281   102433534.334       -2205.667          45.000  
  18688844.194    98210538.488        2221.404          46.000  
  22490020.273   118185856.901       -3341.630          33.000  
  20333905.886   106855390.053        2903.202          44.000  
  18004610.250    94614855.409       -1477.448          47.000  
  21749352.220   114293612.905       -3523.424          40.000  
  18103217.975    95133041.888        -663.452          48.000  
  21255972.250   111700903.204        3318.732          38.000  
  21626205.423   113646482.698        3487.477          34.000  
 23  8 31 16 25 15.9910000  0 10G 5G 7G13G 9G14G20G11G30G22G15
  18089953.436    95063339.903         805.218          47.000  
  19492876.011   102435740.036       -2205.286          45.000  
  18688421.305    98208317.138        2221.796          46.000  
  22490655.531   118189197.981       -3341.299          33.000  
  20333353.359   106852487.121        2903.385          44.000  
  18004891.338    94616333.118       -1477.600          47.000  
  21750022.832   114297136.384       -3522.989          40.000  
  18103344.070    95133705.560        -663.391          48.000  
  21255340.569   111697584.860        3318.494          38.000  
  21625541.669   113642995.143        3488.151          33.000  
 23  8 31 16 25 16.9910000  0 10G 5G 7G13G 9G14G20G11G30G22G15
  18089800.224    95062535.055         804.565          47.000  
  19493295.445   102437945.746       -2205.603          45.000  
  18687998.574    98206095.776        2221.426          46.000  
  22491291.417   118192538.723       -3340.551          32.000  
  20332800.816   106849584.181        2902.935          43.000  
  18005172.723    94617811.120       -1478.198          47.000  
  21750693.269   114300659.592       -3523.088          41.000  
  18103470.881    95134369.439        -664.038          48.000  
  21254708.819   111694266.299        3318.488          38.000  
  21624877.461   113639507.368        3487.866          33.000  
 23  8 31 16 25 17.9910000  0 10G 5G 7G13G 9G14G20G11G30G22G15
  18089647.482    95061731.456         802.631          48.000  
  19493715.192   102440152.368       -2207.224          45.000  
  18687576.209    98203875.357        2219.447          47.000  
  22491927.337   118195880.235       -3341.693          32.000  
  20332248.377   106846682.218        2901.185          43.000  
  18005454.369    94619290.373       -1480.231          47.000  
  21751363.829   114304183.593       -3524.519          41.000  
  18103597.325    95135034.458        -665.967          48.000  
  21254077.331   111690948.514        3316.858          41.000  
  21624213.707   113636020.182        3486.764          34.000  
 23  8 31 16 25 18.9910000  0 10G 5G 7G13G 9G14G20G11G30G22G15
  18089495.054    95060929.965         800.690          48.000  
  19494134.992   102442360.780       -2208.921          45.000  
  18687154.001    98201656.661        2218.131          46.000  
  22492563.293   118199223.267       -3343.672          31.000  
  20331696.810   106843781.980        2899.691          43.000  
  18005736.417    94620771.700       -1482.074          47.000  
  21752034.790   114307709.135       -3526.026          41.000  
  18103724.555    95135701.434        -667.572          48.000  
  21253446.174   111687632.293        3315.759          40.000  
  21623550.285   113632534.659        3484.547          34.000  
 23  8 31 16 26  7.9910000  0 10G 5G 7G13G 9G14G20G11G30G22G15
  18082269.181    95022972.4971        745.667          47.000  
  19514896.651   102551475.2513      -2247.498          45.000  
  18666634.918    98093827.8633       2179.868          47.000  
  22523844.780   118363620.3873      -3369.177          31.000  
  20304828.134   106702590.5893       2860.404          44.000  
  18019791.520    94694644.4383      -1536.041          47.000  
  21785029.330   114481098.3993      -3554.115          41.000  
  18110161.347    95169537.6513       -716.528          47.000  
  21222656.556   111525815.2793       3285.199          40.000  
  21591164.147   113462337.2603       3458.142          36.000  
 23  8 31 16 26  8.9910000  0 10G 5G 7G13G 9G14G20G11G30G22G15
  18082126.124    95022221.733         745.898          47.000  
  19515323.657   102553717.7562      -2247.161          45.000  
  18666219.376    98091642.9282       2180.394          47.000  
  22524490.177                       -3368.136          30.000  
  20304282.867   106699725.0152       2860.985          44.000  
  18020082.695    94696175.3482      -1535.736          47.000  
  21785704.601   114484647.3692      -3553.402          41.000  
  18110296.778    95170249.0532       -716.113          47.000  
  21222030.599   111522524.9052       3285.809          40.000  
  21590505.314                        3458.829          36.000  
 23  8 31 16 26  9.9910000  0 10G 5G 7G13G 9G14G20G11G30G22G15
  18081982.927    95021468.589         750.079          47.000  
  19515749.670   102555957.5262      -2242.438          45.000  
  18665803.031    98089455.2672       2184.922          47.000  
  22525126.481                       -3365.067          30.000  
  20303736.867   106696856.7272       2865.574          43.000  
  18020373.223    94697703.8342      -1531.451          47.000  
  21786379.401   114488193.3932      -3548.349          41.000  
  18110431.372    95170957.9422       -711.780          47.000  
  21221403.613   111519231.6122       3290.851          40.000  
  21589845.992                        3463.248          36.000  
 23  8 31 16 26 10.9910000  0 10G 5G 7G13G 9G14G20G11G30G22G15
  18081839.330    95020714.213         755.591          47.000  
  19516175.926   102558195.7492      -2237.096          45.000  
  18665386.442    98087266.0532       2190.222          47.000  
  22525770.866   118373697.4543      -3360.849          30.000  
  20303190.693   106693986.8992       2871.049          43.000  
  18020663.787    94699231.0672      -1525.928          47.000  
  21787053.555   114491737.6702      -3543.145          41.000  
  18110566.018    95171665.4852       -706.384          47.000  
  21220776.330   111515936.6192       3296.252          40.000  
  21589185.937   113451936.0833       3469.906          36.000  
 23  8 31 16 26 11.9910000  0 10G 5G 7G13G 9G14G20G11G30G22G15
  18081695.557    95019959.744         751.697          47.000  
  19516601.903   102560433.4852      -2240.076          45.000  
  18664969.801    98085076.3662       2187.008          47.000  
  22526400.644   118377056.2042      -3361.465          29.000  
  20302644.588   106691116.6222       2867.751          44.000  
  18020954.386    94700758.1782      -1529.877          47.000  
  21787727.640   114495281.2422      -3546.146          41.000  
  18110700.873    95172372.7482       -709.943          47.000  
  21220149.221   111512641.0122       3292.908          40.000  
  21588525.709   113448467.3302       3466.298          36.000  
 23  8 31 16 26 12.9910000  0 10G 5G 7G13G 9G14G20G11G30G22G15
  18081552.430    95019207.575         751.385          47.000  
  19517028.230   102562672.7141      -2240.266          45.000  
  18664553.421    98082888.1461       2186.917          47.000  
  22527046.965                       -3360.088          29.000  
  20302098.519   106688247.8431       2867.661          44.000  
  18021245.403    94702287.0511      -1530.042          47.000  
  21788402.300   114498826.0701      -3545.712          41.000  
  18110835.798    95173082.205        -710.010          47.000  
  21219522.270   111509346.7171       3292.865          40.000  
  21587865.863   113445000.3172       3465.928          36.000  
 23  8 31 16 26 13.9910000  0 10G 5G 7G13G 9G14G20G11G30G22G15
  18081409.531    95018456.435         745.453          47.000  
  19517454.748   102564913.156       -2245.976          45.000  
  18664137.181    98080701.127        2181.461          47.000  
  22527692.885                       -3365.393          29.000  
  20301552.763   106685380.292        2862.008          44.000  
  18021536.595    94703817.452       -1536.072          47.000  
  21789077.013   114502371.916       -3551.188          41.000  
  18110971.159    95173792.595        -716.052          47.000  
  21218895.633   111506053.455        3288.086          40.000  
  21587206.158   113441533.7652       3460.790          36.000  
 23  8 31 16 26 14.9910000  0 10G 5G 7G13G 9G14G20G11G30G22G15
  18081267.434    95017709.864         743.091          47.000  
  19517882.051   102567157.811       -2247.761          45.000  
  18663721.656    98078518.342        2179.137          47.000  
  22528325.089                       -3368.698          30.000  
  20301008.020   106682516.974        2859.862          44.000  
  18021828.100    94705352.385       -1538.452          47.000  
  21789752.231   114505921.784       -3553.580          40.000  
  18111106.765    95174507.393        -718.133          47.000  
  21218269.955   111502764.283        3285.675          40.000  
  21586547.325   113438071.2402       3458.419          36.000  
 23  8 31 16 26 15.9910000  0 10G 5G 7G13G 9G14G20G11G30G22G15
  18081126.314    95016968.271         742.493          47.000  
  19518310.297   102569407.085       -2247.923          45.000  
  18663307.249    98076340.151        2179.691          47.000  
  22528964.779                       -3368.890          29.000  
  20300463.765   106679658.299        2859.724          44.000  
  18022120.845    94706892.260       -1538.995          47.000  
  21790428.724   114509476.002       -3552.653          41.000  
  18111243.592    95175227.037        -718.549          47.000  
  21217645.115   111499479.567        3285.559          40.000  
  21585889.469   113434613.0052       3460.216          36.000  
 23  8 31 16 26 16.9910000  0 10G 5G 7G13G 9G14G20G11G30G22G15
  18080985.438    95016227.760         742.145          47.000  
  19518738.543   102571657.146       -2247.793          45.000  
  18662892.841    98074162.756        2179.585          47.000  
  22529608.640                       -3366.368          29.000  
  20299919.998   106676800.401        2859.920          44.000  
  18022414.149    94708433.210       -1539.166          47.000  
  21791105.234   114513030.819       -3552.621          40.000  
  18111380.698    95175947.658        -718.811          47.000  
  21217020.170   111496195.449        3286.279          40.000  
  21585231.317   113431155.4352       3459.674          37.000  
 23  8 31 16 26 17.9910000  0 10G 5G 7G13G 9G14G20G11G30G22G15
  18080843.428    95015482.419         747.382          47.000  
  19519165.777   102573902.029       -2242.397          45.000  
  18662477.613    98071980.194        2184.977          47.000  
  22530241.803   118397256.2943      -3362.927          30.000  
  20299374.976   106673937.350        2865.397          43.000  
  18022706.736    94709969.302       -1534.064          47.000  
  21791780.714   114516580.263       -3547.261          40.000  
  18111517.054    95176663.311        -713.531          47.000  
  21216394.283   111492906.015        3291.626          40.000  
  21584572.362   113427692.4072       3465.562          37.000  
 23  8 31 16 26 18.9910000  0 10G 5G 7G13G 9G14G20G11G30G22G15
  18080701.663    95014738.288         742.999          47.000  
  19519592.975   102576147.789       -2246.490          45.000  
  18662062.577    98069798.489        2180.894          47.000  
  22530884.355   118400621.3862      -3365.556          30.000  
  20298830.215   106671075.199        2861.237          43.000  
  18022999.464    94711506.572       -1538.342          47.000  
  21792455.846   114520130.341       -3550.874          40.000  
  18111653.585    95177380.039        -717.596          47.000  
  21215768.397   111489617.279        3287.708          40.000  
  21583913.040   113424229.4951       3462.404          37.000  
 23  8 31 16 26 19.9910000  0 10G 5G 7G13G 9G14G20G11G30G22G15
  18080560.578    95013996.409         740.784          47.000  
  19520020.453   102578395.473       -2248.500          45.000  
  18661647.733    98067618.706        2178.837          47.000  
  22531525.843   118403988.2132      -3367.615          30.000  
  20298285.768   106668214.964        2859.470          43.000  
  18023292.366    94713046.085       -1540.619          47.000  
  21793131.693   114523682.138       -3552.920          41.000  
  18111790.133    95178098.903        -719.940          47.000  
  21215142.946   111486330.312        3286.145          40.000  
  21583254.504   113420768.794        3460.513          37.000  
 23  8 31 16 26 20.9910000  0 10G 5G 7G13G 9G14G20G11G30G22G15
  18080419.859    95013257.229         737.366          47.000  
  19520448.455   102580645.509       -2251.728          45.000  
  18661233.308    98065441.261        2175.702          47.000  
  22532170.349   118407357.0602      -3370.190          31.000  
  20297741.950   106665357.125        2856.064          43.000  
  18023585.913    94714588.244       -1543.921          47.000  
  21793808.063   114527236.043       -3555.682          41.000  
  18111927.606    95178820.312        -722.919          47.000  
  21214517.774   111483045.524        3283.466          40.000  
  21582596.264   113417310.272        3456.779          37.000  
 23  8 31 16 26 21.9910000  0 10G 5G 7G13G 9G14G20G11G30G22G15
  18080279.297    95012517.563         738.629          47.000  
  19520876.247   102582894.715       -2250.196          45.000  
  18660818.760    98063263.001        2177.012          47.000  
  22532812.325   118410724.7892      -3368.523          31.000  
  20297197.834   106662498.478        2857.460          43.000  
  18023879.426    94716129.912       -1542.841          47.000  
  21794484.224   114530788.931       -3554.025          41.000  
  18112064.695    95179541.133        -722.052          47.000  
  21213892.411   111479759.783        3285.095          40.000  
  21581937.972   113413850.588        3458.906          36.000  
 23  8 31 16 26 22.9910000  0 10G 5G 7G13G 9G14G20G11G30G22G15
  18080137.410    95011771.837         744.818          47.000  
  19521302.905   102585137.519       -2243.257          45.000  
  18660402.799    98061078.331        2183.912          47.000  
  22533454.702   118414085.9632      -3361.167          34.000  
  20296652.061   106659633.441        2864.402          43.000  
  18024171.438    94717665.476       -1536.206          47.000  
  21795159.234   114534335.221       -3547.179          40.000  
  18112200.649    95180255.744        -715.375          47.000  
  21213265.826   111476467.465        3291.955          40.000  
  21581278.232   113410384.370        3465.200          36.000  
 23  8 31 16 26 23.9910000  0 10G 5G 7G13G 9G14G20G11G30G22G15
  18079996.063    95011029.933         741.138          47.000  
  19521730.208   102587383.828       -2246.749          44.000  
  18659987.868    98058897.153        2180.601          47.000  
  22534092.700   118417450.4172      -3364.994          33.000  
  20296107.335   106656771.930        2860.764          43.000  
  18024464.322    94719204.872       -1540.314          47.000  
  21795834.749   114537884.756       -3549.690          40.000  
  18112337.494    95180974.079        -718.982          47.000  
  21212640.201   111473178.522        3287.714          40.000  
  21580618.910   113406921.315        3462.799          36.000  
 23  8 31 16 26 24.9910000  0 10G 5G 7G13G 9G14G20G11G30G22G15
  18079855.187    95010290.039         739.447          47.000  
  19522157.634   102589631.806       -2248.180          44.000  
  18659573.216    98056717.650        2179.348          47.000  
  22534730.837   118420815.7271      -3366.239          32.000  
  20295563.098   106653912.097        2859.632          43.000  
  18024758.044    94720746.226       -1541.693          47.000  
  21796510.544   114541435.761       -3550.992          40.000  
  18112474.304    95181694.270        -720.428          47.000  
  21212014.698   111469891.021        3287.775          41.000  
  21579960.252   113403459.725        3462.094          36.000  
 23  8 31 16 26 25.9910000  0 10G 5G 7G13G 9G14G20G11G30G22G15
  18079714.870    95009550.965         739.130          47.000  
  19522585.164   102591880.234       -2247.994          44.000  
  18659158.494    98054538.609        2179.304          47.000  
  22535368.974   118424181.755       -3365.700          32.000  
  20295019.070   106651052.742        2859.543          43.000  
  18025051.697    94722288.367       -1542.047          47.000  
  21797186.443   114544987.056       -3551.343          40.000  
  18112611.532    95182415.167        -720.905          47.000  
  21211389.160   111466603.875        3287.439          41.000  
  21579301.297   113399998.438        3461.813          36.000  
 23  8 31 16 26 26.9910000  0 10G 5G 7G13G 9G14G20G11G30G22G15
  18079574.553    95008812.885         736.975          47.000  
  19523013.148   102594129.364       -2250.128          44.000  
  18658744.261    98052360.219        2177.494          47.000  
  22536010.671   118427548.249       -3367.043          31.000  
  20294474.728   106648194.079        2857.955          43.000  
  18025345.209    94723831.490       -1544.250          47.000  
  21797862.203   114548538.768       -3552.913          40.000  
  18112748.691    95183136.915        -722.839          47.000  
  21210763.796   111463317.243        3285.382          41.000  
  21578642.551   113396537.524        3460.298          35.000  
 23  8 31 16 26 27.9910000  0 10G 5G 7G13G 9G14G20G11G30G22G15
  18079434.393    95008076.469         735.706          47.000  
  19523441.220   102596379.776       -2250.712          44.000  
  18658330.289    98050183.156        2176.575          47.000  
  22536651.896   118430915.715       -3367.730          32.000  
  20293930.822   106645336.747        2856.914          43.000  
  18025639.333    94725376.226       -1545.343          47.000  
  21798538.189   114552091.580       -3553.309          40.000  
  18112886.478    95183860.178        -723.907          47.000  
  21210138.188   111460031.738        3284.711          40.000  
  21577983.910   113393077.695        3459.845          35.000  
 23  8 31 16 26 28.9910000  0 10G 5G 7G13G 9G14G20G11G30G22G15
  18079294.547    95007341.079         734.723          47.000  
  19523869.762   102598630.899       -2251.294          45.000  
  18657916.318    98048006.798        2176.062          47.000  
  22537292.564   118434283.674       -3367.603          32.000  
  20293387.335   106642480.137        2856.307          43.000  
  18025933.683    94726921.986       -1546.246          47.000  
  21799214.315   114555644.887       -3553.359          40.000  
  18113024.491    95184584.358        -724.634          47.000  
  21209512.930   111456746.776        3284.650          40.000  
  21577325.723   113389618.375        3459.307          37.000  
 23  8 31 16 26 29.9910000  0 10G 5G 7G13G 9G14G20G11G30G22G15
  18079154.753    95006606.596         734.381          47.000  
  19524298.549   102600882.605       -2251.737          45.000  
  18657502.311    98045831.021        2175.844          47.000  
  22537933.336   118437652.000       -3368.639          31.000  
  20292843.830   106639624.139        2856.114          43.000  
  18026228.086    94728468.629       -1546.808          47.000  
  21799890.441   114559198.542       -3553.412          40.000  
  18113162.558    95185309.312        -724.902          47.000  
  21208888.020   111453462.256        3284.827          41.000  
  21576667.675   113386159.388        3458.592          36.000  
 23  8 31 16 26 30.9910000  0 10G 5G 7G13G 9G14G20G11G30G22G15
  18079015.204    95005872.588         733.240          47.000  
  19524727.056   102603134.425       -2252.485          45.000  
  18657088.113    98043655.353        2174.923          47.000  
  22538574.387   118441020.147       -3368.214          31.000  
  20292300.518   106636768.271        2855.193          43.000  
  18026522.576    94730015.697       -1547.852          47.000  
  21800566.725   114562752.100       -3553.954          40.000  
  18113300.536    95186034.603        -725.916          47.000  
  21208263.145   111450177.687        3284.015          41.000  
  21576009.383   113382700.259        3458.789          36.000  
 23  8 31 16 26 31.9910000  0 10G 5G 7G13G 9G14G20G11G30G22G15
  18078875.532    95005139.976         731.927          47.000  
  19525155.965   102605387.302       -2253.572          45.000  
  18656674.176    98041480.747        2173.989          47.000  
  22539215.682   118444389.133       -3369.816          31.000  
  20291757.101   106633913.472        2854.204          43.000  
  18026817.310    94731564.136       -1549.066          47.000  
  21801243.444   114566306.523       -3554.938          40.000  
  18113438.969    95186761.162        -727.087          47.000  
  21207638.427   111446894.033        3283.203          41.000  
  21575351.213   113379241.929        3458.321          35.000  
 23  8 31 16 26 32.9910000  0 10G 5G 7G13G 9G14G20G11G30G22G15
  18078736.105    95004408.563         731.079          47.000  
  19525585.328   102607641.040       -2254.065          45.000  
  18656260.292    98039306.987        2173.424          47.000  
  22539856.995   118447758.678       -3369.449          31.000  
  20291214.155   106631059.558        2853.595          43.000  
  18027112.131    94733113.736       -1549.908          47.000  
  21801920.024   114569861.552       -3554.972          41.000  
  18113577.367    95187488.782        -728.198          47.000  
  21207013.919   111443611.063        3282.831          41.000  
  21574693.357   113375784.304        3457.008          35.000  
 23  8 31 16 26 33.9910000  0 10G 5G 7G13G 9G14G20G11G30G22G15
  18078596.922    95003678.009         729.944          47.000  
  19526014.376   102609895.276       -2254.900          45.000  
  18655846.757    98037133.729        2172.714          48.000  
  22540498.064   118451128.525       -3370.397          32.000  
  20290671.156   106628206.144        2852.956          43.000  
  18027407.249    94734664.159       -1551.154          47.000  
  21802596.551   114573416.889       -3555.560          41.000  
  18113715.817    95188217.096        -728.845          47.000  
  21206389.393   111440328.433        3282.025          41.000  
  21574035.362   113372326.872        3457.263          34.000  
 23  8 31 16 26 34.9910000  0 10G 5G 7G13G 9G14G20G11G30G22G15
  18078458.071    95002948.536         728.937          47.000  
  19526443.512   102612150.241       -2255.253          45.000  
  18655433.291    98034961.212        2172.310          47.000  
  22541139.255   118454498.773       -3369.865          31.000  
  20290128.769   106625353.501        2852.413          43.000  
  18027702.542    94736215.631       -1552.094          47.000  
  21803273.358   114576972.767       -3556.394          41.000  
  18113854.529    95188946.384        -729.755          47.000  
  21205764.937   111437046.397        3281.769          41.000  
  21573377.471   113368870.028        3456.557          34.000  
 23  8 31 16 26 35.9910000  0 10G 5G 7G13G 9G14G20G11G30G22G15
  18078319.865    95002219.858         727.942          47.000  
  19526872.840   102614405.693       -2255.972          45.000  
  18655020.001    98032789.157        2171.587          47.000  
  22541780.620   118457869.289       -3370.542          32.000  
  20289586.294   106622501.346        2851.552          44.000  
  18027997.904    94737767.876       -1552.856          47.000  
  21803949.746   114580528.863       -3556.506          41.000  
  18113993.467    95189676.327        -730.579          47.000  
  21205140.516   111433764.663        3281.128          41.000  
  21572719.929   113365413.344        3456.592          35.000  
 23  8 31 16 26 36.9910000  0 10G 5G 7G13G 9G14G20G11G30G22G15
  18078181.171    95001492.085         727.521          47.000  
  19527301.906   102616661.711       -2256.156          45.000  
  18654606.622    98030617.687        2171.233          47.000  
  22542421.916   118461240.155       -3370.857          32.000  
  20289043.505   106619649.795        2851.345          43.000  
  18028293.616    94739321.019       -1553.461          47.000  
  21804626.518   114584085.328       -3556.334          42.000  
  18114132.249    95190407.073        -731.024          47.000  
  21204516.008   111430483.358        3281.305          41.000  
  21572062.248   113361957.022        3456.212          36.000  
 23  8 31 16 26 37.9910000  0 10G 5G 7G13G 9G14G20G11G30G22G15
  18078042.965    95000765.448         726.141          47.000  
  19527731.181   102618918.531       -2257.130          44.000  
  18654193.488    98028447.011        2170.272          47.000  
  22543063.403   118464611.611       -3372.026          32.000  
  20288501.187   106616799.062        2850.450          43.000  
  18028589.135    94740875.266       -1554.834          47.000  
  21805303.621   114587642.392       -3557.133          42.000  
  18114271.397    95191138.809        -732.165          47.000  
  21203891.988   111427202.697        3280.414          41.000  
  21571404.567   113358501.302        3455.955          35.000  
 23  8 31 16 26 38.9910000  0 10G 5G 7G13G 9G14G20G11G30G22G15
  18077904.777    95000039.623         725.537          47.000  
  19528160.509   102621175.843       -2257.654          44.000  
  18653780.599    98026276.799        2170.033          47.000  
  22543704.873   118467983.206       -3371.362          32.000  
  20287958.764   106613948.820        2849.956          43.000  
  18028885.161    94742430.303       -1555.444          47.000  
  21805980.602   114591199.707       -3557.228          42.000  
  18114410.684    95191871.251        -732.715          47.000  
  21203268.160   111423922.366        3280.383          42.000  
  21570747.252   113355045.865        3455.194          35.000  
 23  8 31 16 26 39.9910000  0 10G 5G 7G13G 9G14G20G11G30G22G15
  18077766.728    94999314.666         724.670          47.000  
  19528589.871   102623433.664       -2257.936          44.000  
  18653367.622    98024107.131        2169.484          47.000  
  22544346.535   118471355.110       -3372.016          32.000  
  20287416.603   106611099.129        2849.551          43.000  
  18029181.029    94743986.168       -1556.067          47.000  
  21806657.514   114594757.359       -3557.881          42.000  
  18114550.216    95192604.413        -733.386          47.000  
  21202644.070   111420642.402        3279.962          42.000  
  21570089.658   113351590.699        3454.525          35.000  
 23  8 31 16 26 40.9910000  0 10G 5G 7G13G 9G14G20G11G30G22G15
  18077628.505    94998590.002         723.950          47.000  
  19529019.339   102625691.451       -2258.170          44.000  
  18652954.924    98021937.394        2169.202          47.000  
  22544987.865   118474726.671       -3371.852          32.000  
  20286874.390   106608249.419        2849.068          43.000  
  18029477.142    94745542.308       -1556.836          47.000  
  21807334.582   114598314.698       -3557.666          41.000  
  18114689.696    95193337.736        -733.954          47.000  
  21202019.771   111417362.226        3279.797          42.000  
  21569431.698   113348135.160        3455.634          34.000  
 23  8 31 16 26 41.9910000  0 10G 5G 7G13G 9G14G20G11G30G22G15
  18077490.718    94997866.527         722.949          47.000  
  19529448.911   102627950.075       -2258.961          44.000  
  18652542.157    98019768.515        2168.347          47.000  
  22545629.702   118478098.871       -3372.834          32.000  
  20286332.264   106605400.560        2848.594          43.000  
  18029773.446    94747099.595       -1557.867          47.000  
  21808011.616   114601872.680       -3558.234          41.000  
  18114829.385    95194072.092        -734.784          47.000  
  21201395.978   111414082.739        3279.034          42.000  
  21568773.947   113344680.291        3455.243          34.000  
 23  8 31 16 26 42.9910000  0 10G 5G 7G13G 9G14G20G11G30G22G15
  18077352.913    94997144.410         721.344          47.000  
  19529878.430   102630209.728       -2260.171          44.000  
  18652129.965    98017600.652        2167.211          47.000  
  22546271.783   118481471.818       -3373.920          32.000  
  20285790.348   106602552.762        2847.095          43.000  
  18030069.926    94748658.229       -1559.515          47.000  
  21808688.911   114605431.484       -3559.194          41.000  
  18114969.144    95194807.714        -736.255          47.000  
  21200772.255   111410804.121        3277.875          42.000  
  21568116.370   113341226.246        3453.547          34.000  
 23  8 31 16 26 43.9910000  0 10G 5G 7G13G 9G14G20G11G30G22G15
  18077216.016    94996423.397         720.630          47.000  
  19530308.596   102632470.161       -2260.783          44.000  
  18651717.739    98015433.570        2166.653          47.000  
  22546913.741   118484845.263       -3373.972          33.000  
  20285248.501   106599705.737        2846.687          43.000  
  18030366.701    94750217.949       -1560.376          47.000  
  21809366.311   114608990.857       -3559.720          41.000  
  18115109.269    95195544.309        -737.097          47.000  
  21200148.742   111407526.124        3277.655          42.000  
  21567459.038   113337772.753        3452.648          34.000  
 23  8 31 16 26 44.9910000  0 10G 5G 7G13G 9G14G20G11G30G22G15
  18077078.980    94995703.183         720.032          47.000  
  19530738.848   102634731.065       -2260.968          44.000  
  18651305.582    98013266.945        2166.702          47.000  
  22547555.944   118488218.982       -3373.550          34.000  
  20284706.724   106596859.229        2846.449          43.000  
  18030663.774    94751778.431       -1560.571          47.000  
  21810043.851   114612550.468       -3559.548          42.000  
  18115249.726    95196281.587        -737.555          47.000  
  21199525.088   111404248.438        3277.844          42.000  
  21566801.618   113334319.428        3453.163          34.000  
 23  8 31 16 26 45.9910000  0 10G 5G 7G13G 9G14G20G11G30G22G15
  18076942.118    94994983.910         718.726          47.000  
  19531169.118   102636992.543       -2261.546          44.000  
  18650893.443    98011100.920        2165.735          47.000  
  22548198.130   118491593.029       -3374.156          34.000  
  20284164.947   106594013.319        2845.669          43.000  
  18030960.881    94753339.835       -1561.987          47.000  
  21810721.320   114616110.452       -3560.290          41.000  
  18115390.462    95197019.649        -738.690          47.000  
  21198901.557   111400971.187        3277.057          42.000  
  21566144.670   113330866.499        3452.481          35.000  
 23  8 31 16 26 46.9910000  0 10G 5G 7G13G 9G14G20G11G30G22G15
  18076805.500    94994265.543         717.786          47.000  
  19531599.755   102639254.599       -2262.370          44.000  
  18650481.496    98008935.450        2165.157          47.000  
  22548840.141   118494967.371       -3374.858          34.000  
  20283623.467   106591168.007        2844.937          43.000  
  18031258.111    94754902.101       -1562.854          47.000  
  21811399.052   114619670.786       -3560.543          41.000  
  18115531.006    95197758.486        -739.288          47.000  
  21198277.834   111397694.357        3276.593          42.000  
  21565487.983   113327413.928        3451.952          36.000  
 23  8 31 16 26 47.9910000  0 10G 5G 7G13G 9G14G20G11G30G22G15
  18076668.795    94993548.082         717.023          47.000  
  19532030.618   102641517.222       -2262.993          44.000  
  18650069.635    98006770.551        2164.589          47.000  
  22549482.501   118498342.005       -3374.943          34.000  
  20283082.266   106588323.280        2844.428          43.000  
  18031555.218    94756465.245       -1563.458          47.000  
  21812076.557   114623231.452       -3560.801          41.000  
  18115671.916    95198498.090        -739.856          47.000  
  21197654.373   111394417.915        3276.367          42.000  
  21564831.314   113323961.674        3451.950          36.000  
 23  8 31 16 26 48.9910000  0 10G 5G 7G13G 9G14G20G11G30G22G15
  18076532.422    94992831.661         716.156          47.000  
  19532461.359   102643780.541       -2263.255          45.000  
  18649658.055    98004606.348        2163.993          47.000  
  22550124.791   118501717.117       -3375.687          35.000  
  20282541.030   106585479.260        2843.884          43.000  
  18031852.797    94758029.397       -1564.355          47.000  
  21812754.201   114626792.629       -3561.510          41.000  
  18115812.862    95199238.609        -740.649          47.000  
  21197031.365   111391142.038        3275.659          42.000  
  21564174.610   113320509.869        3451.456          36.000  
 23  8 31 16 26 49.9910000  0 10G 5G 7G13G 9G14G20G11G30G22G15
  18076396.572    94992116.231         714.819          47.000  
  19532892.415   102646044.480       -2264.434          44.000  
  18649246.125    98002442.778        2162.957          47.000  
  22550767.430   118505092.587       -3375.728          35.000  
  20281999.811   106582635.894        2842.887          43.000  
  18032150.777    94759594.504       -1565.759          47.000  
  21813431.985   114630354.210       -3561.732          41.000  
  18115954.017    95199979.965        -741.986          47.000  
  21196408.235   111387866.639        3274.896          42.000  
  21563517.976   113317058.448        3451.652          35.000  
 23  8 31 16 26 50.9910000  0 10G 5G 7G13G 9G14G20G11G30G22G15
  18076260.128    94991401.083         714.929          47.000  
  19533323.278   102648308.396       -2263.892          44.000  
  18648834.247    98000279.164        2163.470          47.000  
  22551409.842   118508467.773       -3374.707          34.000  
  20281458.593   106579792.524        2843.151          43.000  
  18032448.495    94761159.884       -1565.661          47.000  
  21814109.891   114633915.536       -3561.294          41.000  
  18116095.014    95200721.493        -741.705          47.000  
  21195784.774   111384591.051        3275.488          42.000  
  21562860.975   113313606.800        3451.727          35.000  
 23  8 31 16 26 51.9910000  0 10G 5G 7G13G 9G14G20G11G30G22G15
  18076124.139    94990686.964         713.086          47.000  
  19533754.316   102650573.002       -2265.397          45.000  
  18648422.684    97998116.237        2162.202          47.000  
  22552052.447   118511843.409       -3375.542          34.000  
  20280917.811   106576949.853        2841.848          43.000  
  18032746.772    94762726.258       -1567.358          47.000  
  21814787.570   114637477.338       -3562.268          41.000  
  18116236.239    95201463.924        -743.292          47.000  
  21195161.504   111381316.000        3274.182          42.000  
  21562204.254   113310155.663        3449.903          35.000  
 23  8 31 16 26 52.9910000  0 10G 5G 7G13G 9G14G20G11G30G22G15
  18075988.551    94989974.398         711.566          47.000  
  19534185.650   102652838.805       -2266.519          44.000  
  18648011.260    97995954.514        2160.974          47.000  
  22552695.068   118515220.017       -3377.407          34.000  
  20280377.046   106574108.416        2840.716          43.000  
  18033045.258    94764294.137       -1568.866          47.000  
  21815465.546   114641040.130       -3563.433          41.000  
  18116377.970    95202207.769        -744.983          47.000  
  21194538.357   111378041.990        3273.254          42.000  
  21561547.899   113306705.425        3449.672          34.000  
 23  8 31 16 26 53.9910000  0 10G 5G 7G13G 9G14G20G11G30G22G15
  18075853.259    94989262.881         711.133          47.000  
  19534617.107   102655105.295       -2266.564          44.000  
  18647599.767    97993793.492        2160.773          47.000  
  22553337.655   118518597.029       -3376.867          34.000  
  20279836.316   106571267.684        2840.558          43.000  
  18033343.639    94765863.023       -1569.244          47.000  
  21816143.469   114644603.376       -3563.251          41.000  
  18116519.683    95202952.507        -745.135          47.000  
  21193915.279   111374768.522        3273.358          42.000  
  21560891.456   113303255.689        3449.369          34.000  
 23  8 31 16 26 54.9910000  0 10G 5G 7G13G 9G14G20G11G30G22G15
  18075718.229    94988552.545         710.059          47.000  
  19535048.441   102657372.624       -2267.221          44.000  
  18647188.692    97991633.310        2159.966          47.000  
  22553980.364   118521974.639       -3377.658          35.000  
  20279295.638   106568427.841        2839.802          43.000  
  18033642.648    94767433.078       -1570.239          47.000  
  21816821.550   114648167.292       -3563.875          41.000  
  18116661.536    95203698.294        -746.179          47.000  
  21193292.621   111371495.724        3272.894          42.000  
  21560234.787   113299806.548        3449.066          35.000  
 23  8 31 16 26 55.9910000  0 10G 5G 7G13G 9G14G20G11G30G22G15
  18075583.165    94987842.925         709.430          46.000  
  19535480.003   102659640.356       -2267.785          44.000  
  18646777.722    97989473.504        2159.808          47.000  
  22554623.056   118525352.394       -3377.627          34.000  
  20278755.135   106565588.401        2839.311          43.000  
  18033941.762    94769003.823       -1570.990          47.000  
  21817499.857   114651731.329       -3563.861          41.000  
  18116803.807    95204444.687        -746.637          47.000  
  21192669.718   111368223.196        3272.375          42.000  
  21559578.415   113296357.551        3449.161          35.000  
 23  8 31 16 26 56.9910000  0 10G 5G 7G13G 9G14G20G11G30G22G15
  18075448.344    94987134.299         708.331          46.000  
  19535911.564   102661908.738       -2268.348          44.000  
  18646366.978    97987314.376        2159.010          47.000  
  22555265.939   118528730.548       -3377.942          34.000  
  20278215.138   106562749.626        2838.819          43.000  
  18034240.772    94770575.542       -1571.869          47.000  
  21818177.833   114655295.849       -3564.587          41.000  
  18116946.166    95205191.934        -747.345          47.000  
  21192047.373   111364951.168        3272.034          42.000  
  21558922.234   113292908.992        3449.193          36.000  
 23  8 31 16 26 57.9910000  0 10G 5G 7G13G 9G14G20G11G30G22G15
  18075313.524    94986426.745         707.227          46.000  
  19536343.352   102664177.848       -2269.169          44.000  
  18645956.340    97985155.964        2158.215          47.000  
  22555908.840   118532109.191       -3378.660          35.000  
  20277674.967   106559911.616        2837.859          43.000  
  18034539.834    94772148.302       -1573.236          47.000  
  21818856.071   114658860.874       -3565.289          41.000  
  18117088.630    95205940.135        -748.566          47.000  
  21191425.168   111361679.698        3271.442          42.000  
  21558266.001   113289460.956        3447.812          36.000  
 23  8 31 16 26 58.9910000  0 10G 5G 7G13G 9G14G20G11G30G22G15
  18075179.122    94985719.960         706.512          47.000  
  19536775.332   102666447.409       -2269.712          44.000  
  18645545.736    97982997.997        2157.870          47.000  
  22556551.933   118535488.028       -3378.893          35.000  
  20277134.586   106557074.062        2837.651          43.000  
  18034839.175    94773721.799       -1573.779          47.000  
  21819534.483   114662426.109       -3565.519          41.000  
  18117231.373    95206688.965        -749.072          47.000  
  21190802.963   111358408.530        3271.222          42.000  
  21557609.716   113286013.098        3448.173          36.000  
 23  8 31 16 26 59.9910000  0 10G 5G 7G13G 9G14G20G11G30G22G15
  18075044.983    94985014.120         705.359          47.000  
  19537207.330   102668717.541       -2270.401          45.000  
  18645135.307    97980840.611        2157.052          47.000  
  22557194.834   118538867.190       -3379.946          35.000  
  20276595.095   106554237.127        2836.700          43.000  
  18035138.568    94775296.199       -1574.915          47.000  
  21820212.860   114665991.700       -3565.973          41.000  
  18117373.958    95207438.596        -750.116          47.000  
  21190180.340   111355137.787        3270.404          42.000  
  21556953.728   113282565.582        3447.367          35.000  
 23  8 31 16 27  0.9910000  0 10G 5G 7G13G 9G14G20G11G30G22G15
  18074910.616    94984309.145         705.243          47.000  
  19537639.659   102670988.206       -2270.143          45.000  
  18644724.808    97978683.740        2157.324          47.000  
  22557838.014   118542246.617       -3379.242          35.000  
  20276055.133   106551400.732        2836.911          43.000  
  18035438.328    94776871.430       -1574.762          47.000  
  21820891.691   114669557.612       -3565.541          42.000  
  18117516.631    95208188.948        -749.945          47.000  
  21189557.873   111351867.424        3270.862          42.000  
  21556297.599   113279118.408        3447.918          36.000  
 23  8 31 16 27  1.9910000  0 10G 5G 7G13G 9G14G20G11G30G22G15
  18074776.842    94983604.630         703.528          47.000  
  19538071.953   102673258.998       -2271.658          45.000  
  18644314.205    97976527.013        2155.864          47.000  
  22558481.124   118545625.879       -3379.642          35.000  
  20275515.258   106548564.503        2835.328          42.000  
  18035738.524    94778447.117       -1576.660          47.000  
  21821570.400   114673123.406       -3566.306          41.000  
  18117659.496    95208939.660        -751.678          47.000  
  21188935.563   111348597.025        3269.311          42.000  
  21555641.558   113275671.111        3446.912          36.000  
 23  8 31 16 27  2.9910000  0 10G 5G 7G13G 9G14G20G11G30G22G15
  18074642.964    94982901.641         702.325          47.000  
  19538504.422   102675530.967       -2272.459          45.000  
  18643904.037    97974371.458        2155.024          47.000  
  22559124.444   118549006.133       -3380.426          34.000  
  20274975.610   106545729.464        2834.334          42.000  
  18036038.633    94780024.286       -1577.893          47.000  
  21822249.161   114676690.196       -3567.096          41.000  
  18117802.693    95209691.727        -752.606          47.000  
  21188313.027   111345327.650        3269.061          41.000  
  21554985.657   113272224.792        3446.001          36.000  
 23  8 31 16 27  3.9910000  0 10G 5G 7G13G 9G14G20G11G30G22G15
  18074509.243    94982199.866         701.227          46.000  
  19538937.571   102677803.812       -2273.295          45.000  
  18643494.114    97972216.791        2154.384          47.000  
  22559767.973   118552387.014       -3381.061          34.000  
  20274436.050   106542895.314        2833.677          42.000  
  18036339.126    94781602.637       -1578.864          47.000  
  21822927.992   114680257.671       -3567.465          41.000  
  18117945.819    95210444.909        -753.790          47.000  
  21187691.136   111342059.010        3268.433          42.000  
  21554329.983   113268779.092        3445.496          36.000  
 23  8 31 16 27  4.9910000  0 10G 5G 7G13G 9G14G20G11G30G22G15
  18074375.767    94981498.963         700.262          46.000  
  19539370.441   102680077.185       -2273.978          45.000  
  18643084.244    97970062.646        2153.730          47.000  
  22560411.136   118555768.128       -3381.677          34.000  
  20273896.855   106540061.738        2832.974          42.000  
  18036639.758    94783181.838       -1579.907          47.000  
  21823606.893   114683825.428       -3568.069          41.000  
  18118089.190    95211198.810        -754.504          47.000  
  21187069.332   111338790.752        3267.834          42.000  
  21553674.570   113265333.697        3445.260          36.000  
 23  8 31 16 27  5.9910000  0 10G 5G 7G13G 9G14G20G11G30G22G15
  18074242.482    94980799.013         699.463          46.000  
  19539803.102   102682351.159       -2274.548          45.000  
  18642674.530    97967909.106        2153.167          47.000  
  22561054.822   118559149.669       -3381.853          33.000  
  20273357.678   106537228.783        2832.499          42.000  
  18036940.582    94784761.961       -1580.786          47.000  
  21824285.933   114687393.573       -3568.397          41.000  
  18118232.718    95211953.529        -755.182          47.000  
  21186447.581   111335522.926        3267.480          42.000  
  21553019.122   113261888.673        3445.036          37.000  
 23  8 31 16 27  6.9910000  0 10G 5G 7G13G 9G14G20G11G30G22G15
  18074109.476    94980099.931         698.785          46.000  
  19540236.129   102684625.668       -2274.549          45.000  
  18642265.113    97965756.094        2152.877          47.000  
  22561698.159   118562531.403       -3381.474          33.000  
  20272818.624   106534396.369        2832.541          42.000  
  18037241.372    94786342.924       -1581.378          47.000  
  21824965.095   114690962.005       -3568.400          41.000  
  18118376.595    95212708.989        -755.707          47.000  
  21185825.899   111332255.491        3267.236          41.000  
  21552363.936   113258443.993        3444.249          37.000  
 23  8 31 16 27  7.9910000  0 10G 5G 7G13G 9G14G20G11G30G22G15
  18073976.645    94979401.769         697.742          46.000  
  19540668.668   102686900.780       -2275.562          45.000  
  18641855.731    97963603.680        2152.173          47.000  
  22562341.566   118565913.519       -3382.276          33.000  
  20272279.761   106531564.602        2831.816          42.000  
  18037542.650    94787924.782       -1582.141          47.000  
  21825644.258   114694530.854       -3568.916          41.000  
  18118520.752    95213465.245        -756.464          47.000  
  21185203.852   111328988.521        3266.650          41.000  
  21551708.855   113254999.648        3444.139          37.000  
 23  8 31 16 27  8.9910000  0 10G 5G 7G13G 9G14G20G11G30G22G15
  18073843.989    94978704.698         696.613          46.000  
  19541101.555   102689176.630       -2275.984          45.000  
  18641445.703    97961452.008        2151.471          48.000  
  22562985.060   118569296.174       -3383.438          32.000  
  20271741.335   106528733.594        2830.848          42.000  
  18037844.015    94789507.709       -1583.221          47.000  
  21826323.490   114698100.202       -3569.503          41.000  
  18118664.803    95214222.474        -757.501          47.000  
  21184582.048   111325722.100        3266.412          41.000  
  21551053.844   113251555.879        3442.993          37.000  
 23  8 31 16 27  9.9910000  0 10G 5G 7G13G 9G14G20G11G30G22G15
  18073711.385    94978008.475         695.374          47.000  
  19541534.391   102691452.953       -2276.922          44.000  
  18641036.513    97959300.830        2150.682          47.000  
  22563628.485   118572679.012       -3383.015          32.000  
  20271202.943   106525903.105        2829.914          42.000  
  18038145.380    94791091.432       -1584.412          47.000  
  21827003.141   114701669.846       -3570.024          41.000  
  18118809.134    95214980.377        -758.563          47.000  
  21183960.506   111322456.054        3265.601          41.000  
  21550398.850   113248112.264        3443.364          37.000  
 23  8 31 16 27 10.9910000  0 10G 5G 7G13G 9G14G20G11G30G22G15
  18073579.461    94977313.212         695.306          46.000  
  19541967.435   102693729.919       -2276.755          44.000  
  18640627.096    97957150.273        2150.996          47.000  
  22564271.647   118576062.203       -3382.211          31.000  
  20270664.569   106523073.245        2830.384          42.000  
  18038447.147    94792676.078       -1584.515          47.000  
  21827682.356   114705239.871       -3569.680          41.000  
  18118953.290    95215739.113        -758.545          47.000  
  21183339.558   111319190.459        3265.826          41.000  
  21549743.804   113244669.104        3443.267          36.000  
 23  8 31 16 27 11.9910000  0 10G 5G 7G13G 9G14G20G11G30G22G15
  18073447.118    94976618.323         694.489          46.000  
  19542400.393   102696006.900       -2277.091          44.000  
  18640217.504    97954999.750        2150.367          47.000  
  22564914.985   118579445.266       -3384.672          30.000  
  20270126.055   106520243.436        2829.769          42.000  
  18038748.861    94794261.070       -1585.242          48.000  
  21828361.379   114708809.715       -3569.718          41.000  
  18119097.830    95216498.084        -759.174          47.000  
  21182718.190   111315924.741        3265.692          41.000  
  21549088.234   113241225.759        3443.193          37.000  
 23  8 31 16 27 12.9910000  0 10G 5G 7G13G 9G14G20G11G30G22G15
  18073315.055    94975924.831         692.694          46.000  
  19542833.699   102698284.952       -2278.642          44.000  
  18639808.454    97952850.276        2148.669          47.000  
  22565553.610   118582829.009       -3383.928          31.000  
  20269587.838   106517414.719        2827.943          42.000  
  18039050.628    94795847.425       -1587.195          47.000  
  21829040.803   114712380.396       -3571.289          41.000  
  18119242.754    95217258.324        -761.072          47.000  
  21182096.980   111312659.938        3264.166          41.000  
  21548433.257   113237783.221        3442.217          37.000  
 23  8 31 16 27 13.9910000  0 10G 5G 7G13G 9G14G20G11G30G22G15
  18073183.446    94975232.734         691.632          46.000  
  19543267.476   102700564.065       -2279.592          44.000  
  18639399.525    97950701.865        2148.125          47.000  
  22566201.380   118586213.552       -3384.667          30.000  
  20269049.830   106514587.094        2827.376          42.000  
  18039352.918    94797435.157       -1588.312          48.000  
  21829720.332   114715951.907       -3571.655          40.000  
  18119387.521    95218019.825        -762.018          47.000  
  21181475.595   111309396.027        3263.745          41.000  
  21547778.368   113234341.505        3441.223          36.000  
 23  8 31 16 27 14.9910000  0 10G 5G 7G13G 9G14G20G11G30G22G15
  18073052.046    94974541.580         690.631          47.000  
  19543701.359   102702843.739       -2279.837          44.000  
  18638991.173    97948554.055        2147.366          47.000  
  22566839.587   118589598.544       -3384.894          30.000  
  20268511.945   106511760.089        2826.460          42.000  
  18039655.191    94799023.788       -1589.313          47.000  
  21830399.861   114719523.815       -3572.578          40.000  
  18119532.672    95218782.141        -762.921          47.000  
  21180854.001   111306132.574        3263.342          41.000  
  21547123.688   113230900.174        3440.784          37.000  
 23  8 31 16 27 15.9910000  0 10G 5G 7G13G 9G14G20G11G30G22G15
  18072920.785    94973851.376         689.783          46.000  
  19544135.171   102705124.061       -2280.707          44.000  
  18638582.576    97946406.839        2146.797          48.000  
  22567483.639   118592983.830       -3384.770          30.000  
  20267973.955   106508933.695        2826.148          43.000  
  18039957.516    94800613.331       -1589.966          47.000  
  21831079.373   114723096.115       -3572.756          41.000  
  18119677.719    95219545.254        -763.562          47.000  
  21180232.756   111302869.566        3262.842          41.000  
  21546468.712   113227459.210        3440.518          36.000  
 23  8 31 16 27 16.9910000  0 10G 5G 7G13G 9G14G20G11G30G22G15
  18072789.577    94973162.161         688.507          46.000  
  19544569.455   102707405.019       -2281.394          45.000  
  18638174.311    97944260.290        2146.128          47.000  
  22568129.524   118596369.574       -3385.660          29.000  
  20267436.209   106506107.990        2825.499          43.000  
  18040260.225    94802203.839       -1591.125          47.000  
  21831759.408   114726668.831       -3573.099          40.000  
  18119823.253    95220309.233        -764.502          47.000  
  21179611.580   111299607.075        3262.048          40.000  
  21545814.137   113224018.675        3440.391          37.000  
 23  8 31 16 27 17.9910000  0 10G 5G 7G13G 9G14G20G11G30G22G15
  18072658.578    94972473.754         688.251          46.000  
  19545003.738   102709686.452       -2281.402          45.000  
  18637765.661    97942114.212        2146.030          47.000  
  22568767.382   118599755.474       -3385.388          29.000  
  20266898.602   106503282.787        2825.103          43.000  
  18040562.846    94803795.133       -1591.547          47.000  
  21832438.971   114730241.778       -3572.878          39.000  
  18119968.457    95221073.894        -764.758          47.000  
  21178990.614   111296344.901        3262.372          40.000  
  21545159.631   113220578.376        3440.938          36.000  
 23  8 31 16 27 18.9910000  0 10G 5G 7G13G 9G14G20G11G30G22G15
  18072527.579    94971786.151         687.176          46.000  
  19545438.266   102711968.306       -2282.236          45.000  
  18637356.977    97939968.564        2145.463          47.000  
  22569409.707   118603141.631       -3386.241          29.000  
  20266360.961   106500458.055        2824.388          43.000  
  18040865.485    94805387.184       -1592.523          47.000  
  21833118.902   114733814.977       -3573.323          39.000  
  18120114.026    95221839.194        -765.692          47.000  
  21178370.015   111293083.018        3261.926          40.000  
  21544504.777   113217138.307        3439.805          37.000  
 23  8 31 16 27 19.9910000  0 10G 5G 7G13G 9G14G20G11G30G22G15
  18072396.737    94971099.467         686.407          46.000  
  19545872.864   102714250.740       -2282.581          45.000  
  18636948.782    97937823.512        2144.794          47.000  
  22570053.515   118606528.063       -3386.182          29.000  
  20265823.512   106497633.910        2824.080          43.000  
  18041168.997    94806980.121       -1593.231          47.000  
  21833798.814   114737388.532       -3573.653          39.000  
  18120259.631    95222605.292        -766.357          47.000  
  21177749.433   111289821.568        3261.377          40.000  
  21543850.150   113213698.577        3439.929          36.000  
 23  8 31 16 27 20.9910000  0 10G 5G 7G13G 9G14G20G11G30G22G15
  18072266.227    94970413.529         685.486          46.000  
  19546307.252   102716533.598       -2283.066          45.000  
  18636540.709    97935678.880        2144.305          47.000  
  22570703.536   118609914.679       -3387.173          29.000  
  20265286.080   106494810.226        2823.510          43.000  
  18041472.369    94808573.785       -1594.067          47.000  
  21834478.570   114740962.284       -3573.790          39.000  
  18120405.410    95223372.007        -767.004          47.000  
  21177128.851   111286560.388        3260.651          41.000  
  21543195.400   113210259.032        3439.688          36.000  
 23  8 31 16 27 21.9910000  0 10G 5G 7G13G 9G14G20G11G30G22G15
  18072135.927    94969727.975         684.802          46.000  
  19546741.501   102718816.488       -2283.322          45.000  
  18636132.740    97933534.284        2144.078          47.000  
  22571350.241   118613301.074       -3386.688          30.000  
  20264748.683   106491986.593        2823.318          43.000  
  18041775.479    94810167.804       -1594.641          47.000  
  21835158.605   114744535.857       -3573.841          39.000  
  18120551.294    95224138.977        -767.523          47.000  
  21176508.234   111283299.084        3260.883          41.000  
  21542540.738   113206819.329        3439.066          36.000  
 23  8 31 16 27 22.9910000  0 10G 5G 7G13G 9G14G20G11G30G22G15
  18072005.626    94969043.818         683.319          46.000  
  19547176.081   102721100.440       -2284.734          45.000  
  18635724.911    97931390.746        2142.867          47.000  
  22572001.919   118616688.264       -3387.338          31.000  
  20264211.269   106489164.054        2821.853          43.000  
  18042079.026    94811763.185       -1596.136          47.000  
  21835838.570   114748110.275       -3574.906          40.000  
  18120697.387    95224907.204        -768.964          47.000  
  21175887.686   111280038.681        3259.491          41.000  
  21541886.459   113203380.396        3438.375          36.000  
 23  8 31 16 27 23.9910000  0 10G 5G 7G13G 9G14G20G11G30G22G15
  18071875.796    94968360.973         682.068          46.000  
  19547610.487   102723385.362       -2285.593          44.000  
  18635317.553    97929248.176        2141.912          47.000  
  22572647.874   118620076.212       -3388.526          31.000  
  20263674.273   106486342.501        2821.008          43.000  
  18042382.642    94813359.856       -1597.552          47.000  
  21836518.902   114751685.441       -3576.004          40.000  
  18120843.847    95225676.613        -770.160          47.000  
  21175267.331   111276779.090        3259.204          41.000  
  21541232.373   113199942.270        3437.388          36.000  
 23  8 31 16 27 24.9910000  0 10G 5G 7G13G 9G14G20G11G30G22G15
  18071746.001    94967679.176         681.152          46.000  
  19548045.049   102725670.997       -2285.987          44.000  
  18634910.038    97927106.319        2141.553          47.000  
  22573290.461   118623464.553       -3387.786          32.000  
  20263137.330   106483521.695        2820.637          43.000  
  18042686.782    94814957.534       -1598.181          47.000  
  21837199.321   114755261.104       -3575.769          40.000  
  18120990.725    95226446.942        -770.612          47.000  
  21174647.290   111273520.069        3258.844          41.000  
  21540578.181   113196504.613        3437.505          36.000  
 23  8 31 16 27 25.9910000  0 10G 5G 7G13G 9G14G20G11G30G22G15
  18071616.451    94966998.341         680.371          46.000  
  19548479.926   102727957.224       -2286.264          44.000  
  18634502.523    97924965.076        2140.911          47.000  
  22573937.585   118626853.329       -3389.120          32.000  
  20262600.457   106480701.517        2820.255          42.000  
  18042990.782    94816556.144       -1599.017          47.000  
  21837879.653   114758837.137       -3576.130          39.000  
  18121137.656    95227218.096        -771.582          47.000  
  21174027.633   111270261.522        3258.453          40.000  
  21539924.287   113193067.316        3437.211          36.000  
 23  8 31 16 27 26.9910000  0 10G 5G 7G13G 9G14G20G11G30G22G15
  18071487.145    94966318.330         679.608          46.000  
  19548914.838   102730243.926       -2286.769          44.000  
  18634095.130    97922824.310        2140.481          47.000  
  22574582.527   118630242.323       -3389.211          32.000  
  20262063.863   106477881.871        2819.228          42.000  
  18043294.783    94818155.539       -1599.823          47.000  
  21838560.194   114762413.450       -3576.615          39.000  
  18121284.535    95227989.921        -772.089          48.000  
  21173407.522   111267003.295        3258.002          40.000  
  21539270.323   113189630.278        3436.862          36.000  
 23  8 31 16 27 27.9910000  0 10G 5G 7G13G 9G14G20G11G30G22G15
  18071357.874    94965639.288         678.613          46.000  
  19549349.715   102732531.270       -2287.457          44.000  
  18633687.860    97920684.171        2139.932          47.000  
  22575226.597   118633631.623       -3389.244          32.000  
  20261527.670   106475062.849        2818.615          42.000  
  18043599.655    94819755.863       -1600.732          47.000  
  21839240.525   114765990.136       -3576.700          39.000  
  18121431.588    95228762.572        -772.925          47.000  
  21172787.184   111263745.526        3257.739          40.000  
  21538616.411   113186193.638        3436.046          35.000  
 23  8 31 16 27 28.9910000  0 10G 5G 7G13G 9G14G20G11G30G22G15
  18071228.777    94964961.030         677.625          46.000  
  19549784.976   102734819.074       -2288.346          44.000  
  18633280.415    97918544.478        2139.325          47.000  
  22575871.226   118637021.162       -3389.999          32.000  
  20260991.599   106472244.308        2818.032          42.000  
  18043904.231    94821356.952       -1601.740          47.000  
  21839921.398   114769567.083       -3577.508          40.000  
  18121579.112    95229535.893        -773.950          47.000  
  21172167.248   111260488.067        3257.166          40.000  
  21537962.743   113182757.222        3435.460          36.000  
 23  8 31 16 27 29.9910000  0 10G 5G 7G13G 9G14G20G11G30G22G15
  18071100.204    94964283.583         676.672          46.000  
  19550220.236   102737107.324       -2288.905          44.000  
  18632873.039    97916405.265        2138.451          47.000  
  22576516.134   118640410.885       -3389.755          33.000  
  20260455.179   106469426.262        2817.494          42.000  
  18044208.825    94822958.819       -1602.679          47.000  
  21840602.375   114773144.258       -3578.035          40.000  
  18121725.955    95230309.873        -774.591          47.000  
  21171547.346   111257230.952        3256.445          40.000  
  21537309.075   113179321.047        3434.913          36.000  
 23  8 31 16 27 30.9910000  0 10G 5G 7G13G 9G14G20G11G30G22G15
  18070971.508    94963607.113         676.477          46.000  
  19550656.143   102739396.202       -2288.940          44.000  
  18632466.030    97914266.669        2138.536          47.000  
  22577161.460   118643801.018       -3389.807          33.000  
  20259919.301   106466608.873        2817.236          42.000  
  18044514.029    94824561.619       -1603.033          47.000  
  21841283.527   114776721.858       -3577.584          40.000  
  18121873.130    95231084.715        -775.128          47.000  
  21170927.636   111253974.289        3256.702          40.000  
  21536655.425   113175885.256        3435.371          35.000  
 23  8 31 16 27 31.9910000  0 10G 5G 7G13G 9G14G20G11G30G22G15
  18070842.935    94962931.010         675.653          46.000  
  19551091.875   102741685.079       -2289.320          45.000  
  18632059.039    97912128.109        2138.198          47.000  
  22577806.368   118647190.917       -3390.206          33.000  
  20259383.370   106463791.531        2817.043          42.000  
  18044819.007    94826164.750       -1603.662          47.000  
  21841964.016   114780299.225       -3577.379          40.000  
  18122020.567    95231859.759        -775.403          47.000  
  21170307.700   111250717.488        3256.512          40.000  
  21536001.775   113172449.279        3435.658          35.000  
 23  8 31 16 27 32.9910000  0 10G 5G 7G13G 9G14G20G11G30G22G15
  18070714.414    94962255.813         674.188          46.000  
  19551528.060   102743974.519       -2290.248          45.000  
  18631652.187    97909990.086        2137.239          47.000  
  22578451.398   118650581.107       -3390.956          34.000  
  20258847.543   106460974.782        2815.835          43.000  
  18045123.914    94827768.741       -1604.749          46.000  
  21842644.941   114783876.964       -3578.236          40.000  
  18122168.266    95232635.585        -776.800          47.000  
  21169687.903   111247461.095        3255.816          40.000  
  21535348.177   113169013.611        3434.389          35.000  
 23  8 31 16 27 33.9910000  0 10G 5G 7G13G 9G14G20G11G30G22G15
  18070586.103    94961582.075         673.401          46.000  
  19551963.949   102746265.109       -2290.828          45.000  
  18631245.510    97907853.230        2136.663          47.000  
  22579096.532   118653972.157       -3390.731          34.000  
  20258311.752   106458159.189        2815.288          42.000  
  18045429.223    94829374.216       -1605.817          46.000  
  21843325.778   114787455.599       -3578.779          40.000  
  18122316.034    95233412.739        -777.551          47.000  
  21169068.438   111244205.714        3255.420          41.000  
  21534694.963   113165578.890        3434.322          35.000  
 23  8 31 16 27 34.9910000  0 10G 5G 7G13G 9G14G20G11G30G22G15
  18070457.774    94960909.130         672.986          46.000  
  19552399.594   102748556.137       -2290.923          44.000  
  18630839.007    97905716.812        2136.467          47.000  
  22579742.120   118657363.461       -3391.035          34.000  
  20257776.309   106455344.056        2815.230          42.000  
  18045735.161    94830980.413       -1606.110          47.000  
  21844006.389   114791034.468       -3578.463          39.000  
  18122464.204    95234190.538        -777.624          47.000  
  21168449.304   111240950.623        3255.249          41.000  
  21534041.731   113162144.349        3434.842          36.000  
 23  8 31 16 27 35.9910000  0 10G 5G 7G13G 9G14G20G11G30G22G15
  18070329.951    94960237.043         671.545          45.000  
  19552835.501   102750847.647       -2291.945          44.000  
  18630432.591    97903580.867        2135.525          47.000  
  22580387.621   118660754.994       -3392.635          34.000  
  20257240.587   106452529.455        2814.000          42.000  
  18046040.958    94832587.433       -1607.641          47.000  
  21844687.611   114794613.616       -3579.629          40.000  
  18122612.566    95234969.051        -778.992          47.000  
  21167830.101   111237695.871        3254.272          41.000  
  21533388.029   113158710.089        3433.698          35.000  
 23  8 31 16 27 36.9910000  0 10G 5G 7G13G 9G14G20G11G30G22G15
  18070202.076    94959565.646         670.850          45.000  
  19553271.477   102753139.524       -2292.361          44.000  
  18630026.542    97901445.299        2135.220          47.000  
  22581032.826   118664146.581       -3391.526          34.000  
  20256705.058   106449715.241        2813.960          42.000  
  18046347.052    94834195.110       -1608.166          46.000  
  21845368.920   114798192.882       -3579.494          40.000  
  18122760.526    95235748.131        -779.590          47.000  
  21167210.845   111234441.324        3254.468          41.000  
  21532734.448   113155275.925        3434.308          36.000  
 23  8 31 16 27 37.9910000  0 10G 5G 7G13G 9G14G20G11G30G22G15
  18070074.393    94958895.185         669.574          47.000  
  19553707.261   102755431.968       -2293.104          44.000  
  18629620.406    97899310.312        2134.204          48.000  
  22581678.850   118667538.529       -3392.156          35.000  
  20256169.685   106446901.646        2813.093          42.000  
  18046653.304    94835803.693       -1609.418          46.000  
  21846050.106   114801772.522       -3579.978          40.000  
  18122908.783    95236527.999        -780.444          47.000  
  21166591.833   111231187.226        3253.528          41.000  
  21532080.798   113151842.186        3433.204          36.000  
 23  8 31 16 27 38.9910000  0 10G 5G 7G13G 9G14G20G11G30G22G15
  18069947.687    94958225.719         669.055          47.000  
  19554143.621   102757725.087       -2293.276          44.000  
  18629214.008    97897175.998        2133.933          48.000  
  22582324.945   118670930.902       -3392.568          35.000  
  20255634.696   106444088.734        2812.649          43.000  
  18046959.817    94837413.250       -1610.059          47.000  
  21846731.904   114805352.607       -3580.417          41.000  
  18123057.651    95237308.749        -781.183          47.000  
  21165972.787   111227933.639        3253.552          40.000  
  21531427.444   113148408.860        3433.310          35.000  
 23  8 31 16 27 39.9910000  0 10G 5G 7G13G 9G14G20G11G30G22G15
  18069820.178    94957557.030         667.938          47.000  
  19554580.121   102760018.640       -2294.048          44.000  
  18628807.871    97895042.109        2133.403          48.000  
  22582970.673   118674323.442       -3393.151          35.000  
  20255099.673   106441276.277        2812.134          43.000  
  18047265.981    94839023.530       -1610.992          46.000  
  21847413.457   114808932.901       -3580.892          41.000  
  18123206.257    95238090.122        -782.025          47.000  
  21165353.374   111224680.313        3253.162          40.000  
  21530774.021   113144975.767        3432.504          35.000  
 23  8 31 16 27 40.9910000  0 10G 5G 7G13G 9G14G20G11G30G22G15
  18069693.245    94956889.310         667.188          46.000  
  19555016.952   102762312.812       -2294.640          44.000  
  18628401.683    97892908.862        2132.803          47.000  
  22583616.383   118677716.348       -3392.801          36.000  
  20254564.754   106438464.506        2811.321          43.000  
  18047572.372    94840634.750       -1611.725          46.000  
  21848094.783   114812513.610       -3581.372          40.000  
  18123354.968    95238872.337        -782.684          47.000  
  21164734.100   111221427.501        3252.527          40.000  
  21530120.859   113141543.006        3432.751          35.000  
 23  8 31 16 27 41.9910000  0 10G 5G 7G13G 9G14G20G11G30G22G15
  18069566.050    94956222.135         667.334          46.000  
  19555453.609   102764607.158       -2294.004          44.000  
  18627995.372    97890775.804        2133.253          47.000  
  22584262.181   118681109.200       -3392.476          36.000  
  20254029.747   106435652.907        2811.755          43.000  
  18047878.990    94842246.460       -1611.597          47.000  
  21848776.546   114816094.249       -3580.286          41.000  
  18123503.818    95239654.938        -782.465          47.000  
  21164115.002   111218174.704        3252.991          39.000  
  21529467.314   113138110.247        3433.105          36.000  
 23  8 31 16 27 42.9910000  0 10G 5G 7G13G 9G14G20G11G30G22G15
  18069439.327    94955555.442         666.486          46.000  
  19555890.755   102766901.666       -2294.575          45.000  
  18627589.288    97888642.869        2132.827          47.000  
  22584907.682   118684501.948       -3392.940          36.000  
  20253494.671   106432841.488        2811.369          43.000  
  18048185.642    94843858.622       -1612.463          46.000  
  21849458.116   114819674.819       -3580.354          40.000  
  18123652.965    95240437.883        -783.032          47.000  
  21163495.711   111214921.921        3252.698          39.000  
  21528813.786   113134677.390        3432.931          36.000  
 23  8 31 16 27 43.9910000  0 10G 5G 7G13G 9G14G20G11G30G22G15
  18069312.795    94954890.164         664.642          46.000  
  19556327.289   102769197.251       -2296.073          44.000  
  18627183.413    97886511.034        2131.455          46.000  
  22585553.601   118687895.544       -3394.238          36.000  
  20252959.892   106430031.189        2809.871          43.000  
  18048492.661    94845472.182       -1614.191          46.000  
  21850139.652   114823256.274       -3581.962          40.000  
  18123802.200    95241222.132        -785.034          47.000  
  21162876.420   111211670.075        3251.141          39.000  
  21528160.886   113131245.404        3431.583          36.000  
 23  8 31 16 27 44.9910000  0 10G 5G 7G13G 9G14G20G11G30G22G15
  18069186.630    94954226.205         663.196          46.000  
  19556764.592   102771493.825       -2297.090          45.000  
  18626777.731    97884380.210        2130.139          47.000  
  22586199.556   118691289.852       -3395.123          36.000  
  20252425.078   106427221.912        2808.716          43.000  
  18048799.960    94847087.039       -1615.442          46.000  
  21850821.345   114826838.485       -3582.513          41.000  
  18123951.765    95242007.569        -785.998          47.000  
  21162257.618   111208419.062        3250.616          40.000  
  21527507.933   113127814.208        3430.477          36.000  
 23  8 31 16 27 45.9910000  0 10G 5G 7G13G 9G14G20G11G30G22G15
  18069060.378    94953563.005         662.769          46.000  
  19557201.667   102773790.779       -2297.231          45.000  
  18626372.275    97882249.755        2130.087          47.000  
  22586845.668   118694684.285       -3394.460          36.000  
  20251890.421   106424413.060        2808.504          43.000  
  18049107.537    94848702.618       -1615.979          46.000  
  21851503.317   114830420.879       -3582.335          41.000  
  18124101.698    95242793.631        -786.633          47.000  
  21161639.339   111205168.296        3250.659          40.000  
  21526854.999   113124383.151        3430.641          36.000  
 23  8 31 16 27 46.9910000  0 10G 5G 7G13G 9G14G20G11G30G22G15
  18068934.248    94952900.810         661.536          46.000  
  19557639.057   102776088.406       -2297.930          45.000  
  18625967.325    97880119.980        2129.541          47.000  
  22587491.815   118698079.153       -3394.463          36.000  
  20251356.147   106421604.907        2807.678          43.000  
  18049415.377    94850319.162       -1616.986          47.000  
  21852185.411   114834003.709       -3583.011          41.000  
  18124251.578    95243580.540        -787.384          47.000  
  21161020.485   111201918.057        3250.006          40.000  
  21526202.378   113120952.537        3430.722          36.000  
 23  8 31 16 27 47.9910000  0 10G 5G 7G13G 9G14G20G11G30G22G15
  18068808.153    94952239.298         661.163          46.000  
  19558076.534   102778386.366       -2297.965          45.000  
  18625562.236    97877990.554        2129.318          47.000  
  22588138.136   118701474.143       -3395.129          36.000  
  20250822.345   106418797.128        2807.685          43.000  
  18049722.832    94851936.378       -1617.322          47.000  
  21852867.139   114837586.660       -3583.131          40.000  
  18124401.841    95244368.016        -787.781          47.000  
  21160402.206   111198667.994        3250.244          40.000  
  21525549.356   113117522.043        3430.754          36.000  
 23  8 31 16 27 48.9910000  0 10G 5G 7G13G 9G14G20G11G30G22G15
  18068682.511    94951578.462         660.236          46.000  
  19558514.098   102780684.644       -2298.819          45.000  
  18625157.373    97875861.461        2128.519          47.000  
  22588784.178   118704869.168       -3395.174          36.000  
  20250288.316   106415989.702        2806.967          43.000  
  18050030.689    94853554.250       -1618.597          47.000  
  21853549.023   114841169.730       -3583.523          40.000  
  18124551.809    95245156.021        -788.605          47.000  
  21159783.858   111195418.147        3249.365          40.000  
  21524896.264   113114091.680        3429.926          36.000  
 23  8 31 16 27 49.9910000  0 10G 5G 7G13G 9G14G20G11G30G22G15
  18068557.131    94950918.515         659.460          46.000  
  19558951.645   102782983.459       -2299.078          45.000  
  18624752.196    97873732.906        2128.096          46.000  
  22589430.446   118708264.518       -3395.887          36.000  
  20249754.357   106413182.852        2806.411          43.000  
  18050338.982    94855172.963       -1619.250          47.000  
  21854230.960   114844753.091       -3583.329          40.000  
  18124701.654    95245944.772        -789.246          47.000  
  21159165.527   111192168.673        3248.975          40.000  
  21524243.417   113110661.591        3429.886          36.000  
 23  8 31 16 27 50.9910000  0 10G 5G 7G13G 9G14G20G11G30G22G15
  18068431.821    94950259.299         659.143          46.000  
  19559389.174   102785282.666       -2299.291          45.000  
  18624347.229    97871604.738        2128.002          46.000  
  22590076.349   118711660.003       -3396.131          36.000  
  20249220.363   106410376.403        2806.239          43.000  
  18050647.100    94856792.373       -1619.604          47.000  
  21854912.496   114848336.648       -3583.532          40.000  
  18124851.883    95246734.101        -789.441          47.000  
  21158547.213   111188919.432        3249.615          40.000  
  21523590.709   113107231.662        3430.175          36.000  
 23  8 31 16 27 51.9910000  0 10G 5G 7G13G 9G14G20G11G30G22G15
  18068306.145    94949600.796         658.655          46.000  
  19559826.930   102787582.248       -2299.204          45.000  
  18623942.192    97869476.958        2128.157          46.000  
  22590722.391   118715055.546       -3395.032          36.000  
  20248685.915   106407570.350        2806.476          43.000  
  18050955.288    94858412.473       -1619.965          47.000  
  21855594.590   114851920.329       -3583.339          41.000  
  18125002.303    95247524.034        -789.709          47.000  
  21157928.882   111185670.433        3249.512          40.000  
  21522937.809   113103801.889        3430.270          36.000  
 23  8 31 16 27 52.9910000  0 10G 5G 7G13G 9G14G20G11G30G22G15
  18068180.974    94948942.737         657.196          46.000  
  19560264.739   102789881.903       -2300.348          45.000  
  18623537.417    97867349.257        2126.975          47.000  
  22591368.206   118718450.947       -3396.054          36.000  
  20248151.676   106404764.433        2805.280          43.000  
  18051263.756    94860032.948       -1621.271          47.000  
  21856276.161   114855503.890       -3584.405          41.000  
  18125152.445    95248314.235        -790.961          47.000  
  21157310.900   111182421.368        3248.413          41.000  
  21522285.293   113100371.977        3429.554          37.000  
 23  8 31 16 27 53.9910000  0 10G 5G 7G13G 9G14G20G11G30G22G15
  18068056.066    94948285.865         656.744          45.000  
  19560702.478   102792182.401       -2300.602          45.000  
  18623133.026    97865222.418        2126.637          47.000  
  22592014.283   118721846.959       -3395.805          35.000  
  20247617.839   106401959.386        2805.057          43.000  
  18051572.468    94861654.592       -1621.844          47.000  
  21856958.272   114859088.057       -3584.148          40.000  
  18125302.849    95249105.506        -791.364          47.000  
  21156693.407   111179173.008        3248.151          40.000  
  21521632.637   113096942.699        3429.301          37.000  
 23  8 31 16 27 54.9910000  0 10G 5G 7G13G 9G14G20G11G30G22G15
  18067931.192    94947630.081         655.560          45.000  
  19561140.181   102794483.664       -2301.443          45.000  
  18622728.879    97863096.320        2126.068          47.000  
  22592660.464   118725243.465       -3396.658          35.000  
  20247084.055   106399155.127        2804.302          43.000  
  18051881.180    94863277.305       -1623.010          47.000  
  21857640.332   114862672.773       -3584.828          40.000  
  18125453.531    95249897.732        -792.438          47.000  
  21156074.988   111175925.232        3247.943          40.000  
  21520980.051   113093513.908        3428.979          37.000  
 23  8 31 16 27 55.9910000  0 10G 5G 7G13G 9G14G20G11G30G22G15
  18067806.615    94946975.360         654.279          45.000  
  19561577.780   102796785.609       -2302.033          44.000  
  18622324.435    97860970.960        2125.005          47.000  
  22593307.082   118728640.427       -3397.121          36.000  
  20246550.549   106396351.607        2803.286          43.000  
  18052189.909    94864901.031       -1624.023          47.000  
  21858322.583   114866257.967       -3585.184          40.000  
  18125604.685    95250690.879        -793.396          47.000  
  21155457.146   111172678.066        3246.759          40.000  
  21520327.640   113090085.665        3428.119          37.000  
 23  8 31 16 27 56.9910000  0 10G 5G 7G13G 9G14G20G11G30G22G15
  18067682.107    94946321.351         653.265          45.000  
  19562015.519   102799087.945       -2302.696          44.000  
  18621920.410    97858845.968        2124.502          47.000  
  22593953.787   118732037.495       -3397.430          36.000  
  20246017.026   106393548.503        2802.498          43.000  
  18052499.022    94866525.441       -1624.945          47.000  
  21859004.502   114869843.307       -3585.609          40.000  
  18125755.717    95251484.614        -794.397          47.000  
  21154839.286   111169431.079        3246.741          40.000  
  21519675.072   113086657.502        3428.054          37.000  
 23  8 31 16 27 57.9910000  0 10G 5G 7G13G 9G14G20G11G30G22G15
  18067557.810    94945668.292         652.216          45.000  
  19562453.101   102801390.894       -2303.604          44.000  
  18621516.298    97856721.577        2123.837          47.000  
  22594600.719   118735434.938       -3397.865          36.000  
  20245483.887   106390746.003        2802.065          43.000  
  18052808.275    94868150.760       -1625.989          47.000  
  21859686.771   114873429.037       -3586.042          40.000  
  18125906.801    95252279.140        -795.239          47.000  
  21154221.112   111166184.568        3246.094          40.000  
  21519022.992   113083229.777        3427.248          37.000  
 23  8 31 16 27 58.9910000  0 10G 5G 7G13G 9G14G20G11G30G22G15
  18067433.389    94945016.005         651.709          45.000  
  19562891.258   102803694.260       -2303.736          44.000  
  18621112.133    97854597.640        2123.467          47.000  
  22595247.319   118738832.543       -3397.508          36.000  
  20244950.748   106387944.002        2801.615          43.000  
  18053117.719    94869776.832       -1626.544          47.000  
  21860369.214   114877015.001       -3586.302          40.000  
  18126058.129    95253074.318        -795.648          47.000  
  21153603.357   111162938.364        3245.776          40.000  
  21518371.017   113079802.243        3427.253          37.000  
 23  8 31 16 27 59.9910000  0 10G 5G 7G13G 9G14G20G11G30G22G15
  18067309.493    94944364.436         650.732          45.000  
  19563329.329   102805997.993       -2304.233          44.000  
  18620708.109    97852474.061        2123.007          47.000  
  22595893.972   118742230.299       -3398.207          36.000  
  20244417.452   106385142.370        2801.208          43.000  
  18053427.269    94871403.569       -1627.350          47.000  
  21861051.605   114880601.105       -3586.698          40.000  
  18126209.701    95253870.077        -796.472          47.000  
  21152985.864   111159692.368        3245.593          40.000  
  21517718.972   113076374.862        3427.158          37.000  
 23  8 31 16 28  0.9910000  0 10G 5G 7G13G 9G14G20G11G30G22G15
  18067185.719    94943713.719         650.159          46.000  
  19563768.132   102808302.238       -2304.672          45.000  
  18620304.014    97850350.977        2122.635          47.000  
  22596540.852   118745628.292       -3398.311          36.000  
  20243884.487   106382341.295        2800.457          43.000  
  18053736.975    94873031.130       -1628.033          47.000  
  21861733.716   114884187.459       -3586.665          40.000  
  18126361.030    95254666.536        -796.887          47.000  
  21152368.457   111156446.720        3245.398          40.000  
  21517066.910   113072947.770        3426.553          37.000  
 23  8 31 16 28  1.9910000  0 10G 5G 7G13G 9G14G20G11G30G22G15
  18067062.258    94943063.911         649.438          46.000  
  19564207.493   102810607.049       -2305.076          45.000  
  18619900.129    97848228.495        2122.245          47.000  
  22597187.522   118749026.586       -3398.123          36.000  
  20243351.226   106379540.819        2800.216          43.000  
  18054046.787    94874659.582       -1628.845          46.000  
  21862416.316   114887774.194       -3586.975          40.000  
  18126512.376    95255463.789        -797.571          47.000  
  21151750.859   111153201.528        3244.812          40.000  
  21516414.987   113069521.013        3426.839          36.000  
 23  8 31 16 28  2.9910000  0 10G 5G 7G13G 9G14G20G11G30G22G15
  18066938.711    94942414.330         648.981          46.000  
  19564646.349   102812911.745       -2305.241          45.000  
  18619495.999    97846105.900        2122.314          47.000  
  22597834.402   118752424.583       -3398.371          36.000  
  20242818.576   106376740.269        2800.109          42.000  
  18054356.772    94876288.228       -1629.248          47.000  
  21863098.550   114891360.593       -3586.705          40.000  
  18126664.297    95256261.132        -797.870          47.000  
  21151133.663   111149956.081        3245.068          40.000  
  21515762.925   113066093.908        3426.900          37.000  
 23  8 31 16 28  3.9910000  0 10G 5G 7G13G 9G14G20G11G30G22G15
  18066815.198    94941765.955         647.754          46.000  
  19565085.187   102815217.291       -2306.247          45.000  
  18619092.375    97843984.163        2121.189          47.000  
  22598481.351   118755823.138       -3399.045          36.000  
  20242285.646   106373940.605        2799.065          42.000  
  18054666.932    94877918.024       -1630.359          47.000  
  21863781.028   114894947.603       -3587.394          40.000  
  18126816.114    95257059.540        -798.950          47.000  
  21150516.152   111146711.320        3244.452          40.000  
  21515111.124   113062667.454        3426.022          37.000  
 23  8 31 16 28  4.9910000  0 10G 5G 7G13G 9G14G20G11G30G22G15
  18066691.982    94941118.831         646.777          45.000  
  19565524.182   102817523.737       -2306.822          45.000  
  18618688.490    97841863.330        2120.486          47.000  
  22599128.143   118759222.354       -3399.610          35.000  
  20241753.100   106371141.874        2798.468          42.000  
  18054977.424    94879549.053       -1631.494          47.000  
  21864463.716   114898535.307       -3587.782          40.000  
  18126968.262    95257859.058        -799.884          47.000  
  21149898.780   111143467.347        3243.561          40.000  
  21514459.533   113059241.684        3425.419          37.000  
 23  8 31 16 28  5.9910000  0 10G 5G 7G13G 9G14G20G11G30G22G15
  18066569.028    94940472.551         645.886          45.000  
  19565963.369   102819830.672       -2307.065          45.000  
  18618284.954    97839742.995        2120.112          47.000  
  22599775.023   118762621.805       -3399.467          35.000  
  20241220.537   106368343.667        2798.021          42.000  
  18055288.108    94881180.883       -1632.233          47.000  
  21865146.421   114902123.291       -3588.007          40.000  
  18127120.481    95258659.271        -800.482          47.000  
  21149281.409   111140223.699        3243.420          40.000  
  21513807.628   113055816.159        3425.573          37.000  
 23  8 31 16 28  6.9910000  0 10G 5G 7G13G 9G14G20G11G30G22G15
  18066446.126    94939827.164         644.861          45.000  
  19566402.713   102822138.175       -2307.821          45.000  
  18617881.871    97837623.213        2119.532          47.000  
  22600421.745   118766021.578       -3399.606          35.000  
  20240688.149   106365546.061        2797.207          43.000  
  18055598.582    94882813.570       -1633.093          46.000  
  21865829.178   114905711.601       -3588.478          40.000  
  18127273.048    95259460.246        -801.514          47.000  
  21148664.143   111136980.476        3242.841          40.000  
  21513156.054   113052390.992        3424.712          38.000  
 23  8 31 16 28  7.9910000  0 10G 5G 7G13G 9G14G20G11G30G22G15
  18066323.974    94939182.475         644.458          46.000  
  19566841.883   102824445.992       -2307.765          45.000  
  18617478.527    97835503.777        2119.321          48.000  
  22601068.381   118769421.412       -3399.919          35.000  
  20240155.882   106362748.796        2796.932          43.000  
  18055909.126    94884446.909       -1633.404          46.000  
  21866512.197   114909300.027       -3588.305          40.000  
  18127425.720    95260261.764        -801.685          47.000  
  21148046.963   111133737.416        3243.146          39.000  
  21512504.358   113048965.908        3425.274          37.000  
 23  8 31 16 28  8.9910000  0 10G 5G 7G13G 9G14G20G11G30G22G15
  18066201.352    94938538.721         643.066          46.000  
  19567281.018   102826754.435       -2309.232          45.000  
  18617075.060    97833384.959        2118.141          47.000  
  22601715.557   118772821.602       -3400.749          35.000  
  20239623.982   106359952.176        2796.100          43.000  
  18056220.124    94886081.157       -1634.839          46.000  
  21867195.006   114912888.792       -3589.210          40.000  
  18127578.479    95261064.103        -802.936          47.000  
  21147430.063   111130494.882        3241.656          39.000  
  21511852.820   113045541.218        3424.194          36.000  
 23  8 31 16 28  9.9910000  0 10G 5G 7G13G 9G14G20G11G30G22G15
  18066078.781    94937895.748         642.377          46.000  
  19567720.240   102829063.258       -2309.035          45.000  
  18616671.768    97831266.524        2118.092          47.000  
  22602362.646   118776221.958       -3400.552          35.000  
  20239091.785   106357156.018        2795.545          42.000  
  18056531.558    94887716.129       -1635.455          47.000  
  21867878.147   114916477.779       -3588.817          40.000  
  18127731.378    95261867.044        -803.345          47.000  
  21146813.111   111127252.530        3242.309          39.000  
  21511201.141   113042116.745        3424.129          37.000  
 23  8 31 16 28 10.9910000  0 10G 5G 7G13G 9G14G20G11G30G22G15
  18065956.525    94937253.565         641.522          45.000  
  19568159.409   102831372.575       -2309.939          45.000  
  18616268.948    97829148.598        2117.402          47.000  
  22603009.857   118779622.540       -3401.405          35.000  
  20238559.484   106354360.358        2795.010          42.000  
  18056842.940    94889351.878       -1636.255          47.000  
  21868561.550   114920067.038       -3589.480          40.000  
  18127884.486    95262670.669        -804.108          47.000  
  21146196.071   111124010.588        3241.840          39.000  
  21510549.219   113038692.497        3423.783          37.000  
 23  8 31 16 28 11.9910000  0 10G 5G 7G13G 9G14G20G11G30G22G15
  18065834.478    94936612.431         640.759          46.000  
  19568598.771   102833682.578       -2310.406          45.000  
  18615866.179    97827031.373        2116.819          47.000  
  22603656.894   118783023.509       -3400.392          35.000  
  20238027.601   106351565.399        2794.991          42.000  
  18057154.182    94890988.643       -1637.103          47.000  
  21869244.953   114923656.749       -3589.846          41.000  
  18128037.629    95263475.209        -804.852          47.000  
  21145579.241   111120769.189        3241.138          39.000  
  21509897.627   113035268.708        3423.330          37.000  
 23  8 31 16 28 12.9910000  0 10G 5G 7G13G 9G14G20G11G30G22G15
  18065712.362    94935971.688         640.558          46.000  
  19569038.359   102835992.607       -2309.989          45.000  
  18615463.271    97824914.188        2117.113          46.000  
  22604304.000   118786424.351       -3400.721          35.000  
  20237495.701   106348770.551        2794.753          42.000  
  18057466.017    94892625.748       -1637.262          47.000  
  21869928.269   114927246.255       -3589.330          41.000  
  18128190.912    95264279.989        -804.962          47.000  
  21144962.061   111117527.624        3241.766          39.000  
  21509245.879   113031844.748        3424.036          37.000  
 23  8 31 16 28 13.9910000  0 10G 5G 7G13G 9G14G20G11G30G22G15
  18065590.769    94935331.762         638.995          45.000  
  19569478.052   102838303.129       -2311.370          45.000  
  18615060.136    97822797.478        2115.927          46.000  
  22604951.002   118789825.436       -3401.863          35.000  
  20236963.783   106345976.228        2793.609          42.000  
  18057777.678    94894263.639       -1638.812          46.000  
  21870611.550   114930836.062       -3590.559          40.000  
  18128344.334    95265085.468        -806.390          47.000  
  21144345.161   111114286.454        3240.570          39.000  
  21508593.590   113028421.004        3423.107          37.000  
 23  8 31 16 28 14.9910000  0 10G 5G 7G13G 9G14G20G11G30G22G15
  18065469.245    94934693.189         638.147          45.000  
  19569917.885   102840614.634       -2311.939          45.000  
  18614657.333    97820681.765        2115.394          46.000  
  22605598.283   118793227.146       -3401.150          35.000  
  20236431.988   106343182.890        2792.901          42.000  
  18058089.356    94895902.834       -1639.771          46.000  
  21871295.075   114934426.601       -3590.606          41.000  
  18128497.914    95265892.127        -807.227          47.000  
  21143728.314   111111046.091        3240.326          39.000  
  21507942.156   113024998.035        3422.954          37.000  
 23  8 31 16 28 15.9910000  0 10G 5G 7G13G 9G14G20G11G30G22G15
  18065347.722    94934055.588         637.390          45.000  
  19570357.858   102842926.744       -2312.025          45.000  
  18614254.739    97818566.666        2115.140          46.000  
  22606245.232   118796629.310       -3401.720          35.000  
  20235901.083   106340390.219        2792.641          42.000  
  18058401.506    94897542.972       -1640.240          46.000  
  21871978.565   114938017.542       -3590.807          41.000  
  18128651.650    95266699.610        -807.532          48.000  
  21143111.675   111107806.246        3240.094          39.000  
  21507290.356   113021575.510        3422.564          36.000  
 23  8 31 16 28 16.9910000  0 10G 5G 7G13G 9G14G20G11G30G22G15
  18065226.269    94933418.840         635.840          45.000  
  19570798.127   102845239.371       -2313.235          45.000  
  18613851.761    97816452.097        2113.885          46.000  
  22606892.583   118800031.735       -3403.351          34.000  
  20235369.584   106337598.081        2791.455          42.000  
  18058713.900    94899183.918       -1641.827          46.000  
  21872661.950   114941608.772       -3591.571          41.000  
  18128805.648    95267507.816        -809.033          48.000  
  21142495.194   111104566.744        3238.861          39.000  
  21506638.852   113018153.259        3421.223          36.000  
 23  8 31 16 28 17.9910000  0 10G 5G 7G13G 9G14G20G11G30G22G15
  18065104.920    94932783.028         635.321          45.000  
  19571238.448   102847552.610       -2313.561          45.000  
  18613449.568    97814338.138        2113.457          46.000  
  22607539.864   118803434.469       -3403.054          35.000  
  20234838.574   106334806.592        2791.075          42.000  
  18059026.206    94900825.777       -1642.377          46.000  
  21873345.859   114945200.393       -3591.798          41.000  
  18128959.751    95268316.826        -809.521          48.000  
  21141879.097   111101327.705        3238.946          39.000  
  21505987.522   113014731.348        3421.827          36.000  
 23  8 31 16 28 18.9910000  0 10G 5G 7G13G 9G14G20G11G30G22G15
  18064984.112    94932147.997         634.998          45.000  
  19571679.432   102849866.270       -2313.546          46.000  
  18613047.254    97812224.603        2113.667          46.000  
  22608186.987   118806837.392       -3402.502          35.000  
  20234307.337   106332015.564        2791.093          42.000  
  18059338.844    94902468.381       -1642.725          46.000  
  21874029.279   114948792.207       -3591.710          41.000  
  18129113.871    95269126.479        -809.784          48.000  
  21141262.929   111098088.980        3238.458          39.000  
  21505336.472   113011309.689        3421.940          37.000  
 23  8 31 16 28 19.9910000  0 10G 5G 7G13G 9G14G20G11G30G22G15
  18064863.287    94931513.702         634.039          45.000  
  19572119.841   102852180.309       -2314.041          46.000  
  18612645.148    97810111.469        2113.094          46.000  
  22608834.478   118810240.492       -3403.263          35.000  
  20233776.466   106329224.971        2790.609          42.000  
  18059651.552    94904111.684       -1643.536          46.000  
  21874713.049   114952384.208       -3592.019          41.000  
  18129267.782    95269936.735        -810.406          48.000  
  21140646.588   111094850.482        3238.629          39.000  
  21504685.370   113007888.171        3421.617          36.000  
 23  8 31 16 28 20.9910000  0 10G 5G 7G13G 9G14G20G11G30G22G15
  18064742.671    94930880.251         633.179          45.000  
  19572560.511   102854494.858       -2314.746          46.000  
  18612243.025    97807998.841        2112.462          46.000  
  22609482.073   118813643.794       -3403.270          36.000  
  20233245.561   106326434.909        2789.821          42.000  
  18059964.330    94905755.794       -1644.464          46.000  
  21875396.748   114955976.467       -3592.236          41.000  
  18129421.868    95270747.695        -811.188          48.000  
  21140030.072   111091612.353        3238.019          39.000  
  21504034.284   113004466.929        3421.079          36.000  
 23  8 31 16 28 21.9910000  0 10G 5G 7G13G 9G14G20G11G30G22G15
  18064622.334    94930247.589         632.190          45.000  
  19573001.217   102856809.835       -2315.043          46.000  
  18611841.112    97805886.653        2112.057          46.000  
  22610129.930   118817047.317       -3403.403          36.000  
  20232714.673   106323645.319        2789.247          42.000  
  18060277.265    94907400.656       -1645.148          47.000  
  21876080.395   114959568.957       -3592.504          41.000  
  18129576.215    95271559.301        -811.877          48.000  
  21139414.079   111088374.511        3237.549          38.000  
  21503383.252   113001045.915        3420.854          36.000  
 23  8 31 16 28 22.9910000  0 10G 5G 7G13G 9G14G20G11G30G22G15
  18064502.486    94929615.490         631.866          45.000  
  19573441.957   102859125.057       -2315.263          46.000  
  18611439.111    97803774.705        2111.987          46.000  
  22610777.752   118820450.808       -3403.268          36.000  
  20232184.012   106320856.001        2789.335          42.000  
  18060590.548    94909046.066       -1645.532          47.000  
  21876763.903   114963161.444       -3592.377          41.000  
  18129730.614    95272371.348        -812.097          48.000  
  21138797.964   111085136.771        3237.707          39.000  
  21502731.992   112997624.898        3421.188          36.000  
 23  8 31 16 28 23.9910000  0 10G 5G 7G13G 9G14G20G11G30G22G15
  18064382.481    94928984.109         630.731          45.000  
  19573882.487   102861440.597       -2316.058          46.000  
  18611037.233    97801663.092        2110.958          46.000  
  22611425.434   118823854.389       -3403.858          36.000  
  20231653.560   106318067.044        2788.537          42.000  
  18060903.413    94910692.115       -1646.625          46.000  
  21877447.533   114966754.043       -3592.911          41.000  
  18129884.944    95273183.935        -813.000          47.000  
  21138181.727   111081899.220        3237.140          39.000  
  21502080.925   112994204.001        3420.408          36.000  
 23  8 31 16 28 24.9910000  0 10G 5G 7G13G 9G14G20G11G30G22G15
  18064262.598    94928354.110         629.572          45.000  
  19574323.559   102863757.167       -2316.827          46.000  
  18610635.808    97799552.506        2110.199          46.000  
  22612073.291   118827258.745       -3404.368          36.000  
  20231123.422   106315279.163        2787.643          42.000  
  18061217.064    94912339.505       -1647.748          46.000  
  21878131.529   114970347.444       -3593.325          41.000  
  18130039.780    95273997.776        -814.246          47.000  
  21137565.961   111078662.551        3236.468          39.000  
  21501430.066   112990783.917        3419.705          36.000  
 23  8 31 16 28 25.9910000  0 10G 5G 7G13G 9G14G20G11G30G22G15
  18064142.872    94927724.989         628.510          45.000  
  19574764.125   102866074.259       -2317.524          46.000  
  18610234.348    97797442.464        2109.551          46.000  
  22612721.235   118830663.380       -3405.093          34.000  
  20230593.041   106312491.865        2786.856          42.000  
  18061530.487    94913987.736       -1648.761          46.000  
  21878815.403   114973941.159       -3594.034          41.000  
  18130194.930    95274812.341        -815.033          47.000  
  21136950.405   111075426.269        3235.950          39.000  
  21500779.226   112987364.142        3419.542          37.000  
 23  8 31 16 28 26.9910000  0 10G 5G 7G13G 9G14G20G11G30G22G15
  18064023.390    94927096.636         627.643          45.000  
  19575205.231   102868391.800       -2317.956          45.000  
  18609832.958    97795332.876        2109.030          46.000  
  22613369.022   118834068.213       -3405.108          33.000  
  20230062.781   106309705.030        2786.208          42.000  
  18061844.242    94915636.726       -1649.585          46.000  
  21879499.120   114977535.094       -3594.442          41.000  
  18130350.150    95275627.564        -815.808          47.000  
  21136334.988   111072190.295        3235.626          39.000  
  21500128.786   112983944.607        3418.781          37.000  
 23  8 31 16 28 27.9910000  0 10G 5G 7G13G 9G14G20G11G30G22G15
  18063904.118    94926469.241         626.782          45.000  
  19575646.303   102870709.928       -2318.377          45.000  
  18609431.708    97793223.879        2108.579          46.000  
  22614017.175   118837473.385       -3405.100          33.000  
  20229532.661   106306918.797        2785.909          42.000  
  18062158.136    94917286.600       -1650.360          46.000  
  21880182.750   114981129.390       -3594.611          41.000  
  18130505.177    95276443.579        -816.382          47.000  
  21135719.484   111068954.786        3235.400          39.000  
  21499478.347   112980525.413        3418.897          37.000  
 23  8 31 16 28 28.9910000  0 10G 5G 7G13G 9G14G20G11G30G22G15
  18063784.828    94925842.721         626.080          45.000  
  19576087.096   102873028.623       -2319.094          45.000  
  18609030.702    97791115.452        2108.041          46.000  
  22614665.311   118840878.856       -3406.065          33.000  
  20229002.540   106304133.190        2785.225          42.000  
  18062472.327    94918937.345       -1651.105          46.000  
  21880866.641   114984724.029       -3594.952          41.000  
  18130660.397    95277260.366        -817.188          47.000  
  21135103.683   111065719.683        3235.205          39.000  
  21498827.663   112977106.582        3418.479          37.000  
 23  8 31 16 28 29.9910000  0 10G 5G 7G13G 9G14G20G11G30G22G15
  18063665.626    94925216.788         625.397          45.000  
  19576528.394   102875347.523       -2319.252          45.000  
  18608629.731    97789007.246        2107.985          46.000  
  22615313.464   118844284.330       -3405.734          33.000  
  20228472.473   106301347.834        2785.135          42.000  
  18062786.746    94920588.640       -1651.684          47.000  
  21881550.707   114988318.646       -3594.504          41.000  
  18130816.227    95278077.585        -817.645          47.000  
  21134488.074   111062484.677        3235.059          39.000  
  21498177.241   112973687.717        3418.460          38.000  
 23  8 31 16 28 30.9910000  0 10G 5G 7G13G 9G14G20G11G30G22G15
  18063546.598    94924591.912         624.182          45.000  
  19576969.553   102877667.122       -2319.993          45.000  
  18608228.725    97786899.749        2106.996          46.000  
  22615961.478   118847690.227       -3406.088          34.000  
  20227942.859   106298563.203        2784.167          42.000  
  18063101.198    94922240.927       -1652.850          47.000  
  21882234.791   114991913.766       -3595.345          41.000  
  18130971.744    95278895.684        -818.536          47.000  
  21133872.780   111059250.217        3234.100          39.000  
  21497526.889   112970269.343        3418.327          38.000  
 23  8 31 16 28 31.9910000  0 10G 5G 7G13G 9G14G20G11G30G22G15
  18063427.587    94923967.794         623.413          45.000  
  19577410.887   102879987.105       -2320.339          45.000  
  18607827.771    97784792.665        2106.484          46.000  
  22616609.754   118851096.256       -3406.520          34.000  
  20227412.773   106295779.027        2783.681          42.000  
  18063415.669    94923893.928       -1653.656          47.000  
  21882919.014   114995509.048       -3595.699          41.000  
  18131127.557    95279714.418        -819.446          47.000  
  21133257.153   111056016.016        3233.673          39.000  
  21496876.275   112966851.159        3417.792          38.000  
 23  8 31 16 28 32.9910000  0 10G 5G 7G13G 9G14G20G11G30G22G15
  18063309.013    94923344.272         623.041          45.000  
  19577852.290   102882307.370       -2320.635          45.000  
  18607426.538    97782685.840        2106.410          46.000  
  22617257.977   118854502.318       -3406.508          34.000  
  20226882.513   106292995.128        2783.591          42.000  
  18063730.279    94925547.503       -1654.016          46.000  
  21883602.905   114999104.363       -3595.543          41.000  
  18131283.335    95280533.617        -819.690          47.000  
  21132641.737   111052781.957        3233.771          39.000  
  21496225.958   112963433.053        3417.527          38.000  
 23  8 31 16 28 33.9910000  0 10G 5G 7G13G 9G14G20G11G30G22G15
  18063190.439    94922721.746         621.930          45.000  
  19578294.164   102884628.265       -2321.296          45.000  
  18607025.794    97780579.673        2105.652          46.000  
  22617906.532   118857908.729       -3406.323          34.000  
  20226352.673   106290211.921        2782.935          42.000  
  18064044.854    94927202.035       -1655.017          46.000  
  21884287.250   115002700.104       -3595.957          41.000  
  18131439.148    95281353.662        -820.587          47.000  
  21132026.878   111049548.346        3233.704          39.000  
  21495575.623   112960015.295        3417.521          38.000  
 23  8 31 16 28 34.9910000  0 10G 5G 7G13G 9G14G20G11G30G22G15
  18063072.039    94922099.707         621.552          45.000  
  19578735.951   102886949.278       -2321.119          45.000  
  18606625.137    97778473.628        2105.649          46.000  
  22618554.476   118861315.118       -3407.394          35.000  
  20225823.076   106287428.877        2782.862          42.000  
  18064359.586    94928856.991       -1655.383          46.000  
  21884971.561   115006295.763       -3595.728          41.000  
  18131595.449    95282174.027        -820.941          47.000  
  21131411.583   111046314.776        3233.405          39.000  
  21494925.742   112956597.485        3417.648          37.000  
 23  8 31 16 28 35.9910000  0 10G 5G 7G13G 9G14G20G11G30G22G15
  18062954.128    94921478.837         620.197          46.000  
  19579178.088   102889271.127       -2322.373          45.000  
  18606224.602    97776368.420        2104.791          47.000  
  22619202.856   118864722.023       -3407.869          35.000  
  20225293.619   106284646.693        2781.875          42.000  
  18064674.807    94930513.115       -1656.695          47.000  
  21885655.906   115009891.980       -3596.570          41.000  
  18131751.419    95282995.427        -821.948          47.000  
  21130796.498   111043081.891        3232.587          40.000  
  21494275.791   112953180.276        3417.060          37.000  
 23  8 31 16 28 36.9910000  0 10G 5G 7G13G 9G14G20G11G30G22G15
  18062836.583    94920859.187         619.189          46.000  
  19579620.276   102891593.845       -2322.900          45.000  
  18605824.312    97774264.103        2103.796          47.000  
  22619851.638   118868129.541       -3408.026          35.000  
  20224764.598   106281865.419        2780.894          42.000  
  18064990.167    94932170.405       -1657.904          47.000  
  21886340.513   115013488.899       -3597.428          41.000  
  18131907.930    95283817.939        -822.980          47.000  
  21130181.710   111039849.747        3231.476          39.000  
  21493625.631   112949763.751        3415.952          38.000  
 23  8 31 16 28 37.9910000  0 10G 5G 7G13G 9G14G20G11G30G22G15
  18062718.882    94920240.307         618.408          46.000  
  19580062.709   102893916.992       -2323.370          45.000  
  18605424.039    97772160.212        2103.696          47.000  
  22620500.193   118871537.216       -3407.675          35.000  
  20224235.124   106279084.618        2780.469          42.000  
  18065305.859    94933828.430       -1658.575          47.000  
  21887024.945   115017085.986       -3597.199          41.000  
  18132064.232    95284641.074        -823.541          47.000  
  21129566.485   111036617.860        3231.653          40.000  
  21492975.890   112946347.394        3416.047          36.000  
 23  8 31 16 28 38.9910000  0 10G 5G 7G13G 9G14G20G11G30G22G15
  18062601.302    94919622.114         617.480          46.000  
  19580505.020   102896240.498       -2323.955          45.000  
  18605023.643    97770056.701        2102.994          47.000  
  22621148.870   118874945.051       -3408.212          35.000  
  20223706.138   106276304.205        2780.045          43.000  
  18065621.411    94935487.129       -1659.375          46.000  
  21887709.447   115020683.240       -3597.715          41.000  
  18132220.935    95285464.773        -824.347          47.000  
  21128951.714   111033386.217        3230.963          39.000  
  21492326.253   112942931.151        3416.207          36.000  
 23  8 31 16 28 39.9910000  0 10G 5G 7G13G 9G14G20G11G30G22G15
  18062483.757    94919004.800         617.065          46.000  
  19580947.400   102898564.508       -2324.091          45.000  
  18604623.405    97767953.691        2102.977          47.000  
  22621797.477   118878353.146       -3408.047          35.000  
  20223177.134   106273524.376        2779.775          42.000  
  18065937.365    94937146.651       -1659.723          46.000  
  21888394.194   115024280.775       -3597.385          41.000  
  18132377.690    95286289.193        -824.591          47.000  
  21128337.291   111030154.946        3231.268          39.000  
  21491676.093   112939515.265        3416.282          36.000  
 23  8 31 16 28 40.9910000  0 10G 5G 7G13G 9G14G20G11G30G22G15
  18062366.422    94918388.235         616.364          46.000  
  19581389.728   102900888.926       -2324.480          45.000  
  18604223.429    97765851.110        2102.457          47.000  
  22622446.084   118881761.403       -3408.970          36.000  
  20222648.497   106270744.954        2779.338          42.000  
  18066253.161    94938806.900       -1660.748          46.000  
  21889078.731   115027878.473       -3597.802          41.000  
  18132534.481    95287114.227        -825.421          47.000  
  21127722.607   111026923.966        3230.664          40.000  
  21491026.124   112936099.527        3415.690          35.000  
 23  8 31 16 28 41.9910000  0 10G 5G 7G13G 9G14G20G11G30G22G15
  18062249.174    94917772.441         615.643          46.000  
  19581831.934   102903213.759       -2324.947          45.000  
  18603823.697    97763748.955        2102.006          47.000  
  22623094.813   118885169.795       -3408.467          35.000  
  20222119.634   106267965.998        2778.852          42.000  
  18066569.202    94940467.852       -1661.194          46.000  
  21889763.355   115031476.362       -3597.734          41.000  
  18132691.463    95287939.883        -825.934          47.000  
  21127107.871   111023693.206        3231.091          39.000  
  21490375.859   112932683.954        3415.923          35.000  
 23  8 31 16 28 42.9910000  0 10G 5G 7G13G 9G14G20G11G30G22G15
  18062132.310    94917157.379         614.722          46.000  
  19582274.210   102905538.968       -2325.549          45.000  
  18603424.017    97761647.182        2101.464          47.000  
  22623743.700   118888578.334       -3408.832          36.000  
  20221590.892   106265187.460        2778.374          42.000  
  18066885.383    94942129.509       -1662.036          46.000  
  21890447.875   115035074.418       -3598.023          41.000  
  18132848.672    95288766.125        -826.428          47.000  
  21126493.257   111020462.744        3230.127          39.000  
  21489725.821   112929268.589        3415.319          36.000  
 23  8 31 16 28 43.9910000  0 10G 5G 7G13G 9G14G20G11G30G22G15
  18062015.603    94916542.436         614.423          46.000  
  19582716.678   102907863.946       -2325.411          45.000  
  18603024.285    97759545.180        2101.678          47.000  
  22624392.534   118891986.384       -3408.305          36.000  
  20221061.924   106262408.735        2778.293          42.000  
  18067201.668    94943791.240       -1662.201          46.000  
  21891132.465   115038672.025       -3597.901          41.000  
  18133005.968    95289592.356        -826.691          47.000  
  21125878.172   111017231.890        3230.707          39.000  
  21489075.975   112925852.768        3415.608          35.000  
 23  8 31 16 28 44.9910000  0 10G 5G 7G13G 9G14G20G11G30G22G15
  18061899.140    94915928.870         613.007          46.000  
  19583159.093   102910189.909       -2326.213          45.000  
  18602624.657    97757444.215        2100.566          47.000  
  22625041.368   118895395.183       -3408.657          36.000  
  20220533.391   106259631.071        2777.162          42.000  
  18067518.163    94945454.301       -1663.525          46.000  
  21891817.159   115042270.408       -3598.576          41.000  
  18133163.561    95290419.797        -827.869          47.000  
  21125263.418   111014001.923        3229.767          39.000  
  21488425.955   112922437.758        3414.931          35.000  
 23  8 31 16 28 45.9910000  0 10G 5G 7G13G 9G14G20G11G30G22G15
  18061782.939    94915316.486         612.000          46.000  
  19583601.805   102912516.741       -2327.130          45.000  
  18602224.838    97755344.101        2099.828          47.000  
  22625690.044   118898804.602       -3409.480          37.000  
  20220004.946   106256854.267        2776.815          42.000  
  18067834.797    94947118.513       -1664.545          46.000  
  21892501.801   115045869.409       -3599.394          41.000  
  18133321.416    95291248.293        -828.809          47.000  
  21124649.013   111010772.663        3229.175          39.000  
  21487776.266   112919023.374        3413.922          35.000  
 23  8 31 16 28 46.9910000  0 10G 5G 7G13G 9G14G20G11G30G22G15
  18061666.756    94914704.966         610.669          46.000  
  19584044.377   102914844.055       -2328.066          45.000  
  18601825.019    97753244.493        2098.879          47.000  
  22626338.966   118902214.265       -3410.100          37.000  
  20219476.571   106254078.013        2775.653          42.000  
  18068151.588    94948783.537       -1665.784          46.000  
  21893186.617   115049468.692       -3599.906          41.000  
  18133479.183    95292077.495        -829.791          47.000  
  21124034.556   111007543.754        3228.412          39.000  
  21487126.385   112915609.214        3413.677          35.000  
 23  8 31 16 28 47.9910000  0 10G 5G 7G13G 9G14G20G11G30G22G15
  18061550.398    94914094.298         610.535          46.000  
  19584487.264   102917171.890       -2327.941          45.000  
  18601425.391    97751145.407        2099.165          47.000  
  22626988.306   118905624.187       -3409.694          37.000  
  20218948.545   106251302.306        2775.776          42.000  
  18068468.432    94950449.393       -1665.997          46.000  
  21893871.451   115053068.271       -3599.706          41.000  
  18133637.212    95292907.431        -830.078          47.000  
  21123419.960   111004315.233        3228.570          39.000  
  21486476.451   112912195.351        3414.478          34.000  
 23  8 31 16 28 48.9910000  0 10G 5G 7G13G 9G14G20G11G30G22G15
  18061434.441    94913484.213         609.613          46.000  
  19584930.255   102919499.960       -2328.326          45.000  
  18601025.886    97749046.568        2098.655          47.000  
  22627637.175   118909034.118       -3410.330          37.000  
  20218420.641   106248526.892        2775.104          42.000  
  18068785.432    94952115.795       -1666.754          46.000  
  21894556.634   115056667.838       -3599.705          41.000  
  18133795.206    95293737.803        -830.725          47.000  
  21122805.188   111001086.800        3228.333          39.000  
  21485826.431   112908781.521        3414.536          34.000  
 23  8 31 16 28 49.9910000  0 10G 5G 7G13G 9G14G20G11G30G22G15
  18061318.624    94912874.791         608.917          46.000  
  19585373.630   102921828.321       -2328.782          45.000  
  18600626.363    97746948.046        2098.243          47.000  
  22628286.480   118912444.066       -3410.027          37.000  
  20217892.685   106245751.807        2774.708          42.000  
  18069102.485    94953782.815       -1667.486          46.000  
  21895241.799   115060267.501       -3599.806          41.000  
  18133953.428    95294568.684        -831.372          47.000  
  21122190.574   110997858.543        3227.954          39.000  
  21485176.480   112905367.834        3413.330          34.000  
 23  8 31 16 28 50.9910000  0 10G 5G 7G13G 9G14G20G11G30G22G15
  18061202.632    94912266.420         607.690          46.000  
  19585816.988   102924157.403       -2329.659          45.000  
  18600227.242    97744850.248        2097.230          47.000  
  22628935.698   118915854.483       -3410.204          37.000  
  20217364.886   106242977.475        2773.965          42.000  
  18069419.713    94955450.861       -1668.787          46.000  
  21895926.720   115063867.654       -3600.471          41.000  
  18134111.788    95295400.487        -832.513          47.000  
  21121576.780   110994630.865        3227.093          39.000  
  21484527.035   112901954.584        3412.925          35.000  
 23  8 31 16 28 51.9910000  0 10G 5G 7G13G 9G14G20G11G30G22G15
  18061087.147    94911658.809         607.166          46.000  
  19586260.241   102926486.866       -2329.483          45.000  
  18599827.946    97742752.850        2097.209          47.000  
  22629584.759   118919265.076       -3410.492          37.000  
  20216837.540   106240203.595        2773.627          43.000  
  18069737.307    94957119.618       -1669.080          46.000  
  21896611.781   115067467.965       -3600.188          41.000  
  18134270.254    95296232.895        -832.538          47.000  
  21120962.550   110991403.449        3227.289          39.000  
  21483877.486   112898541.506        3413.622          35.000  
 23  8 31 16 28 52.9910000  0 10G 5G 7G13G 9G14G20G11G30G22G15
  18060971.504    94911051.979         606.482          46.000  
  19586703.773   102928816.770       -2330.008          45.000  
  18599428.824    97740655.890        2096.903          47.000  
  22630233.732   118922675.807       -3409.807          37.000  
  20216309.706   106237430.187        2772.969          42.000  
  18070055.110    94958789.114       -1669.830          46.000  
  21897296.894   115071068.495       -3600.493          41.000  
  18134428.929    95297065.951        -833.173          47.000  
  21120348.425   110988176.322        3227.216          39.000  
  21483228.041   112895128.658        3413.128          35.000  
 23  8 31 16 28 53.9910000  0 10G 5G 7G13G 9G14G20G11G30G22G15
  18060855.861    94910445.481         605.920          46.000  
  19587146.991   102931146.659       -2330.283          45.000  
  18599029.476    97738558.923        2096.810          46.000  
  22630882.514   118926086.338       -3410.435          37.000  
  20215781.767   106234656.788        2772.960          42.000  
  18070372.931    94960458.905       -1670.221          46.000  
  21897981.710   115074668.798       -3600.613          40.000  
  18134587.638    95297899.192        -833.679          47.000  
  21119734.125   110984949.048        3227.240          39.000  
  21482578.247   112891715.596        3412.797          34.000  
 23  8 31 16 28 54.9910000  0 10G 5G 7G13G 9G14G20G11G30G22G15
  18060740.376    94909839.847         604.999          46.000  
  19587590.471   102933477.048       -2330.898          45.000  
  18598630.006    97736462.479        2096.005          46.000  
  22631531.470   118929497.094       -3411.038          37.000  
  20215253.898   106231883.927        2772.683          42.000  
  18070690.961    94962129.510       -1671.167          46.000  
  21898666.997   115078269.359       -3600.895          40.000  
  18134746.051    95298733.149        -834.442          47.000  
  21119120.209   110981722.147        3226.593          39.000  
  21481929.082   112888302.799        3412.557          34.000  
 23  8 31 16 28 55.9910000  0 10G 5G 7G13G 9G14G20G11G30G22G15
  18060625.274    94909235.570         603.503          46.000  
  19588034.038   102935808.443       -2331.957          45.000  
  18598231.111    97734367.051        2094.766          46.000  
  22632180.356   118932908.585       -3411.832          37.000  
  20214726.133   106229112.138        2771.329          42.000  
  18071009.340    94963801.446       -1672.656          46.000  
  21899352.163   115081870.707       -3601.774          41.000  
  18134905.232    95299568.324        -835.809          47.000  
  21118506.519   110978496.117        3225.372          39.000  
  21481280.021   112884890.788        3411.739          35.000  
 23  8 31 16 28 56.9910000  0 10G 5G 7G13G 9G14G20G11G30G22G15
  18060510.504    94908632.317         602.869          46.000  
  19588477.762   102938140.502       -2332.373          45.000  
  18597832.304    97732272.276        2094.630          46.000  
  22632829.522   118936320.525       -3412.025          37.000  
  20214198.840   106226341.047        2770.727          42.000  
  18071327.423    94965474.344       -1673.309          46.000  
  21900037.712   115085472.494       -3601.832          40.000  
  18135064.186    95300404.369        -836.426          47.000  
  21117892.673   110975270.618        3225.165          39.000  
  21480630.733   112881479.215        3411.642          35.000  
 23  8 31 16 28 57.9910000  0 11G 5G 7G13G 9G14G20G11G30G22G15G18
  18060395.507    94908029.397         602.820          46.000  
  19588921.504   102940472.532       -2332.009          45.000  
  18597433.793    97730177.518        2094.690          46.000  
  22633479.036   118939732.174       -3411.305          37.000  
  20213671.634   106223569.962        2771.065          42.000  
  18071645.959    94967147.539       -1673.193          46.000  
  21900723.104   115089074.042       -3601.531          40.000  
  18135223.228    95301240.594        -836.249          47.000  
  21117278.704   110972044.945        3225.653          39.000  
  21479981.550   112878067.438        3412.126          34.000  
  22277715.881                        1924.000          20.000  
 23  8 31 16 28 58.9910000  0 11G 5G 7G13G 9G14G20G11G30G22G15G18
  18060280.632    94907427.217         601.208          46.000  
  19589365.385   102942804.950       -2333.174          45.000  
  18597035.440    97728083.138        2093.646          46.000  
  22634128.115   118943143.945       -3412.167          37.000  
  20213144.079   106220799.325        2769.708          42.000  
  18071964.391    94968821.424       -1674.560          46.000  
  21901408.252   115092675.749       -3602.276          40.000  
  18135382.478    95302077.421        -837.555          47.000  
  21116664.928   110968819.537        3224.713          39.000  
  21479332.454   112874655.814        3410.909          34.000  
  22277355.132                        1924.000          19.000  
 23  8 31 16 28 59.9910000  0 11G 5G 7G13G 9G14G20G11G30G22G15G18
  18060166.578    94906826.221         600.452          46.000  
  19589809.441   102945138.209       -2333.598          45.000  
  18596637.086    97725989.614        2093.199          46.000  
  22634777.333   118946556.379       -3413.018          37.000  
  20212617.135   106218029.557        2769.404          42.000  
  18072283.119    94970496.476       -1675.562          46.000  
  21902093.836   115096278.072       -3602.848          40.000  
  18135542.078    95302915.297        -838.214          47.000  
  21116051.431   110965594.852        3224.182          39.000  
  21478683.446   112871244.819        3410.709          34.000  
  22276984.577                        1924.000          18.000  
 23  8 31 16 29  0.9910000  0 11G 5G 7G13G 9G14G20G11G30G22G15G18
  18060052.244    94906226.297         599.585          46.000  
  19590253.584   102947472.197       -2334.323          45.000  
  18596238.960    97723896.829        2092.468          46.000  
  22635426.446   118949969.207       -3412.945          37.000  
  20212090.208   106215260.555        2768.799          42.000  
  18072601.987    94972172.559       -1676.367          46.000  
  21902779.263   115099880.898       -3603.137          40.000  
  18135701.590    95303754.115        -839.136          47.000  
  21115438.282   110962370.737        3224.225          39.000  
  21478034.525   112867834.366        3410.375          34.000  
  22276615.697                        1924.000          16.000  
 23  8 31 16 29  1.9910000  0 11G 5G 7G13G 9G14G20G11G30G22G15G18
  18059938.399    94905626.867         599.774          46.000  
  19590697.727   102949806.315       -2333.531          45.000  
  18595840.711    97721804.183        2093.124          47.000  
  22636075.681   118953381.972       -3411.983          36.000  
  20211563.247   106212491.724        2769.435          42.000  
  18072920.907    94973849.100       -1676.251          46.000  
  21903464.568   115103483.636       -3602.073          40.000  
  18135861.016    95304593.278        -838.782          47.000  
  21114824.785   110959146.649        3224.225          39.000  
  21477385.568   112864423.791        3411.233          35.000  
  22276253.919                        1924.000          14.000  
 23  8 31 16 29  2.9910000  0 11G 5G 7G13G 9G14G20G11G30G22G15G18
  18059824.431    94905028.076         598.169          46.000  
  19591142.027   102952140.704       -2334.707          45.000  
  18595442.619    97719711.840        2091.871          47.000  
  22636725.108   118956794.717       -3412.950          36.000  
  20211036.302   106209723.239        2767.958          42.000  
  18073240.438    94975526.214       -1677.655          46.000  
  21904150.048   115107086.414       -3602.628          40.000  
  18136020.807    95305432.926        -840.167          47.000  
  21114211.166   110955922.683        3223.803          39.000  
  21476736.979   112861013.287        3410.278          35.000  
  22275892.595                        1924.000          13.000  
 23  8 31 16 29  3.9910000  0 11G 5G 7G13G 9G14G20G11G30G22G15G18
  18059710.639    94904430.607         596.948          46.000  
  19591586.449   102954476.092       -2335.787          45.000  
  18595044.928    97717620.482        2091.187          47.000  
  22637374.832   118960208.268       -3413.854          36.000  
  20210509.585   106206955.772        2767.051          42.000  
  18073560.178    94977204.648       -1678.918          46.000  
  21904835.545   115110689.989       -3603.640          40.000  
  18136180.756    95306273.762        -841.229          47.000  
  21113597.127   110952699.577        3222.845          39.000  
  21476088.057   112857603.544        3409.878          35.000  
  22275526.978                        1924.000          12.000  
 23  8 31 16 29  4.9910000  0 10G 5G 7G13G 9G14G20G11G30G22G15
  18059597.055    94903834.197         595.929          46.000  
  19592031.220   102956812.175       -2336.506          45.000  
  18594647.028    97715529.841        2090.299          47.000  
  22638024.504   118963622.240       -3414.117          36.000  
  20209982.850   106204189.051        2766.411          42.000  
  18073879.866    94978884.075       -1679.852          46.000  
  21905521.775   115114293.992       -3603.933          40.000  
  18136340.827    95307115.502        -841.968          47.000  
  21112983.892   110949477.044        3222.351          39.000  
  21475439.311   112854194.322        3408.907          35.000  
 23  8 31 16 29  5.9910000  0 10G 5G 7G13G 9G14G20G11G30G22G15
  18059483.768    94903238.261         595.422          46.000  
  19592476.270   102959148.344       -2336.348          45.000  
  18594249.286    97713439.315        2090.498          47.000  
  22638674.455   118967036.044       -3413.534          37.000  
  20209456.255   106201422.466        2766.570          41.000  
  18074199.729    94980563.939       -1680.078          46.000  
  21906207.620   115117897.914       -3603.927          40.000  
  18136501.264    95307957.568        -842.285          47.000  
  21112370.429   110946254.490        3222.601          39.000  
  21474790.669   112850784.984        3408.637          35.000  
 23  8 31 16 29  6.9910000  0 10G 5G 7G13G 9G14G20G11G30G22G15
  18059370.272    94902643.073         595.001          46.000  
  19592921.111   102961484.934       -2336.430          45.000  
  18593851.473    97711349.216        2090.078          47.000  
  22639324.144   118970450.068       -3414.129          37.000  
  20208929.538   106198656.353        2766.141          41.000  
  18074519.347    94982244.522       -1680.878          46.000  
  21906893.536   115121502.012       -3604.082          40.000  
  18136661.684    95308800.255        -842.767          47.000  
  21111757.124   110943032.195        3222.345          39.000  
  21474142.219   112847375.799        3409.465          35.000  
 23  8 31 16 29  7.9910000  0 10G 5G 7G13G 9G14G20G11G30G22G15
  18059257.474    94902048.612         594.147          46.000  
  19593366.022   102963821.873       -2336.971          46.000  
  18593454.114    97709259.489        2089.598          47.000  
  22639973.973   118973864.139       -3414.074          37.000  
  20208403.030   106195890.644        2765.298          41.000  
  18074839.227    94983925.772       -1681.464          46.000  
  21907579.574   115125106.222       -3603.988          40.000  
  18136822.331    95309643.500        -843.408          47.000  
  21111143.871   110939810.151        3221.790          39.000  
  21473493.611   112843966.767        3408.564          35.000  
 23  8 31 16 29  8.9910000  0 10G 5G 7G13G 9G14G20G11G30G22G15
  18059144.815    94901455.181         593.036          46.000  
  19593810.968   102966159.498       -2337.882          46.000  
  18593056.738    97707170.443        2088.702          47.000  
  22640623.958   118977278.667       -3414.888          37.000  
  20207876.766   106193125.633        2764.961          41.000  
  18075158.915    94985608.023       -1682.733          46.000  
  21908265.350   115128710.914       -3604.739          40.000  
  18136982.820    95310487.643        -844.196          47.000  
  21110530.444   110936588.630        3221.362          39.000  
  21472845.214   112840558.187        3408.696          35.000  
 23  8 31 16 29  9.9910000  0 10G 5G 7G13G 9G14G20G11G30G22G15
  18059032.122    94900862.570         592.554          47.000  
  19594255.843   102968497.594       -2337.861          46.000  
  18592659.204    97705081.879        2088.629          47.000  
  22641273.944   118980693.424       -3414.568          37.000  
  20207350.712   106190361.161        2764.632          42.000  
  18075479.196    94987291.046       -1683.112          46.000  
  21908951.789   115132315.854       -3604.863          40.000  
  18137143.362    95311332.361        -844.818          47.000  
  21109917.382   110933367.473        3221.222          39.000  
  21472196.607   112837149.883        3408.688          35.000  
 23  8 31 16 29 10.9910000  0 10G 5G 7G13G 9G14G20G11G30G22G15
  18058919.585    94900270.538         591.357          47.000  
  19594700.684   102970835.920       -2338.754          46.000  
  18592261.915    97702993.555        2087.886          47.000  
  22641923.842   118984108.163       -3415.230          37.000  
  20206824.518   106187596.952        2763.737          42.000  
  18075799.722    94988974.612       -1684.210          46.000  
  21909638.263   115135920.770       -3605.064          40.000  
  18137304.096    95312177.614        -845.764          47.000  
  21109304.409   110930146.384        3220.520          39.000  
  21471548.191   112833741.595        3407.902          35.000  
 23  8 31 16 29 11.9910000  0 10G 5G 7G13G 9G14G20G11G30G22G15
  18058806.822    94899679.557         590.179          47.000  
  19595145.805   102973174.931       -2339.622          45.000  
  18591864.626    97700905.933        2086.857          47.000  
  22642573.566   118987523.332       -3415.912          34.000  
  20206298.725   106184833.473        2762.707          42.000  
  18076120.108    94990659.166       -1685.327          46.000  
  21910324.266   115139526.180       -3605.958          40.000  
  18137465.214    95313023.763        -846.838          47.000  
  21108691.452   110926925.839        3220.184          39.000  
  21470899.567   112830333.803        3406.864          35.000  
 23  8 31 16 29 12.9910000  0 10G 5G 7G13G 9G14G20G11G30G22G15
  18058694.582    94899089.563         589.508          47.000  
  19595590.907   102975514.583       -2340.051          45.000  
  18591467.634    97698818.966        2086.494          47.000  
  22643223.343   118990938.888       -3415.954          34.000  
  20205772.688   106182070.691        2762.381          41.000  
  18076441.052    94992344.694       -1686.230          46.000  
  21911010.496   115143131.989       -3606.107          40.000  
  18137626.594    95313870.782        -847.534          47.000  
  21108078.374   110923705.859        3219.250          39.000  
  21470251.221   112826926.387        3407.128          35.000  
 23  8 31 16 29 13.9910000  0 10G 5G 7G13G 9G14G20G11G30G22G15
  18058582.552    94898500.168         588.989          47.000  
  19596036.184   102977854.469       -2340.042          45.000  
  18591070.763    97696732.245        2086.315          47.000  
  22643872.805   118994354.400       -3414.681          34.000  
  20205247.123   106179308.176        2762.109          42.000  
  18076761.822    94994030.753       -1686.499          46.000  
  21911697.180   115146737.828       -3605.843          40.000  
  18137787.746    95314718.247        -847.876          47.000  
  21107465.871   110920485.965        3219.641          39.000  
  21469602.824   112823519.015        3407.386          35.000  
 23  8 31 16 29 14.9910000  0 10G 5G 7G13G 9G14G20G11G30G22G15
  18058470.434    94897911.270         588.287          47.000  
  19596481.270   102980194.505       -2340.610          45.000  
  18590673.701    97694645.676        2086.165          47.000  
  22644522.948   118997769.905       -3415.700          34.000  
  20204721.522   106176545.871        2761.760          42.000  
  18077083.081    94995717.287       -1687.115          46.000  
  21912383.462   115150343.549       -3605.966          40.000  
  18137949.440    95315566.051        -848.285          47.000  
  21106853.264   110917266.059        3219.324          39.000  
  21468954.304   112820111.562        3407.632          35.000  
 23  8 31 16 29 15.9910000  0 10G 5G 7G13G 9G14G20G11G30G22G15
  18058358.247    94897323.611         587.506          47.000  
  19596926.320   102982535.416       -2341.129          45.000  
  18590276.831    97692560.020        2085.487          47.000  
  22645172.933   119001185.987       -3416.341          34.000  
  20204196.149   106173784.486        2760.976          41.000  
  18077404.549    94997405.012       -1687.946          46.000  
  21913069.657   115153949.946       -3606.225          40.000  
  18138110.994    95316414.968        -849.200          47.000  
  21106240.744   110914046.924        3219.195          38.000  
  21468305.871   112816704.837        3406.779          35.000  
 23  8 31 16 29 16.9910000  0 10G 5G 7G13G 9G14G20G11G30G22G15
  18058246.321    94896736.691         586.389          47.000  
  19597371.702   102984876.707       -2341.766          45.000  
  18589879.786    97690474.762        2084.868          47.000  
  22645823.111   119004602.192       -3415.901          35.000  
  20203670.984   106171023.517        2760.591          42.000  
  18077725.807    94999093.434       -1689.056          46.000  
  21913755.607   115157556.516       -3607.109          40.000  
  18138272.461    95317264.460        -850.146          47.000  
  21105628.171   110910828.058        3218.433          39.000  
  21467657.369   112813298.213        3406.551          34.000  
 23  8 31 16 29 17.9910000  0 10G 5G 7G13G 9G14G20G11G30G22G15
  18058135.024    94896150.782         585.571          47.000  
  19597817.258   102987218.625       -2341.888          45.000  
  18589483.073    97688390.162        2084.448          46.000  
  22646473.114   119008018.839       -3416.444          36.000  
  20203145.541   106168263.252        2760.159          41.000  
  18078047.066    95000782.808       -1689.636          47.000  
  21914441.890   115161163.488       -3606.843          40.000  
  18138433.928    95318114.820        -850.726          47.000  
  21105015.791   110907609.688        3218.011          39.000  
  21467009.128   112809892.031        3406.185          35.000  
 23  8 31 16 29 18.9910000  0 10G 5G 7G13G 9G14G20G11G30G22G15
  18058023.674    94895565.578         584.778          46.000  
  19598262.815   102989560.944       -2342.642          45.000  
  18589086.203    97686305.920        2084.038          46.000  
  22647123.048   119011435.594       -3416.879          36.000  
  20202620.150   106165503.419        2759.523          41.000  
  18078368.952    95002472.896       -1690.661          47.000  
  21915128.294   115164770.622       -3607.513          41.000  
  18138595.674    95318965.745        -851.282          47.000  
  21104403.498   110904391.561        3217.785          39.000  
  21466360.730   112806486.015        3406.146          34.000  
 23  8 31 16 29 19.9910000  0 10G 5G 7G13G 9G14G20G11G30G22G15
  18057912.306    94894981.150         583.838          46.000  
  19598708.703   102991903.673       -2343.295          45.000  
  18588689.472    97684222.136        2083.268          47.000  
  22647773.173   119014852.541       -3417.533          35.000  
  20202095.020   106162744.028        2758.975          41.000  
  18078690.595    95004163.693       -1691.357          47.000  
  21915815.012   115168377.923       -3607.628          40.000  
  18138757.856    95319817.314        -852.179          47.000  
  21103790.977   110901173.731        3217.450          38.000  
  21465712.193   112803080.211        3405.263          34.000  
 23  8 31 16 29 20.9910000  0 10G 5G 7G13G 9G14G20G11G30G22G15
  18057801.340    94894397.633         583.154          46.000  
  19599154.346   102994246.938       -2343.228          45.000  
  18588293.090    97682138.917        2083.027          47.000  
  22648422.949   119018269.745       -3417.258          35.000  
  20201570.030   106159985.249        2758.535          42.000  
  18079012.813    95005855.371       -1691.949          46.000  
  21916501.417   115171985.578       -3607.595          41.000  
  18138920.178    95320669.635        -852.570          47.000  
  21103178.876   110897956.344        3217.163          38.000  
  21465063.970   112799674.710        3405.505          34.000  
 23  8 31 16 29 21.9910000  0 10G 5G 7G13G 9G14G20G11G30G22G15
  18057690.636    94893814.777         582.318          47.000  
  19599600.409   102996590.517       -2343.961          45.000  
  18587896.586    97680056.013        2082.616          47.000  
  22649072.987   119021687.011       -3417.580          35.000  
  20201045.233   106157226.815        2758.059          42.000  
  18079334.927    95007547.672       -1692.822          47.000  
  21917187.926   115175593.306       -3607.785          40.000  
  18139082.745    95321522.473        -853.174          47.000  
  21102566.757   110894739.114        3216.669          39.000  
  21464415.991   112796269.306        3405.296          34.000  
 23  8 31 16 29 22.9910000  0 10G 5G 7G13G 9G14G20G11G30G22G15
  18057579.915    94893232.672         581.464          47.000  
  19600046.681   102998934.493       -2344.347          45.000  
  18587500.362    97677973.529        2082.091          47.000  
  22649723.113   119025104.440       -3417.715          35.000  
  20200520.435   106154468.823        2757.637          42.000  
  18079656.883    95009240.675       -1693.518          47.000  
  21917874.522   115179201.216       -3608.132          40.000  
  18139245.328    95322375.918        -853.839          47.000  
  21101954.778   110891522.147        3216.669          39.000  
  21463767.907   112792864.110        3404.906          34.000  
 23  8 31 16 29 23.9910000  0 10G 5G 7G13G 9G14G20G11G30G22G15
  18057469.333    94892651.410         581.311          47.000  
  19600492.918   103001278.943       -2344.298          45.000  
  18587104.102    97675891.540        2082.013          47.000  
  22650373.273   119028522.128       -3417.465          35.000  
  20199995.532   106151711.370        2757.380          42.000  
  18079979.206    95010934.479       -1693.866          47.000  
  21918561.258   115182809.363       -3607.943          40.000  
  18139407.982    95323230.062        -854.163          47.000  
  21101342.764   110888305.531        3216.736          39.000  
  21463119.527   112789459.152        3404.945          35.000  
 23  8 31 16 29 24.9910000  0 10G 5G 7G13G 9G14G20G11G30G22G15
  18057358.681    94892070.375         580.316          47.000  
  19600939.539   103003623.271       -2345.017          45.000  
  18586707.965    97673809.423        2081.492          47.000  
  22651023.450   119031939.404       -3418.270          35.000  
  20199470.717   106148953.815        2756.809          41.000  
  18080301.512    95012628.455       -1694.635          47.000  
  21919247.924   115186417.166       -3608.254          40.000  
  18139570.531    95324084.281        -854.895          47.000  
  21100730.698   110885088.668        3216.211          39.000  
  21462471.530   112786053.848        3404.887          35.000  
 23  8 31 16 29 25.9910000  0 10G 5G 7G13G 9G14G20G11G30G22G15
  18057248.430    94891490.557         579.083          47.000  
  19601386.090   103005968.449       -2345.607          45.000  
  18586311.862    97671728.176        2080.937          47.000  
  22651673.977   119035357.250       -3417.771          35.000  
  20198946.216   106146197.153        2756.184          41.000  
  18080623.922    95014323.621       -1695.801          47.000  
  21919934.555   115190025.574       -3608.635          40.000  
  18139733.201    95324939.569        -855.841          47.000  
  21100118.963   110881872.530        3215.887          39.000  
  21461824.110   112782649.225        3404.387          35.000  
 23  8 31 16 29 26.9910000  0 10G 5G 7G13G 9G14G20G11G30G22G15
  18057138.476    94890911.840         578.143          47.000  
  19601831.925   103008314.405       -2346.230          45.000  
  18585915.812    97669647.715        2080.195          47.000  
  22652324.521   119038775.670       -3418.426          34.000  
  20198421.959   106143441.341        2755.501          42.000  
  18080946.995    95016019.839       -1696.655          47.000  
  21920621.361   115193634.553       -3609.162          39.000  
  18139896.326    95325795.822        -856.781          47.000  
  21099506.879   110878657.026        3215.540          39.000  
  21461176.236   112779245.137        3403.771          35.000  
 23  8 31 16 29 27.9910000  0 10G 5G 7G13G 9G14G20G11G30G22G15
  18057028.558    94890333.849         578.040          46.000  
  19602278.337   103010660.708       -2346.017          45.000  
  18585520.216    97667567.610        2080.399          48.000  
  22652975.153   119042194.223       -3418.432          34.000  
  20197897.649   106140685.907        2755.659          42.000  
  18081269.929    95017716.738       -1696.808          47.000  
  21921307.870   115197243.640       -3608.384          40.000  
  18140059.276    95326652.661        -856.689          47.000  
  21098894.987   110875441.776        3215.601          39.000  
  21460528.326   112775841.177        3403.922          35.000  
 23  8 31 16 29 28.9910000  0 11G 5G 7G13G 9G14G20G11G30G22G15G18
  18056918.534    94889756.153         577.081          46.000  
  19602724.399   103013006.946       -2346.584          45.000  
  18585124.183    97665487.463        2079.739          48.000  
  22653625.679   119045612.421       -3419.208          34.000  
  20197373.166   106137930.465        2755.142          41.000  
  18081592.985    95019413.888       -1697.675          47.000  
  21921994.623   115200852.464       -3608.976          40.000  
  18140222.453    95327509.637        -857.562          47.000  
  21098283.113   110872226.337        3215.125          39.000  
  21459880.906   112772436.962        3403.626          36.000  
  22266442.534                        1902.000          19.000  
 23  8 31 16 29 29.9910000  0 11G 5G 7G13G 9G14G20G11G30G22G15G18
  18056808.545    94889179.492         575.970          47.000  
  19603170.479   103015353.878       -2347.574          45.000  
  18584728.778    97663408.016        2078.823          48.000  
  22654275.979   119049031.074       -3418.810          34.000  
  20196849.171   106135175.757        2753.998          42.000  
  18081916.355    95021112.024       -1698.865          47.000  
  21922681.219   115204461.736       -3609.742          39.000  
  18140385.892    95328367.499        -858.527          47.000  
  21097671.116   110869011.403        3214.679          39.000  
  21459233.416   112769033.212        3403.583          36.000  
  22266083.915                        1902.000          18.000  
 23  8 31 16 29 30.9910000  0 11G 5G 7G13G 9G14G20G11G30G22G15G18
  18056698.975    94888603.892         574.731          46.000  
  19603617.170   103017701.509       -2348.275          45.000  
  18584333.322    97661329.277        2078.112          48.000  
  22654926.907   119052450.195       -3420.300          34.000  
  20196324.966   106132421.780        2753.510          42.000  
  18082239.446    95022811.175       -1699.933          47.000  
  21923368.531   115208071.498       -3610.601          40.000  
  18140549.191    95329226.270        -859.546          47.000  
  21097059.312   110865797.059        3213.892          39.000  
  21458585.908   112765629.954        3402.688          35.000  
  22265715.279                        1902.000          18.000  
 23  8 31 16 29 31.9910000  0 11G 5G 7G13G 9G14G20G11G30G22G15G18
  18056589.824    94888029.265         574.750          47.000  
  19604063.686   103020049.752       -2347.894          45.000  
  18583938.231    97659251.180        2078.345          48.000  
  22655577.538   119055869.687       -3418.667          34.000  
  20195801.128   106129668.486        2753.499          42.000  
  18082562.938    95024511.261       -1700.092          47.000  
  21924055.511   115211681.609       -3609.901          40.000  
  18140712.577    95330085.878        -859.534          47.000  
  21096447.943   110862583.203        3214.154          39.000  
  21457938.295   112762227.043        3403.178          36.000  
  22265353.169                        1902.000          16.000  
 23  8 31 16 29 32.9910000  0 11G 5G 7G13G 9G14G20G11G30G22G15G18
  18056480.551    94887454.744         574.072          47.000  
  19604510.481   103022397.753       -2348.080          45.000  
  18583542.408    97657172.859        2077.986          47.000  
  22656228.327   119059288.683       -3419.191          35.000  
  20195277.412   106126915.015        2753.027          42.000  
  18082886.639    95026211.418       -1700.476          46.000  
  21924742.456   115215291.285       -3609.918          41.000  
  18140876.016    95330945.458        -859.741          47.000  
  21095836.069   110859368.991        3214.056          39.000  
  21457290.613   112758823.734        3403.024          36.000  
  22264991.060                        1902.000          16.000  
 23  8 31 16 29 33.9910000  0 11G 5G 7G13G 9G14G20G11G30G22G15G18
  18056371.278    94886881.208         572.845          47.000  
  19604957.364   103024746.382       -2349.230          45.000  
  18583146.811    97655095.161        2077.159          47.000  
  22656878.993   119062708.055       -3420.121          35.000  
  20194753.085   106124162.208        2752.070          41.000  
  18083210.358    95027912.537       -1702.008          47.000  
  21925429.541   115218901.369       -3610.452          39.000  
  18141039.647    95331805.878        -861.224          47.000  
  21095224.543   110856155.299        3213.055          39.000  
  21456643.262   112755420.839        3402.142          35.000  
  22264626.944                        1902.000          15.000  
 23  8 31 16 29 34.9910000  0 11G 5G 7G13G 9G14G20G11G30G22G15G18
  18056262.545    94886308.840         571.777          47.000  
  19605404.194   103027095.809       -2349.636          45.000  
  18582751.424    97653018.292        2076.524          47.000  
  22657529.799   119066127.982       -3420.664          34.000  
  20194229.666   106121410.247        2751.503          42.000  
  18083534.234    95029614.741       -1702.698          47.000  
  21926116.434   115222512.000       -3611.020          40.000  
  18141203.696    95332667.307        -861.914          47.000  
  21094613.105   110852942.258        3212.933          39.000  
  21455996.226   112752018.524        3401.955          36.000  
  22264261.658                        1902.000          17.000  
 23  8 31 16 29 35.9910000  0 11G 5G 7G13G 9G14G20G11G30G22G15G18
  18056153.673    94885737.208         571.240          47.000  
  19605851.548   103029445.631       -2350.137          46.000  
  18582356.212    97650941.827        2076.088          47.000  
  22658180.483   119069548.052       -3420.331          34.000  
  20193705.985   106118658.723        2751.102          42.000  
  18083858.058    95031317.666       -1703.381          47.000  
  21926803.711   115226122.847       -3611.107          40.000  
  18141367.676    95333529.331        -862.457          47.000  
  21094001.859   110849729.489        3212.372          39.000  
  21455349.015   112748616.400        3401.916          36.000  
  22263897.716                        1902.000          16.000  
 23  8 31 16 29 36.9910000  0 10G 5G 7G13G 9G14G20G11G30G22G15
  18056044.644    94885166.028         570.770          47.000  
  19606298.902   103031795.543       -2350.364          46.000  
  18581961.191    97648865.468        2075.910          46.000  
  22658831.062   119072967.992       -3420.176          34.000  
  20193182.321   106115907.343        2751.173          41.000  
  18084182.266    95033020.992       -1703.809          46.000  
  21927490.831   115229733.532       -3611.095          41.000  
  18141532.214    95334391.672        -862.878          47.000  
  21093390.560   110846516.663        3212.811          39.000  
  21454701.612   112745214.156        3401.751          36.000  
 23  8 31 16 29 37.9910000  0 10G 5G 7G13G 9G14G20G11G30G22G15
  18055936.104    94884595.891         569.550          47.000  
  19606746.587   103034146.109       -2350.667          45.000  
  18581566.258    97646789.790        2075.295          46.000  
  22659481.955   119076388.278       -3419.931          35.000  
  20192658.902   106113156.688        2750.443          41.000  
  18084506.648    95034725.318       -1704.932          46.000  
  21928178.055   115233344.660       -3611.224          41.000  
  18141696.351    95335254.889        -863.733          47.000  
  21092779.297   110843304.410        3211.877          39.000  
  21454054.156   112741812.347        3401.484          36.000  
 23  8 31 16 29 38.9910000  0 10G 5G 7G13G 9G14G20G11G30G22G15
  18055827.791    94884026.730         568.573          47.000  
  19607194.115   103036497.329       -2351.582          45.000  
  18581171.325    97644714.761        2074.692          46.000  
  22660133.232   119079809.033       -3420.866          35.000  
  20192135.518   106110406.719        2749.322          41.000  
  18084831.204    95036430.565       -1705.707          46.000  
  21928865.437   115236956.193       -3611.633          41.000  
  18141860.645    95336118.949        -864.520          47.000  
  21092167.894   110840092.650        3211.627          39.000  
  21453407.119   112738410.962        3400.970          36.000  
 23  8 31 16 29 39.9910000  0 10G 5G 7G13G 9G14G20G11G30G22G15
  18055719.599    94883458.429         568.060          47.000  
  19607642.063   103038849.032       -2351.836          45.000  
  18580776.671    97642640.238        2074.394          46.000  
  22660784.038   119083230.021       -3421.301          35.000  
  20191612.465   106107657.268        2749.357          41.000  
  18085155.813    95038136.628       -1706.341          46.000  
  21929552.539   115240567.993       -3611.696          41.000  
  18142024.939    95336983.701        -865.027          47.000  
  21091556.752   110836881.261        3211.255          39.000  
  21452759.978   112735009.875        3400.889          35.000  
 23  8 31 16 29 40.9910000  0 10G 5G 7G13G 9G14G20G11G30G22G15
  18055611.617    94882890.372         567.877          47.000  
  19608089.608   103041200.624       -2351.589          45.000  
  18580381.702    97640565.619        2074.552          46.000  
  22661434.704   119086650.604       -3419.986          35.000  
  20191089.656   106104907.766        2749.310          41.000  
  18085480.405    95039842.890       -1706.439          46.000  
  21930239.607   115244179.446       -3611.212          41.000  
  18142189.564    95337848.554        -864.984          47.000  
  21090945.750   110833669.633        3211.646          39.000  
  21452112.523   112731608.421        3401.711          35.000  
 23  8 31 16 29 41.9910000  0 10G 5G 7G13G 9G14G20G11G30G22G15
  18055503.792    94882323.221         566.534          47.000  
  19608537.067   103043552.753       -2352.457          45.000  
  18579987.066    97638491.556        2073.612          46.000  
  22662085.754   119090071.547       -3421.530          35.000  
  20190566.726   106102158.866        2748.350          41.000  
  18085805.014    95041550.011       -1707.696          46.000  
  21930927.041   115247791.233       -3612.131          41.000  
  18142354.067    95338714.167        -866.199          47.000  
  21090334.626   110830458.423        3210.858          39.000  
  21451464.997   112728207.380        3400.533          34.000  
 23  8 31 16 29 42.9910000  0 10G 5G 7G13G 9G14G20G11G30G22G15
  18055396.369    94881757.270         565.222          47.000  
  19608984.700   103045905.718       -2353.317          45.000  
  18579592.464    97636418.329        2072.759          46.000  
  22662736.822   119093493.040       -3421.618          35.000  
  20190043.882   106099410.832        2747.649          42.000  
  18086130.059    95043258.264       -1708.777          46.000  
  21931614.474   115251403.613       -3612.776          41.000  
  18142519.146    95339580.819        -867.279          47.000  
  21089723.921   110827247.884        3210.431          39.000  
  21450817.402   112724806.863        3400.621          34.000  
 23  8 31 16 29 43.9910000  0 10G 5G 7G13G 9G14G20G11G30G22G15
  18055288.945    94881192.151         564.905          47.000  
  19609432.525   103048259.159       -2353.411          45.000  
  18579197.949    97634345.603        2072.803          47.000  
  22663387.663   119096914.810       -3422.052          35.000  
  20189521.004   106096663.335        2747.646          42.000  
  18086455.488    95044967.308       -1709.082          46.000  
  21932302.118   115255016.239       -3612.472          41.000  
  18142684.243    95340448.152        -867.322          47.000  
  21089112.919   110824037.723        3210.358          39.000  
  21450170.279   112721406.659        3400.727          34.000  
 23  8 31 16 29 44.9910000  0 10G 5G 7G13G 9G14G20G11G30G22G15
  18055181.504    94880627.355         564.258          47.000  
  19609880.053   103050612.575       -2353.822          45.000  
  18578803.574    97632272.882        2072.224          47.000  
  22664038.573   119100336.221       -3421.594          35.000  
  20188998.492   106093915.854        2747.281          42.000  
  18086780.830    95046676.649       -1709.753          46.000  
  21932989.691   115258628.622       -3612.832          40.000  
  18142849.217    95341315.673        -867.841          47.000  
  21088502.283   110820827.417        3209.796          39.000  
  21449523.312   112718006.197        3400.631          34.000  
 23  8 31 16 29 45.9910000  0 10G 5G 7G13G 9G14G20G11G30G22G15
  18055074.028    94880063.492         563.312          47.000  
  19610327.826   103052966.571       -2354.375          45.000  
  18578409.775    97630200.730        2071.796          47.000  
  22664690.025   119103758.035       -3422.437          35.000  
  20188475.387   106091169.038        2746.383          41.000  
  18087106.294    95048386.890       -1710.803          46.000  
  21933677.422   115262241.401       -3613.160          40.000  
  18143014.471    95342183.999        -868.768          47.000  
  21087891.438   110817617.558        3209.851          39.000  
  21448876.118   112714606.171        3400.256          33.000  
 23  8 31 16 29 46.9910000  0 10G 5G 7G13G 9G14G20G11G30G22G15
  18054967.128    94879500.760         562.006          47.000  
  19610775.581   103055321.331       -2355.211          45.000  
  18578015.749    97628129.375        2070.927          46.000  
  22665341.372   119107180.334       -3422.502          36.000  
  20187952.858   106088423.001        2745.764          41.000  
  18087431.845    95050098.204       -1712.030          46.000  
  21934364.751   115265854.671       -3613.574          40.000  
  18143180.021    95343053.300        -869.861          47.000  
  21087280.541   110814408.364        3208.740          39.000  
  21448228.820   112711206.678        3398.634          32.000  
 23  8 31 16 29 47.9910000  0 10G 5G 7G13G 9G14G20G11G30G22G15
  18054859.932    94878938.898         561.890          47.000  
  19611223.441   103057676.622       -2355.153          45.000  
  18577621.340    97626058.557        2070.820          46.000  
  22665993.015   119110602.908       -3422.135          37.000  
  20187430.293   106085677.569        2745.416          42.000  
  18087757.623    95051810.358       -1712.164          46.000  
  21935052.307   115269468.235       -3613.493          41.000  
  18143345.484    95343923.329        -869.995          47.000  
  21086669.871   110811199.557        3209.021          39.000  
  21447581.818   112707807.476        3398.720          32.000  
 23  8 31 16 29 48.9910000  0 10G 5G 7G13G 9G14G20G11G30G22G15
  18054753.032    94878377.291         561.346          47.000  
  19611671.545   103060031.811       -2355.475          45.000  
  18577227.226    97623987.652        2070.680          46.000  
  22666644.187   119114025.173       -3422.343          37.000  
  20186907.712   106082932.066        2745.450          42.000  
  18088083.332    95053522.740       -1712.994          46.000  
  21935739.863   115273081.490       -3613.255          41.000  
  18143511.278    95344793.489        -870.532          48.000  
  21086059.288   110807990.525        3208.917          39.000  
  21446934.572   112704407.946        3399.479          32.000  
 23  8 31 16 29 49.9910000  0 10G 5G 7G13G 9G14G20G11G30G22G15
  18054646.463    94877816.544         560.205          47.000  
  19612119.806   103062387.475       -2356.064          45.000  
  18576833.410    97621917.238        2070.042          46.000  
  22667295.621   119117447.636       -3422.558          36.000  
  20186385.287   106080187.117        2744.586          42.000  
  18088409.424    95055235.902       -1713.776          46.000  
  21936427.227   115276695.004       -3613.766          41.000  
  18143677.125    95345664.323        -871.350          48.000  
  21085448.443   110804781.864        3208.063          39.000  
  21446287.727   112701008.679        3398.997          32.000  
 23  8 31 16 29 50.9910000  0 10G 5G 7G13G 9G14G20G11G30G22G15
  18054539.947    94877257.006         559.039          47.000  
  19612568.434   103064743.990       -2356.647          45.000  
  18576439.489    97619847.704        2069.490          46.000  
  22667947.056   119120870.767       -3423.706          36.000  
  20185862.758   106077443.068        2743.792          42.000  
  18088735.673    95056950.230       -1714.776          46.000  
  21937115.149   115280309.162       -3614.320          41.000  
  18143843.042    95346536.213        -872.107          48.000  
  21084838.104   110801573.908        3207.697          39.000  
  21445640.952   112697610.095        3398.415          33.000  
 23  8 31 16 29 51.9910000  0 10G 5G 7G13G 9G14G20G11G30G22G15
  18054433.867    94876698.278         558.234          47.000  
  19613016.974   103067100.964       -2357.369          45.000  
  18576045.620    97617778.650        2068.632          46.000  
  22668598.437   119124294.067       -3424.013          36.000  
  20185340.543   106074699.526        2743.085          41.000  
  18089062.289    95058665.341       -1715.527          46.000  
  21937802.967   115283923.535       -3614.684          40.000  
  18144009.499    95347408.794        -872.937          47.000  
  21084227.730   110798366.296        3207.373          39.000  
  21444994.561   112694211.777        3397.467          33.000  
 23  8 31 16 29 52.9910000  0 10G 5G 7G13G 9G14G20G11G30G22G15
  18054327.316    94876139.858         557.971          47.000  
  19613465.846   103069457.871       -2357.108          45.000  
  18575651.856    97615709.545        2068.896          46.000  
  22669249.836   119127717.060       -3423.633          36.000  
  20184818.415   106071955.987        2743.229          41.000  
  18089388.765    95060380.697       -1715.680          46.000  
  21938490.890   115287537.640       -3614.544          40.000  
  18144175.678    95348281.528        -873.102          48.000  
  21083616.973   110795158.503        3207.794          39.000  
  21444348.048   112690813.162        3398.124          34.000  
 23  8 31 16 29 53.9910000  0 10G 5G 7G13G 9G14G20G11G30G22G15
  18054221.498    94875582.488         556.689          47.000  
  19613914.753   103071815.492       -2358.144          45.000  
  18575258.196    97613641.161        2068.040          46.000  
  22669900.956   119131140.499       -3423.797          36.000  
  20184296.583   106069213.187        2742.221          41.000  
  18089715.258    95062097.084       -1717.023          46.000  
  21939178.673   115291152.185       -3614.892          40.000  
  18144341.996    95349155.159        -874.219          48.000  
  21083006.529   110791951.293        3206.775          39.000  
  21443701.378   112687415.013        3397.918          34.000  
 23  8 31 16 29 54.9910000  0 10G 5G 7G13G 9G14G20G11G30G22G15
  18054115.628    94875026.047         556.445          47.000  
  19614363.852   103074173.682       -2358.000          45.000  
  18574864.921    97611573.383        2067.826          46.000  
  22670552.321   119134564.339       -3423.623          36.000  
  20183774.438   106066471.029        2742.242          41.000  
  18090041.769    95063814.360       -1717.285          47.000  
  21939866.508   115294767.124       -3614.641          40.000  
  18144508.471    95350029.598        -874.445          48.000  
  21082396.086   110788744.527        3207.208          39.000  
  21443054.795   112684017.310        3397.816          34.000  
 23  8 31 16 29 55.9910000  0 10G 5G 7G13G 9G14G20G11G30G22G15
  18054010.159    94874470.252         555.762          48.000  
  19614813.055   103076532.153       -2358.413          45.000  
  18574471.750    97609505.887        2067.596          46.000  
  22671203.720   119137988.128       -3423.260          36.000  
  20183252.659   106063729.194        2741.815          41.000  
  18090368.612    95065532.225       -1717.957          46.000  
  21940554.029   115298382.098       -3615.008          39.000  
  18144674.876    95350904.520        -874.963          48.000  
  21081785.852   110785537.927        3206.842          39.000  
  21442408.125   112680619.606        3397.419          33.000  
 23  8 31 16 29 56.9910000  0 10G 5G 7G13G 9G14G20G11G30G22G15
  18053904.358    94873914.906         555.133          47.000  
  19615262.276   103078890.696       -2358.580          45.000  
  18574078.457    97607438.501        2067.284          46.000  
  22671855.573   119141411.785       -3423.474          36.000  
  20182730.601   106060987.506        2741.536          41.000  
  18090695.455    95067250.499       -1718.427          46.000  
  21941241.794   115301996.921       -3614.869          40.000  
  18144841.683    95351779.733        -875.397          48.000  
  21081175.530   110782331.293        3206.830          39.000  
  21441761.664   112677221.766        3398.541          33.000  
 23  8 31 16 29 57.9910000  0 10G 5G 7G13G 9G14G20G11G30G22G15
  18053798.924    94873360.383         553.510          47.000  
  19615711.270   103081249.687       -2359.760          45.000  
  18573685.321    97605371.568        2066.098          46.000  
  22672507.181   119144835.604       -3423.678          36.000  
  20182208.787   106058246.303        2740.507          41.000  
  18091022.629    95068969.517       -1719.940          46.000  
  21941929.612   115305611.948       -3615.679          39.000  
  18145008.175    95352655.602        -876.855          48.000  
  21080565.017   110779124.966        3205.719          38.000  
  21441115.186   112673824.231        3396.580          33.000  
 23  8 31 16 29 58.9910000  0 10G 5G 7G13G 9G14G20G11G30G22G15
  18053693.385    94872807.007         553.082          47.000  
  19616160.159   103083609.479       -2359.869          45.000  
  18573292.237    97603305.450        2066.131          46.000  
  22673158.860   119148260.057       -3424.347          36.000  
  20181687.095   106055505.941        2740.535          41.000  
  18091350.204    95070689.660       -1720.447          46.000  
  21942617.657   115309227.569       -3615.536          40.000  
  18145175.209    95353532.478        -877.094          48.000  
  21079954.434   110775919.315        3205.774          38.000  
  21440468.464   112670427.269        3396.630          33.000  
 23  8 31 16 29 59.9910000  0 10G 5G 7G13G 9G14G20G11G30G22G15
  18053588.125    94872254.610         552.069          47.000  
  19616609.136   103085969.883       -2360.615          45.000  
  18572899.084    97601239.963        2065.344          46.000  
  22673810.835   119151684.835       -3424.869          36.000  
  20181165.526   106052766.277        2739.305          41.000  
  18091677.378    95072410.720       -1721.515          46.000  
  21943305.527   115312843.569       -3616.134          40.000  
  18145342.242    95354410.175        -877.881          48.000  
  21079344.427   110772714.169        3205.017          38.000  
  21439821.863   112667030.666        3396.397          33.000  
 23  8 31 16 30  0.9910000  0 10G 5G 7G13G 9G14G20G11G30G22G15
  18053482.918    94871702.479         551.758          47.000  
  19617058.270   103088330.215       -2360.591          45.000  
  18572505.808    97599174.404        2065.344          46.000  
  22674462.635   119155109.271       -3424.470          36.000  
  20180644.096   106050026.557        2739.412          41.000  
  18092004.867    95074132.015       -1721.558          46.000  
  21943993.100   115316459.252       -3615.836          39.000  
  18145509.398    95355288.000        -878.064          48.000  
  21078734.245   110769508.829        3205.048          38.000  
  21439175.141   112663633.770        3396.810          32.000  
 23  8 31 16 30  1.9910000  0 10G 5G 7G13G 9G14G20G11G30G22G15
  18053377.937    94871151.274         550.537          47.000  
  19617507.107   103090691.091       -2361.407          45.000  
  18572112.707    97597109.429        2064.474          46.000  
  22675114.488   119158534.057       -3425.333          36.000  
  20180122.997   106047287.453        2738.556          41.000  
  18092332.494    95075854.186       -1722.778          46.000  
  21944680.953   115320075.263       -3616.209          39.000  
  18145676.519    95356166.605        -879.144          48.000  
  21078124.586   110766303.878        3204.712          38.000  
  21438528.418   112660237.277        3395.611          32.000  
 23  8 31 16 30  2.9910000  0 10G 5G 7G13G 9G14G20G11G30G22G15
  18053273.620    94870601.250         549.536          47.000  
  19617956.153   103093052.798       -2362.067          45.000  
  18571719.781    97595045.285        2063.899          46.000  
  22675766.044   119161959.375       -3425.413          36.000  
  20179601.951   106044549.226        2738.018          41.000  
  18092660.750    95077577.505       -1723.737          46.000  
  21945368.841   115323691.904       -3617.002          39.000  
  18145843.727    95357046.248        -880.151          48.000  
  21077515.120   110763099.659        3204.388          38.000  
  21437881.957   112656841.292        3396.543          32.000  
 23  8 31 16 30  3.9910000  0 10G 5G 7G13G 9G14G20G11G30G22G15
  18053168.779    94870052.041         548.865          47.000  
  19618405.147   103095414.958       -2362.391          45.000  
  18571326.837    97592981.622        2063.524          46.000  
  22676417.688   119165384.964       -3425.784          36.000  
  20179081.359   106041811.524        2737.461          41.000  
  18092988.780    95079301.589       -1724.500          46.000  
  21946057.060   115327308.750       -3616.916          39.000  
  18146011.144    95357926.552        -880.634          47.000  
  21076905.253   110759895.796        3203.674          38.000  
  21437236.072   112653445.673        3395.072          32.000  
 23  8 31 16 30  4.9910000  0 10G 5G 7G13G 9G14G20G11G30G22G15
  18053064.392    94869503.249         548.627          47.000  
  19618854.543   103097777.193       -2362.351          45.000  
  18570933.928    97590918.051        2063.539          46.000  
  22677069.436   119168810.336       -3425.164          36.000  
  20178560.609   106039073.940        2737.451          41.000  
  18093316.966    95081026.051       -1724.585          46.000  
  21946745.523   115330925.452       -3616.903          40.000  
  18146178.788    95358807.125        -880.518          47.000  
  21076295.507   110756691.843        3204.083          38.000  
  21436589.891   112650049.854        3395.960          32.000  
 23  8 31 16 30  5.9910000  0 10G 5G 7G13G 9G14G20G11G30G22G15
  18052960.301    94868955.078         547.552          47.000  
  19619303.956   103100139.676       -2362.845          45.000  
  18570541.263    97588854.752        2062.865          46.000  
  22677721.446   119172235.727       -3425.638          36.000  
  20178039.895   106036336.654        2737.015          41.000  
  18093645.309    95082751.092       -1725.629          46.000  
  21947433.742   115334542.183       -3617.166          39.000  
  18146346.555    95359688.196        -881.635          47.000  
  21075685.936   110753488.075        3203.302          38.000  
  21435943.901   112646654.134        3395.803          32.000  
 23  8 31 16 30  6.9910000  0 10G 5G 7G13G 9G14G20G11G30G22G15
  18052856.176    94868408.099         546.576          47.000  
  19619753.753   103102502.996       -2363.490          45.000  
  18570148.895    97586792.296        2062.251          46.000  
  22678373.735   119175661.673       -3425.369          36.000  
  20177519.093   106033600.263        2736.109          41.000  
  18093973.740    95084477.273       -1726.507          47.000  
  21948122.136   115338159.484       -3617.246          39.000  
  18146514.321    95360570.298        -882.544          47.000  
  21075076.487   110750284.964        3202.832          38.000  
  21435297.685   112643258.980        3395.528          33.000  
 23  8 31 16 30  7.9910000  0 10G 5G 7G13G 9G14G20G11G30G22G15
  18052752.277    94867861.970         545.239          47.000  
  19620203.846   103104866.766       -2364.443          45.000  
  18569756.579    97584730.326        2061.378          46.000  
  22679025.920   119179087.874       -3426.465          36.000  
  20176998.344   106030864.394        2735.108          41.000  
  18094302.258    95086204.234       -1727.661          47.000  
  21948810.477   115341777.046       -3618.164          39.000  
  18146681.773    95361453.051        -883.435          47.000  
  21074466.951   110747082.220        3201.996          38.000  
  21434651.573   112639864.076        3394.587          32.000  
 23  8 31 16 30  8.9910000  0 10G 5G 7G13G 9G14G20G11G30G22G15
  18052648.239    94867316.304         545.514          47.000  
  19620653.905   103107230.653       -2363.885          45.000  
  18569364.420    97582668.487        2061.769          46.000  
  22679677.772   119182513.968       -3426.141          36.000  
  20176477.507   106028128.668        2735.985          41.000  
  18094631.002    95087931.621       -1727.557          47.000  
  21949499.011   115345394.491       -3617.089          39.000  
  18146849.836    95362336.145        -883.234          47.000  
  21073857.014   110743879.476        3202.356          37.000  
  21434005.409   112636469.117        3394.545          32.000  
 23  8 31 16 30  9.9910000  0 10G 5G 7G13G 9G14G20G11G30G22G15
  18052544.497    94866771.424         544.373          47.000  
  19621104.068   103109594.959       -2364.496          45.000  
  18568972.104    97580607.084        2061.257          46.000  
  22680329.852   119185940.185       -3425.810          36.000  
  20175957.421   106025393.446        2734.994          41.000  
  18094959.991    95089659.735       -1728.510          46.000  
  21950187.998   115349012.131       -3617.693          39.000  
  18147018.109    95363219.865        -884.033          47.000  
  21073247.460   110740677.004        3202.332          37.000  
  21433359.367   112633074.342        3394.708          31.000  
 23  8 31 16 30 10.9910000  0 10G 5G 7G13G 9G14G20G11G30G22G15
  18052441.192    94866227.641         543.536          47.000  
  19621554.458   103111960.016       -2365.039          45.000  
  18568579.893    97578546.453        2060.612          46.000  
  22680981.967   119189366.952       -3426.760          36.000  
  20175437.457   106022659.012        2734.348          42.000  
  18095288.945    95091388.921       -1729.401          47.000  
  21950876.670   115352630.283       -3617.865          40.000  
  18147186.713    95364104.545        -884.845          48.000  
  21072637.627   110737475.169        3201.904          37.000  
  21432713.133   112629680.122        3394.609          32.000  
 23  8 31 16 30 11.9910000  0 10G 5G 7G13G 9G14G20G11G30G22G15
  18052337.695    94865684.441         542.676          47.000  
  19622004.691   103114325.271       -2365.476          45.000  
  18568187.769    97576486.055        2060.163          47.000  
  22681634.588   119192793.656       -3426.719          35.000  
  20174917.423   106019924.855        2733.777          41.000  
  18095617.917    95093118.636       -1730.109          46.000  
  21951565.588   115356248.397       -3618.155          40.000  
  18147355.125    95364989.646        -885.394          47.000  
  21072028.213   110734273.454        3201.434          37.000  
  21432067.109   112626285.915        3393.680          32.000  
 23  8 31 16 30 12.9910000  0 10G 5G 7G13G 9G14G20G11G30G22G15
  18052234.355    94865141.761         542.529          47.000  
  19622455.029   103116690.696       -2365.289          45.000  
  18567795.977    97574425.843        2060.349          47.000  
  22682286.737   119196220.255       -3426.024          34.000  
  20174397.406   106017190.909        2733.951          41.000  
  18095947.255    95094848.822       -1730.450          46.000  
  21952254.086   115359866.510       -3618.150          40.000  
  18147523.363    95365875.141        -885.406          47.000  
  21071418.695   110731071.711        3202.264          37.000  
  21431421.014   112622891.644        3394.891          32.000  
 23  8 31 16 30 13.9910000  0 10G 5G 7G13G 9G14G20G11G30G22G15
  18052131.276    94864599.886         541.254          47.000  
  19622905.332   103119056.578       -2366.284          46.000  
  18567404.080    97572366.099        2059.291          48.000  
  22682939.131   119199647.108       -3426.937          34.000  
  20173877.268   106014457.486        2732.946          42.000  
  18096276.505    95096579.768       -1731.604          46.000  
  21952942.567   115363484.802       -3618.647          40.000  
  18147691.914    95366761.279        -886.780          47.000  
  21070809.316   110727870.360        3200.732          37.000  
  21430775.129   112619497.661        3393.458          32.000  
 23  8 31 16 30 14.9910000  0 10G 5G 7G13G 9G14G20G11G30G22G15
  18052028.076    94864058.887         540.247          47.000  
  19623355.774   103121422.990       -2366.930          45.000  
  18567012.393    97570306.905        2058.540          48.000  
  22683591.176   119203074.237       -3427.981          34.000  
  20173357.094   106011724.640        2731.985          41.000  
  18096605.896    95098311.575       -1732.617          46.000  
  21953631.152   115367103.427       -3619.317          40.000  
  18147860.518    95367648.170        -887.640          47.000  
  21070200.111   110724669.425        3200.360          37.000  
  21430129.192   112616103.962        3392.731          32.000  
 23  8 31 16 30 15.9910000  0 10G 5G 7G13G 9G14G20G11G30G22G15
  18051925.468    94863519.022         539.441          47.000  
  19623806.252   103123790.174       -2367.325          45.000  
  18566620.827    97568248.516        2058.179          47.000  
  22684243.482   119206501.888       -3427.933          34.000  
  20172837.444   106008992.631        2731.702          41.000  
  18096935.478    95100044.451       -1733.118          46.000  
  21954320.401   115370722.583       -3619.252          40.000  
  18148029.663    95368536.052        -888.287          47.000  
  21069590.819   110721469.124        3200.067          37.000  
  21429483.133   112612710.829        3392.888          31.000  
 23  8 31 16 30 16.9910000  0 10G 5G 7G13G 9G14G20G11G30G22G15
  18051822.791    94862979.539         539.496          47.000  
  19624256.554   103126157.381       -2367.149          45.000  
  18566229.314    97566190.162        2058.455          47.000  
  22684895.353   119209929.298       -3427.006          33.000  
  20172317.480   106006260.685        2732.076          41.000  
  18097265.252    95101777.675       -1733.166          46.000  
  21955009.371   115374341.527       -3618.745          40.000  
  18148198.791    95369424.162        -888.171          47.000  
  21068981.702   110718268.722        3200.531          37.000  
  21428837.283   112609317.478        3393.954          31.000  
 23  8 31 16 30 17.9910000  0 10G 5G 7G13G 9G14G20G11G30G22G15
  18051720.481    94862440.641         538.525          47.000  
  19624706.962   103128524.796       -2367.783          45.000  
  18565837.766    97564132.042        2057.733          47.000  
  22685547.310   119213356.704       -3427.410          33.000  
  20171797.621   106003529.007        2731.539          41.000  
  18097595.463    95103511.433       -1734.235          46.000  
  21955697.869   115377960.479       -3619.277          40.000  
  18148367.779    95370312.688        -888.885          47.000  
  21068372.532   110715068.441        3199.688          37.000  
  21428191.485   112605924.174        3393.188          31.000  
 23  8 31 16 30 18.9910000  0 10G 5G 7G13G 9G14G20G11G30G22G15
  18051618.170    94861902.718         537.714          47.000  
  19625157.457   103130892.840       -2368.135          45.000  
  18565446.305    97562074.556        2057.309          47.000  
  22686199.460   119216784.502       -3428.007          33.000  
  20171277.831   106000798.024        2730.974          41.000  
  18097925.586    95105246.123       -1734.906          46.000  
  21956386.559   115381579.808       -3619.290          40.000  
  18148537.115    95371202.060        -889.490          47.000  
  21067763.555   110711868.617        3200.146          37.000  
  21427546.106   112602531.269        3393.493          32.000  
 23  8 31 16 30 19.9910000  0 10G 5G 7G13G 9G14G20G11G30G22G15
  18051516.121    94861365.624         536.401          47.000  
  19625607.655   103133261.327       -2368.829          45.000  
  18565054.967    97560017.540        2056.621          47.000  
  22686851.923   119220212.456       -3428.273          33.000  
  20170758.233   105998067.535        2730.128          41.000  
  18098255.535    95106981.590       -1736.084          46.000  
  21957075.267   115385199.382       -3619.891          40.000  
  18148706.365    95372092.095        -890.588          47.000  
  21067154.682   110708669.168        3199.359          37.000  
  21426900.466   112599138.668        3391.814          32.000  
 23  8 31 16 30 20.9910000  0 10G 5G 7G13G 9G14G20G11G30G22G15
  18051414.159    94860829.119         536.151          47.000  
  19626058.202   103135630.073       -2368.907          44.000  
  18564663.454    97557960.787        2056.650          47.000  
  22687504.230   119223640.479       -3428.350          32.000  
  20170238.705   105995337.360        2729.913          41.000  
  18098585.640    95108717.607       -1736.377          46.000  
  21957764.236   115388818.953       -3619.634          40.000  
  18148876.103    95372982.583        -890.594          47.000  
  21066545.948   110705469.833        3199.286          37.000  
  21426255.139   112595746.052        3392.229          32.000  
 23  8 31 16 30 21.9910000  0 10G 5G 7G13G 9G14G20G11G30G22G15
  18051312.180    94860293.269         535.266          47.000  
  19626508.732   103137999.097       -2369.309          44.000  
  18564272.115    97555904.346        2056.124          47.000  
  22688156.414   119227068.505       -3428.241          32.000  
  20169719.387   105992607.533        2729.263          41.000  
  18098916.305    95110454.225       -1737.170          46.000  
  21958453.293   115392438.613       -3620.083          40.000  
  18149045.632    95373873.574        -891.479          47.000  
  21065937.250   110702270.669        3198.389          37.000  
  21425609.917   112592353.487        3392.598          32.000  
 23  8 31 16 30 22.9910000  0 10G 5G 7G13G 9G14G20G11G30G22G15
  18051210.411    94859758.482         534.265          47.000  
  19626959.593   103140368.829       -2370.144          44.000  
  18563880.724    97553848.613        2055.378          47.000  
  22688808.738   119230496.993       -3428.943          32.000  
  20169200.138   105989878.448        2728.783          42.000  
  18099247.178    95112191.852       -1738.153          46.000  
  21959142.001   115396058.717       -3620.169          40.000  
  18149215.161    95374765.467        -892.273          47.000  
  21065328.412   110699072.063        3198.486          37.000  
  21424964.661   112588961.468        3391.919          32.000  
 23  8 31 16 30 23.9910000  0 10G 5G 7G13G 9G14G20G11G30G22G15
  18051108.938    94859224.466         533.746          47.000  
  19627410.716   103142738.968       -2370.237          45.000  
  18563489.560    97551793.312        2055.305          47.000  
  22689460.853   119233925.603       -3428.429          32.000  
  20168680.924   105987149.827        2728.828          41.000  
  18099578.209    95113930.213       -1738.605          46.000  
  21959830.778   115399679.013       -3620.419          40.000  
  18149385.109    95375657.994        -892.761          47.000  
  21064719.748   110695873.768        3198.755          37.000  
  21424319.229   112585569.638        3392.047          33.000  
 23  8 31 16 30 24.9910000  0 10G 5G 7G13G 9G14G20G11G30G22G15
  18051007.168    94858691.084         533.331          47.000  
  19627862.049   103145109.362       -2370.310          45.000  
  18563098.640    97549738.299        2054.996          48.000  
  22690113.212   119237354.274       -3428.804          32.000  
  20168162.217   105984421.532        2728.228          42.000  
  18099909.292    95115669.139       -1738.922          46.000  
  21960519.661   115403299.358       -3620.438          40.000  
  18149555.056    95376550.983        -892.987          47.000  
  21064111.416   110692675.651        3198.169          37.000  
  21423673.955   112582177.850        3392.417          34.000  
 23  8 31 16 30 25.9910000  0 10G 5G 7G13G 9G14G20G11G30G22G15
  18050906.079    94858158.252         531.860          47.000  
  19628313.433   103147479.953       -2371.567          45.000  
  18562707.511    97547683.490        2053.950          48.000  
  22690765.641   119240782.883       -3429.264          32.000  
  20167643.247   105981693.498        2727.318          42.000  
  18100240.514    95117408.585       -1740.515          46.000  
  21961208.752   115406919.633       -3620.884          40.000  
  18149725.353    95377444.394        -894.305          47.000  
  21063503.032   110689477.575        3197.333          37.000  
  21423028.646   112578786.030        3391.566          34.000  
 23  8 31 16 30 26.9910000  0 10G 5G 7G13G 9G14G20G11G30G22G15
  18050805.112    94857626.707         531.250          47.000  
  19628765.342   103149851.474       -2371.656          45.000  
  18562316.731    97545629.640        2053.775          48.000  
  22691418.139   119244212.179       -3429.352          32.000  
  20167124.295   105978966.450        2726.876          42.000  
  18100571.842    95119149.273       -1741.010          47.000  
  21961897.704   115410540.617       -3620.625          40.000  
  18149895.563    95378338.948        -894.928          47.000  
  21062894.822   110686280.289        3197.559          37.000  
  21422383.564   112575394.977        3391.082          35.000  
 23  8 31 16 30 27.9910000  0 10G 5G 7G13G 9G14G20G11G30G22G15
  18050703.988    94857095.974         530.182          47.000  
  19629217.110   103152223.422       -2372.019          46.000  
  18561925.951    97543576.241        2053.121          48.000  
  22692070.690   119247641.678       -3429.585          32.000  
  20166605.413   105976239.893        2726.143          42.000  
  18100903.413    95120890.699       -1741.748          47.000  
  21962586.814   115414161.835       -3621.336          40.000  
  18150065.580    95379234.134        -895.648          47.000  
  21062286.717   110683083.387        3196.674          37.000  
  21421738.429   112572004.130        3390.796          34.000  
 23  8 31 16 30 28.9910000  0 10G 5G 7G13G 9G14G20G11G30G22G15
  18050603.335    94856565.885         529.926          47.000  
  19629668.495   103154595.683       -2372.388          46.000  
  18561534.996    97541523.159        2052.924          48.000  
  22692721.479   119251071.213       -3429.546          32.000  
  20166086.583   105973513.697        2726.037          42.000  
  18101235.020    95122632.752       -1742.230          47.000  
  21963275.888   115417783.122       -3621.582          40.000  
  18150235.737    95380129.831        -895.898          47.000  
  21061678.489   110679886.626        3196.844          37.000  
  21421093.033   112568613.379        3390.775          34.000  
 23  8 31 16 30 29.9910000  0 10G 5G 7G13G 9G14G20G11G30G22G15
  18050502.647    94856036.385         529.138          47.000  
  19630120.072   103156968.147       -2372.639          46.000  
  18561144.233    97539470.308        2052.740          48.000  
  22693375.897   119254500.742       -3429.617          32.000  
  20165567.788   105970787.759        2725.753          42.000  
  18101566.679    95124375.335       -1742.950          47.000  
  21963965.171   115421404.374       -3621.312          40.000  
  18150406.243    95381025.973        -896.594          47.000  
  21061070.244   110676689.973        3196.320          38.000  
  21420447.689   112565222.636        3390.777          33.000  
 23  8 31 16 30 30.9910000  0 10G 5G 7G13G 9G14G20G11G30G22G15
  18050402.029    94855507.637         528.113          47.000  
  19630571.666   103159340.995       -2373.051          46.000  
  18560753.820    97537417.858        2052.024          48.000  
  22694025.219   119257930.385       -3429.602          31.000  
  20165048.958   105968062.278        2725.038          42.000  
  18101898.617    95126118.604       -1743.805          47.000  
  21964654.280   115425025.809       -3622.025          40.000  
  18150576.714    95381922.700        -897.308          47.000  
  21060462.069   110673493.549        3196.497          38.000  
  21419802.171   112561832.067        3390.309          33.000  
 23  8 31 16 30 31.9910000  0 10G 5G 7G13G 9G14G20G11G30G22G15
  18050301.586    94854979.885         527.393          47.000  
  19631023.243   103161714.485       -2373.622          45.000  
  18560363.545    97535366.067        2051.625          48.000  
  22694681.505   119261360.464       -3430.508          31.000  
  20164530.198   105965337.480        2724.661          42.000  
  18102230.642    95127862.834       -1744.611          47.000  
  21965343.267   115428647.619       -3621.981          40.000  
  18150747.674    95382820.263        -897.919          47.000  
  21059854.209   110670297.676        3195.990          38.000  
  21419156.844   112558441.931        3390.239          33.000  
 23  8 31 16 30 32.9910000  0 10G 5G 7G13G 9G14G20G11G30G22G15
  18050201.108    94854452.823         527.155          47.000  
  19631474.802   103164088.314       -2373.552          45.000  
  18559973.236    97533314.636        2051.614          48.000  
  22695333.061   119264790.627       -3430.118          31.000  
  20164011.735   105962613.083        2724.651          42.000  
  18102562.842    95129607.711       -1744.824          47.000  
  21966032.568   115432269.546       -3621.614          39.000  
  18150918.425    95383718.380        -897.876          47.000  
  21059246.103   110667102.032        3196.051          37.000  
  21418511.326   112555051.981        3389.393          33.000  
 23  8 31 16 30 33.9910000  0 10G 5G 7G13G 9G14G20G11G30G22G15
  18050100.978    94853926.179         525.989          47.000  
  19631926.466   103166462.189       -2374.182          45.000  
  18559583.416    97531263.281        2051.004          48.000  
  22695986.676   119268220.514       -3429.230          31.000  
  20163493.428   105959888.802        2724.039          42.000  
  18102895.007    95131352.961       -1745.758          47.000  
  21966721.869   115435891.302       -3621.791          39.000  
  18151089.698    95384616.766        -899.030          47.000  
  21058637.876   110663906.328        3195.374          37.000  
  21417866.191   112551661.825        3390.060          33.000  
 23  8 31 16 30 34.9910000  0 10G 5G 7G13G 9G14G20G11G30G22G15
  18050000.744    94853400.850         524.829          47.000  
  19632378.427   103168837.010       -2375.107          45.000  
  18559193.386    97529212.906        2049.879          48.000  
  22696631.479   119271651.179       -3430.528          31.000  
  20162975.105   105957165.534        2722.785          42.000  
  18103227.189    95133099.480       -1747.076          47.000  
  21967410.926   115439513.792       -3622.683          40.000  
  18151260.868    95385516.311        -900.134          47.000  
  21058029.823   110660711.433        3194.818          37.000  
  21417221.406   112548272.391        3389.154          34.000  
 23  8 31 16 30 35.9910000  0 10G 5G 7G13G 9G14G20G11G30G22G15
  18049900.877    94852876.484         523.578          47.000  
  19632830.440   103171212.432       -2376.193          45.000  
  18558803.077    97527163.126        2048.931          48.000  
  22697285.827   119275082.220       -3431.913          30.000  
  20162456.728   105954442.899        2721.711          42.000  
  18103559.389    95134846.903       -1748.303          47.000  
  21968100.035   115443136.653       -3623.727          40.000  
  18151432.054    95386416.646        -901.025          47.000  
  21057422.067   110657517.024        3193.719          37.000  
  21416576.411   112544883.359        3388.244          34.000  
 23  8 31 16 30 36.9910000  0 10G 5G 7G13G 9G14G20G11G30G22G15
  18049801.079    94852352.688         523.499          47.000  
  19633282.296   103173588.056       -2375.814          46.000  
  18558412.821    97525113.565        2049.376          47.000  
  22697936.162   119278513.191       -3431.105          30.000  
  20161938.370   105951720.534        2722.225          41.000  
  18103891.780    95136594.829       -1748.218          47.000  
  21968789.773   115446759.451       -3622.786          40.000  
  18151603.572    95387317.413        -901.123          47.000  
  21056814.136   110654322.693        3194.232          38.000  
  21415931.730   112541494.384        3388.683          35.000  
 23  8 31 16 30 37.9910000  0 10G 5G 7G13G 9G14G20G11G30G22G15
  18049701.333    94851829.479         523.181          47.000  
  19633734.361   103175963.881       -2375.666          46.000  
  18558022.930    97523064.257        2049.419          47.000  
  22698587.840   119281944.166       -3430.989          30.000  
  20161420.185   105948998.446        2722.353          41.000  
  18104224.748    95138343.318       -1748.578          46.000  
  21969479.353   115450382.283       -3622.701          39.000  
  18151775.213    95388218.624        -901.019          47.000  
  21056206.223   110651128.441        3194.659          38.000  
  21415287.136   112538105.346        3389.537          36.000  
 23  8 31 16 30 38.9910000  0 10G 5G 7G13G 9G14G20G11G30G22G15
  18049601.570    94851306.754         522.070          47.000  
  19634186.688   103178339.849       -2376.442          46.000  
  18557632.831    97521015.084        2048.668          47.000  
  22699245.975   119285374.941       -3430.833          30.000  
  20160901.879   105946276.559        2721.490          41.000  
  18104557.332    95140092.227       -1749.597          47.000  
  21970168.759   115454004.942       -3623.154          40.000  
  18151946.609    95389120.150        -902.087          47.000  
  21055598.100   110647934.288        3193.707          38.000  
  21414642.386   112534716.260        3388.757          36.000  
 23  8 31 16 30 39.9910000  0 10G 5G 7G13G 9G14G20G11G30G22G15
  18049502.244    94850784.980         521.240          47.000  
  19634638.928   103180716.402       -2376.827          46.000  
  18557243.098    97518966.526        2048.326          47.000  
  22699897.357   119288806.122       -3431.730          30.000  
  20160384.026   105943555.313        2720.697          41.000  
  18104890.352    95141842.032       -1750.214          46.000  
  21970858.391   115457627.991       -3623.063          40.000  
  18152118.389    95390022.477        -902.625          47.000  
  21054990.589   110644740.518        3193.689          38.000  
  21413997.635   112531327.538        3388.814          36.000  
 23  8 31 16 30 40.9910000  0 10G 5G 7G13G 9G14G20G11G30G22G15
  18049402.900    94850264.168         520.734          47.000  
  19635091.150   103183093.558       -2377.084          46.000  
  18556853.347    97516918.595        2048.109          47.000  
  22700549.193   119292237.622       -3431.353          31.000  
  20159866.209   105940834.720        2720.774          41.000  
  18105223.319    95143592.760       -1750.720          46.000  
  21971548.129   115461251.439       -3623.192          39.000  
  18152290.186    95390925.622        -903.033          47.000  
  21054382.972   110641547.275        3193.579          38.000  
  21413352.972   112527939.236        3388.715          36.000  
 23  8 31 16 30 41.9910000  0 10G 5G 7G13G 9G14G20G11G30G22G15
  18049303.852    94849743.757         519.629          47.000  
  19635543.809   103185470.743       -2377.841          46.000  
  18556463.684    97514870.726        2047.167          47.000  
  22701206.490   119295668.913       -3431.634          31.000  
  20159348.286   105938114.192        2719.764          41.000  
  18105556.479    95145343.839       -1751.807          46.000  
  21972237.482   115464874.695       -3623.771          40.000  
  18152462.071    95391829.021        -904.022          47.000  
  21053775.565   110638353.912        3192.865          39.000  
  21412708.500   112524550.770        3388.190          36.000  
 23  8 31 16 30 42.9910000  0 10G 5G 7G13G 9G14G20G11G30G22G15
  18049204.962    94849224.317         518.408          47.000  
  19635996.555   103187848.534       -2378.629          46.000  
  18556074.055    97512823.464        2046.315          47.000  
  22701858.814   119299100.568       -3431.962          32.000  
  20158830.678   105935394.366        2718.762          41.000  
  18105889.761    95147095.826       -1752.820          46.000  
  21972926.783   115468498.298       -3624.188          40.000  
  18152634.235    95392733.217        -905.115          47.000  
  21053168.227   110635161.057        3192.035          38.000  
  21412064.081   112521162.723        3386.984          36.000  
 23  8 31 16 30 43.9910000  0 10G 5G 7G13G 9G14G20G11G30G22G15
  18049106.525    94848706.120         517.615          47.000  
  19636449.126   103190227.189       -2379.178          46.000  
  18555684.688    97510777.101        2045.869          47.000  
  22702513.459   119302532.903       -3432.568          32.000  
  20158313.070   105932675.446        2718.697          41.000  
  18106223.391    95148849.004       -1753.760          46.000  
  21973616.381   115472122.563       -3624.712          40.000  
  18152806.433    95393638.510        -905.664          47.000  
  21052560.419   110631968.970        3191.534          38.000  
  21411419.732   112517775.284        3387.031          36.000  
 23  8 31 16 30 44.9910000  0 10G 5G 7G13G 9G14G20G11G30G22G15
  18049007.862    94848188.450         517.487          47.000  
  19636902.047   103192605.999       -2378.658          46.000  
  18555295.374    97508730.922        2046.335          47.000  
  22703169.570   119305965.131       -3431.996          32.000  
  20157795.653   105929956.768        2718.771          41.000  
  18106556.900    95150602.671       -1753.778          46.000  
  21974305.490   115475746.749       -3624.064          40.000  
  18152978.946    95394544.191        -905.664          47.000  
  21051952.907   110628776.914        3192.310          38.000  
  21410774.824   112514387.840        3387.344          36.000  
 23  8 31 16 30 45.9910000  0 10G 5G 7G13G 9G14G20G11G30G22G15
  18048909.216    94847671.171         516.632          47.000  
  19637354.932   103194984.857       -2379.229          46.000  
  18554906.199    97506684.807        2045.759          47.000  
  22703822.504   119309397.203       -3432.531          33.000  
  20157278.376   105927238.217        2717.984          41.000  
  18106890.740    95152356.681       -1754.626          46.000  
  21974995.053   115479370.762       -3624.364          39.000  
  18153151.180    95395450.110        -906.427          47.000  
  21051345.744   110625584.796        3191.864          38.000  
  21410130.126   112511000.197        3387.562          37.000  
 23  8 31 16 30 46.9910000  0 10G 5G 7G13G 9G14G20G11G30G22G15
  18048810.866    94847155.055         515.680          47.000  
  19637807.940   103197364.516       -2379.843          46.000  
  18554516.885    97504639.513        2044.926          47.000  
  22704476.539   119312829.724       -3432.500          33.000  
  20156761.414   105924520.468        2717.554          41.000  
  18107224.720    95154111.803       -1755.573          46.000  
  21975684.912   115482995.320       -3624.700          39.000  
  18153323.728    95396357.029        -907.245          47.000  
  21050738.616   110622393.353        3191.260          39.000  
  21409485.742   112507613.163        3387.131          36.000  
 23  8 31 16 30 47.9910000  0 10G 5G 7G13G 9G14G20G11G30G22G15
  18048713.075    94846639.691         514.899          47.000  
  19638260.808   103199744.561       -2380.260          46.000  
  18554127.937    97502594.616        2044.595          47.000  
  22705129.735   119316262.445       -3433.184          33.000  
  20156244.399   105921803.208        2716.950          41.000  
  18107558.944    95155867.625       -1756.317          46.000  
  21976374.161   115486620.057       -3624.946          40.000  
  18153496.380    95397264.555        -907.886          47.000  
  21050131.506   110619202.184        3190.930          38.000  
  21408841.218   112504226.314        3386.796          36.000  
 23  8 31 16 30 48.9910000  0 10G 5G 7G13G 9G14G20G11G30G22G15
  18048615.267    94846125.082         514.441          47.000  
  19638713.554   103202124.999       -2380.507          46.000  
  18553738.919    97500550.138        2044.396          47.000  
  22705782.775   119319695.288       -3432.483          34.000  
  20155727.349   105919086.394        2716.578          41.000  
  18107893.360    95157624.149       -1756.616          46.000  
  21977064.317   115490244.969       -3625.019          39.000  
  18153669.259    95398172.695        -908.215          47.000  
  21049524.255   110616011.306        3190.826          38.000  
  21408196.415   112500839.653        3386.816          36.000  
 23  8 31 16 30 49.9910000  0 10G 5G 7G13G 9G14G20G11G30G22G15
  18048517.458    94845610.810         513.898          47.000  
  19639166.509   103204505.411       -2380.713          46.000  
  18553350.163    97498505.654        2044.369          47.000  
  22706435.552   119323127.869       -3432.350          34.000  
  20155210.560   105916369.615        2716.416          41.000  
  18108227.549    95159380.970       -1757.239          46.000  
  21977754.264   115493869.583       -3624.655          40.000  
  18153842.366    95399081.000        -908.673          47.000  
  21048916.778   110612820.284        3190.802          38.000  
  21407552.066   112497452.780        3386.444          36.000  
 23  8 31 16 30 50.9910000  0 10G 5G 7G13G 9G14G20G11G30G22G15
  18048419.807    94845097.467         512.811          47.000  
  19639619.307   103206886.392       -2381.303          46.000  
  18552961.146    97496461.767        2043.497          47.000  
  22707088.435   119326560.786       -3433.132          34.000  
  20154693.790   105913653.453        2715.670          41.000  
  18108561.895    95161138.683       -1758.282          46.000  
  21978443.512   115497494.584       -3625.701          40.000  
  18154015.175    95399990.099        -909.680          47.000  
  21048309.738   110609629.731        3190.216          38.000  
  21406907.420   112494066.244        3386.490          36.000  
 23  8 31 16 30 51.9910000  0 10G 5G 7G13G 9G14G20G11G30G22G15
  18048322.400    94844585.226         511.914          47.000  
  19640072.280   103209268.102       -2381.812          46.000  
  18552572.233    97494418.628        2042.981          47.000  
  22707741.788   119329994.175       -3433.260          33.000  
  20154176.879   105910938.085        2715.343          41.000  
  18108896.433    95162897.438       -1759.088          46.000  
  21979133.459   115501120.050       -3625.542          40.000  
  18154188.421    95400900.145        -910.339          47.000  
  21047702.854   110606439.762        3189.886          38.000  
  21406263.158   112490680.255        3385.864          36.000  
 23  8 31 16 30 52.9910000  0 10G 5G 7G13G 9G14G20G11G30G22G15
  18048224.870    94844073.609         511.725          47.000  
  19640525.201   103211650.052       -2381.810          46.000  
  18552183.477    97492375.756        2043.120          47.000  
  22708394.898   119333427.578       -3432.938          34.000  
  20153659.969   105908223.047        2715.142          41.000  
  18109231.530    95164656.755       -1759.314          47.000  
  21979823.528   115504745.522       -3624.933          40.000  
  18154361.719    95401810.646        -910.492          47.000  
  21047095.831   110603249.960        3190.051          38.000  
  21405618.721   112487294.302        3386.193          36.000  
 23  8 31 16 30 53.9910000  0 10G 5G 7G13G 9G14G20G11G30G22G15
  18048127.463    94843562.408         510.620          47.000  
  19640978.103   103214032.073       -2382.510          46.000  
  18551794.860    97490332.969        2042.340          47.000  
  22709047.955   119336860.805       -3433.586          34.000  
  20153143.146   105905508.115        2714.485          41.000  
  18109566.521    95166416.442       -1760.199          47.000  
  21980513.475   115508370.864       -3625.489          39.000  
  18154534.843    95402721.425        -911.340          47.000  
  21046488.825   110600060.078        3189.520          38.000  
  21404974.197   112483908.184        3386.174          36.000  
 23  8 31 16 30 54.9910000  0 10G 5G 7G13G 9G14G20G11G30G22G15
  18048030.649    94843052.393         509.674          47.000  
  19641431.687   103216414.906       -2382.980          46.000  
  18551406.104    97488291.013        2041.875          47.000  
  22709701.239   119340294.589       -3433.297          33.000  
  20152627.038   105902794.065        2714.130          41.000  
  18109901.653    95168177.265       -1761.017          47.000  
  21981203.421   115511996.777       -3625.788          39.000  
  18154708.333    95403633.220        -912.054          47.000  
  21045882.011   110596870.897        3188.971          38.000  
  21404329.953   112480522.735        3385.175          36.000  
 23  8 31 16 30 55.9910000  0 10G 5G 7G13G 9G14G20G11G30G22G15
  18047933.801    94842543.215         508.728          47.000  
  19641885.183   103218798.205       -2383.636          46.000  
  18551017.645    97486249.554        2041.230          46.000  
  22710354.453   119343728.607       -3433.083          33.000  
  20152110.547   105900080.556        2713.434          41.000  
  18110237.360    95169938.878       -1761.987          47.000  
  21981893.420   115515622.957       -3626.312          39.000  
  18154882.154    95404545.710        -912.970          47.000  
  21045275.372   110593682.089        3188.666          38.000  
  21403685.743   112477137.494        3385.449          36.000  
 23  8 31 16 30 56.9910000  0 10G 5G 7G13G 9G14G20G11G30G22G15
  18047836.917    94842034.757         508.240          47.000  
  19642338.488   103221181.835       -2383.651          46.000  
  18550629.029    97484208.453        2041.063          46.000  
  22711007.387   119347162.743       -3433.634          33.000  
  20151594.265   105897367.426        2712.975          41.000  
  18110572.788    95171701.133       -1762.347          47.000  
  21982583.227   115519249.229       -3626.372          39.000  
  18155055.732    95405458.737        -913.129          47.000  
  21044668.628   110590493.504        3188.611          38.000  
  21403041.708   112473752.435        3385.180          36.000  
 23  8 31 16 30 57.9910000  0 10G 5G 7G13G 9G14G20G11G30G22G15
  18047740.400    94841526.706         507.074          47.000  
  19642792.228   103223565.520       -2384.335          46.000  
  18550240.412    97482167.419        2040.358          46.000  
  22711660.427   119350596.683       -3434.666          33.000  
  20151077.860   105894654.440        2712.094          41.000  
  18110907.955    95173463.754       -1763.409          47.000  
  21983273.226   115522875.299       -3626.794          39.000  
  18155229.623    95406372.047        -914.050          47.000  
  21044062.023   110587304.858        3187.854          38.000  
  21402397.306   112470367.230        3384.332          36.000  
 23  8 31 16 30 58.9910000  0 10G 5G 7G13G 9G14G20G11G30G22G15
  18047644.214    94841019.743         506.274          47.000  
  19643246.196   103225949.919       -2384.851          46.000  
  18549852.337    97480127.136        2039.759          46.000  
  22712314.042   119354031.058       -3434.706          33.000  
  20150561.840   105891942.209        2711.659          41.000  
  18111243.610    95175227.412       -1764.343          47.000  
  21983963.260   115526501.869       -3626.706          39.000  
  18155403.619    95407286.260        -914.752          47.000  
  21043455.838   110584116.796        3187.891          39.000  
  21401753.044   112466982.504        3384.521          36.000  
 23  8 31 16 30 59.9910000  0 10G 5G 7G13G 9G14G20G11G30G22G15
  18047548.011    94840513.827         505.798          47.000  
  19643700.372   103228334.998       -2385.200          46.000  
  18549464.052    97478087.556        2039.456          46.000  
  22712967.727   119357465.904       -3434.788          33.000  
  20150046.273   105889230.717        2711.470          41.000  
  18111579.456    95176992.053       -1764.886          47.000  
  21984653.207   115530128.901       -3627.087          39.000  
  18155577.737    95408201.375        -915.271          47.000  
  21042849.111   110580929.323        3187.469          38.000  
  21401109.166   112463598.280        3384.260          36.000  
 23  8 31 16 31  0.9910000  0 10G 5G 7G13G 9G14G20G11G30G22G15
  18047451.494    94840008.437         504.987          47.000  
  19644154.444   103230720.231       -2385.294          46.000  
  18549075.959    97476048.143        2039.184          46.000  
  22713621.255   119360900.605       -3434.475          33.000  
  20149531.003   105886519.462        2710.780          41.000  
  18111915.408    95178757.179       -1765.533          47.000  
  21985343.189   115533755.829       -3626.730          39.000  
  18155751.646    95409116.868        -915.942          47.000  
  21042242.419   110577741.886        3187.115          38.000  
  21400465.166   112460214.017        3383.510          36.000  
 23  8 31 16 31  1.9910000  0 10G 5G 7G13G 9G14G20G11G30G22G15
  18047355.466    94839503.331         504.401          46.000  
  19644608.377   103233105.370       -2385.562          46.000  
  18548687.587    97474008.685        2038.772          46.000  
  22714274.557   119364335.067       -3435.075          34.000  
  20149015.157   105883808.167        2710.603          41.000  
  18112251.377    95180522.526       -1766.046          46.000  
  21986033.345   115537382.500       -3627.024          39.000  
  18155925.904    95410032.485        -916.211          47.000  
  21041635.989   110574554.245        3187.005          39.000  
  21399821.200   112456829.404        3384.069          35.000  
 23  8 31 16 31  2.9910000  0 10G 5G 7G13G 9G14G20G11G30G22G15
  18047259.577    94838999.571         503.387          46.000  
  19645062.327   103235491.505       -2386.234          46.000  
  18548299.494    97471970.227        2038.087          46.000  
  22714928.538   119367770.223       -3435.134          34.000  
  20148499.556   105881097.935        2709.994          41.000  
  18112587.329    95182289.173       -1767.010          46.000  
  21986723.553   115541009.902       -3627.763          39.000  
  18156100.511    95410949.291        -917.133          47.000  
  21041029.612   110571367.514        3186.181          39.000  
  21399177.217   112453445.652        3383.469          36.000  
 23  8 31 16 31  3.9910000  0 10G 5G 7G13G 9G14G20G11G30G22G15
  18047163.967    94838496.556         502.643          46.000  
  19645516.347   103237878.050       -2386.676          46.000  
  18547911.594    97469932.164        2037.947          47.000  
  22715582.119   119371205.479       -3434.982          34.000  
  20147983.867   105878388.159        2709.413          41.000  
  18112923.786    95184056.526       -1767.676          46.000  
  21987413.989   115544637.434       -3627.792          39.000  
  18156275.292    95411866.696        -917.694          47.000  
  21040423.042   110568181.017        3186.249          39.000  
  21398533.374   112450062.026        3383.942          35.000  
 23  8 31 16 31  4.9910000  0 10G 5G 7G13G 9G14G20G11G30G22G15
  18047068.322    94837994.300         502.429          47.000  
  19645970.698   103240264.989       -2386.617          46.000  
  18547523.832    97467894.534        2037.908          47.000  
  22716235.979   119374640.948       -3434.752          34.000  
  20147468.265   105875678.824        2709.553          41.000  
  18113260.104    95185824.577       -1767.871          46.000  
  21988104.232   115548265.133       -3627.171          39.000  
  18156449.812    95412784.704        -917.749          47.000  
  21039816.647   110564994.807        3186.835          39.000  
  21397888.990   112446678.611        3384.369          35.000  
 23  8 31 16 31  5.9910000  0 10G 5G 7G13G 9G14G20G11G30G22G15
  18046972.730    94837492.233         501.715          47.000  
  19646424.683   103242651.764       -2387.006          46.000  
  18547136.019    97465856.755        2037.635          47.000  
  22716889.856   119378076.018       -3435.362          34.000  
  20146953.100   105872969.407        2708.911          41.000  
  18113596.492    95187592.791       -1768.634          47.000  
  21988794.510   115551892.443       -3627.230          38.000  
  18156624.576    95413702.762        -918.274          47.000  
  21039210.514   110561808.340        3186.420          39.000  
  21397244.885   112443294.816        3384.363          36.000  
 23  8 31 16 31  6.9910000  0 10G 5G 7G13G 9G14G20G11G30G22G15
  18046877.714    94836991.186         500.354          46.000  
  19646878.877   103245039.194       -2387.881          46.000  
  18546748.188    97463819.678        2036.414          47.000  
  22717543.925   119381511.489       -3435.927          34.000  
  20146437.586   105870260.697        2707.906          42.000  
  18113933.264    95189361.965       -1769.714          46.000  
  21989484.823   115555520.232       -3628.295          39.000  
  18156799.462    95414621.692        -919.470          47.000  
  21038604.119   110558622.406        3185.571          39.000  
  21396600.972   112439911.504        3382.876          36.000  
 23  8 31 16 31  7.9910000  0 10G 5G 7G13G 9G14G20G11G30G22G15
  18046782.278    94836491.105         499.567          46.000  
  19647333.525   103247427.212       -2388.162          46.000  
  18546360.618    97461783.179        2036.406          47.000  
  22718197.837   119384947.276       -3435.818          34.000  
  20145922.368   105867552.645        2708.107          42.000  
  18114270.245    95191132.064       -1770.300          46.000  
  21990175.451   115559148.301       -3628.008          39.000  
  18156974.540    95415541.435        -919.861          47.000  
  21037997.776   110555436.954        3185.468          39.000  
  21395957.303   112436528.552        3383.289          36.000  
 23  8 31 16 31  8.9910000  0 10G 5G 7G13G 9G14G20G11G30G22G15
  18046687.279    94835991.774         499.182          46.000  
  19647787.807   103249815.624       -2388.442          46.000  
  18545973.049    97459747.136        2035.981          47.000  
  22718851.679   119388383.237       -3435.874          34.000  
  20145406.976   105864845.054        2707.570          41.000  
  18114606.947    95192902.869       -1770.911          46.000  
  21990865.694   115562776.602       -3628.229          38.000  
  18157150.019    95416461.783        -920.337          47.000  
  21037391.765   110552251.804        3185.217          39.000  
  21395313.844   112433145.804        3382.887          36.000  
 23  8 31 16 31  9.9910000  0 10G 5G 7G13G 9G14G20G11G30G22G15
  18046592.106    94835492.750         498.401          46.000  
  19648242.437   103252203.942       -2388.798          46.000  
  18545585.724    97457711.005        2035.725          47.000  
  22719505.451   119391818.869       -3435.885          34.000  
  20144891.741   105862137.425        2707.487          42.000  
  18114943.911    95194673.895       -1771.478          46.000  
  21991556.060   115566404.542       -3628.125          38.000  
  18157324.783    95417382.239        -920.740          47.000  
  21036785.788   110549066.444        3185.266          39.000  
  21394670.437   112429762.760        3383.042          36.000  
 23  8 31 16 31 10.9910000  0 10G 5G 7G13G 9G14G20G11G30G22G15
  18046497.491    94834994.832         497.058          46.000  
  19648696.841   103254593.006       -2389.733          46.000  
  18545198.486    97455675.648        2034.816          47.000  
  22720158.997   119395254.995       -3436.619          34.000  
  20144376.575   105859430.633        2706.197          42.000  
  18115280.927    95196446.003       -1773.053          46.000  
  21992246.669   115570033.021       -3629.082          39.000  
  18157500.088    95418303.676        -922.229          47.000  
  21036179.865   110545881.733        3184.143          39.000  
  21394026.751   112426380.280        3382.179          36.000  
 23  8 31 16 31 11.9910000  0 10G 5G 7G13G 9G14G20G11G30G22G15
  18046402.928    94834497.964         496.191          46.000  
  19649151.384   103256982.755       -2390.425          46.000  
  18544811.248    97453640.992        2034.242          47.000  
  22720813.083   119398691.544       -3436.943          34.000  
  20143861.689   105856724.580        2705.412          42.000  
  18115618.082    95198219.083       -1773.846          46.000  
  21992937.489   115573661.933       -3629.215          38.000  
  18157675.341    95419225.994        -922.949          47.000  
  21035573.853   110542697.562        3183.899          39.000  
  21393383.169   112422998.270        3381.643          36.000  
 23  8 31 16 31 12.9910000  0 10G 5G 7G13G 9G14G20G11G30G22G15
  18046308.505    94834001.640         496.106          46.000  
  19649606.189   103259372.684       -2389.836          46.000  
  18544424.412    97451606.551        2034.214          47.000  
  22721466.751   119402128.080       -3436.698          35.000  
  20143346.751   105854018.777        2705.709          41.000  
  18115955.709    95199992.675       -1773.804          46.000  
  21993628.203   115577290.781       -3628.741          38.000  
  18157851.291    95420148.733        -922.998          47.000  
  21034967.807   110539513.494        3183.850          39.000  
  21392739.483   112419616.216        3382.501          36.000  
 23  8 31 16 31 13.9910000  0 10G 5G 7G13G 9G14G20G11G30G22G15
  18046213.837    94833505.654         495.361          46.000  
  19650061.204   103261762.571       -2390.249          46.000  
  18544037.384    97449572.095        2033.992          47.000  
  22722120.820   119405564.320       -3437.136          35.000  
  20142831.812   105851313.007        2705.344          41.000  
  18116293.109    95201766.544       -1774.432          46.000  
  21994318.604   115580919.401       -3628.930          38.000  
  18158026.858    95421071.628        -923.340          47.000  
  21034362.023   110536329.279        3183.789          39.000  
  21392095.779   112416233.953        3382.296          35.000  
 23  8 31 16 31 14.9910000  0 10G 5G 7G13G 9G14G20G11G30G22G15
  18046119.589    94833010.737         494.269          46.000  
  19650516.183   103264153.167       -2391.209          46.000  
  18543650.896    97447538.373        2033.137          47.000  
  22722775.064   119409001.023       -3437.637          35.000  
  20142317.083   105848608.014        2704.362          41.000  
  18116630.684    95203541.439       -1775.653          46.000  
  21995009.440   115584548.493       -3629.635          38.000  
  18158202.774    95421995.450        -924.432          47.000  
  21033756.012   110533145.648        3183.465          39.000  
  21391452.146   112412852.227        3380.979          35.000  
 23  8 31 16 31 15.9910000  0 10G 5G 7G13G 9G14G20G11G30G22G15
  18046025.550    94832516.632         493.591          46.000  
  19650970.971   103266544.204       -2391.438          46.000  
  18543263.798    97445505.123        2032.728          47.000  
  22723429.115   119412437.918       -3437.150          35.000  
  20141802.476   105845903.513        2704.120          41.000  
  18116968.851    95205317.080       -1776.001          46.000  
  21995699.963   115588177.799       -3629.626          38.000  
  18158378.934    95422919.927        -925.043          47.000  
  21033150.297   110529962.382        3182.867          39.000  
  21390808.791   112409470.665        3381.258          35.000  
 23  8 31 16 31 16.9910000  0 10G 5G 7G13G 9G14G20G11G30G22G15
  18045931.825    94832023.244         493.408          46.000  
  19651426.055   103268935.577       -2391.000          46.000  
  18542876.822    97443472.222        2033.157          47.000  
  22724083.376   119415874.945       -3437.320          35.000  
  20141287.991   105843199.413        2704.358          42.000  
  18117306.810    95207093.392       -1776.257          46.000  
  21996390.799   115591807.191       -3628.978          38.000  
  18158554.884    95423844.957        -925.012          47.000  
  21032544.880   110526779.309        3183.240          39.000  
  21390165.576   112406089.298        3381.471          35.000  
 23  8 31 16 31 17.9910000  0 10G 5G 7G13G 9G14G20G11G30G22G15
  18045837.803    94831530.058         492.877          46.000  
  19651880.912   103271326.803       -2391.420          46.000  
  18542489.706    97441439.206        2032.786          47.000  
  22724737.515   119419311.535       -3436.850          35.000  
  20140773.594   105840495.255        2703.851          42.000  
  18117644.855    95208869.859       -1776.721          46.000  
  21997081.182   115595436.223       -3629.136          39.000  
  18158730.939    95424770.036        -925.317          47.000  
  21031939.497   110523595.981        3183.197          39.000  
  21389522.152   112402707.523        3382.200          36.000  
 23  8 31 16 31 18.9910000  0 10G 5G 7G13G 9G14G20G11G30G22G15
  18045744.060    94831037.998         491.528          46.000  
  19652336.258   103273718.790       -2392.294          46.000  
  18542102.852    97439406.972        2031.748          47.000  
  22725391.706   119422748.630       -3437.008          35.000  
  20140259.057   105837791.900        2702.895          42.000  
  18117983.198    95210647.396       -1777.985          46.000  
  21997772.438   115599065.810       -3629.979          39.000  
  18158906.942    95425696.098        -926.562          47.000  
  21031333.450   110520413.314        3182.312          39.000  
  21388878.797   112399326.329        3381.203          36.000  
 23  8 31 16 31 19.9910000  0 10G 5G 7G13G 9G14G20G11G30G22G15
  18045650.544    94830546.893         490.729          46.000  
  19652791.709   103276111.347       -2392.780          46.000  
  18541716.225    97437375.336        2031.323          47.000  
  22726045.776   119426186.098       -3437.827          36.000  
  20139744.694   105835089.204        2702.287          42.000  
  18118321.662    95212425.840       -1778.906          46.000  
  21998463.362   115602695.706       -3630.052          39.000  
  18159083.207    95426622.939        -927.185          47.000  
  21030727.614   110517231.099        3182.025          39.000  
  21388235.512   112395945.523        3381.019          36.000  
 23  8 31 16 31 20.9910000  0 10G 5G 7G13G 9G14G20G11G30G22G15
  18045557.448    94830056.353         490.546          46.000  
  19653247.142   103278504.109       -2392.571          46.000  
  18541329.686    97435343.926        2031.614          47.000  
  22726700.194   119429623.535       -3437.869          35.000  
  20139230.611   105832386.738        2702.674          42.000  
  18118660.493    95214204.796       -1779.059          46.000  
  21999154.530   115606325.578       -3629.423          39.000  
  18159259.733    95427550.192        -927.142          47.000  
  21030122.004   110514048.989        3182.013          39.000  
  21387592.367   112392564.709        3381.316          36.000  
 23  8 31 16 31 21.9910000  0 10G 5G 7G13G 9G14G20G11G30G22G15
  18045464.071    94829566.313         489.514          46.000  
  19653702.349   103280896.999       -2393.276          46.000  
  18540943.006    97433312.669        2030.874          47.000  
  22727354.507   119433060.806       -3437.528          36.000  
  20138716.370   105829684.504        2701.773          42.000  
  18118999.114    95215984.190       -1780.035          46.000  
  21999845.419   115609955.329       -3629.739          39.000  
  18159436.085    95428477.796        -928.119          47.000  
  21029516.481   110510866.886        3181.873          39.000  
  21386948.890   112389183.833        3380.908          36.000  
 23  8 31 16 31 22.9910000  0 10G 5G 7G13G 9G14G20G11G30G22G15
  18045371.027    94829077.322         488.556          46.000  
  19654157.468   103283290.572       -2393.944          46.000  
  18540556.484    97431282.110        2030.362          47.000  
  22728008.611   119436498.512       -3437.571          35.000  
  20138202.374   105826983.010        2701.158          42.000  
  18119337.980    95217764.579       -1780.811          46.000  
  22000536.081   115613585.559       -3630.460          39.000  
  18159612.751    95429406.291        -929.059          47.000  
  21028910.994   110507685.383        3180.969          39.000  
  21386305.710   112385803.454        3379.714          36.000  
 23  8 31 16 31 23.9910000  0 10G 5G 7G13G 9G14G20G11G30G22G15
  18045278.070    94828589.143         487.482          47.000  
  19654613.198   103285684.575       -2394.532          46.000  
  18540170.380    97429252.016        2029.777          47.000  
  22728663.134   119439936.418       -3437.348          35.000  
  20137688.483   105824282.011        2700.663          42.000  
  18119676.916    95219545.718       -1781.720          46.000  
  22001226.883   115617215.937       -3630.533          38.000  
  18159789.452    95430335.427        -929.614          47.000  
  21028305.611   110504504.179        3180.878          39.000  
  21385662.669   112382423.250        3380.236          36.000  
 23  8 31 16 31 24.9910000  0 10G 5G 7G13G 9G14G20G11G30G22G15
  18045185.548    94828101.706         486.890          47.000  
  19655068.840   103288078.941       -2394.573          46.000  
  18539784.085    97427222.329        2029.273          47.000  
  22729317.307   119443374.563       -3438.548          35.000  
  20137174.417   105821581.455        2700.202          42.000  
  18120016.043    95221327.554       -1782.477          46.000  
  22001917.528   115620846.531       -3631.029          38.000  
  18159966.485    95431265.170        -930.371          47.000  
  21027700.019   110501323.267        3180.524          39.000  
  21385019.646   112379043.250        3380.352          36.000  
 23  8 31 16 31 25.9910000  0 10G 5G 7G13G 9G14G20G11G30G22G15
  18045092.713    94827614.626         486.566          46.000  
  19655524.553   103290473.307       -2394.754          46.000  
  18539397.772    97425192.647        2029.323          47.000  
  22729971.656   119446812.355       -3438.425          34.000  
  20136660.630   105818880.970        2700.186          41.000  
  18120354.892    95223109.678       -1782.519          47.000  
  22002608.504   115624476.864       -3630.650          38.000  
  18160143.220    95432195.092        -930.408          47.000  
  21027094.723   110498142.186        3181.091          38.000  
  21384376.309   112375663.080        3379.932          37.000  
 23  8 31 16 31 26.9910000  0 10G 5G 7G13G 9G14G20G11G30G22G15
  18045000.402    94827128.635         485.425          46.000  
  19655980.265   103292868.385       -2395.472          46.000  
  18539011.808    97423163.711        2028.617          47.000  
  22730625.446   119450250.589       -3437.871          32.000  
  20136146.861   105816181.251        2699.401          41.000  
  18120694.089    95224892.843       -1783.722          47.000  
  22003299.585   115628107.672       -3631.347          38.000  
  18160320.305    95433125.945        -931.232          47.000  
  21026489.462   110494961.763        3180.237          38.000  
  21383733.356   112372283.400        3379.144          36.000  
 23  8 31 16 31 27.9910000  0 10G 5G 7G13G 9G14G20G11G30G22G15
  18044908.003    94826643.683         484.497          47.000  
  19656436.117   103295264.132       -2395.931          45.000  
  18538626.088    97421135.470        2028.029          47.000  
  22731279.323   119453689.247       -3437.668          32.000  
  20135633.405   105813482.285        2698.697          41.000  
  18121033.705    95226676.982       -1784.509          47.000  
  22003990.282   115631738.937       -3631.614          38.000  
  18160497.809    95434057.696        -932.086          47.000  
  21025884.062   110491781.890        3179.535          38.000  
  21383090.595   112368904.176        3378.944          37.000  
 23  8 31 16 31 28.9910000  0 10G 5G 7G13G 9G14G20G11G30G22G15
  18044815.918    94826159.391         484.143          47.000  
  19656891.969   103297660.165       -2396.073          46.000  
  18538240.159    97419107.550        2027.892          47.000  
  22731933.601   119457128.048       -3438.636          32.000  
  20135119.723   105810783.676        2698.444          41.000  
  18121373.496    95228461.740       -1784.918          47.000  
  22004681.293   115635370.219       -3630.962          38.000  
  18160675.522    95434989.938        -932.318          47.000  
  21025279.080   110488602.219        3179.370          38.000  
  21382447.659   112365525.032        3379.255          36.000  
 23  8 31 16 31 29.9910000  0 10G 5G 7G13G 9G14G20G11G30G22G15
  18044723.763    94825675.465         483.282          47.000  
  19657347.629   103300056.191       -2396.536          46.000  
  18537854.213    97417079.656        2027.175          47.000  
  22732587.723   119460566.625       -3439.626          32.000  
  20134606.163   105808085.119        2697.979          41.000  
  18121713.182    95230246.816       -1785.718          46.000  
  22005372.357   115639001.307       -3631.579          38.000  
  18160852.921    95435922.402        -933.081          47.000  
  21024674.081   110485422.406        3179.279          38.000  
  21381804.793   112362145.723        3378.738          37.000  
 23  8 31 16 31 30.9910000  0 10G 5G 7G13G 9G14G20G11G30G22G15
  18044631.940    94825192.549         482.208          47.000  
  19657803.900   103302452.857       -2397.080          46.000  
  18537468.511    97415052.411        2026.623          47.000  
  22733242.036   119464005.513       -3439.574          32.000  
  20134092.656   105805387.282        2697.101          41.000  
  18122052.937    95232032.843       -1786.682          46.000  
  22006063.630   115642632.766       -3631.395          38.000  
  18161030.477    95436855.718        -933.972          47.000  
  21024069.431   110482243.161        3178.497          38.000  
  21381162.119   112358766.850        3378.334          37.000  
 23  8 31 16 31 31.9910000  0 10G 5G 7G13G 9G14G20G11G30G22G15
  18044540.047    94824710.502         481.879          46.000  
  19658260.084   103304850.024       -2397.046          45.000  
  18537082.826    97413025.705        2026.852          47.000  
  22733896.663   119467444.681       -3439.451          32.000  
  20133579.305   105802690.007        2697.326          41.000  
  18122392.554    95233819.690       -1786.945          46.000  
  22006754.728   115646264.537       -3631.460          39.000  
  18161208.155    95437789.741        -933.984          47.000  
  21023464.240   110479064.259        3179.101          38.000  
  21380519.096   112355388.244        3378.974          37.000  
 23  8 31 16 31 32.9910000  0 11G 5G 7G13G 9G14G20G11G30G22G15G18
  18044448.539    94824228.998         481.451          46.000  
  19658716.355   103307247.369       -2397.021          45.000  
  18536697.211    97410999.213        2026.680          47.000  
  22734551.221   119470883.774       -3438.307          32.000  
  20133066.060   105799992.985        2697.167          41.000  
  18122732.606    95235607.037       -1787.378          46.000  
  22007445.635   115649896.248       -3631.321          38.000  
  18161386.042    95438724.167        -934.424          47.000  
  21022859.328   110475885.451        3179.266          38.000  
  21379876.003   112352009.660        3378.814          37.000  
  22222600.241                        1819.181          23.000  
 23  8 31 16 31 33.9910000  0 11G 5G 7G13G 9G14G20G11G30G22G15G18
  18044357.099    94823748.082         480.322          46.000  
  19659172.660   103309644.938       -2397.948          45.000  
  18536311.753    97408972.963        2025.801          47.000  
  22735205.692   119474322.867       -3439.385          31.000  
  20132552.779   105797296.252        2696.426          41.000  
  18123072.938    95237394.907       -1788.275          46.000  
  22008136.733   115653527.958       -3632.205          38.000  
  18161564.052    95439659.009        -935.321          47.000  
  21022254.696   110472706.767        3178.668          38.000  
  21379233.032   112348631.072        3378.467          37.000  
  22222258.408                        1819.181          23.000  
 23  8 31 16 31 34.9910000  0 11G 5G 7G13G 9G14G20G11G30G22G15G18
  18044265.521    94823268.173         479.474          46.000  
  19659628.949   103312043.159       -2398.448          46.000  
  18535926.295    97406947.408        2025.146          47.000  
  22735860.144   119477762.417       -3440.085          31.000  
  20132040.074   105794600.255        2695.626          41.000  
  18123413.269    95239183.777       -1789.355          46.000  
  22008827.779   115657160.080       -3632.507          38.000  
  18161741.992    95440594.749        -936.176          47.000  
  21021650.045   110469528.668        3177.997          38.000  
  21378590.288   112345252.966        3377.975          37.000  
  22221914.831                        1819.181          23.000  
 23  8 31 16 31 35.9910000  0 10G 5G 7G13G 9G14G20G11G30G22G15
  18044174.588    94822789.268         478.656          46.000  
  19660085.935   103314442.019       -2398.959          46.000  
  18535541.082    97404922.488        2024.815          47.000  
  22736514.126   119481202.324       -3440.037          31.000  
  20131527.177   105791904.948        2695.201          41.000  
  18123753.793    95240973.566       -1789.966          46.000  
  22009518.982   115660792.580       -3632.094          38.000  
  18161920.560    95441531.296        -936.591          47.000  
  21021045.308   110466351.074        3177.356          38.000  
  21377947.579   112341875.253        3378.026          37.000  
 23  8 31 16 31 36.9910000  0 10G 5G 7G13G 9G14G20G11G30G22G15
  18044083.602    94822311.043         478.088          46.000  
  19660542.415   103316841.189       -2398.974          46.000  
  18535155.973    97402897.920        2024.452          47.000  
  22737165.316   119484642.340       -3440.289          30.000  
  20131014.490   105789210.019        2694.989          41.000  
  18124094.124    95242763.998       -1790.765          46.000  
  22010210.517   115664425.183       -3632.513          38.000  
  18162099.006    95442468.393        -937.189          47.000  
  21020440.815   110463173.668        3177.289          38.000  
  21377304.975   112338497.666        3377.583          36.000  
 23  8 31 16 31 37.9910000  0 10G 5G 7G13G 9G14G20G11G30G22G15
  18043992.809    94821833.159         477.093          47.000  
  19660999.052   103319240.316       -2399.773          45.000  
  18534770.864    97400873.344        2023.842          48.000  
  22737817.954   119488081.996       -3440.509          30.000  
  20130501.750   105786515.138        2694.270          42.000  
  18124434.875    95244554.715       -1791.498          46.000  
  22010901.580   115668057.541       -3632.792          38.000  
  18162277.242    95443405.664        -938.086          47.000  
  21019836.375   110459996.115        3176.959          39.000  
  21376662.475   112335119.861        3377.335          36.000  
 23  8 31 16 31 38.9910000  0 10G 5G 7G13G 9G14G20G11G30G22G15
  18043902.329    94821356.527         476.166          47.000  
  19661455.847   103321640.335       -2400.317          45.000  
  18534385.930    97398849.677        2023.368          48.000  
  22738480.731   119491522.307       -3440.656          32.000  
  20129989.412   105783821.197        2693.721          42.000  
  18124775.730    95246346.624       -1792.438          46.000  
  22011592.853   115671690.540       -3633.178          38.000  
  18162455.985    95444344.034        -938.806          47.000  
  21019232.283   110456819.355        3176.397          39.000  
  21376019.836   112331742.734        3376.907          36.000  
 23  8 31 16 31 39.9910000  0 10G 5G 7G13G 9G14G20G11G30G22G15
  18043811.798    94820880.719         475.659          47.000  
  19661912.467   103324040.778       -2400.252          45.000  
  18534000.786    97396826.495        2023.112          48.000  
  22739136.999   119494962.866       -3440.235          33.000  
  20129476.934   105781127.775        2693.519          42.000  
  18125116.934    95248139.301       -1792.718          46.000  
  22012284.388   115675323.737       -3633.124          38.000  
  18162634.361    95445283.072        -938.959          47.000  
  21018628.279   110453642.942        3176.709          39.000  
  21375377.686   112328365.840        3377.261          36.000  
 23  8 31 16 31 40.9910000  0 10G 5G 7G13G 9G14G20G11G30G22G15
  18043721.545    94820405.392         475.110          47.000  
  19662369.052   103326441.358       -2400.672          45.000  
  18533615.747    97394803.435        2022.960          48.000  
  22739790.178   119498403.236       -3439.866          33.000  
  20128964.334   105778434.557        2692.965          43.000  
  18125458.208    95249932.401       -1793.225          46.000  
  22012975.434   115678956.818       -3632.900          38.000  
  18162813.208    95446222.426        -939.417          47.000  
  21018024.012   110450466.517        3176.123          38.000  
  21374735.203   112324988.892        3377.030          37.000  
 23  8 31 16 31 41.9910000  0 10G 5G 7G13G 9G14G20G11G30G22G15
  18043631.484    94819930.584         474.310          47.000  
  19662825.514   103328842.075       -2401.080          45.000  
  18533230.656    97392780.582        2022.295          48.000  
  22740443.811   119501843.619       -3441.245          33.000  
  20128452.030   105775741.534        2692.667          43.000  
  18125799.429    95251725.998       -1794.232          46.000  
  22013666.724   115682589.845       -3633.485          38.000  
  18162992.265    95447162.165        -940.234          47.000  
  21017419.607   110447290.158        3175.964          38.000  
  21374092.721   112321611.884        3377.005          36.000  
 23  8 31 16 31 42.9910000  0 10G 5G 7G13G 9G14G20G11G30G22G15
  18043541.057    94819456.622         473.358          47.000  
  19663282.605   103331243.270       -2401.672          45.000  
  18532845.686    97390758.203        2021.860          48.000  
  22741097.984   119505284.149       -3441.117          33.000  
  20127939.761   105773049.051        2692.143          43.000  
  18126140.634    95253520.340       -1794.830          46.000  
  22014358.015   115686223.085       -3633.530          38.000  
  18163171.165    95448102.567        -940.936          47.000  
  21016815.236   110444114.160        3175.323          38.000  
  21373450.431   112318235.192        3375.741          36.000  
 23  8 31 16 31 43.9910000  0 10G 5G 7G13G 9G14G20G11G30G22G15
  18043451.259    94818983.654         472.864          47.000  
  19663739.557   103333645.083       -2401.714          45.000  
  18532461.450    97388736.468        2021.819          48.000  
  22741752.210   119508725.115       -3441.058          33.000  
  20127427.755   105770357.282        2691.802          43.000  
  18126482.379    95255315.628       -1795.441          46.000  
  22015049.602   115689856.720       -3633.441          38.000  
  18163350.501    95449043.800        -941.376          47.000  
  21016210.603   110440938.672        3175.372          38.000  
  21372808.141   112314858.861        3376.182          36.000  
 23  8 31 16 31 44.9910000  0 10G 5G 7G13G 9G14G20G11G30G22G15
  18043361.215    94818511.316         471.875          47.000  
  19664196.595   103336047.143       -2402.077          45.000  
  18532076.690    97386715.040        2021.090          48.000  
  22742406.995   119512166.070       -3441.579          33.000  
  20126915.626   105767665.831        2691.222          43.000  
  18126824.159    95257111.494       -1796.277          46.000  
  22015740.840   115693490.399       -3633.973          37.000  
  18163529.627    95449985.509        -942.059          47.000  
  21015606.285   110437763.342        3175.208          39.000  
  21372165.764   112311482.594        3376.347          36.000  
 23  8 31 16 31 45.9910000  0 10G 5G 7G13G 9G14G20G11G30G22G15
  18043271.329    94818039.365         471.289          47.000  
  19664653.756   103338449.227       -2402.390          45.000  
  18531692.035    97384693.636        2021.069          48.000  
  22743062.006   119515606.772       -3440.879          33.000  
  20126403.427   105764974.457        2691.005          43.000  
  18127166.130    95258907.690       -1796.893          46.000  
  22016432.409   115697123.812       -3633.879          37.000  
  18163708.684    95450927.439        -942.371          47.000  
  21015001.565   110434587.919        3175.104          38.000  
  21371523.264   112308106.154        3375.999          37.000  
 23  8 31 16 31 46.9910000  0 10G 5G 7G13G 9G14G20G11G30G22G15
  18043181.827    94817568.590         470.001          46.000  
  19665111.231   103340852.116       -2403.464          45.000  
  18531307.450    97382673.084        2019.888          48.000  
  22743716.896   119519047.981       -3440.949          33.000  
  20125891.612   105762283.963        2689.916          43.000  
  18127508.190    95260705.018       -1798.352          46.000  
  22017124.311   115700757.838       -3634.722          38.000  
  18163888.089    95451870.404        -943.781          47.000  
  21014397.229   110431413.211        3173.956          38.000  
  21370880.922   112304730.308        3375.278          36.000  
 23  8 31 16 31 47.9910000  0 10G 5G 7G13G 9G14G20G11G30G22G15
  18043092.377    94817098.572         469.495          47.000  
  19665568.532   103343255.390       -2403.400          45.000  
  18530922.690    97380652.944        2019.924          48.000  
  22744371.872   119522489.487       -3441.851          32.000  
  20125379.605   105759593.941        2689.996          43.000  
  18127850.423    95262503.035       -1798.413          46.000  
  22017815.723   115704392.005       -3634.068          38.000  
  18164067.774    95452813.978        -943.951          47.000  
  21013792.928   110428238.783        3174.359          38.000  
  21370238.614   112301354.706        3375.286          36.000  
 23  8 31 16 31 48.9910000  0 10G 5G 7G13G 9G14G20G11G30G22G15
  18043003.137    94816629.238         469.403          47.000  
  19666026.094   103345659.009       -2403.632          45.000  
  18530538.192    97378633.156        2019.773          47.000  
  22745026.866   119525930.969       -3440.669          32.000  
  20124867.354   105756904.311        2689.632          42.000  
  18128192.936    95264301.705       -1798.743          46.000  
  22018507.083   115708026.292       -3634.046          37.000  
  18164247.389    95453758.080        -944.104          47.000  
  21013188.784   110425064.551        3174.762          39.000  
  21369596.132   112297979.186        3375.339          35.000  
 23  8 31 16 31 49.9910000  0 10G 5G 7G13G 9G14G20G11G30G22G15
  18042913.844    94816160.576         468.384          47.000  
  19666483.813   103348062.884       -2404.097          45.000  
  18530153.833    97376613.675        2019.270          47.000  
  22745681.755   119529372.566       -3441.929          31.000  
  20124355.522   105754215.017        2689.316          42.000  
  18128535.187    95266100.966       -1799.560          46.000  
  22019198.566   115711660.614       -3634.631          37.000  
  18164427.249    95454702.670        -944.916          47.000  
  21012584.640   110421890.536        3173.767          38.000  
  21368953.894   112294603.763        3375.278          36.000  
 23  8 31 16 31 50.9910000  0 10G 5G 7G13G 9G14G20G11G30G22G15
  18042824.796    94815692.535         467.780          47.000  
  19666941.881   103350467.006       -2404.196          45.000  
  18529769.510    97374594.475        2018.958          47.000  
  22746336.732   119532814.130       -3441.306          32.000  
  20123844.073   105751526.074        2688.760          43.000  
  18128877.787    95267900.790       -1800.140          46.000  
  22019889.961   115715294.935       -3633.958          37.000  
  18164606.916    95455647.715        -945.264          47.000  
  21011980.618   110418716.672        3173.523          38.000  
  21368311.464   112291228.372        3374.883          36.000  
 23  8 31 16 31 51.9910000  0 10G 5G 7G13G 9G14G20G11G30G22G15
  18042735.835    94815225.417         466.302          47.000  
  19667399.530   103352871.695       -2405.284          45.000  
  18529385.448    97372575.855        2017.991          47.000  
  22746991.412   119536256.007       -3442.034          32.000  
  20123332.346   105748837.743        2687.666          43.000  
  18129220.353    95269701.491       -1801.416          46.000  
  22020581.635   115718929.609       -3635.164          37.000  
  18164787.317    95456593.553        -946.655          47.000  
  21011376.893   110415543.225        3173.077          39.000  
  21367669.226   112287853.352        3374.730          36.000  
 23  8 31 16 31 52.9910000  0 10G 5G 7G13G 9G14G20G11G30G22G15
  18042646.978    94814758.974         466.315          47.000  
  19667856.971   103355276.678       -2404.699          45.000  
  18529001.630    97370557.562        2018.363          48.000  
  22747646.248   119539697.965       -3442.378          32.000  
  20122821.054   105746149.774        2688.058          43.000  
  18129563.459    95271502.800       -1801.355          46.000  
  22021273.274   115722564.308       -3634.326          37.000  
  18164967.211    95457539.874        -946.198          47.000  
  21010773.115   110412369.985        3173.175          39.000  
  21367026.814   112284478.436        3375.076          36.000  
 23  8 31 16 31 53.9910000  0 10G 5G 7G13G 9G14G20G11G30G22G15
  18042558.471    94814293.120         465.460          47.000  
  19668314.568   103357681.857       -2405.185          45.000  
  18528617.394    97368539.505        2017.939          48.000  
  22748300.911   119543139.856       -3442.288          31.000  
  20122309.519   105743462.102        2687.355          42.000  
  18129906.565    95273304.644       -1802.295          47.000  
  22021964.739   115726199.002       -3634.367          37.000  
  18165147.175    95458486.641        -947.217          47.000  
  21010169.181   110409196.859        3172.791          38.000  
  21366384.594   112281103.496        3375.481          36.000  
 23  8 31 16 31 54.9910000  0 10G 5G 7G13G 9G14G20G11G30G22G15
  18042470.120    94813828.325         464.386          47.000  
  19668772.217   103360087.758       -2406.069          45.000  
  18528233.524    97366522.178        2017.061          48.000  
  22748955.713   119546582.206       -3442.206          31.000  
  20121798.262   105740775.205        2686.492          43.000  
  18130249.898    95275107.492       -1803.357          46.000  
  22022656.518   115729834.207       -3635.587          38.000  
  18165327.540    95459434.316        -948.077          47.000  
  21009565.368   110406024.314        3172.052          38.000  
  21365742.321   112277729.143        3374.421          36.000  
 23  8 31 16 31 55.9910000  0 10G 5G 7G13G 9G14G20G11G30G22G15
  18042381.892    94813364.422         463.275          47.000  
  19669229.622   103362494.143       -2406.939          45.000  
  18527849.829    97364505.378        2016.257          48.000  
  22749610.811   119550024.855       -3443.099          31.000  
  20121286.918   105738088.855        2685.883          43.000  
  18130592.969    95276911.149       -1804.285          46.000  
  22023348.332   115733469.619       -3635.795          38.000  
  18165507.941    95460382.699        -948.938          47.000  
  21008961.469   110402852.153        3171.850          38.000  
  21365100.101   112274355.020        3373.752          36.000  
 23  8 31 16 31 56.9910000  0 10G 5G 7G13G 9G14G20G11G30G22G15
  18042293.594    94812900.759         463.477          47.000  
  19669687.097   103364900.405       -2406.278          45.000  
  18527465.994    97362488.472        2016.769          48.000  
  22750264.252   119553467.035       -3441.484          31.000  
  20120775.679   105735402.462        2686.295          43.000  
  18130936.564    95278715.020       -1804.095          47.000  
  22024039.989   115737104.723       -3635.343          38.000  
  18165688.167    95461331.167        -948.547          47.000  
  21008358.127   110399679.763        3172.552          38.000  
  21364457.619   112270980.611        3374.304          36.000  
 23  8 31 16 31 57.9910000  0 10G 5G 7G13G 9G14G20G11G30G22G15
  18042205.627    94812437.816         462.695          47.000  
  19670145.095   103367307.031       -2406.737          45.000  
  18527082.124    97360471.943        2016.525          47.000  
  22750919.892   119556909.452       -3442.811          31.000  
  20120264.789   105732716.499        2685.735          43.000  
  18131280.054    95280519.537       -1804.706          47.000  
  22024731.873   115740739.898       -3635.193          37.000  
  18165868.654    95462280.204        -949.237          47.000  
  21007754.402   110396507.629        3172.027          38.000  
  21363815.014   112267606.339        3373.935          35.000  
 23  8 31 16 31 58.9910000  0 10G 5G 7G13G 9G14G20G11G30G22G15
  18042117.504    94811975.788         461.938          47.000  
  19670603.199   103369714.184       -2407.065          45.000  
  18526698.638    97358455.995        2015.885          47.000  
  22751577.887   119560352.033       -3441.510          31.000  
  20119753.603   105730031.143        2685.305          43.000  
  18131623.701    95282324.916       -1805.463          47.000  
  22025424.070   115744375.421       -3635.659          37.000  
  18166049.229    95463229.997        -949.854          47.000  
  21007150.851   110393335.922        3172.107          37.000  
  21363172.951   112264232.395        3374.178          35.000  
 23  8 31 16 31 59.9910000  0 10G 5G 7G13G 9G14G20G11G30G22G15
  18042029.799    94811514.374         460.968          47.000  
  19671061.179   103372121.580       -2407.628          45.000  
  18526315.326    97356440.318        2015.334          48.000  
  22752233.719   119563794.726       -3442.428          31.000  
  20119242.800   105727346.119        2684.680          43.000  
  18131967.732    95284130.858       -1806.384          47.000  
  22026115.902   115748010.935       -3635.544          37.000  
  18166229.961    95464180.245        -950.623          47.000  
  21006547.039   110390164.402        3171.222          37.000  
  21362530.556   112260858.524        3373.681          35.000  
 23  8 31 16 32  0.9910000  0 10G 5G 7G13G 9G14G20G11G30G22G15
  18041942.164    94811053.771         460.199          47.000  
  19671519.422   103374529.399       -2408.175          45.000  
  18525931.770    97354425.078        2014.999          48.000  
  22752889.690   119567237.620       -3442.444          32.000  
  20118731.997   105724661.578        2684.314          43.000  
  18132311.589    95285937.537       -1806.989          47.000  
  22026807.593   115751646.661       -3635.988          37.000  
  18166410.850    95465131.124        -951.141          47.000  
  21005943.541   110386993.182        3171.088          37.000  
  21361888.458   112257484.867        3373.882          35.000  
 23  8 31 16 32  1.9910000  0 10G 5G 7G13G 9G14G20G11G30G22G15
  18041854.773    94810593.956         459.424          47.000  
  19671977.700   103376937.625       -2408.315          45.000  
  18525548.668    97352410.308        2014.697          48.000  
  22753541.857   119570680.653       -3442.834          31.000  
  20118221.194   105721977.532        2684.011          43.000  
  18132655.219    95287744.964       -1807.697          47.000  
  22027499.338   115755282.544       -3635.854          37.000  
  18166592.123    95466082.651        -951.636          47.000  
  21005340.060   110383822.281        3170.819          38.000  
  21361246.272   112254111.455        3372.871          35.000  
 23  8 31 16 32  2.9910000  0 10G 5G 7G13G 9G14G20G11G30G22G15
  18041767.522    94810134.941         458.679          47.000  
  19672436.152   103379346.294       -2408.844          44.000  
  18525165.409    97350395.992        2014.221          48.000  
  22754196.711   119574123.874       -3443.000          32.000  
  20117710.618   105719293.991        2683.415          43.000  
  18132999.075    95289553.127       -1808.466          47.000  
  22028191.239   115758918.650       -3636.162          37.000  
  18166773.256    95467034.816        -952.356          47.000  
  21004736.596   110380651.707        3170.862          38.000  
  21360604.052   112250738.251        3373.090          35.000  
 23  8 31 16 32  3.9910000  0 10G 5G 7G13G 9G14G20G11G30G22G15
  18041680.096    94809677.002         457.446          47.000  
  19672894.813   103381755.663       -2409.654          44.000  
  18524782.499    97348382.393        2013.356          48.000  
  22754851.199   119577567.546       -3443.142          32.000  
  20117199.885   105716611.215        2682.600          43.000  
  18133343.281    95291362.300       -1809.552          47.000  
  22028883.000   115762555.198       -3636.620          37.000  
  18166954.773    95467987.880        -953.320          47.000  
  21004133.517   110377481.719        3169.824          38.000  
  21359962.059   112247365.525        3372.490          35.000  
 23  8 31 16 32  4.9910000  0 10G 5G 7G13G 9G14G20G11G30G22G15
  18041593.142    94809219.486         457.501          47.000  
  19673353.388   103384165.090       -2409.337          44.000  
  18524399.083    97346368.903        2013.467          48.000  
  22755507.519   119581011.088       -3443.836          33.000  
  20116689.519   105713928.597        2682.639          43.000  
  18133687.853    95293171.870       -1809.625          47.000  
  22029575.058   115766191.602       -3636.465          37.000  
  18167135.959    95468941.244        -953.339          47.000  
  21003530.420   110374311.748        3169.922          38.000  
  21359320.152   112243992.745        3372.750          35.000  
 23  8 31 16 32  5.9910000  0 10G 5G 7G13G 9G14G20G11G30G22G15
  18041506.065    94808762.632         456.091          47.000  
  19673811.945   103386574.815       -2410.361          45.000  
  18524016.016    97344355.706        2012.654          47.000  
  22756162.775   119584454.599       -3443.660          33.000  
  20116179.484   105711246.336        2681.560          43.000  
  18134032.215    95294982.038       -1810.938          46.000  
  22030266.942   115769828.047       -3637.101          38.000  
  18167317.232    95469895.107        -954.730          47.000  
  21002927.218   110371141.929        3169.037          38.000  
  21358678.368   112240620.019        3372.239          35.000  
 23  8 31 16 32  6.9910000  0 10G 5G 7G13G 9G14G20G11G30G22G15
  18041419.233    94808306.798         455.310          46.000  
  19674270.815   103388985.168       -2410.690          45.000  
  18523633.088    97342343.185        2012.030          48.000  
  22756818.292   119587898.523       -3443.861          33.000  
  20115669.222   105708564.785        2681.110          43.000  
  18134376.700    95296793.157       -1811.584          47.000  
  22030959.122   115773464.902       -3637.313          38.000  
  18167499.168    95470849.806        -955.011          47.000  
  21002324.400   110367972.635        3169.165          38.000  
  21358036.863   112237247.710        3372.259          35.000  
 23  8 31 16 32  7.9910000  0 10G 5G 7G13G 9G14G20G11G30G22G15
  18041332.331    94807851.680         454.675          46.000  
  19674729.617   103391395.869       -2410.766          45.000  
  18523250.126    97340331.044        2011.963          48.000  
  22757473.932   119591342.602       -3443.991          32.000  
  20115158.821   105705883.654        2680.902          43.000  
  18134721.551    95298604.942       -1812.128          46.000  
  22031651.442   115777101.851       -3636.647          38.000  
  18167681.104    95471805.084        -955.511          47.000  
  21001721.373   110364803.619        3169.012          38.000  
  21357395.306   112233875.590        3372.217          35.000  
 23  8 31 16 32  8.9910000  0 10G 5G 7G13G 9G14G20G11G30G22G15
  18041245.900    94807397.201         454.095          46.000  
  19675188.522   103393806.852       -2411.177          45.000  
  18522867.216    97338319.213        2011.604          48.000  
  22758129.275   119594786.714       -3444.819          33.000  
  20114648.716   105703202.878        2680.319          43.000  
  18135066.315    95300417.318       -1812.714          47.000  
  22032343.553   115780738.869       -3637.146          38.000  
  18167863.493    95472760.840        -956.030          47.000  
  21001118.521   110361634.755        3168.518          38.000  
  21356753.609   112230503.536        3371.983          35.000  
 23  8 31 16 32  9.9910000  0 10G 5G 7G13G 9G14G20G11G30G22G15
  18041159.574    94806943.614         453.143          46.000  
  19675647.498   103396218.333       -2411.908          45.000  
  18522484.218    97336307.916        2011.145          48.000  
  22758784.670   119598231.041       -3444.359          32.000  
  20114138.611   105700522.662        2680.021          43.000  
  18135411.184    95302230.512       -1813.519          47.000  
  22033035.681   115784376.168       -3637.347          38.000  
  18168045.203    95473717.318        -956.787          47.000  
  21000515.720   110358466.294        3168.414          38.000  
  21356112.104   112227131.802        3371.331          35.000  
 23  8 31 16 32 10.9910000  0 10G 5G 7G13G 9G14G20G11G30G22G15
  18041073.387    94806490.678         452.496          47.000  
  19676106.334   103398630.074       -2411.871          45.000  
  18522101.360    97334296.936        2010.788          48.000  
  22759439.908   119601675.430       -3444.646          33.000  
  20113628.471   105697842.815        2679.693          43.000  
  18135756.436    95304044.297       -1814.105          46.000  
  22033728.001   115788013.477       -3637.174          38.000  
  18168227.226    95474674.283        -957.269          47.000  
  20999912.554   110355298.023        3168.542          38.000  
  21355470.791   112223760.120        3371.671          35.000  
 23  8 31 16 32 11.9910000  0 10G 5G 7G13G 9G14G20G11G30G22G15
  18040987.236    94806038.683         451.758          46.000  
  19676564.943   103401042.397       -2412.283          45.000  
  18521718.747    97332286.545        2010.305          48.000  
  22760095.670   119605120.169       -3445.032          32.000  
  20113118.402   105695163.612        2679.218          43.000  
  18136101.654    95305858.976       -1814.990          47.000  
  22034420.286   115791651.162       -3637.643          38.000  
  18168409.301    95475632.048        -958.148          47.000  
  20999309.806   110352130.224        3167.932          38.000  
  21354829.199   112220388.851        3370.804          36.000  
 23  8 31 16 32 12.9910000  0 10G 5G 7G13G 9G14G20G11G30G22G15
  18040901.119    94805587.014         451.758          46.000  
  19677023.779   103403454.666       -2411.907          45.000  
  18521336.064    97330276.129        2010.712          48.000  
  22760750.926   119608564.623       -3444.187          33.000  
  20112608.908   105692484.429        2679.401          43.000  
  18136447.133    95307673.906       -1814.941          47.000  
  22035112.606   115795288.523       -3637.088          38.000  
  18168591.464    95476589.950        -957.953          47.000  
  20998707.319   110348962.268        3168.158          38.000  
  21354187.485   112217017.300        3371.918          36.000  
 23  8 31 16 32 13.9910000  0 10G 5G 7G13G 9G14G20G11G30G22G15
  18040815.019    94805136.198         450.323          46.000  
  19677482.842   103405867.420       -2413.203          45.000  
  18520953.625    97328266.215        2009.641          48.000  
  22761406.548   119612009.256       -3444.650          33.000  
  20112099.204   105689805.797        2678.338          43.000  
  18136793.049    95309489.638       -1816.107          47.000  
  22035805.065   115798926.139       -3637.717          38.000  
  18168773.784    95477548.556        -959.192          47.000  
  20998104.397   110345794.702        3167.444          38.000  
  21353545.910   112213646.048        3370.865          36.000  
 23  8 31 16 32 14.9910000  0 10G 5G 7G13G 9G14G20G11G30G22G15
  18040729.531    94804686.316         449.512          47.000  
  19677942.097   103408280.744       -2413.436          45.000  
  18520571.290    97326256.937        2009.037          48.000  
  22762062.048   119615454.253       -3445.038          33.000  
  20111589.780   105687127.819        2677.989          43.000  
  18137138.825    95311306.289       -1817.041          47.000  
  22036497.176   115802564.108       -3637.686          38.000  
  18168956.383    95478507.957        -959.747          47.000  
  20997501.858   110342627.630        3166.845          38.000  
  21352904.562   112210275.188        3370.634          36.000  
 23  8 31 16 32 15.9910000  0 10G 5G 7G13G 9G14G20G11G30G22G15
  18040644.234    94804237.212         448.517          47.000  
  19678401.299   103410694.468       -2414.034          45.000  
  18520189.026    97324248.067        2008.511          48.000  
  22762717.844   119618899.422       -3444.791          33.000  
  20111080.443   105684450.334        2677.120          43.000  
  18137484.636    95313123.641       -1817.926          47.000  
  22037189.600   115806202.270       -3638.391          39.000  
  18169139.069    95479467.972        -960.571          47.000  
  20996899.302   110339460.818        3166.620          38.000  
  21352263.319   112206904.478        3371.171          36.000  
 23  8 31 16 32 16.9910000  0 10G 5G 7G13G 9G14G20G11G30G22G15
  18040559.199    94803788.495         448.389          47.000  
  19678860.310   103413108.207       -2413.792          45.000  
  18519807.076    97322239.227        2008.833          48.000  
  22763373.711   119622344.356       -3444.993          34.000  
  20110571.019   105681772.907        2677.502          43.000  
  18137830.342    95314941.323       -1817.987          47.000  
  22037882.112   115809840.176       -3638.077          39.000  
  18169321.686    95480428.192        -960.413          47.000  
  20996296.485   110336293.917        3166.998          38.000  
  21351621.884   112203533.662        3370.767          36.000  
 23  8 31 16 32 17.9910000  0 10G 5G 7G13G 9G14G20G11G30G22G15
  18040473.536    94803340.562         447.675          46.000  
  19679319.861   103415522.379       -2414.314          44.000  
  18519424.951    97320230.866        2008.255          48.000  
  22764029.455   119625789.486       -3445.314          34.000  
  20110061.821   105679096.013        2676.781          43.000  
  18138176.223    95316759.762       -1818.738          47.000  
  22038574.328   115813478.289       -3638.188          38.000  
  18169504.425    95481389.064        -961.053          47.000  
  20995693.754   110333127.367        3166.382          38.000  
  21350980.641   112200163.062        3370.052          36.000  
 23  8 31 16 32 18.9910000  0 10G 5G 7G13G 9G14G20G11G30G22G15
  18040388.588    94802893.359         446.826          46.000  
  19679779.535   103417936.877       -2414.519          44.000  
  18519042.774    97318222.862        2007.772          48.000  
  22764685.199   119629234.703       -3445.345          34.000  
  20109552.502   105676419.523        2676.181          43.000  
  18138522.383    95318578.827       -1819.360          47.000  
  22039266.648   115817116.495       -3638.322          38.000  
  18169687.093    95482350.494        -961.780          47.000  
  20995091.093   110329961.068        3166.150          38.000  
  21350339.328   112196792.588        3370.072          36.000  
 23  8 31 16 32 19.9910000  0 10G 5G 7G13G 9G14G20G11G30G22G15
  18040303.536    94802447.036         445.886          46.000  
  19680239.139   103420351.904       -2415.144          44.000  
  18518660.753    97316215.396        2007.139          48.000  
  22765340.996   119632680.171       -3445.335          34.000  
  20109043.043   105673743.613        2675.692          43.000  
  18138868.596    95320398.736       -1820.227          47.000  
  22039958.985   115820754.982       -3638.652          38.000  
  18169870.042    95483312.637        -962.476          47.000  
  20994488.712   110326795.178        3165.472          39.000  
  21349698.102   112193422.410        3369.928          36.000  
 23  8 31 16 32 20.9910000  0 10G 5G 7G13G 9G14G20G11G30G22G15
  18040218.501    94802001.181         445.471          46.000  
  19680698.865   103422767.006       -2415.273          44.000  
  18518278.768    97314208.045        2007.199          48.000  
  22765996.496   119636125.533       -3445.322          34.000  
  20108533.496   105671067.876        2675.619          43.000  
  18139214.965    95322219.045       -1820.569          47.000  
  22040651.287   115824393.342       -3638.674          38.000  
  18170053.112    95484275.095        -962.769          47.000  
  20993886.383   110323629.249        3166.046          39.000  
  21349056.615   112190052.146        3370.132          36.000  
 23  8 31 16 32 21.9910000  0 10G 5G 7G13G 9G14G20G11G30G22G15
  18040133.815    94801556.192         444.684          46.000  
  19681158.748   103425182.604       -2415.649          44.000  
  18517896.835    97312201.219        2006.835          48.000  
  22766651.769   119639571.135       -3445.775          34.000  
  20108024.474   105668392.700        2674.979          43.000  
  18139561.736    95324040.172       -1821.460          47.000  
  22041343.782   115828031.922       -3638.594          38.000  
  18170236.496    95485238.256        -963.397          47.000  
  20993284.315   110320463.731        3165.448          39.000  
  21348415.302   112186682.183        3369.902          36.000  
 23  8 31 16 32 22.9910000  0 10G 5G 7G13G 9G14G20G11G30G22G15
  18040049.147    94801112.223         443.414          46.000  
  19681618.858   103427598.856       -2416.705          44.000  
  18517515.094    97310195.086        2005.856          47.000  
  22767307.339   119643017.126       -3446.285          33.000  
  20107515.643   105665718.246        2674.124          43.000  
  18139908.471    95325862.254       -1822.589          47.000  
  22042036.259   115831670.936       -3639.080          38.000  
  18170419.880    95486202.277        -964.557          47.000  
  20992681.881   110317298.783        3164.606          39.000  
  21347774.059   112183312.666        3369.143          35.000  
 23  8 31 16 32 23.9910000  0 11G 5G 7G13G 9G14G20G11G30G22G15G18
  18039964.897    94800668.847         443.225          46.000  
  19682078.601   103430015.302       -2416.306          45.000  
  18517133.388    97308189.190        2005.842          48.000  
  22767962.560   119646463.070       -3445.625          34.000  
  20107006.480   105663044.094        2674.068          43.000  
  18140255.539    95327684.848       -1822.784          47.000  
  22042728.736   115835309.939       -3639.007          39.000  
  18170603.474    95487166.731        -964.581          47.000  
  20992079.430   110314133.922        3164.862          39.000  
  21347132.781   112179943.206        3369.271          35.000  
  22205128.036                        1783.153          25.000  
 23  8 31 16 32 24.9910000  0 11G 5G 7G13G 9G14G20G11G30G22G15G18
  18039880.770    94800225.908         442.426          46.000  
  19682538.781   103432431.825       -2416.724          45.000  
  18516751.630    97306183.379        2005.506          48.000  
  22768618.234   119649908.905       -3445.959          34.000  
  20106497.510   105660370.075        2673.716          43.000  
  18140602.397    95329507.843       -1823.559          47.000  
  22043421.230   115838948.733       -3638.814          39.000  
  18170787.016    95488131.461        -965.265          47.000  
  20991477.118   110310969.036        3164.581          39.000  
  21346491.415   112176573.612        3368.747          34.000  
  22204791.735                        1783.395          25.000  
 23  8 31 16 32 25.9910000  0 11G 5G 7G13G 9G14G20G11G30G22G15G18
  18039796.590    94799784.088         441.199          46.000  
  19682998.821   103434849.103       -2417.896          45.000  
  18516369.906    97304178.347        2004.573          47.000  
  22769273.786   119653355.187       -3446.673          33.000  
  20105988.417   105657696.883        2672.667          42.000  
  18140949.464    95331331.874       -1824.597          47.000  
  22044113.934   115842588.108       -3639.789          38.000  
  18170970.889    95489097.135        -966.150          47.000  
  20990874.946   110307804.806        3164.093          39.000  
  21345850.225   112173204.499        3368.596          35.000  
  22204453.096                        1781.157          25.000  
 23  8 31 16 32 26.9910000  0 11G 5G 7G13G 9G14G20G11G30G22G15G18
  18039712.654    94799343.021         440.625          46.000  
  19683458.774   103437266.747       -2417.789          45.000  
  18515988.253    97302173.736        2004.375          47.000  
  22769929.269   119656801.568       -3446.116          33.000  
  20105479.726   105655024.153        2672.557          42.000  
  18141296.776    95333156.630       -1825.085          47.000  
  22044806.219   115846227.557       -3639.603          38.000  
  18171154.744    95490063.427        -966.565          47.000  
  20990273.263   110304640.867        3163.812          38.000  
  21345209.138   112169835.626        3368.731          35.000  
  22204114.317                        1783.127          25.000  
 23  8 31 16 32 27.9910000  0 11G 5G 7G13G 9G14G20G11G30G22G15G18
  18039628.806    94798902.860         440.021          46.000  
  19683918.570   103439684.948       -2418.346          45.000  
  18515607.035    97300169.706        2003.806          47.000  
  22770584.804   119660248.340       -3446.872          32.000  
  20104970.633   105652352.059        2672.125          41.000  
  18141643.826    95334982.243       -1825.806          47.000  
  22045498.644   115849867.353       -3639.981          38.000  
  18171338.634    95491030.471        -967.053          47.000  
  20989671.387   110301477.385        3163.556          37.000  
  21344568.279   112166467.105        3368.364          35.000  
  22203775.993                        1781.495          25.000  
 23  8 31 16 32 28.9910000  0 11G 5G 7G13G 9G14G20G11G30G22G15G18
  18039544.958    94798463.140         439.111          46.000  
  19684378.505   103442103.186       -2418.697          45.000  
  18515225.538    97298165.747        2003.498          47.000  
  22771240.356   119663694.926       -3446.845          32.000  
  20104462.099   105649680.079        2671.413          41.000  
  18141991.521    95336808.223       -1826.654          47.000  
  22046191.417   115853506.968       -3639.841          38.000  
  18171522.787    95491997.784        -967.883          47.000  
  20989069.128   110298313.841        3163.397          37.000  
  21343927.298   112163098.450        3368.167          36.000  
  22203438.191                        1781.535          26.000  
 23  8 31 16 32 29.9910000  0 11G 5G 7G13G 9G14G20G11G30G22G15G18
  18039461.493    94798024.253         438.159          46.000  
  19684838.772   103444521.899       -2419.152          45.000  
  18514844.478    97296162.294        2002.805          48.000  
  22771896.554   119667141.635       -3446.773          32.000  
  20103953.652   105647008.630        2670.740          41.000  
  18142339.008    95338634.976       -1827.429          47.000  
  22046883.999   115857146.818       -3640.092          38.000  
  18171707.166    95492965.778        -968.640          47.000  
  20988467.060   110295150.645        3163.196          37.000  
  21343286.281   112159730.053        3367.818          36.000  
  22203099.675                        1779.925          25.000  
 23  8 31 16 32 30.9910000  0 11G 5G 7G13G 9G14G20G11G30G22G15G18
  18039378.273    94797586.320         437.750          46.000  
  19685299.022   103446941.175       -2419.275          45.000  
  18514463.261    97294159.430        2002.808          48.000  
  22772552.735   119670588.855       -3446.982          32.000  
  20103445.135   105644337.860        2670.532          41.000  
  18142687.000    95340462.623       -1827.850          47.000  
  22047576.494   115860786.991       -3640.063          38.000  
  18171891.632    95493934.543        -968.866          47.000  
  20987864.906   110291987.978        3162.854          37.000  
  21342645.475   112156362.035        3368.302          36.000  
  22202760.931                        1780.752          26.000  
 23  8 31 16 32 31.9910000  0 11G 5G 7G13G 9G14G20G11G30G22G15G18
  18039295.018    94797149.266         436.902          46.000  
  19685759.376   103449360.964       -2419.753          45.000  
  18514082.165    97292157.113        2002.446          48.000  
  22773208.968   119674036.185       -3446.951          32.000  
  20102937.002   105641667.640        2670.297          41.000  
  18143034.748    95342291.085       -1828.522          46.000  
  22048269.581   115864427.465       -3640.054          38.000  
  18172076.098    95494904.042        -969.501          47.000  
  20987263.292   110288825.691        3162.402          37.000  
  21342004.737   112152994.336        3367.724          36.000  
  22202424.299                        1778.598          26.000  
 23  8 31 16 32 32.9910000  0 11G 5G 7G13G 9G14G20G11G30G22G15G18
  18039212.042    94796712.374         436.261          46.000  
  19686219.555   103451780.526       -2419.918          45.000  
  18513701.332    97290154.610        2002.052          48.000  
  22773864.921   119677483.074       -3446.410          33.000  
  20102428.608   105638997.310        2669.826          41.000  
  18143382.513    95344119.658       -1829.132          46.000  
  22048962.407   115868067.463       -3640.028          38.000  
  18172260.512    95495873.527        -970.160          47.000  
  20986661.347   110285663.106        3162.115          37.000  
  21341363.931   112149626.245        3367.524          36.000  
  22202086.742                        1777.821          26.000  
 23  8 31 16 32 33.9910000  0 11G 5G 7G13G 9G14G20G11G30G22G15G18
  18039128.979    94796276.565         435.443          46.000  
  19686680.328   103454200.820       -2420.592          45.000  
  18513320.114    97288152.850        2001.688          48.000  
  22774520.927   119680930.534       -3447.441          32.000  
  20101920.492   105636327.754        2669.502          41.000  
  18143730.505    95345949.257       -1829.742          46.000  
  22049655.024   115871707.981       -3640.771          38.000  
  18172445.135    95496843.950        -970.453          47.000  
  20986059.785   110282501.112        3162.066          37.000  
  21340723.036   112146258.656        3367.562          36.000  
  22201746.271                        1777.582          26.000  
 23  8 31 16 32 34.9910000  0 11G 5G 7G13G 9G14G20G11G30G22G15G18
  18039046.440    94795841.503         434.875          46.000  
  19687140.840   103456621.483       -2420.577          45.000  
  18512939.368    97286151.546        2001.395          47.000  
  22775177.143   119684378.065       -3447.145          33.000  
  20101412.778   105633658.678        2668.856          41.000  
  18144078.882    95347779.571       -1830.402          46.000  
  22050347.815   115875348.609       -3639.964          38.000  
  18172630.038    95497814.980        -971.124          47.000  
  20985458.346   110279339.433        3161.405          39.000  
  21340082.544   112142891.261        3367.430          35.000  
  22201405.363                        1776.567          25.000  
 23  8 31 16 32 35.9910000  0 11G 5G 7G13G 9G14G20G11G30G22G15G18
  18038963.900    94795407.141         434.216          46.000  
  19687601.473   103459042.449       -2421.023          45.000  
  18512558.552    97284150.527        2001.119          47.000  
  22775833.062   119687825.720       -3447.498          33.000  
  20100905.169   105630989.958        2668.876          42.000  
  18144427.432    95349610.491       -1831.116          46.000  
  22051040.344   115878989.333       -3640.691          39.000  
  18172815.150    95498786.515        -971.582          47.000  
  20984856.855   110276177.908        3161.775          38.000  
  21339441.859   112139524.030        3367.065          34.000  
  22201067.003                        1777.316          25.000  
 23  8 31 16 32 36.9910000  0 11G 5G 7G13G 9G14G20G11G30G22G15G18
  18038881.047    94794973.316         433.551          46.000  
  19688062.124   103461463.580       -2421.199          45.000  
  18512177.771    97282149.715        2000.635          47.000  
  22776489.277   119691273.219       -3447.642          34.000  
  20100397.524   105628321.490        2668.412          42.000  
  18144776.070    95351441.887       -1831.763          46.000  
  22051733.083   115882629.981       -3640.591          39.000  
  18173000.384    95499758.432        -972.095          47.000  
  20984255.258   110273016.453        3161.635          38.000  
  21338800.912   112136156.688        3367.316          33.000  
  22200728.801                        1776.275          25.000  
 23  8 31 16 32 37.9910000  0 11G 5G 7G13G 9G14G20G11G30G22G15G18
  18038798.490    94794540.417         432.208          47.000  
  19688523.176   103463885.253       -2422.297          45.000  
  18511797.234    97280149.474        1999.826          47.000  
  22777145.335   119694721.021       -3447.645          33.000  
  20099889.845   105625653.666        2667.337          42.000  
  18145124.865    95353274.149       -1832.898          46.000  
  22052425.717   115886270.970       -3641.650          39.000  
  18173185.566    95500731.108        -973.187          47.000  
  20983653.453   110269855.524        3160.447          37.000  
  21338160.297   112132789.701        3366.948          34.000  
  22200388.940                        1775.616          24.000  
 23  8 31 16 32 38.9910000  0 11G 5G 7G13G 9G14G20G11G30G22G15G18
  18038716.456    94794108.397         431.348          47.000  
  19688983.810   103466307.425       -2422.498          44.000  
  18511416.993    97278149.770        1999.334          47.000  
  22777801.621   119698169.176       -3448.686          32.000  
  20099382.341   105622986.433        2666.850          42.000  
  18145473.346    95355107.238       -1833.698          46.000  
  22053118.281   115889912.145       -3641.244          39.000  
  18173370.573    95501704.506        -973.944          47.000  
  20983051.944   110266694.950        3160.341          38.000  
  21337519.560   112129423.090        3366.014          34.000  
  22200047.527                        1772.758          23.000  
 23  8 31 16 32 39.9910000  0 11G 5G 7G13G 9G14G20G11G30G22G15G18
  18038634.266    94793677.190         430.841          47.000  
  19689445.158   103468730.047       -2422.531          44.000  
  18511036.666    97276150.554        1999.101          47.000  
  22778457.574   119701617.481       -3448.500          30.000  
  20098875.010   105620319.696        2666.620          42.000  
  18145822.246    95356941.078       -1834.094          46.000  
  22053811.264   115893553.605       -3641.428          39.000  
  18173555.946    95502678.538        -974.066          47.000  
  20982450.854   110263534.738        3160.140          39.000  
  21336878.928   112126056.677        3366.193          34.000  
  22199706.201                        1772.342          22.000  
 23  8 31 16 32 40.9910000  0 11G 5G 7G13G 9G14G20G11G30G22G15G18
  18038552.180    94793246.408         430.383          47.000  
  19689906.298   103471152.753       -2423.074          44.000  
  18510656.443    97274151.439        1998.782          47.000  
  22779113.511   119705065.639       -3448.513          31.000  
  20098367.575   105617653.140        2666.201          42.000  
  18146171.163    95358775.316       -1834.552          46.000  
  22054504.090   115897194.854       -3641.560          39.000  
  18173741.146    95503652.881        -974.677          47.000  
  20981849.816   110260374.524        3159.859          39.000  
  21336238.139   112122690.155        3366.358          34.000  
  22199363.408                        1770.272          20.000  
 23  8 31 16 32 41.9910000  0 11G 5G 7G13G 9G14G20G11G30G22G15G18
  18038470.495    94792816.599         429.443          47.000  
  19690367.507   103473576.023       -2423.540          44.000  
  18510275.802    97272152.935        1998.242          47.000  
  22779769.499   119708514.107       -3448.898          33.000  
  20097860.245   105614987.229        2665.551          43.000  
  18146520.272    95360610.446       -1835.480          46.000  
  22055197.283   115900836.468       -3641.957          39.000  
  18173926.746    95504627.999        -975.360          47.000  
  20981248.917   110257214.769        3159.731          39.000  
  21335597.367   112119324.008        3366.230          34.000  
  22199025.206                        1772.584          19.000  
 23  8 31 16 32 42.9910000  0 11G 5G 7G13G 9G14G20G11G30G22G15G18
  18038388.916    94792387.700         428.699          47.000  
  19690828.943   103475999.814       -2423.698          44.000  
  18509895.718    97270154.998        1997.702          47.000  
  22780425.889   119711962.885       -3449.390          34.000  
  20097353.194   105612321.923        2664.941          43.000  
  18146869.555    95362446.429       -1836.230          46.000  
  22055890.144   115904478.378       -3642.020          39.000  
  18174112.591    95505603.865        -975.970          47.000  
  20980647.670   110254055.458        3159.194          39.000  
  21334957.170   112115958.252        3365.700          34.000  
  22198685.450                        1774.830          19.000  
 23  8 31 16 32 43.9910000  0 11G 5G 7G13G 9G14G20G11G30G22G15G18
  18038307.580    94791959.606         428.040          47.000  
  19691290.100   103478424.031       -2424.088          44.000  
  18509515.600    97268157.502        1997.587          47.000  
  22781082.628   119715411.832       -3448.705          34.000  
  20096846.074   105609657.116        2664.791          43.000  
  18147219.083    95364283.145       -1836.847          46.000  
  22056583.162   115908120.466       -3641.824          39.000  
  18174298.628    95506580.384        -976.550          47.000  
  20980046.632   110250896.473        3159.294          39.000  
  21334316.782   112112592.679        3365.643          34.000  
  22198346.654                        1767.253          19.000  
 23  8 31 16 32 44.9910000  0 11G 5G 7G13G 9G14G20G11G30G22G15G18
  18038226.070    94791532.124         427.594          47.000  
  19691751.623   103480848.493       -2424.226          44.000  
  18509135.465    97266160.291        1997.456          47.000  
  22781739.140   119718860.796       -3449.403          34.000  
  20096339.284   105606992.625        2664.927          43.000  
  18147568.751    95366120.414       -1837.189          46.000  
  22057276.180   115911762.564       -3642.046          39.000  
  18174484.490    95507557.352        -976.880          47.000  
  20979445.507   110247737.639        3159.131          39.000  
  21333676.342   112109227.194        3365.854          34.000  
  22198010.284                        1774.127          19.000  
 23  8 31 16 32 45.9910000  0 11G 5G 7G13G 9G14G20G11G30G22G15G18
  18038144.857    94791105.014         426.678          47.000  
  19692212.937   103483272.908       -2424.363          44.000  
  18508755.591    97264163.106        1996.940          47.000  
  22782395.757   119722309.436       -3448.489          33.000  
  20095832.094   105604328.193        2664.450          42.000  
  18147918.435    95367957.981       -1837.817          46.000  
  22057969.267   115915404.388       -3641.662          39.000  
  18174670.701    95508534.502        -977.386          47.000  
  20978844.138   110244578.678        3159.243          38.000  
  21333035.901   112105861.484        3366.421          34.000  
  22197672.133                        1766.593          19.000  
 23  8 31 16 32 46.9910000  0 11G 5G 7G13G 9G14G20G11G30G22G15G18
  18038064.027    94790678.714         425.690          46.000  
  19692674.304   103485697.800       -2425.467          44.000  
  18508375.560    97262166.386        1996.147          48.000  
  22783052.095   119725758.370       -3449.671          33.000  
  20095325.060   105601664.301        2663.258          42.000  
  18148268.243    95369796.307       -1838.977          46.000  
  22058662.076   115919046.446       -3642.506          39.000  
  18174856.773    95509512.322        -978.485          47.000  
  20978243.100   110241420.066        3157.761          38.000  
  21332395.286   112102496.020        3365.351          33.000  
  22197335.903                        1770.241          20.000  
 23  8 31 16 32 47.9910000  0 11G 5G 7G13G 9G14G20G11G30G22G15G18
  18037982.989    94790253.296         425.079          46.000  
  19693135.845   103488123.169       -2425.309          45.000  
  18507995.617    97260170.196        1996.087          48.000  
  22783708.502   119729207.538       -3449.251          33.000  
  20094818.219   105599000.974        2663.198          42.000  
  18148618.242    95371635.456       -1839.429          46.000  
  22059355.094   115922688.762       -3642.323          39.000  
  18175042.670    95510490.850        -978.845          47.000  
  20977641.923   110238261.884        3157.985          38.000  
  21331754.689   112099130.918        3364.921          34.000  
  22196999.550                        1765.971          20.000  
 23  8 31 16 32 48.9910000  0 11G 5G 7G13G 9G14G20G11G30G22G15G18
  18037902.159    94789828.493         424.335          46.000  
  19693597.717   103490548.799       -2425.887          45.000  
  18507615.952    97258174.271        1995.548          48.000  
  22784365.014   119732656.693       -3448.698          33.000  
  20094311.429   105596337.983        2662.602          42.000  
  18148968.450    95373475.163       -1840.131          46.000  
  22060047.937   115926331.097       -3642.529          39.000  
  18175229.056    95511469.848        -979.492          47.000  
  20977041.094   110235103.784        3158.103          38.000  
  21331114.632   112095765.819        3364.814          33.000  
  22196667.175                        1766.520          21.000  
 23  8 31 16 32 49.9910000  0 11G 5G 7G13G 9G14G20G11G30G22G15G18
  18037821.504    94789404.483         423.309          47.000  
  19694059.467   103492974.838       -2426.421          45.000  
  18507236.183    97256178.799        1994.971          48.000  
  22785021.247   119736106.053       -3449.581          34.000  
  20093804.937   105593675.476        2662.150          43.000  
  18149318.484    95375315.596       -1841.071          46.000  
  22060741.182   115929973.584       -3642.861          39.000  
  18175415.407    95512449.462        -980.328          47.000  
  20976440.335   110231946.098        3157.153          38.000  
  21330474.157   112092400.936        3364.568          33.000  
  22196334.644                        1769.562          22.000  
 23  8 31 16 32 50.9910000  0 11G 5G 7G13G 9G14G20G11G30G22G15G18
  18037741.251    94788981.430         422.742          47.000  
  19694521.095   103495401.468       -2426.792          45.000  
  18506856.379    97254183.953        1994.769          48.000  
  22785677.933   119739555.700       -3449.714          34.000  
  20093298.497   105591013.645        2661.694          42.000  
  18149669.076    95377156.943       -1841.687          46.000  
  22061433.938   115933616.456       -3643.237          39.000  
  18175602.054    95513429.869        -980.811          47.000  
  20975839.385   110228788.885        3157.033          38.000  
  21329833.996   112089036.444        3364.155          34.000  
  22196000.525                        1770.493          23.000  
 23  8 31 16 32 51.9910000  0 11G 5G 7G13G 9G14G20G11G30G22G15G18
  18037660.823    94788558.591         422.601          47.000  
  19694983.090   103497827.933       -2426.550          45.000  
  18506476.662    97252188.968        1994.990          47.000  
  22786334.306   119743004.985       -3449.117          34.000  
  20092792.039   105588351.745        2661.734          42.000  
  18150019.389    95378998.445       -1841.736          46.000  
  22062126.869   115937258.899       -3642.215          39.000  
  18175788.423    95514410.330        -980.585          47.000  
  20975238.556   110225631.358        3157.682          39.000  
  21329193.730   112085671.653        3364.653          34.000  
  22195664.119                        1761.731          23.000  
 23  8 31 16 32 52.9910000  0 11G 5G 7G13G 9G14G20G11G30G22G15G18
  18037580.656    94788136.498         421.606          47.000  
  19695444.805   103500254.754       -2427.074          44.000  
  18506096.928    97250194.397        1994.296          48.000  
  22786990.958   119746454.442       -3449.788          33.000  
  20092285.564   105585690.284        2661.011          42.000  
  18150369.999    95380840.605       -1842.578          46.000  
  22062820.323   115940901.490       -3642.850          39.000  
  18175975.175    95515391.374        -981.342          47.000  
  20974637.658   110222474.155        3156.668          39.000  
  21328553.638   112082306.970        3364.123          33.000  
  22195334.031                        1760.114          24.000  
 23  8 31 16 32 53.9910000  0 11G 5G 7G13G 9G14G20G11G30G22G15G18
  18037500.665    94787715.345         420.673          47.000  
  19695906.625   103502682.139       -2427.617          45.000  
  18505717.630    97248200.404        1993.906          48.000  
  22787647.365   119749904.136       -3449.705          34.000  
  20091779.333   105583029.463        2660.554          42.000  
  18150720.696    95382683.664       -1843.378          47.000  
  22063513.603   115944544.400       -3643.034          38.000  
  18176162.154    95516373.215        -982.355          47.000  
  20974036.568   110219317.399        3156.776          38.000  
  21327913.198   112078942.659        3364.259          33.000  
  22194999.196                        1764.618          25.000  
 23  8 31 16 32 54.9910000  0 11G 5G 7G13G 9G14G20G11G30G22G15G18
  18037420.900    94787294.821         420.105          47.000  
  19696368.934   103505109.790       -2427.900          45.000  
  18505338.123    97246206.722        1993.320          48.000  
  22788304.034   119753353.896       -3450.156          33.000  
  20091273.189   105580368.984        2660.049          43.000  
  18151071.341    95384527.301       -1844.006          47.000  
  22064206.656   115948187.346       -3643.412          38.000  
  18176348.871    95517355.510        -982.672          47.000  
  20973435.774   110216160.800        3156.664          38.000  
  21327273.089   112075578.474        3363.705          32.000  
  22194665.234                        1764.700          24.000  
