     2.11           OBSERVATION DATA    M (MIXED)           RINEX VERSION / TYPE
teqc  2019Feb25                         20240120 15:26:33UTCPGM / RUN BY / DATE
Linux 2.6.32-573.12.1.x86_64|x86_64|gcc|Linux 64|=+         COMMENT
teqc  2019Feb25                         20240120 15:26:33UTCCOMMENT
teqc  2019Feb25                         20240120 15:26:32UTCCOMMENT
teqc  2019Feb25     IGN-RGP             20240120 11:02:15UTCCOMMENT
teqc  2019Feb25     IGN-RGP             20240120 11:02:13UTCCOMMENT
BIT 2 OF LLI FLAGS DATA COLLECTED UNDER A/S CONDITION       COMMENT
IGNF                                                        MARKER NAME
10001M009                                                   MARKER NUMBER
Automatic           IGN                                     OBSERVER / AGENCY
1834194             LEICA GR50          4.51                REC # / TYPE / VERS
5000113963          TRM57971.00     NONE                    ANT # / TYPE
  4201694.1440   177888.8370  4779371.7670                  APPROX POSITION XYZ
        0.0000        0.0000        0.0000                  ANTENNA: DELTA H/E/N
     1     1                                                WAVELENGTH FACT L1/2
    21    L1    L2    C1    P1    P2    D1    D2    S1    S2# / TYPES OF OBSERV
          L5    C5    D5    S5    L7    C7    D7    S7    L8# / TYPES OF OBSERV
          C8    D8    S8                                    # / TYPES OF OBSERV
    30.0000                                                 INTERVAL
DefaultJobName                                              COMMENT
DefaultUserDiscription                                      COMMENT
Project creator:                                            COMMENT
 SNR is mapped to RINEX snr flag value [0-9]                COMMENT
  L1 & L2: min(max(int(snr_dBHz/6), 0), 9)                  COMMENT
    18                                                      LEAP SECONDS
Forced Modulo Decimation to 30 seconds                      COMMENT
teqc_2019 edited: all GLONASS satellites excluded           COMMENT
teqc_2019 edited: all SBAS satellites excluded              COMMENT
  2024     1    20    10     0    0.0000000     GPS         TIME OF FIRST OBS
                                                            END OF HEADER
 24  1 20 10  0  0.0000000  0 21G05G10G12G13G14G15G17G19G22G23G24G30
                                E04E09E18E19E20E21E27E34E36
 133719526.857 6 104196984.78346  25446010.000                    25446015.680
     -3739.856       -2914.187          39.950          39.550



 126561913.956 7  98619665.43247  24083944.220                    24083947.320
      2093.677        1631.435          45.450          45.200    94510501.930 7
  24083946.840        1563.542          46.300


 125382624.672 7  97700772.42447  23859512.820                    23859516.240
      3843.895        2995.246          45.450          45.550



 113250621.085 8  88247229.84747  21550880.880                    21550881.120
     -2762.217       -2152.381          49.400          44.500



 122300717.156 7  95299244.78447  23273066.120                    23273069.480
     -3107.679       -2421.573          45.400          42.750    91328446.646 8
  23273074.660       -2320.542          48.800


 106565144.893 8  83037768.01048  20278676.860                    20278676.220
     -1388.603       -1082.029          50.900          50.850



 120199971.952 7  93662353.54947  22873275.080                    22873278.040
       638.102         497.224          44.650          44.600



 122266022.563 7  95272274.77247  23266434.720                    23266437.100
      2630.021        2049.368          45.650          44.600



 116248225.031 8  90583017.85547  22121306.960                    22121306.920
     -2357.170       -1836.758          50.100          43.800



 117652260.350 7  91677066.64147  22388490.940                    22388492.080
      -199.000        -155.066          46.650          45.050    87857204.897 8
  22388498.460        -148.674          51.400


 107526201.229 8  83786650.93948  20461557.260                    20461558.900
      1412.438        1100.602          50.650          50.700    80295550.890 9
  20461560.760        1054.772          55.700


 135306106.043 5 105433293.26845  25747924.980                    25747934.200
     -3191.629       -2486.982          35.150          33.700   101040233.707 6
  25747939.160       -2383.507          40.250


 128877801.996 8                  24524638.520
      1694.310                          51.800                    96239910.198 8
  24524643.020        1265.263          52.650    98750506.293 8  24524639.840
      1298.186          51.850    97495215.897 9  24524642.080        1281.749
        55.400
 150795640.525 7                  28695459.940
      2904.493                          42.700                   112607153.220 6
  28695465.840        2168.883          41.800   115544720.885 7  28695463.060
      2225.509          42.800   114075928.206 7  28695464.900        2197.189
        45.350
 127660874.801 7                  24293052.400
      3306.496                          47.300                    95331231.761 7
  24293062.000        2469.146          46.550    97818110.624 7  24293055.880
      2533.451          45.650    96574665.844 8  24293060.040        2501.336
        49.350
 126068420.235 7                  23990027.860
     -1387.248                          47.800                    94142011.036 8
  23990032.360       -1035.974          48.550    96597884.545 8  23990028.860
     -1063.031          49.150    95369943.445 8  23990030.900       -1049.497
        51.950
 151272192.775 7                  28786147.680
     -2301.835                          44.600



 124287776.720 8                  23651180.660
      -340.097                          52.750                    92812315.521 8
  23651186.220        -254.020          53.700    95233500.116 8  23651182.300
      -260.636          53.700    94022897.971 9  23651185.240        -257.336
        56.850
 139926901.998 7                  26627218.840
     -2616.440                          47.250                   104490863.077 7
  26627228.800       -1953.792          47.650   107216703.506 7  26627225.920
     -2004.769          46.750   105853781.441 8  26627226.820       -1979.291
        50.250
 150441300.402 6                  28628029.140
       660.413                          39.900                   112342567.978 6
  28628038.740         493.195          41.250   115273228.009 6  28628035.500
       506.161          41.050   113807895.636 7  28628037.300         499.747
        44.400
 150942066.355 6                  28723327.000
     -1487.575                          40.000                   112716486.510 6
  28723334.660       -1110.954          41.850   115656910.155 7  28723332.160
     -1139.841          42.900   114186687.986 7  28723334.100       -1125.394
        45.550
 24  1 20 10  0 30.0000000  0 21G05G10G12G13G14G15G17G19G22G23G24G30
                                E04E09E18E19E20E21E27E34E36
 133831691.446 6 104284385.34546  25467354.680                    25467360.180
     -3737.466       -2912.327          40.650          40.300



 126499354.466 7  98570917.76647  24072039.160                    24072042.500
      2077.271        1618.653          45.550          45.700    94463785.434 7
  24072042.140        1551.135          46.700


 125267398.879 7  97610986.19447  23837585.800                    23837589.420
      3838.205        2990.813          45.200          45.350



 113333671.411 8  88311944.29247  21566684.960                    21566685.100
     -2773.985       -2161.550          50.300          43.350



 122394070.454 7  95371987.44647  23290830.900                    23290834.320
     -3115.633       -2427.772          45.000          43.300    91398158.348 8
  23290839.300       -2326.744          49.000


 106607096.154 8  83070457.25548  20286659.940                    20286659.480
     -1408.023       -1097.163          50.850          51.100



 120181112.371 7  93647657.77347  22869685.860                    22869689.140
       619.228         482.515          44.300          43.950



 122187301.725 7  95210933.95147  23251454.460                    23251456.700
      2618.438        2040.346          45.600          44.500



 116319124.498 8  90638264.12347  22134798.700                    22134798.780
     -2369.230       -1846.155          49.950          43.550



 117658554.209 7  91681970.91447  22389688.500                    22389689.720
      -220.321        -171.680          47.000          44.650    87861904.813 8
  22389696.080        -164.557          51.650


 107484034.767 8  83753793.95848  20453533.220                    20453534.800
      1398.923        1090.069          51.750          51.850    80264062.956 9
  20453536.900        1044.644          56.200


 135401886.416 5 105507927.36446  25766151.420                    25766160.600
     -3193.065       -2488.104          35.150          36.850   101111758.041 6
  25766165.660       -2384.410          41.500


 128827109.517 8                  24514992.160
      1685.434                          52.000                    96202055.430 8
  24514996.700        1258.602          52.950    98711664.008 8  24514993.340
      1291.357          51.900    97456867.371 9  24514995.560        1275.000
        55.300
 150708519.607 6                  28678881.560
      2903.788                          41.150                   112542095.231 7
  28678887.500        2168.399          42.250   115477965.734 6  28678884.740
      2225.042          41.650   114010021.638 7  28678886.620        2196.660
        44.750
 127561948.643 7                  24274227.160
      3288.803                          47.100                    95257358.315 7
  24274236.260        2456.005          45.800    97742310.051 7  24274230.940
      2519.992          46.600    96499828.840 8  24274235.200        2487.971
        49.050
 126110210.952 7                  23997980.320
     -1398.473                          47.850                    94173218.317 8
  23997984.940       -1044.312          48.750    96629905.939 8  23997981.620
     -1071.522          49.450    95401557.779 8  23997983.460       -1057.871
        51.800
 151341372.606 7                  28799312.440
     -2310.020                          44.350



 124298175.721 8                  23653159.640
      -352.937                          52.900                    92820080.971 8
  23653165.020        -263.514          53.800    95241468.141 8  23653161.200
      -270.345          53.900    94030764.706 9  23653164.140        -266.900
        56.700
 140005475.504 7                  26642171.300
     -2621.569                          47.500                   104549537.947 7
  26642180.960       -1957.643          47.650   107276909.044 7  26642177.900
     -2008.658          46.700   105913221.649 8  26642179.040       -1983.191
        50.000
 150421712.614 6                  28624301.540
       645.464                          40.800                   112327940.687 6
  28624310.900         482.143          41.050   115258219.098 6  28624308.120
       494.771          40.700   113793077.549 7  28624309.700         488.451
        43.800
 150986889.275 6                  28731856.380
     -1500.098                          39.950                   112749958.208 6
  28731864.400       -1120.346          41.300   115691255.017 6  28731861.740
     -1149.500          41.600   114220596.265 7  28731863.560       -1134.892
        44.350
 24  1 20 10  1  0.0000000  0 21G05G10G12G13G14G15G17G19G22G23G24G30
                                E04E09E18E19E20E21E27E34E36
 133943766.170 6 104371715.82246  25488682.200                    25488687.680
     -3734.146       -2909.740          40.300          40.550



 126437274.328 7  98522543.63047  24060225.360                    24060229.020
      2061.631        1606.467          45.750          45.650    94417426.897 7
  24060228.600        1539.410          46.950


 125152331.466 7  97521323.36947  23815689.100                    23815692.800
      3833.229        2986.936          45.350          45.050



 113417056.593 8  88376919.66447  21582552.780                    21582552.820
     -2784.765       -2169.950          50.400          43.750



 122487653.300 7  95444908.99947  23308639.320                    23308642.760
     -3122.937       -2433.461          44.900          42.900    91468041.452 8
  23308647.720       -2332.069          48.950


 106649609.995 8  83103584.87248  20294750.080                    20294749.700
     -1426.094       -1111.244          51.500          51.350



 120162791.289 7  93633381.59347  22866199.220                    22866202.640
       601.955         469.055          44.250          44.200



 122108929.650 7  95149864.89047  23236540.660                    23236542.800
      2607.126        2031.529          46.200          42.800



 116390369.235 8  90693779.42447  22148356.160                    22148356.360
     -2380.349       -1854.819          49.800          44.800



 117665470.313 7  91687360.04347  22391004.500                    22391005.800
      -240.616        -187.495          46.850          44.250    87867069.386 8
  22391012.120        -179.712          51.550


 107442259.747 8  83721242.00248  20445583.720                    20445585.260
      1386.354        1080.276          51.950          51.950    80232867.343 9
  20445587.700        1035.204          56.300


 135497682.203 5 105582573.57045  25784380.700                    25784390.080
     -3192.852       -2487.935          32.750          31.650   101183294.030 6
  25784395.080       -2384.522          39.100


 128776668.741 8                  24505393.680
      1677.330                          52.350                    96164388.619 8
  24505398.240        1252.554          52.900    98673014.568 8  24505394.700
      1285.243          51.950    97418709.248 9  24505396.940        1268.906
        55.050
 150621401.729 7                  28662303.820
      2903.937                          42.200                   112477039.431 6
  28662309.660        2168.766          41.100   115411212.843 6  28662306.980
      2225.235          41.850   113944117.296 7  28662308.600        2196.893
        44.100
 127463541.968 7                  24255500.920
      3271.736                          47.300                    95183872.800 7
  24255509.100        2443.182          45.050    97666907.519 7  24255505.520
      2506.863          47.750    96425384.807 8  24255509.100        2475.060
        49.050
 126152320.463 8                  24005993.420
     -1408.752                          48.100                    94204663.656 8
  24005998.220       -1052.014          48.750    96662171.608 8  24005995.160
     -1079.471          49.550    95433413.289 8  24005996.700       -1065.757
        51.750
 151410788.781 7                  28812522.100
     -2317.677                          44.850



 124308941.798 8                  23655208.540
      -364.666                          53.150                    92828120.541 8
  23655213.660        -272.354          53.700    95249717.449 9  23655209.980
      -279.465          54.000    94038909.150 9  23655212.860        -275.933
        56.500
 140084185.404 7                  26657149.680
     -2625.666                          47.750                   104608314.660 7
  26657159.060       -1960.809          47.250   107337219.082 7  26657155.700
     -2011.870          46.650   105972765.026 8  26657157.240       -1986.395
        49.550
 150402556.959 6                  28620656.460
       631.487                          40.650                   112313636.122 6
  28620665.620         471.613          40.500   115243541.413 6  28620662.900
       483.882          38.850   113778586.414 7  28620664.480         477.769
        42.600
 151032072.658 6                  28740454.360
     -1511.854                          37.850                   112783699.112 6
  28740462.860       -1128.973          40.000   115725876.114 6  28740459.840
     -1158.409          41.050   114254777.261 7  28740461.620       -1143.594
        43.150
 24  1 20 10  1 30.0000000  0 21G05G10G12G13G14G15G17G19G22G23G24G30
                                E04E09E18E19E20E21E27E34E36
 134055741.325 6 104458968.75046  25509990.620                    25509996.140
     -3730.887       -2907.198          39.600          40.100



 126375668.720 7  98474539.24147  24048502.060                    24048505.900
      2045.277        1593.724          45.700          45.800    94371422.685 7
  24048505.520        1527.429          47.100


 125037417.262 7  97431779.94447  23793821.420                    23793825.240
      3827.531        2982.496          43.950          44.100



 113500768.007 8  88442149.24247  21598482.700                    21598482.680
     -2796.149       -2178.820          50.600          43.800



 122581456.346 7  95518002.10747  23326489.500                    23326493.180
     -3130.538       -2439.386          44.600          42.900    91538088.979 8
  23326498.060       -2337.789          48.650


 106692677.980 8  83137144.29048  20302945.720                    20302945.240
     -1445.137       -1126.082          51.400          51.600



 120145002.578 7  93619520.24247  22862813.940                    22862817.400
       583.771         454.887          44.600          44.600



 122030902.208 7  95089064.35147  23221692.440                    23221694.240
      2594.926        2022.024          45.900          44.700



 116461949.728 8  90749556.35247  22161977.600                    22161977.880
     -2391.793       -1863.737          50.000          45.100



 117673001.029 7  91693228.10047  22392437.580                    22392439.020
      -261.567        -203.819          46.650          45.800    87872692.927 8
  22392445.060        -195.203          51.300


 107400869.808 8  83688990.10848  20437707.600                    20437709.160
      1373.010        1069.878          51.850          51.700    80201959.274 9
  20437711.600        1025.337          56.200



                                                                 101254836.139 5
  25802625.780       -2385.160          35.800


 128726473.848 8                  24495842.000
      1668.781                          52.000                    96126905.416 8
  24495846.540        1246.198          52.750    98634553.538 8  24495842.800
      1278.697          51.600    97380737.132 9  24495845.080        1262.436
        55.100
 150534280.758 6                  28645725.360
      2903.938                          41.850                   112411981.410 7
  28645731.380        2168.476          42.050   115344457.683 6  28645728.480
      2225.142          41.650   113878210.696 7  28645730.240        2196.794
        44.800
 127365651.625 7                  24236873.200
      3254.199                          47.600                    95110772.851 7
  24236880.520        2430.112          45.200    97591900.608 7  24236878.460
      2493.479          47.700    96351331.378 8  24236881.120        2461.810
        49.200
 126194741.243 7                  24014065.800
     -1419.410                          47.850                    94236341.445 8
  24014070.760       -1059.943          48.750    96694675.780 8  24014067.880
     -1087.582          49.350    95465504.266 8  24014069.200       -1073.755
        51.900
 151480433.533 7                  28825775.300
     -2325.421                          44.500



 124320067.058 8                  23657325.800
      -377.088                          53.100                    92836428.338 8
  23657330.620        -281.528          53.550    95258241.970 8  23657327.120
      -288.870          53.750    94047325.305 9  23657329.940        -285.202
        56.650
 140163023.059 8                  26672152.400
     -2630.252                          48.350                   104667186.786 7
  26672161.400       -1964.157          46.750   107397627.031 7  26672157.760
     -2015.375          46.200   106032405.064 8  26672159.760       -1989.751
        49.400
 150383826.993 6                  28617092.380
       617.191                          39.650                   112299649.418 6
  28617101.300         460.840          41.800   115229189.840 6  28617098.500
       472.826          40.200   113764417.277 7  28617100.340         466.893
        44.050
 151077608.050 6                  28749119.400
     -1523.892                          37.750                   112817702.884 6
  28749128.140       -1138.101          37.200   115760766.903 5  28749124.780
     -1167.546          35.750   114289224.547 6  28749126.720       -1152.811
        39.450
 24  1 20 10  2  0.0000000  0 20G05G10G12G13G14G15G17G19G22G23G24E04
                                E09E18E19E20E21E27E34E36
 134167621.427 6 104546147.60646  25531280.980                    25531286.740
     -3727.798       -2904.796          38.750          38.000



 126314546.023 7  98426911.16247  24036870.740                    24036874.840
      2029.520        1581.444          45.000          45.050    94325779.111 7
  24036874.360        1515.523          47.200


 124922664.595 7  97342362.38647  23771984.580                    23771988.360
      3822.528        2978.596          44.600          44.700



 113584810.749 8  88507637.00247  21614475.640                    21614475.620
     -2806.772       -2187.099          49.900          44.650



 122675483.513 7  95591269.87647  23344382.380                    23344386.180
     -3137.807       -2445.049          43.550          42.950    91608303.887 8
  23344391.100       -2343.195          48.650


 106736305.587 8  83171139.77648  20311247.920                    20311247.120
     -1463.414       -1140.324          51.300          51.400



 120127753.384 7  93606079.30547  22859531.480                    22859534.920
       565.936         440.987          44.700          44.700



 121953228.551 7  95028539.48747  23206911.580                    23206912.960
      2583.313        2012.972          46.300          43.300



 116533870.046 8  90805598.07747  22175663.760                    22175664.120
     -2402.830       -1872.338          49.950          44.850



 117681152.117 7  91699579.56547  22393988.660                    22393990.420
      -281.876        -219.644          46.650          45.600    87878779.751 8
  22393996.080        -210.511          51.050


 107359871.960 8  83657043.73948  20429906.100                    20429907.700
      1360.128        1059.840          51.550          51.550    80171344.010 9
  20429909.880        1015.729          56.100


 128676532.445 8                  24486338.440
      1660.567                          51.350                    96089611.517 8
  24486343.080        1240.010          52.700    98596286.747 8  24486339.120
      1272.339          51.700    97342956.785 9  24486341.480        1256.179
        55.200
 150447164.049 6                  28629147.700
      2903.713                          41.000                   112346926.533 6
  28629153.740        2168.554          41.650   115277705.749 7  28629150.600
      2225.125          42.000   113812307.305 7  28629152.640        2196.715
        44.750
 127268287.930 7                  24218345.820
      3236.797                          47.100                    95038066.170 7
  24218352.680        2416.975          45.850    97517297.240 7  24218351.320
      2480.020          47.150    96277676.350 8  24218353.400        2448.571
        49.400
 126237479.398 7                  24022198.640
     -1429.838                          47.950                    94268256.230 8
  24022203.680       -1067.692          48.750    96727423.139 8  24022200.940
     -1095.557          49.300    95497835.335 8  24022202.080       -1081.575
        51.950
 151550312.461 7                  28839073.080
     -2332.975                          44.700



 124331557.046 8                  23659512.400
      -388.970                          52.700                    92845008.494 8
  23659517.000        -290.436          53.400    95267045.959 8  23659513.680
      -298.022          53.850    94056017.380 9  23659516.420        -294.231
        56.650
 140241993.360 7                  26687180.220
     -2634.320                          47.550                   104726157.980 7
  26687188.920       -1967.267          46.100   107458136.621 7  26687185.140
     -2018.582          45.950   106092145.450 8  26687187.460       -1992.895
        49.050
 150365529.582 6                  28613610.540
       602.883                          41.150                   112285985.763 6
  28613619.380         450.261          41.300   115215169.732 6  28613616.740
       461.856          40.850   113750575.400 7  28613618.580         456.113
        44.200
 151123500.065 5                  28757852.580
     -1535.458                          32.950                   112851972.914 5
  28757861.200       -1146.561          35.000   115795931.003 5  28757857.740
     -1176.846          33.700   114323941.606 6  28757859.400       -1161.681
        37.500
 24  1 20 10  2 30.0000000  0 20G05G10G12G13G14G15G17G19G22G23G24E04
                                E09E18E19E20E21E27E34E36
 134279409.235 6 104633254.46246  25552553.740                    25552560.220
     -3724.398       -2902.147          40.800          40.850



 126253913.996 7  98379665.42747  24025332.920                    24025337.020
      2013.099        1568.649          45.250          44.900    94280501.950 7
  24025336.680        1503.251          47.650


 124808081.565 7  97253077.00747  23750180.180                    23750183.920
      3816.600        2973.975          44.700          44.550



 113669189.035 8  88573386.21047  21630532.400                    21630532.380
     -2817.925       -2195.789          50.050          44.100



 122769738.339 7  95664715.02947  23362318.440                    23362322.480
     -3145.410       -2450.974          44.000          43.800    91678688.796 8
  23362327.640       -2348.937          48.750


 106780497.734 8  83205575.16648  20319657.520                    20319656.480
     -1482.280       -1155.025          51.350          51.450



 120111050.414 7  93593063.99247  22856353.120                    22856356.400
       547.914         426.946          45.800          45.650



 121875917.499 7  94968297.20147  23192199.660                    23192200.960
      2570.982        2003.364          46.600          42.650



 116606133.642 8  90861907.30047  22189415.240                    22189415.620
     -2414.351       -1881.314          49.950          45.450



 117689928.820 7  91706418.52547  22395658.860                    22395661.060
      -302.890        -236.019          46.500          46.000    87885333.745 8
  22395666.160        -226.127          51.000


 107319272.673 8  83625407.93948  20422180.380                    20422182.000
      1346.819        1049.470          51.850          51.850    80141026.362 9
  20422183.960        1005.728          56.350


 128626851.616 8                  24476884.380
      1651.842                          51.000                    96052512.193 8
  24476889.300        1233.505          52.850    98558219.604 8  24476885.100
      1265.747          52.200    97305373.554 9  24476887.440        1249.621
        55.100
 150360058.392 7                  28612572.140
      2903.474                          42.300                   112281879.957 6
  28612578.180        2168.226          40.950   115210962.306 6  28612574.860
      2224.785          41.600   113746412.281 7  28612577.080        2196.567
        43.850
 127171460.678 7                  24199920.360
      3218.769                          46.850                    94965760.074 7
  24199927.480        2403.607          46.850    97443104.897 7  24199925.680
      2466.339          46.400    96204427.132 8  24199927.800        2435.033
        49.300
 126280540.599 7                  24030393.000
     -1440.602                          47.950                    94300412.255 8
  24030398.080       -1075.808          49.050    96760418.022 8  24030395.380
     -1103.842          49.600    95530410.792 8  24030396.440       -1089.812
        51.900
 151620430.633 7                  28852416.260
     -2341.080                          44.800



 124343416.728 8                  23661769.200
      -401.318                          52.450                    92853864.723 8
  23661773.740        -299.720          53.550    95276133.222 9  23661770.620
      -307.502          54.200    94064989.127 9  23661773.260        -303.635
        56.550
 140321100.625 7                  26702234.040
     -2639.080                          47.700                   104785231.436 7
  26702242.520       -1970.720          46.050   107518751.142 7  26702238.560
     -2022.079          45.800   106151989.447 8  26702241.240       -1996.460
        48.650
 150347671.098 6                  28610212.200
       588.229                          40.000                   112272649.929 7
  28610221.100         439.258          42.650   115201486.017 6  28610218.500
       450.649          40.900   113737065.629 7  28610220.240         444.974
        44.550
 151169788.307 5                  28766654.400
     -1547.790                          34.400                   112886512.631 6
  28766662.880       -1155.551          36.900   115831371.693 6  28766659.380
     -1185.861          38.600   114358931.822 6  28766661.200       -1170.725
        40.000
 24  1 20 10  3  0.0000000  0 20G05G10G12G13G14G15G17G19G22G23G24E04
                                E09E18E19E20E21E27E34E36
 134391095.376 6 104720282.18646  25573807.240                    25573814.060
     -3721.091       -2899.565          40.650          40.700



 126193767.748 7  98332798.22247  24013887.540                    24013891.640
      1996.905        1556.030          44.950          44.850    94235587.540 7
  24013891.420        1491.162          47.900


 124693663.355 7  97163920.09547  23728407.000                    23728410.760
      3811.205        2969.774          44.900          45.050



 113753894.947 8  88639390.71247  21646651.540                    21646651.540
     -2828.899       -2204.341          50.250          43.700



 122864211.816 7  95738330.55647  23380296.240                    23380300.460
     -3152.622       -2456.596          43.500          42.700    91749236.981 8
  23380305.660       -2354.260          48.450


 106825246.360 8  83240444.18748  20328172.980                    20328171.900
     -1500.755       -1169.421          51.300          51.300



 120094888.161 7  93580470.00447  22853277.940                    22853280.920
       529.829         412.854          47.300          47.050



 121798965.760 7  94908334.85847  23177556.040                    23177557.040
      2559.145        1994.141          45.850          42.950



 116678731.584 8  90918477.05247  22203230.280                    22203230.660
     -2425.479       -1889.986          49.950          45.550



 117699323.846 7  91713739.30647  22397446.700                    22397449.300
      -323.453        -252.042          46.700          46.250    87892349.489 8
  22397453.960        -241.506          51.000


 107279065.963 8  83594078.03548  20414529.360                    20414530.780
      1333.821        1039.342          52.150          52.150    80111001.875 9
  20414532.840         995.974          56.650


 128577425.971 8                  24467478.860
      1643.355                          50.900                    96015603.434 8
  24467484.120        1227.188          52.950    98520348.008 8  24467479.820
      1259.225          52.650    97267983.374 9  24467481.980        1243.190
        55.450
 150272958.099 6                  28595997.500
      2903.279                          40.150                   112216837.354 6
  28596003.460        2168.113          41.800   115144222.987 7  28596000.460
      2224.707          42.750   113680521.329 7  28596002.580        2196.373
        44.950
 127075167.182 7                  24181596.080
      3200.940                          46.000                    94893852.546 7
  24181603.980        2390.303          47.150    97369321.541 7  24181601.220
      2452.651          45.650    96131581.696 8  24181603.860        2421.468
        49.300
 126323917.811 7                  24038647.480
     -1451.009                          47.750                    94332804.268 8
  24038652.560       -1083.551          49.200    96793655.052 8  24038649.820
     -1111.861          49.550    95563225.314 8  24038650.940       -1097.691
        52.050
 151690780.668 7                  28865803.600
     -2348.735                          44.500



 124355638.637 8                  23664094.820
      -413.360                          52.400                    92862991.436 8
  23664099.420        -308.648          53.600    95285498.025 9  23664096.560
      -316.706          54.300    94074234.882 9  23664099.020        -312.681
        56.700
 140400336.693 8                  26717312.340
     -2643.223                          48.200                   104844401.096 7
  26717320.620       -1973.904          45.700   107579464.376 7  26717316.620
     -2025.288          45.800   106211930.891 8  26717319.560       -1999.626
        48.500
 150330245.501 6                  28606896.260
       573.836                          39.900                   112259637.307 6
  28606905.260         428.474          40.950   115188133.938 6  28606902.620
       439.575          41.150   113723883.277 7  28606904.220         433.968
        43.900
 151216394.113 6                  28775523.420
     -1559.165                          36.800                   112921315.787 6
  28775531.500       -1164.464          37.700   115867082.758 6  28775528.280
     -1194.790          36.850   114394188.927 6  28775529.820       -1179.593
        40.300
 24  1 20 10  3 30.0000000  0 20G05G10G12G13G14G15G17G19G22G23G24E04
                                E09E18E19E20E21E27E34E36
 134502675.155 6 104807227.03646  25595040.540                    25595047.400
     -3717.615       -2896.856          38.350          38.350



 126134107.590 7  98286309.77147  24002534.540                    24002538.720
      1980.255        1543.056          44.850          45.250    94191036.094 7
  24002538.400        1478.728          47.900


 124579410.408 7  97074891.92247  23706665.520                    23706669.020
      3805.446        2965.286          45.200          45.300



 113838925.186 8  88705647.93647  21662832.400                    21662832.300
     -2839.962       -2212.961          50.100          44.250



 122958899.620 7  95812113.10747  23398314.680                    23398318.940
     -3160.248       -2462.538          44.100          43.900    91819945.224 8
  23398324.500       -2359.783          48.600


 106870548.526 8  83275744.53748  20336793.720                    20336792.820
     -1519.586       -1184.094          51.400          51.100



 120079265.203 7  93568296.23447  22850305.420                    22850308.080
       511.428         398.514          47.850          47.950



 121722373.797 7  94848652.86847  23162980.900                    23162981.820
      2546.895        1984.595          45.350          43.250



 116751659.621 8  90975304.01347  22217108.060                    22217108.420
     -2436.804       -1898.811          49.550          45.000



 117709334.507 7  91721539.80347  22399351.700                    22399354.540
      -344.185        -268.196          46.850          45.750    87899824.958 8
  22399359.040        -257.111          50.950


 107239250.512 8  83563053.02048  20406952.720                    20406954.060
      1320.394        1028.879          51.700          51.650    80081269.567 9
  20406956.160         986.000          56.800


 128528254.741 8                  24458121.800
      1634.456                          51.350                    95978884.660 8
  24458127.300        1220.520          52.950    98482671.351 8  24458123.180
      1252.372          53.100    97230785.658 9  24458124.960        1236.455
        55.350
 150185862.319 6                  28579423.680
      2902.839                          40.300                   112151798.117 7
  28579429.840        2167.693          42.600   115077487.073 6  28579426.960
      2224.223          41.550   113614633.748 7  28579429.100        2195.941
        44.650
 126979409.411 7                  24163373.540
      3182.668                          45.800                    94822345.047 7
  24163382.480        2376.697          47.300    97295948.649 7  24163378.340
      2438.608          45.350    96059141.502 8  24163381.940        2407.609
        48.950
 126367608.643 7                  24046961.640
     -1461.855                          47.850                    94365430.464 8
  24046966.760       -1091.646          49.300    96827132.381 8  24046963.820
     -1120.185          49.400    95596277.073 8  24046965.080       -1105.880
        51.800
 151761359.838 7                  28879234.340
     -2356.917                          44.700



 124368219.928 8                  23666488.820
      -425.779                          52.400                    92872386.512 8
  23666493.500        -317.901          53.650    95295138.194 9  23666490.880
      -326.215          54.400    94083752.507 9  23666493.180        -322.077
        56.450
 140479698.084 7                  26732414.440
     -2647.822                          47.500                   104903664.337 7
  26732422.540       -1977.168          45.050   107640273.628 7  26732418.660
     -2028.796          45.650   106271967.137 7  26732421.660       -2003.020
        47.750
 150313251.199 6                  28603662.380
       559.062                          39.000                   112246946.830 6
  28603671.440         417.222          39.900   115175112.425 6  28603668.780
       428.209          40.100   113711027.268 7  28603670.480         422.848
        42.350

                                                                 112956379.704 5
  28784466.740       -1173.354          35.650   115903061.365 5  28784463.480
     -1204.025          34.100   114429710.205 6  28784465.140       -1188.779
        37.500
 24  1 20 10  4  0.0000000  0 19G05G10G12G13G14G15G17G19G22G23G24E04
                                E09E18E19E20E21E27E34
 134614154.185 6 104894093.33846  25616254.620                    25616261.640
     -3713.520       -2893.667          38.550          38.450



 126074943.101 7  98240207.56247  23991275.920                    23991280.120
      1964.354        1530.664          44.700          44.400    94146854.802 7
  23991279.800        1466.997          47.950


 124465332.250 7  96985999.97747  23684957.040                    23684960.680
      3800.196        2961.197          44.800          44.900



 113924285.854 8  88772162.63047  21679076.040                    21679076.100
     -2850.235       -2220.966          49.950          43.000



 123053807.077 7  95886066.81847  23416375.100                    23416379.420
     -3166.443       -2467.363          43.950          43.850    91890817.507 8
  23416385.180       -2364.685          48.000


 106916410.532 8  83311481.11848  20345520.920                    20345520.360
     -1537.333       -1197.923          51.400          51.150



 120064190.414 8  93556549.61448  22847437.140                    22847439.520
       494.045         384.969          48.200          48.700



 121646152.269 7  94789259.51347  23148476.160                    23148476.940
      2534.942        1975.280          45.450          43.050



 116824922.976 8  91032392.27947  22231049.620                    22231049.900
     -2447.031       -1906.780          49.400          44.250



 117719967.798 7  91729825.46047  22401375.220                    22401378.140
      -364.236        -283.821          47.000          45.600    87907765.367 8
  22401382.620        -271.961          50.850


 107199834.648 8  83532339.36648  20399452.000                    20399453.540
      1307.813        1019.074          51.350          51.200    80051835.653 9
  20399455.460         976.597          56.800


 128479346.861 8                  24448814.960
      1626.474                          51.800                    95942362.534 8
  24448820.460        1214.597          52.750    98445196.484 8  24448816.680
      1246.275          53.350    97193787.159 9  24448818.140        1230.449
        55.450
 150098779.565 6                  28562852.380
      2903.179                          40.900                   112086768.549 6
  28562858.700        2168.044          41.300   115010761.106 6  28562855.600
      2224.498          41.800   113548755.973 7  28562857.760        2196.310
        44.150
 126884198.933 7                  24145255.720
      3165.127                          47.400                    94751246.272 7
  24145265.040        2363.561          47.200    97222995.115 7  24145259.680
      2425.271          45.800    95987115.349 8  24145264.080        2394.407
        49.150
 126411620.498 7                  24055336.880
     -1471.799                          47.750                    94398296.397 8
  24055342.040       -1099.056          49.150    96860855.686 8  24055338.840
     -1127.725          49.250    95629571.700 8  24055340.320       -1113.436
        51.800
 151832174.954 7                  28892709.960
     -2363.640                          44.100



 124381167.392 8                  23668952.580
      -437.149                          52.700                    92882055.038 8
  23668957.300        -326.403          53.650    95305058.946 9  23668954.900
      -334.922          54.350    94093547.146 9  23668957.000        -330.666
        56.600
 140559190.982 7                  26747541.520
     -2651.408                          47.650                   104963025.785 7
  26747549.380       -1979.865          44.550   107701183.648 7  26747545.800
     -2031.506          45.250   106332102.868 7  26747548.740       -2005.724
        47.550
 150296696.482 5                  28600512.100
       545.077                          35.550                   112234584.657 6
  28600521.140         407.036          38.050   115162427.669 6  28600518.400
       418.015          36.000   113698503.827 6  28600520.060         412.371
        40.050
 24  1 20 10  4 30.0000000  0 19G05G10G12G13G14G15G17G19G22G23G24E04
                                E09E18E19E20E21E27E34
 134725523.547 6 104980874.15546  25637447.820                    25637454.820
     -3710.869       -2891.603          38.500          38.650



 126016269.679 7  98194487.99847  23980110.660                    23980114.760
      1947.497        1517.529          44.150          44.500    94103040.212 7
  23980114.540        1454.213          47.750


 124351424.785 7  96897240.99647  23663281.140                    23663284.600
      3793.989        2956.356          44.950          44.900



 114009969.015 8  88838928.62547  21695380.940                    21695381.340
     -2861.541       -2229.776          49.300          42.650



 123148925.431 7  95960184.86647  23434475.580                    23434479.740
     -3174.378       -2473.544          44.300          43.150    91961847.276 7
  23434485.800       -2370.389          47.350


 106962824.897 8  83347648.11748  20354353.260                    20354352.920
     -1556.541       -1212.891          51.250          51.250



 120049657.611 8  93545225.33948  22844671.920                    22844674.080
       475.243         370.318          48.650          48.700



 121570297.747 7  94730152.14347  23134041.320                    23134042.160
      2522.262        1965.401          45.450          43.200



 116898512.811 8  91089734.93047  22245053.320                    22245053.540
     -2458.392       -1915.633          50.150          44.150



 117731216.512 7  91738590.66947  22403515.880                    22403518.700
      -385.168        -300.131          47.650          44.850    87916165.368 8
  22403523.380        -287.792          50.650


 107160812.549 8  83501932.54648  20392026.100                    20392027.940
      1294.112        1008.399          50.650          50.800    80022695.789 9
  20392029.820         966.296          56.700


 128430697.133 8                  24439557.280
      1617.195                          52.150                    95906033.184 8
  24439562.600        1207.567          52.300    98407919.416 8  24439559.220
      1239.108          53.100    97156983.949 9  24439560.500        1223.341
        55.450
 150011704.505 6                  28546282.560
      2902.186                          40.150                   112021744.725 6
  28546289.200        2167.306          41.050   114944041.031 6  28546285.780
      2223.645          39.750   113482884.027 7  28546288.140        2195.468
        43.400
 126789533.245 8                  24127241.920
      3146.242                          48.050                    94680554.331 7
  24127251.120        2349.474          46.850    97150459.038 7  24127245.280
      2410.785          46.100    95915501.336 8  24127249.880        2380.154
        49.400
 126455946.804 7                  24063771.940
     -1482.932                          47.950                    94431397.145 8
  24063777.200       -1107.452          48.800    96894819.938 8  24063773.700
     -1136.319          48.800    95663104.191 8  24063775.380       -1121.839
        51.650
 151903218.811 7                  28906229.060
     -2372.140                          44.150



 124394473.731 8                  23671484.720
      -449.614                          52.700                    92891991.558 8
  23671489.460        -335.799          53.450    95315254.682 9  23671487.160
      -344.582          54.050    94103613.271 9  23671489.100        -340.188
        56.650
 140638807.431 8                  26762692.060
     -2656.079                          48.000                   105022479.503 7
  26762699.800       -1983.549          44.100   107762188.343 7  26762696.460
     -2035.193          44.650   106392332.078 7  26762699.320       -2009.390
        47.250
 150280575.292 6                  28597444.400
       529.937                          36.800                   112222546.125 6
  28597452.960         395.835          37.700   115150075.146 5  28597450.320
       406.046          35.900   113686308.287 6  28597452.260         400.893
        39.950
 24  1 20 10  5  0.0000000  0 19G05G10G12G13G14G15G17G19G22G23G24E04
                                E09E18E19E20E21E27E34
 134836782.538 6 105067569.09246  25658619.940                    25658627.080
     -3706.852       -2888.472          38.200          37.850



 125958091.496 7  98149154.31647  23969039.620                    23969043.740
      1930.957        1504.641          45.200          45.650    94059595.426 7
  23969043.680        1441.846          47.800


 124237691.936 7  96808618.09247  23641638.400                    23641641.760
      3788.271        2951.901          44.550          44.500



 114095975.805 8  88905946.79547  21711747.340                    21711747.940
     -2872.288       -2238.150          48.600          43.950



 123244254.612 7  96034467.17947  23452616.220                    23452620.300
     -3181.041       -2478.738          44.700          43.200    92033034.483 7
  23452626.560       -2375.558          47.200


 107009792.780 8  83384246.42848  20363290.980                    20363290.780
     -1574.750       -1227.080          51.650          51.900



 120035670.236 8  93534326.05548  22842010.480                    22842012.480
       457.217         356.271          48.750          48.700



 121494814.980 7  94671334.44947  23119677.320                    23119678.160
      2509.901        1955.770          45.550          43.000



 116972429.530 8  91147332.29447  22259119.320                    22259119.440
     -2469.246       -1924.091          50.200          45.000



 117743082.195 7  91747836.63647  22405773.940                    22405776.560
      -405.772        -316.187          47.400          44.800    87925026.075 8
  22405781.520        -303.084          50.600


 107122187.148 8  83471834.83948  20384675.760                    20384677.720
      1280.953         998.146          50.600          50.400    79993852.149 9
  20384679.900         956.507          56.750


 128382309.048 8                  24430349.480
      1608.478                          52.350                    95869899.206 8
  24430354.360        1201.114          51.950    98370842.825 8  24430351.380
      1232.438          53.150    97120378.669 9  24430352.660        1216.768
        55.600
 149924640.391 6                  28529714.900
      2901.981                          40.600                   111956729.037 6
  28529721.620        2166.967          40.750   114877329.327 6  28529718.220
      2223.533          41.300   113417020.334 7  28529720.600        2195.238
        44.150
 126695418.547 7                  24109332.740
      3127.868                          47.150                    94610273.843 7
  24109342.020        2335.732          46.600    97078345.147 7  24109336.020
      2396.632          46.550    95844304.153 8  24109340.400        2366.121
        49.650
 126500589.271 8                  24072267.220
     -1493.396                          48.400                    94464733.981 8
  24072272.420       -1115.192          48.550    96929026.441 8  24072268.780
     -1144.358          48.800    95696875.862 8  24072270.580       -1129.754
        51.750
 151974492.955 7                  28919791.900
     -2379.647                          44.050



 124408140.320 8                  23674085.520
      -461.633                          53.000                    92902197.085 8
  23674090.260        -344.712          53.350    95325726.444 9  23674087.900
      -353.733          54.000    94113951.915 9  23674089.780        -349.213
        56.800
 140718548.214 7                  26777866.200
     -2660.201                          47.300                   105082026.053 7
  26777873.880       -1986.502          43.150   107823288.305 7  26777870.780
     -2038.319          44.700   106452655.329 7  26777873.640       -2012.414
        47.000
 150264899.292 6                  28594459.760
       515.589                          36.100                   112210833.355 6
  28594468.220         385.105          36.200   115138056.818 6  28594465.740
       395.284          37.300   113674442.741 6  28594467.520         390.088
        39.950
 24  1 20 10  5 30.0000000  0 20G05G10G12G13G14G15G17G19G22G23G24E04
                                E09E18E19E20E21E27E34E36
 134947927.426 6 105154175.04846  25679770.320                    25679777.440
     -3702.494       -2885.075          38.900          38.350



 125900409.027 7  98104206.90047  23958062.900                    23958067.080
      1914.890        1492.119          44.150          44.350    94016520.812 8
  23958067.240        1429.871          48.100


 124124134.330 7  96720131.73747  23620028.840                    23620032.420
      3782.543        2947.438          43.800          44.100



 114182302.761 8  88973214.44647  21728174.700                    21728175.620
     -2882.486       -2246.097          48.300          44.100



 123339790.711 7  96108910.73347  23470796.220                    23470800.200
     -3187.444       -2483.730          44.100          43.100    92104376.188 7
  23470806.660       -2380.393          46.600


 107057311.315 8  83421273.80948  20372333.520                    20372333.320
     -1592.707       -1241.072          51.400          51.400



 120022227.695 7  93523851.30548  22839452.580                    22839454.640
       439.468         342.441          47.950          48.250



 121419705.659 7  94612807.74947  23105384.400                    23105385.180
      2497.864        1946.390          45.400          43.050



 117046668.849 8  91205181.04347  22273246.780                    22273246.880
     -2479.586       -1932.146          50.000          45.650



 117755562.437 7  91757561.48147  22408148.940                    22408151.260
      -425.721        -331.731          47.400          44.600    87934345.722 8
  22408156.580        -318.044          50.850


 107083957.435 8  83442045.46548  20377400.860                    20377402.780
      1268.036         988.080          51.400          51.300    79965303.999 9
  20377405.360         946.890          56.950


 128334182.258 8                  24421191.360
      1600.203                          52.000                    95833960.350 8
  24421195.820        1194.939          52.050    98333966.442 8  24421193.140
      1226.116          53.300    97083971.051 9  24421194.560        1210.512
        55.550
 149837586.732 6                  28513149.180
      2901.855                          39.800                   111891721.156 6
  28513156.020        2166.932          40.650   114810625.587 6  28513152.320
      2223.587          39.000   113351164.524 7  28513155.240        2195.336
        42.900
 126601857.139 7                  24091528.260
      3109.808                          45.550                    94540406.526 7
  24091537.980        2322.219          46.850    97006655.196 7  24091532.240
      2382.792          46.900    95773525.509 8  24091536.140        2352.557
        49.750
 126545545.999 8                  24080822.360
     -1503.362                          48.350                    94498305.507 8
  24080827.400       -1122.625          48.450    96963473.744 8  24080823.760
     -1151.904          48.950    95730885.281 8  24080825.600       -1137.290
        51.650
 152045994.993 7                  28933398.280
     -2386.789                          43.650



 124422164.672 8                  23676754.380
      -473.033                          52.950                    92912669.782 8
  23676759.220        -353.234          53.600    95336472.346 9  23676756.680
      -362.471          54.250    94124561.217 9  23676758.540        -357.841
        56.800
 140798410.228 7                  26793063.360
     -2663.653                          47.600                   105141663.136 7
  26793070.780       -1988.986          42.850   107884481.144 7  26793068.340
     -2041.073          44.800   106513070.291 7  26793070.920       -2014.972
        46.650
 150249648.381 6                  28591557.500
       501.308                          36.100                   112199445.462 6
  28591566.700         374.280          37.250   115126371.858 6  28591563.760
       384.321          37.250   113662906.301 6  28591565.740         379.451
        40.200
 151454672.821 6                  28820866.240
     -1617.062                          40.700                   113099295.983 6
  28820873.400       -1207.603          37.150   116049698.714 6  28820871.140
     -1238.937          37.250   114574500.004 6  28820872.580       -1223.309
        40.250
 24  1 20 10  6  0.0000000  0 20G05G10G12G13G14G15G17G19G22G23G24E04
                                E09E18E19E20E21E27E34E36
 135058959.266 6 105240692.99246  25700899.220                    25700906.320
     -3699.209       -2882.512          37.900          38.200



 125843227.664 7  98059649.96047  23947181.480                    23947185.920
      1897.570        1478.626          43.550          43.550    93973820.394 8
  23947186.200        1417.112          48.250


 124010757.728 7  96631786.39047  23598453.880                    23598457.360
      3776.162        2942.464          43.300          43.400



 114268952.305 8  89040733.47147  21744663.600                    21744664.620
     -2893.594       -2254.752          48.600          43.950



 123435535.234 7  96183516.70547  23489015.820                    23489019.820
     -3194.796       -2489.454          44.250          43.650    92175873.555 7
  23489026.260       -2385.900          46.400


 107105382.942 8  83458732.17748  20381481.320                    20381481.000
     -1611.662       -1255.843          51.250          51.200



 120009333.882 7  93513804.14347  22836998.940                    22837001.300
       420.474         327.641          47.700          47.700



 121344976.385 7  94554577.19747  23091163.880                    23091164.820
      2484.527        1935.998          46.100          42.700



 117121232.268 8  91263282.33647  22287435.880                    22287436.080
     -2490.823       -1940.903          50.400          46.050



 117768660.292 7  91767767.59147  22410641.460                    22410643.460
      -446.845        -348.191          47.500          45.100    87944126.566 8
  22410649.120        -333.717          51.100


 107046127.906 8  83412567.90848  20370202.220                    20370204.080
      1254.351         977.416          51.100          51.350    79937054.675 9
  20370206.720         936.597          57.000


 128286321.815 8                  24412083.860
      1590.858                          51.850                    95798220.401 8
  24412088.140        1187.969          52.300    98297294.152 8  24412085.560
      1218.988          53.350    97047764.929 9  24412087.120        1203.505
        55.800
 149750548.329 6                  28496586.400
      2900.892                          40.400                   111826724.686 6
  28496593.440        2166.250          40.600   114743933.593 6  28496589.460
      2222.812          40.600   113285320.294 7  28496592.480        2194.520
        43.600
 126508856.834 7                  24073830.400
      3090.648                          44.750                    94470958.186 7
  24073840.720        2307.839          47.200    96935395.164 7  24073835.360
      2368.127          46.900    95703171.331 8  24073838.760        2337.980
        50.050
 126590820.584 8                  24089438.000
     -1514.439                          48.450                    94532114.396 8
  24089442.780       -1130.934          48.450    96998164.615 8  24089439.320
     -1160.530          49.050    95765135.151 8  24089441.100       -1145.645
        51.750
 152117727.875 7                  28947048.540
     -2394.968                          43.850



 124436549.751 8                  23679491.780
      -485.488                          52.650                    92923411.859 8
  23679496.820        -362.580          53.800    95347494.649 9  23679494.120
      -372.015          54.250    94135443.408 9  23679495.960        -367.309
        57.000
 140878395.815 7                  26808284.120
     -2668.232                          47.750                   105201392.520 7
  26808291.340       -1992.462          43.150   107945768.678 7  26808289.300
     -2044.519          44.200   106573578.755 7  26808291.600       -2018.521
        46.700
 150234836.884 5                  28588738.900
       486.390                          34.500                   112188385.726 6
  28588748.420         363.191          37.700   115115023.559 6  28588745.280
       372.752          37.850   113651702.305 6  28588747.160         367.925
        40.850
 151503370.617 6                  28830133.360
     -1629.121                          40.800                   113135661.272 7
  28830141.160       -1216.487          43.900   116087012.722 7  28830138.300
     -1248.243          44.100   114611339.652 7  28830140.060       -1232.379
        47.050
 24  1 20 10  6 30.0000000  0 20G05G10G12G13G14G15G17G19G22G23G24E04
                                E09E18E19E20E21E27E34E36
 135169872.178 6 105327118.28446  25722005.800                    25722012.840
     -3695.185       -2879.377          38.100          37.700



 125786545.614 7  98015482.10247  23936395.140                    23936399.900
      1880.767        1465.531          42.750          42.600    93931492.848 8
  23936400.200        1404.732          48.100


 123897560.257 7  96543580.63647  23576912.920                    23576916.460
      3770.265        2937.869          42.850          42.500



 114355919.317 8  89108499.86547  21761213.000                    21761214.040
     -2904.239       -2263.047          49.200          43.000



 123531481.911 7  96258280.19447  23507273.960                    23507278.040
     -3201.695       -2494.833          44.300          42.350    92247521.868 7
  23507284.400       -2390.798          46.350


 107154002.527 8  83496617.51948  20390733.380                    20390732.980
     -1629.759       -1269.943          50.900          50.700



 119996985.957 7  93504182.38447  22834649.100                    22834651.720
       402.421         313.575          47.750          47.300



 121270626.252 7  94496642.06347  23077015.600                    23077016.400
      2472.082        1926.298          46.200          42.750



 117196113.515 8  91321631.28547  22301685.480                    22301685.740
     -2501.217       -1949.002          50.300          45.650



 117782371.021 7  91778451.25247  22413250.600                    22413252.320
      -467.215        -364.063          47.800          43.650    87954365.064 8
  22413258.300        -348.952          51.100


 107008695.253 8  83383399.61348  20363079.140                    20363080.900
      1241.091         967.084          51.600          51.550    79909101.724 9
  20363083.400         926.788          56.750


 128238725.070 8                  24403026.520
      1582.131                          51.900                    95762677.369 8
  24403030.780        1181.457          52.300    98260823.919 8  24403028.200
      1212.266          53.600    97011758.298 9  24403029.820        1196.850
        55.850
 149663522.427 6                  28480026.240
      2900.617                          41.200                   111761737.521 6
  28480033.200        2166.025          40.900   114677251.145 6  28480029.340
      2222.684          41.600   113219485.487 7  28480032.220        2194.351
        44.200
 126416417.636 7                  24056239.540
      3071.803                          45.600                    94401928.823 7
  24056250.100        2293.920          47.100    96864565.053 7  24056245.200
      2353.854          47.100    95633241.593 8  24056248.220        2323.872
        50.100
 126636408.629 8                  24098113.300
     -1524.939                          48.400                    94566157.347 8
  24098117.820       -1138.643          48.350    97033095.648 8  24098114.640
     -1168.353          49.300    95799622.149 8  24098116.260       -1153.492
        51.800
 152189687.017 7                  28960742.040
     -2402.219                          43.600



 124451290.738 8                  23682296.840
      -497.235                          52.350                    92934419.699 8
  23682302.100        -371.360          53.700    95358789.662 9  23682299.240
      -381.079          54.300    94146594.835 9  23682301.140        -376.199
        56.950
 140958499.631 7                  26823527.380
     -2672.085                          46.900                   105261210.166 7
  26823534.660       -1995.479          43.100   108007146.813 7  26823532.720
     -2047.394          44.500   106634176.637 7  26823534.980       -2021.377
        46.800
 150220462.268 6                  28586003.300
       472.097                          37.150                   112177651.427 6
  28586013.040         352.412          40.900   115104009.269 6  28586009.520
       361.692          40.300   113640828.005 7  28586011.760         357.011
        43.700
 151552410.140 6                  28839465.220
     -1640.191                          40.500                   113172281.661 6
  28839473.160       -1225.063          41.100   116124588.386 7  28839470.320
     -1256.975          42.050   114648437.687 7  28839471.740       -1241.076
        44.650
 24  1 20 10  7  0.0000000  0 20G05G10G12G13G14G15G17G19G22G23G24E04
                                E09E18E19E20E21E27E34E36
 135280664.853 6 105413449.90046  25743089.260                    25743096.680
     -3690.761       -2875.930          37.550          37.550



 125730366.860 7  97971706.42547  23925704.760                    23925709.680
      1864.459        1452.825          43.000          42.400    93889541.161 8
  23925710.020        1392.303          48.050


 123784546.791 7  96455518.24147  23555407.100                    23555410.540
      3764.352        2933.262          43.050          43.200



 114443204.234 8  89176513.99447  21777822.900                    21777824.060
     -2914.481       -2271.027          49.400          44.300



 123627630.654 7  96333201.13146  23525570.560                    23525574.540
     -3208.016       -2499.758          44.500          41.100    92319321.070 7
  23525581.020       -2395.610          45.800


 107203171.214 8  83534930.72648  20400089.860                    20400089.500
     -1647.864       -1284.052          50.750          50.700



 119985186.826 7  93494988.27047  22832403.660                    22832406.280
       384.410         299.541          47.650          47.600



 121196659.885 7  94439005.99047  23062940.340                    23062941.100
      2459.250        1916.300          46.600          42.550



 117271312.345 8  91380227.71347  22315995.440                    22315995.700
     -2511.749       -1957.210          50.400          45.800



 117796695.940 7  91789613.49847  22415976.580                    22415978.140
      -487.572        -379.927          47.750          44.000    87965062.205 8
  22415984.320        -364.021          50.950


 106971662.321 8  83354542.77548  20356032.140                    20356033.880
      1227.929         956.828          51.650          51.400    79881447.259 9
  20356036.180         917.007          56.650


 128191395.427 8                  24394020.060
      1573.489                          52.100                    95727333.809 8
  24394024.320        1175.005          52.350    98224558.352 8  24394021.700
      1205.650          53.650    96975953.735 9  24394023.320        1190.317
        55.950
 149576512.229 6                  28463468.940
      2900.276                          40.700                   111696762.148 6
  28463476.060        2165.819          40.100   114610580.778 6  28463472.420
      2222.372          39.250   113153662.619 7  28463474.940        2194.129
        42.900
 126324545.590 7                  24038756.900
      3053.128                          46.650                    94333323.012 7
  24038767.360        2279.953          46.900    96794169.551 7  24038763.120
      2339.417          47.600    95563740.935 8  24038765.740        2309.681
        50.250
 126682311.942 8                  24106848.580
     -1535.101                          48.600                    94600435.740 8
  24106852.880       -1146.354          48.200    97068268.268 8  24106849.980
     -1176.242          49.350    95834347.656 8  24106851.420       -1161.289
        51.750
 152261873.713 7                  28974478.900
     -2409.802                          43.900



 124466388.912 8                  23685169.860
      -509.023                          52.150                    92945694.271 8
  23685175.260        -380.066          53.650    95370358.359 9  23685172.320
      -389.970          54.250    94158016.469 9  23685174.280        -385.025
        56.900
 141038722.346 7                  26838793.180
     -2675.781                          47.150                   105321116.588 7
  26838800.680       -1998.215          42.800   108068616.032 7  26838798.900
     -2050.316          44.750   106694864.458 7  26838801.000       -2024.253
        46.700
 150206526.117 6                  28583351.160
       457.615                          39.100                   112167244.590 6
  28583361.320         341.635          39.850   115093330.947 6  28583357.500
       350.415          40.250   113630285.419 7  28583359.880         346.045
        43.150
 151601791.645 6                  28848862.280
     -1651.520                          41.150                   113209157.486 7
  28848869.780       -1233.229          42.600   116162426.228 7  28848867.420
     -1265.530          43.750   114685794.503 7  28848868.800       -1249.304
        46.100
 24  1 20 10  7 30.0000000  0 20G05G10G12G13G14G15G17G19G22G23G24E04
                                E09E18E19E20E21E27E34E36
 135391332.981 6 105499684.45346  25764149.000                    25764156.380
     -3686.799       -2872.844          36.400          36.050



 125674690.802 7  97928322.45747  23915109.980                    23915115.080
      1847.523        1439.628          43.400          43.250    93847964.861 7
  23915115.360        1379.486          47.850


 123671716.042 7  96367598.22647  23533935.900                    23533939.520
      3757.644        2928.034          42.350          42.850



 114530803.279 8  89244772.89247  21794492.640                    21794493.760
     -2925.300       -2279.458          49.250          44.000



 123723976.679 7  96408275.81246  23543904.760                    23543908.540
     -3214.835       -2505.071          43.800          41.800    92391267.624 7
  23543915.160       -2400.713          45.850


 107252885.098 8  83573668.76648  20409550.100                    20409549.840
     -1666.348       -1298.454          50.850          50.850



 119973934.733 7  93486220.39947  22830262.260                    22830264.700
       365.890         285.108          47.050          47.100



 121123078.204 7  94381669.67447  23048938.320                    23048939.040
      2446.233        1906.159          46.300          43.650



 117346824.285 8  91439068.11647  22330364.920                    22330365.160
     -2522.468       -1965.562          50.250          45.450



 117811631.684 7  91801251.71147  22418818.800                    22418820.140
      -508.056        -395.889          47.750          45.050    87976215.489 8
  22418826.420        -379.471          50.650


 106935027.254 8  83325995.95548  20349060.800                    20349062.480
      1214.384         946.272          51.750          51.800    79854089.899 9
  20349064.720         906.872          56.550


 128144331.687 8                  24385064.120
      1564.292                          51.950                    95692188.808 8
  24385068.360        1168.087          52.300    98188496.525 8  24385065.780
      1198.582          53.550    96940350.319 9  24385067.420        1183.337
        55.950
 149489516.302 6                  28446914.400
      2899.571                          41.700                   111631797.424 6
  28446921.460        2165.260          39.500   114543921.354 6  28446918.040
      2221.816          40.400   113087850.548 7  28446920.280        2193.472
        43.100
 126233242.197 7                  24021382.800
      3033.764                          47.800                    94265141.848 7
  24021392.840        2265.431          46.650    96724209.766 8  24021389.460
      2324.519          48.100    95494670.457 8  24021391.480        2294.985
        50.350
 126728527.850 8                  24115643.340
     -1545.781                          48.700                    94634947.552 8
  24115647.520       -1154.335          48.250    97103680.397 8  24115644.840
     -1184.497          49.200    95869309.627 8  24115646.080       -1169.429
        51.700
 152334284.704 7                  28988258.480
     -2417.514                          43.850



 124481840.910 8                  23688110.180
      -521.094                          52.150                    92957233.059 8
  23688115.700        -389.118          53.550    95382198.164 9  23688112.700
      -399.252          54.000    94169705.768 9  23688114.760        -394.190
        56.900
 141119060.025 7                  26854080.960
     -2679.914                          47.600                   105381108.893 7
  26854088.700       -2001.299          43.000   108130173.352 7  26854087.020
     -2053.493          44.500   106755639.277 7  26854088.760       -2027.479
        46.800
 150193026.506 6                  28580782.240
       442.661                          39.850                   112157163.680 6
  28580792.460         330.447          41.400   115082987.037 6  28580788.460
       339.064          40.900   113620073.011 7  28580790.820         334.759
        44.250
 151651511.186 6                  28858323.580
     -1663.148                          40.700                   113246285.705 6
  28858331.000       -1241.823          36.900   116200522.982 6  28858328.800
     -1274.204          38.950   114723406.994 6  28858330.100       -1257.947
        40.950
 24  1 20 10  8  0.0000000  0 20G05G10G12G13G14G15G17G19G22G23G24E04
                                E09E18E19E20E21E27E34E36
 135501879.294 6 105585824.13246  25785185.600                    25785193.180
     -3682.851       -2869.761          38.850          38.600



 125619524.141 7  97885335.42647  23904612.300                    23904617.340
      1830.227        1426.150          44.400          44.350    93806768.948 8
  23904617.480        1366.853          48.600


 123559075.358 7  96279826.29147  23512501.140                    23512504.740
      3751.582        2923.311          43.650          43.700



 114618719.633 8  89313279.04447  21811222.740                    21811223.980
     -2935.786       -2287.629          49.400          44.300



 123820522.530 7  96483506.18146  23562276.920                    23562280.640
     -3221.536       -2510.293          43.850          41.150    92463363.359 7
  23562287.540       -2405.658          46.450


 107303147.486 8  83612834.20848  20419114.720                    20419114.620
     -1684.468       -1312.574          51.000          51.100



 119963235.053 7  93477882.99647  22828226.160                    22828228.220
       347.406         270.707          47.400          47.150



 121049888.681 7  94324638.94547  23035010.780                    23035011.560
      2433.068        1895.900          45.600          43.750



 117422651.772 8  91498154.40047  22344794.340                    22344794.540
     -2532.711       -1973.543          49.650          45.150



 117827182.164 7  91813368.94047  22421777.940                    22421779.200
      -528.800        -412.053          47.300          44.100    87987827.821 8
  22421785.400        -394.778          50.750


 106898795.474 8  83297763.38948  20342166.200                    20342167.740
      1200.986         935.833          51.950          52.000    79827033.696 9
  20342170.020         896.826          56.800


 128097539.889 8                  24376159.800
      1555.173                          51.400                    95657246.883 8
  24376164.040        1161.327          52.700    98152643.076 8  24376161.560
      1191.627          53.500    96904952.630 9  24376163.260        1176.497
        56.050
 149402540.607 6                  28430363.780
      2898.804                          41.550                   111566847.845 6
  28430370.740        2164.700          41.150   114477277.470 6  28430367.740
      2221.274          41.050   113022053.818 7  28430369.640        2192.832
        44.050
 126142516.154 7                  24004118.660
      3014.561                          47.850                    94197391.802 7
  24004127.980        2251.115          46.700    96654692.340 8  24004125.480
      2309.875          48.300    95426036.719 8  24004127.040        2280.518
        50.350
 126775060.585 8                  24124498.400
     -1556.338                          48.800                    94669695.963 8
  24124502.520       -1162.253          48.650    97139335.298 8  24124499.800
     -1192.583          49.250    95904511.283 8  24124501.040       -1177.396
        51.800
 152406924.032 7                  29002081.540
     -2425.151                          43.950



 124497650.590 8                  23691118.620
      -532.924                          52.350                    92969038.957 8
  23691124.180        -398.021          53.900    95394312.050 8  23691121.160
      -408.382          53.950    94181665.656 9  23691123.320        -403.186
        56.900
 141199516.021 7                  26869391.140
     -2683.803                          46.250                   105441189.524 7
  26869399.320       -2004.177          43.750   108191821.324 7  26869397.540
     -2056.487          44.150   106816503.577 7  26869399.080       -2030.290
        47.000
 150179968.476 6                  28578297.380
       428.159                          39.200                   112147412.587 6
  28578307.700         319.504          41.550   115072981.568 6  28578303.580
       327.864          39.750   113610194.732 7  28578305.880         323.685
        43.800
 151701572.036 6                  28867849.800
     -1674.140                          38.550                   113283668.899 6
  28867857.260       -1250.517          37.650   116238881.388 6  28867854.860
     -1282.829          38.650   114761277.804 6  28867856.440       -1266.788
        41.000
 24  1 20 10  8 30.0000000  0 19G05G10G12G13G14G15G17G19G22G23G24E04
                                E09E19E20E21E27E34E36
 135612295.787 6 105671862.69046  25806197.580                    25806205.240
     -3678.215       -2866.150          39.750          39.750



 125564863.493 7  97842742.70547  23894211.000                    23894215.880
      1813.942        1413.462          46.050          46.050    93765950.930 8
  23894215.960        1354.522          48.550


 123446621.824 7  96192200.20447  23491101.860                    23491105.600
      3745.537        2918.604          42.450          42.650



 114706946.618 8  89382027.25047  21828011.880                    21828013.140
     -2945.753       -2295.396          49.450          44.450



 123917260.906 7  96558886.58946  23580685.780                    23580689.380
     -3227.551       -2514.979          43.950          40.200    92535602.886 7
  23580696.660       -2410.118          46.200


 107353952.334 8  83652422.34248  20428782.640                    20428782.580
     -1702.195       -1326.388          51.350          51.400



 119953083.672 7  93469972.85247  22826294.420                    22826296.080
       329.346         256.634          46.800          46.650



 120977089.075 7  94267912.05347  23021157.440                    23021158.520
      2420.474        1886.087          45.900          44.500



 117498787.412 8  91557480.79947  22359282.380                    22359282.460
     -2542.673       -1981.307          49.650          44.400



 117843341.451 7  91825960.57147  22424852.920                    22424854.200
      -548.386        -427.314          47.500          44.650    87999894.788 8
  22424860.040        -409.562          50.350


 106862962.641 8  83269841.70048  20335347.480                    20335348.980
      1188.101         925.793          52.200          52.150    79800275.401 9
  20335351.220         887.230          56.650


 128051016.275 8                  24367306.360
      1546.633                          51.350                    95622505.231 8
  24367310.680        1154.964          52.650    98116995.122 8  24367308.320
      1185.106          53.450    96869757.830 9  24367310.120        1170.034
        55.900
 149315581.139 7                  28413816.140
      2898.456                          42.700                   111501910.397 6
  28413822.940        2164.743          39.650   114410646.001 6  28413820.280
      2221.154          40.850   112956269.355 7  28413821.760        2192.882
        43.200
 126821904.683 8                  24133412.640
     -1566.236                          49.100                    94704676.883 8
  24133416.880       -1169.684          48.750    97175228.763 8  24133414.000
     -1200.123          49.100    95939948.475 8  24133415.240       -1184.899
        51.800
 152479785.979 7                  29015946.900
     -2432.195                          44.700



 124513812.089 8                  23694194.080
      -544.295                          52.750                    92981107.562 8
  23694199.580        -406.403          53.800    95406695.502 8  23694196.560
      -417.029          53.950    94193891.687 9  23694198.820        -411.714
        56.800
 141280083.926 7                  26884722.620
     -2687.130                          46.700                   105501353.705 7
  26884731.240       -2006.562          43.550   108253555.034 7  26884729.240
     -2058.967          44.250   106877452.519 7  26884730.880       -2032.699
        46.900
 150167347.457 6                  28575895.760
       413.738                          40.950                   112137987.747 6
  28575905.960         309.176          40.350   115063310.865 6  28575901.780
       317.072          39.750   113600646.958 7  28575904.220         313.135
        43.050
 151751967.629 5                  28877439.720
     -1685.310                          35.750                   113321301.992 6
  28877447.140       -1258.328          36.900   116277496.218 6  28877444.860
     -1291.176          38.150   114799401.763 6  28877446.260       -1274.773
        40.350
 24  1 20 10  9  0.0000000  0 19G05G10G12G13G14G15G17G19G22G23G24E04
                                E09E19E20E21E27E34E36
 135722582.371 6 105757799.98646  25827184.700                    25827192.340
     -3673.773       -2862.692          38.250          38.050



 125510712.972 7  97800547.49247  23883906.860                    23883911.520
      1796.508        1399.877          46.350          46.200    93725513.851 8
  23883911.720        1341.593          48.550


 123334359.721 7  96104723.27147  23469739.200                    23469742.860
      3739.074        2913.564          44.100          44.350



 114795485.379 8  89451018.38247  21844860.340                    21844861.620
     -2956.390       -2303.683          50.000          43.950



 124014191.788 7  96634417.00146  23599131.260                    23599134.620
     -3234.116       -2520.096          43.500          40.150    92607986.158 7
  23599142.420       -2415.149          46.400


 107405300.683 8  83692433.99548  20438554.000                    20438553.900
     -1720.517       -1340.664          51.050          51.000



 119943483.098 7  93462491.92447  22824467.300                    22824469.060
       310.898         242.260          47.250          47.500



 120904684.592 7  94211493.05147  23007379.280                    23007380.560
      2406.905        1875.514          46.200          44.300



 117575230.913 8  91617047.10047  22373829.000                    22373828.900
     -2553.017       -1989.365          49.500          44.100



 117860110.847 7  91839027.60747  22428043.980                    22428045.360
      -569.043        -443.410          47.900          44.200    88012417.347 8
  22428050.740        -424.976          49.850


 106827531.573 8  83242233.07448  20328605.100                    20328606.760
      1174.442         915.150          51.550          51.400    79773817.129 9
  20328608.840         877.011          56.450


 128004764.332 8                  24358504.680
      1537.261                          51.550                    95587966.466 8
  24358509.060        1147.903          52.600    98081555.344 8  24358506.780
      1177.852          53.500    96834768.557 9  24358508.680        1162.894
        56.000
 149228641.254 7                  28397272.260
      2897.652                          42.500                   111436987.564 6
  28397278.840        2163.980          38.650   114344029.544 6  28397276.480
      2220.413          40.350   112890499.714 7  28397277.720        2192.098
        42.400
 126869062.042 8                  24142386.480
     -1577.116                          49.100                    94739891.712 8
  24142390.880       -1177.688          48.700    97211362.255 8  24142387.580
     -1208.398          49.250    95975622.636 8  24142389.060       -1193.062
        51.850
 152552871.838 7                  29029854.820
     -2439.801                          44.500



 124530326.684 8                  23697336.840
      -556.315                          53.050                    92993439.855 8
  23697342.180        -415.423          53.650    95419349.510 9  23697339.180
      -426.275          54.050    94206384.838 9  23697341.520        -420.863
        56.800
 141360764.485 7                  26900075.680
     -2691.179                          47.150                   105561602.034 7
  26900084.320       -2009.623          43.100   108315375.064 7  26900082.580
     -2062.138          44.850   106938486.705 7  26900084.040       -2035.896
        46.950
 150155166.104 6                  28573577.680
       398.654                          38.950                   112128891.202 6
  28573587.900         297.730          40.100   115053977.066 6  28573583.960
       305.494          40.900   113591431.787 7  28573586.260         301.655
        43.550
 151802700.467 5                  28887093.460
     -1696.983                          33.300
                                                 116316375.716 5  28887098.540
     -1300.021          34.350   114837779.145 5  28887099.820       -1283.336
        34.550
 24  1 20 10  9 30.0000000  0 20G02G05G10G12G13G14G15G17G19G22G23G24
                                E04E09E18E19E20E21E27E34
 137866253.561 6 107428260.86645  26235075.680                    26235079.260
       511.448         398.547          38.500          35.700



 135832741.685 6 105843638.12946  25848147.620                    25848155.340
     -3669.426       -2859.303          37.500          37.700



 125457078.441 7  97758754.36547  23873700.800                    23873705.460
      1779.452        1386.586          46.050          45.950    93685462.106 8
  23873705.840        1328.910          48.700


 123222295.065 7  96017400.20747  23448414.000                    23448417.720
      3732.410        2908.374          43.850          44.250



 114884338.205 8  89520254.24947  21861768.560                    21861769.860
     -2966.613       -2311.650          49.750          44.100



 124111316.951 7  96710098.78546  23617613.520                    23617616.960
     -3240.453       -2525.032          43.850          38.800    92680514.492 7
  23617625.140       -2419.798          46.550


 107457194.891 8  83732870.99248  20448429.160                    20448429.060
     -1738.478       -1354.659          50.950          51.250



 119934438.016 7  93455443.84347  22822746.020                    22822748.080
       292.592         227.995          46.950          46.850



 120832681.791 7  94155387.05047  22993677.520                    22993678.960
      2393.762        1865.271          46.200          44.300



 117651984.114 8  91676854.72147  22388434.600                    22388434.420
     -2563.276       -1997.360          49.050          43.900



 117877493.466 7  91852572.46247  22431351.820                    22431353.240
      -589.434        -459.301          47.700          44.600    88025397.816 8
  22431358.160        -440.062          49.700


 106792506.982 8  83214941.19248  20321939.940                    20321941.920
      1160.950         904.636          51.600          51.650    79747662.408 9
  20321943.800         866.997          56.600


 127958789.367 8                  24349755.880
      1528.206                          51.700                    95553634.522 8
  24349760.220        1141.134          52.650    98046327.783 8  24349757.960
      1170.921          53.450    96799988.807 9  24349759.940        1155.999
        55.850
 149141726.058 7                  28380733.000
      2897.096                          42.750                   111372083.192 6
  28380739.300        2163.479          39.900   114277432.059 6  28380737.380
      2219.889          41.800   112824748.781 7  28380738.580        2191.613
        43.700
 125873806.116 8                  23952989.120
      2956.303                          48.000                    93996705.412 7
  23952997.080        2207.650          47.200    96448780.674 7  23952994.040
      2265.277          47.150    95222744.198 8  23952996.520        2236.449
        50.000
 126916536.721 8                  24151420.580
     -1587.416                          48.800                    94775343.515 8
  24151425.300       -1185.441          48.850    97247738.897 8  24151421.620
     -1216.401          49.050    96011536.856 8  24151423.220       -1200.915
        51.700
 152626184.846 7                  29043805.880
     -2447.179                          44.650



 124547197.555 8                  23700547.400
      -567.934                          53.050                    93006038.195 8
  23700552.580        -424.127          53.700    95432276.507 9  23700549.600
      -435.216          54.150    94219147.506 9  23700552.000        -429.649
        56.750
 141441560.332 7                  26915450.780
     -2694.805                          47.050                   105621936.460 7
  26915459.240       -2012.261          43.300   108377283.434 7  26915457.840
     -2064.751          44.150   106999608.097 7  26915458.940       -2038.516
        46.650
 150143428.822 6                  28571343.900
       384.104                          38.900                   112120126.305 6
  28571354.240         286.830          40.700   115044983.516 6  28571350.480
       294.174          40.500   113582552.554 7  28571352.860         290.591
        43.400
 24  1 20 10 10  0.0000000  0 20G02G05G10G12G13G14G15G17G19G22G23G24
                                E04E09E18E19E20E21E27E34
 137851158.952 6 107416498.86946  26232203.660                    26232205.080
       495.548         386.140          37.350          36.300



 135942768.246 6 105929372.80946  25869085.280                    25869092.920
     -3665.372       -2856.147          37.700          37.750



 125403959.449 7  97717362.96147  23863592.740                    23863597.440
      1761.979        1372.972          46.250          46.550    93645795.354 8
  23863598.180        1315.810          48.700


 123110427.688 7  95930230.88047  23427126.380                    23427130.120
      3725.627        2903.088          44.700          44.800



 114973501.724 8  89589732.22047  21878735.920                    21878737.320
     -2977.107       -2319.828          49.350          44.250



 124208631.929 7  96785928.48446  23636132.060                    23636135.420
     -3246.728       -2529.924          43.250          39.350    92753184.591 7
  23636143.620       -2424.660          45.900


 107509631.711 8  83773730.80048  20458407.600                    20458407.420
     -1756.835       -1368.964          50.950          50.900



 119925946.829 7  93448827.37547  22821130.200                    22821132.660
       273.814         213.363          47.550          47.600



 120761081.441 7  94099594.66247  22980052.300                    22980053.880
      2380.116        1854.639          46.400          43.950



 117729042.672 8  91736900.29147  22403098.260                    22403098.080
     -2573.612       -2005.414          48.850          44.050



 117895486.056 7  91866592.61147  22434775.720                    22434777.260
      -609.745        -475.127          47.950          44.700    88038833.790 8
  22434781.820        -455.396          49.600


 106757887.234 8  83187964.75248  20315351.980                    20315353.980
      1147.329         894.022          51.400          51.300    79721809.993 9
  20315355.920         856.735          56.550


 127913090.402 8                  24341059.720
      1518.707                          52.000                    95519508.671 8
  24341063.960        1134.087          52.650    98011311.693 8  24341061.720
      1163.688          53.500    96765417.834 9  24341063.720        1148.894
        55.900
 149054834.490 7                  28364198.160
      2896.063                          43.150                   111307196.469 6
  28364204.340        2162.681          40.100   114210852.663 6  28364202.600
      2219.099          39.800   112759015.715 7  28364204.000        2190.862
        42.900
 125785421.220 8                  23936170.300
      2936.315                          48.400                    93930703.638 7
  23936178.000        2192.703          46.950    96381057.126 7  23936174.740
      2249.851          46.950    95155881.537 8  23936177.540        2221.247
        49.900
 126964325.972 8                  24160514.420
     -1598.132                          48.550                    94811030.227 8
  24160519.520       -1193.477          48.800    97284356.572 8  24160515.400
     -1224.642          49.050    96047689.048 8  24160517.280       -1209.001
        51.700
 152699722.088 7                  29057799.620
     -2454.831                          44.550



 124564421.549 8                  23703825.160
      -579.951                          53.050                    93018900.231 8
  23703830.260        -433.058          53.650    95445474.076 9  23703827.280
      -444.408          54.300    94232177.310 9  23703829.640        -438.743
        56.850
 141522467.810 7                  26930847.060
     -2698.722                          46.350                   105682354.242 7
  26930855.560       -2015.345          43.700   108439277.358 7  26930853.900
     -2067.884          44.000   107060813.949 7  26930855.200       -2041.583
        46.750
 150132133.738 6                  28569194.580
       369.096                          38.750                   112111691.645 6
  28569204.840         275.559          41.700   115036328.821 6  28569201.220
       282.835          40.850   113574007.887 7  28569203.580         279.254
        44.250
 24  1 20 10 10 30.0000000  0 19G02G05G10G12G13G14G15G17G19G22G23G24
                                E04E09E19E20E21E27E34
 137836524.290 6 107405095.16246  26229419.020                    26229419.760
       480.264         374.226          39.350          37.400



 136052655.426 6 106014998.90246  25889996.120                    25890003.660
     -3660.558       -2852.393          37.050          37.150



 125351353.425 7  97676371.24847  23853582.200                    23853586.960
      1745.183        1359.882          45.700          45.800    93606511.647 8
  23853587.900        1303.129          48.550


 122998755.454 7  95843213.62647  23405875.820                    23405879.680
      3719.438        2898.269          44.100          44.200



 115062969.982 8  89659447.66647  21895761.240                    21895762.740
     -2987.098       -2327.610          49.350          44.100



 124306130.184 7  96861900.98446  23654685.340                    23654688.900
     -3252.712       -2534.587          43.500          39.800    92825991.527 7
  23654696.740       -2429.036          45.700


 107562605.172 8  83815008.77948  20468488.140                    20468487.940
     -1774.473       -1382.708          51.150          51.300



 119918005.959 7  93442639.72847  22819619.080                    22819621.740
       255.765         199.299          47.400          47.500



 120689881.987 7  94044114.66247  22966503.500                    22966505.100
      2366.985        1844.407          46.750          43.700



 117806399.647 8  91797178.39047  22417818.800                    22417818.700
     -2583.336       -2012.991          48.850          44.350



 117914083.333 7  91881083.92747  22438314.760                    22438316.360
      -629.822        -490.772          47.750          46.000    88052721.282 8
  22438320.680        -470.294          49.350


 106723668.643 8  83161300.92548  20308840.340                    20308842.380
      1134.261         883.840          51.350          51.350    79696257.152 9
  20308844.420         846.915          56.350


 127867664.406 8                  24332415.520
      1509.805                          52.000                    95485586.661 8
  24332419.680        1127.434          52.450    97976504.763 8  24332417.480
      1156.851          53.250    96731053.363 9  24332419.440        1142.143
        56.100
 148967963.341 7                  28347667.300
      2895.627                          42.950                   111242325.013 6
  28347673.400        2162.101          38.800   114144288.896 7  28347671.520
      2218.631          42.050   112693298.098 7  28347672.860        2190.404
        43.550
 127012424.699 8                  24169667.100
     -1608.206                          48.250                    94846948.033 8
  24169672.580       -1200.963          48.550    97321211.364 8  24169668.200
     -1232.254          48.950    96084075.352 8  24169670.200       -1216.603
        51.850
 152773478.411 7                  29071835.020
     -2462.142                          44.650



 124581993.439 8                  23707169.120
      -591.365                          53.000                    93032022.065 8
  23707174.220        -441.593          53.550    95458938.222 9  23707171.180
      -453.120          54.350    94245470.297 9  23707173.460        -447.338
        57.150
 141603481.186 7                  26946263.500
     -2701.997                          45.900                   105742851.098 7
  26946272.100       -2017.765          43.850   108501352.416 7  26946269.980
     -2070.416          44.100   107122099.908 7  26946271.740       -2044.106
        47.250
 150121276.968 6                  28567128.720
       354.654                          38.800                   112103584.256 6
  28567138.800         264.947          41.950   115028009.927 6  28567135.320
       271.956          40.650   113565794.749 7  28567137.700         268.414
        44.650
 24  1 20 10 11  0.0000000  0 19G02G05G10G12G13G14G15G17G19G22G23G24
                                E04E09E19E20E21E27E34
 137822352.800 6 107394052.41446  26226722.440                    26226723.320
       464.864         362.231          38.750          37.150



 136162403.954 6 106100516.95746  25910880.680                    25910888.120
     -3655.415       -2848.386          36.300          36.600



 125299264.899 7  97635782.78847  23843670.120                    23843674.760
      1727.916        1346.427          46.000          45.750    93567614.366 8
  23843675.900        1290.268          48.450


 122887283.230 7  95756352.23147  23384663.480                    23384667.240
      3712.322        2892.722          44.800          44.800



 115152744.373 8  89729401.64047  21912844.840                    21912846.180
     -2997.406       -2335.644          49.350          43.750



 124403812.078 7  96938016.60346  23673273.840                    23673277.460
     -3259.134       -2539.588          44.100          38.200    92898935.601 7
  23673284.760       -2433.663          46.350


 107616116.804 8  83856706.10748  20478671.160                    20478670.940
     -1792.545       -1396.790          51.900          52.000



 119910618.380 7  93436883.21647  22818213.300                    22818215.800
       237.229         184.855          47.350          47.100



 120619088.882 7  93988951.29847  22953032.080                    22953033.560
      2353.228        1833.688          47.150          43.950



 117884055.805 8  91857689.62147  22432596.320                    22432596.320
     -2593.299       -2020.755          49.150          43.250



 117933286.874 7  91896047.66047  22441969.060                    22441970.840
      -650.129        -506.597          47.550          45.100    88067061.513 8
  22441975.080        -485.439          49.900


 106689854.510 8  83134952.25248  20302405.680                    20302407.820
      1120.572         873.173          51.300          51.350    79671006.339 9
  20302409.840         836.746          56.550


 127822515.301 8                  24323824.020
      1500.502                          52.000                    95451871.413 8
  24323828.120        1120.519          52.850    97941909.984 8  24323825.860
      1149.762          53.050    96696898.351 9  24323827.860        1135.149
        56.150
 148881116.423 7                  28331140.900
      2894.626                          43.200                   111177471.605 6
  28331147.020        2161.801          38.450   114077743.720 6  28331145.300
      2217.893          41.650   112627598.817 7  28331146.660        2189.817
        43.300
 127060835.536 7                  24178879.200
     -1618.749                          47.750                    94883098.914 8
  24178884.920       -1208.787          48.750    97358305.320 8  24178880.420
     -1240.265          48.900    96120697.768 8  24178882.520       -1224.526
        51.900
 152847455.603 7                  29085912.420
     -2469.306                          43.950



 124599914.952 8                  23710579.620
      -603.073                          53.000                    93045404.978 9
  23710584.780        -450.317          54.050    95472670.260 9  23710581.580
      -462.079          54.150    94259027.773 9  23710583.820        -456.185
        57.300
 141684601.740 7                  26961700.240
     -2705.648                          45.200                   105803427.974 7
  26961709.060       -2020.490          44.050   108563509.564 7  26961706.600
     -2073.178          44.000   107183466.926 7  26961708.640       -2046.867
        47.250
 150110861.362 6                  28565147.020
       340.178                          40.050                   112095806.304 7
  28565156.900         253.879          42.000   115020029.098 6  28565153.160
       260.478          41.000   113557915.353 7  28565155.620         257.178
        44.900
 24  1 20 10 11 30.0000000  0 20G02G05G10G12G13G14G15G17G19G22G23G24
                                E04E09E19E20E21E27E31E34
 137808647.194 6 107383372.69546  26224114.140                    26224115.480
       448.878         349.782          37.900          36.250



 136272014.107 6 106185927.19146  25931738.980                    25931746.140
     -3650.660       -2844.679          37.950          38.600



 125247697.661 7  97595600.52547  23833857.200                    23833861.660
      1710.409        1332.787          46.100          46.400    93529106.366 7
  23833862.560        1277.243          47.850


 122776014.801 7  95669649.66347  23363489.720                    23363493.580
      3705.733        2887.587          45.200          45.300



 115242824.801 8  89799594.09547  21929986.600                    21929988.020
     -3007.687       -2343.655          49.050          43.600



 124501677.397 7  97014275.12746  23691897.220                    23691900.720
     -3265.090       -2544.234          43.500          39.650    92972016.654 7
  23691907.740       -2438.138          45.950


 107670167.177 8  83898823.22248  20488956.700                    20488956.420
     -1810.577       -1410.841          51.750          51.650



 119903786.920 7  93431560.03247  22816913.240                    22816915.620
       218.476         170.241          47.550          47.450



 120548707.104 7  93934108.43447  22939638.980                    22939640.380
      2339.433        1822.938          47.600          44.350



 117962010.798 8  91918433.69847  22447430.660                    22447430.840
     -2603.316       -2028.561          48.900          43.800



 117953097.633 7  91911484.53147  22445738.980                    22445740.800
      -670.288        -522.306          47.600          46.000    88081855.176 8
  22445745.140        -500.525          50.000


 106656447.390 8  83108920.73648  20296048.540                    20296050.740
      1106.852         862.482          51.400          51.250    79646059.462 9
  20296052.440         826.578          56.050


 127777646.300 8                  24315285.800
      1491.261                          52.050                    95418365.348 8
  24315289.920        1113.553          52.900    97907529.841 8  24315287.520
      1142.671          53.150    96662955.249 9  24315289.540        1128.108
        55.850
 148794296.797 7                  28314619.780
      2893.738                          43.350                   111112638.610 6
  28314625.860        2161.067          39.700   114011219.458 6  28314624.120
      2217.180          41.850   112561920.195 7  28314625.800        2189.033
        43.550
 127109559.776 7                  24188150.980
     -1629.200                          47.850                    94919483.829 8
  24188156.820       -1216.586          48.600    97395639.423 8  24188152.400
     -1248.378          49.000    96157557.275 8  24188154.500       -1232.428
        51.450
 152921654.885 7                  29100032.140
     -2476.775                          44.350



 124618187.115 8                  23714056.800
      -614.753                          53.000                    93059049.750 9
  23714062.100        -459.052          54.050    95486670.984 9  23714058.680
      -471.027          54.400    94272850.520 9  23714060.920        -465.031
        56.950
 141765829.997 7                  26977157.380
     -2709.243                          45.850                   105864085.298 7
  26977166.640       -2023.117          44.700   108625749.259 7  26977163.740
     -2075.824          44.150   107244915.429 7  26977165.900       -2049.417
        47.150
 151314295.799 5                  28794153.060
      3039.112                          35.500                   112994494.457 5
  28794165.880        2268.976          33.850
                                 114468326.48615  28794165.040        2298.925
        35.650
 150100889.386 6                  28563249.780
       325.288                          40.750                   112088359.665 6
  28563259.500         242.871          41.750   115012388.195 6  28563255.580
       249.023          41.300   113550371.586 7  28563258.020         245.988
        44.300
 24  1 20 10 12  0.0000000  0 20G02G05G10G12G13G14G15G17G19G22G23G24
                                E04E09E19E20E21E27E31E34
 137795396.683 6 107373047.61545  26221592.520                    26221593.560
       434.047         338.220          39.000          35.850



 136381471.679 6 106271218.53446  25952568.440                    25952575.600
     -3645.552       -2840.697          39.250          38.900



 125196641.860 7  97555816.77947  23824141.500                    23824145.760
      1693.258        1319.422          46.500          46.600    93490980.257 7
  23824146.140        1264.482          47.350


 122664941.032 7  95583098.76447  23342353.200                    23342356.860
      3699.171        2882.473          46.700          46.750



 115333198.420 8  89870015.01847  21947184.140                    21947185.500
     -3017.423       -2351.241          49.600          42.800



 124599712.541 7  97090665.99646  23710552.900                    23710556.560
     -3270.797       -2548.678          44.500          39.250    93045224.515 7
  23710563.020       -2442.326          45.800


 107724743.343 8  83941350.05148  20499342.300                    20499341.980
     -1828.091       -1424.488          51.600          51.450



 119897500.482 8  93426661.54948  22815716.900                    22815718.840
       200.533         156.261          48.200          48.550



 120478727.991 7  93879579.36147  22926322.520                    22926323.860
      2325.902        1812.395          47.800          44.150



 118040250.651 8  91979399.75247  22462319.240                    22462319.540
     -2612.855       -2035.993          48.550          43.050



 117973503.122 7  91927384.83747  22449622.040                    22449623.860
      -690.131        -537.767          47.600          44.650    88097092.957 8
  22449628.420        -515.319          50.250


 106623436.555 8  83083198.01648  20289766.800                    20289768.940
      1093.655         852.199          51.700          51.350    79621408.512 9
  20289770.060         816.781          55.650


 127733047.282 8                  24306798.920
      1482.144                          52.050                    95385060.885 8
  24306803.140        1106.821          52.950    97873356.565 8  24306800.540
      1135.696          53.100    96629216.375 9  24306802.560        1121.285
        55.750
 148707494.234 7                  28298101.920
      2893.210                          43.200                   111047818.373 6
  28298108.160        2160.527          38.800   113944708.263 6  28298106.080
      2216.845          41.600   112496254.477 7  28298107.960        2188.574
        42.850
 127158585.783 8                  24197480.220
     -1639.248                          48.050                    94956094.099 8
  24197486.000       -1224.059          48.400    97433204.745 8  24197481.900
     -1256.007          48.950    96194645.076 8  24197483.920       -1240.052
        51.350
 152996064.001 7                  29114191.760
     -2483.947                          44.850



 124636797.641 8                  23717598.300
      -626.030                          53.100                    93072947.184 9
  23717603.760        -467.462          54.100    95500930.964 9  23717600.120
      -479.626          54.350    94286929.227 9  23717602.420        -473.546
        56.900
 141847153.174 7                  26992632.740
     -2712.310                          45.450                   105924813.499 7
  26992642.440       -2025.450          45.400   108688061.714 7  26992638.880
     -2078.358          43.850   107306435.759 7  26992641.320       -2051.879
        47.500
 151223135.553 6                  28776806.080
      3038.413                          39.350                   112926419.441 7
  28776821.400        2268.973          42.200   115872311.446 7  28776817.300
      2328.002          42.250   114399363.604 7  28776819.720        2298.451
        44.900
 150091349.962 6                  28561434.820
       310.767                          40.250                   112081236.059 6
  28561444.400         232.004          41.800   115005078.756 6  28561440.220
       238.103          40.000   113543155.058 7  28561442.840         235.116
        43.850
 24  1 20 10 12 30.0000000  0 19G02G10G12G13G14G15G17G19G22G23G24E04
                                E09E19E20E21E27E31E34
 137782618.526 6 107363090.54146  26219160.960                    26219161.940
       417.265         325.139          39.900          36.900



 125146115.524 7  97516445.60047  23814526.520                    23814530.620
      1674.693        1304.955          46.300          46.150    93453249.554 7
  23814530.240        1250.450          47.200


 122554080.601 7  95496714.13847  23321257.080                    23321260.680
      3690.832        2875.977          46.100          46.150



 115423880.487 8  89940676.26847  21964440.440                    21964441.720
     -3028.564       -2359.924          49.100          43.150



 124697931.663 7  97167200.21646  23729243.680                    23729247.300
     -3277.807       -2554.142          43.250          40.300    93118569.777 7
  23729253.520       -2447.635          46.200


 107779860.472 8  83984298.40848  20509830.780                    20509830.420
     -1846.898       -1439.144          51.100          50.900



 119891775.712 7  93422200.75947  22814627.480                    22814628.920
       180.593         140.725          47.850          47.700



 120409170.660 7  93825378.94847  22913086.180                    22913087.620
      2310.764        1800.599          46.850          44.750



 118118789.600 7  92040598.86747  22477264.660                    22477265.040
     -2623.733       -2044.470          47.650          43.650



 117994518.650 7  91943760.50347  22453621.220                    22453622.940
      -711.415        -554.352          46.950          44.700    88112786.301 8
  22453627.860        -531.278          50.700


 106590839.005 8  83057797.32448  20283563.820                    20283565.760
      1078.902         840.702          52.000          52.000    79597066.172 9
  20283566.500         805.670          55.950


 127688735.914 8                  24298366.780
      1471.444                          51.650                    95351971.230 8
  24298371.160        1098.855          53.200    97839403.690 8  24298368.320
      1127.539          53.200    96595695.113 9  24298370.300        1113.186
        55.800
 148620726.344 7                  28281590.660
      2890.889                          42.900                   110983024.012 6
  28281596.920        2158.743          39.000   113878223.649 6  28281594.740
      2215.097          41.800   112430614.976 7  28281596.720        2186.976
        43.000
 127207929.720 7                  24206869.980
     -1650.906                          47.700                    94992941.769 8
  24206875.700       -1232.760          48.300    97471013.671 8  24206871.880
     -1264.923          49.000    96231973.376 8  24206873.840       -1248.890
        51.150
 153070698.477 7                  29128394.240
     -2492.131                          43.800



 124655761.977 8                  23721207.000
      -638.782                          52.300                    93087108.833 9
  23721212.680        -477.036          54.250    95515462.057 9  23721208.920
      -489.491          54.450    94301275.597 9  23721211.260        -483.238
        56.900
 141928586.347 7                  27008129.000
     -2717.045                          44.400                   105985623.814 7
  27008139.320       -2028.888          45.850   108750458.426 7  27008134.980
     -2081.879          44.150   107368039.268 7  27008137.800       -2055.354
        47.800
 151132013.622 6                  28759466.600
      3035.845                          40.200                   112858373.825 6
  28759480.320        2267.002          39.100   115802490.699 6  28759477.960
      2326.226          40.000   114330430.413 7  28759479.400        2296.663
        42.050
 150082259.741 6                  28559705.060
       294.587                          38.600                   112074447.874 6
  28559714.800         220.140          41.500   114998113.496 6  28559710.380
       225.904          41.250   113536278.335 7  28559712.860         223.067
        44.050
 24  1 20 10 13  0.0000000  0 19G02G10G12G13G14G15G17G19G22G23G24E04
                                E09E19E20E21E27E31E34
 137770304.748 6 107353495.45346  26216817.800                    26216818.780
       403.285         314.249          40.150          37.350



 125096112.059 7  97477481.85747  23805010.980                    23805014.900
      1658.504        1292.340          45.800          45.750    93415909.292 7
  23805013.760        1238.413          46.850


 122443426.749 7  95410490.47447  23300200.500                    23300203.900
      3685.397        2871.743          47.150          47.200



 115514860.803 8  90011569.92547  21981753.460                    21981754.680
     -3037.216       -2366.666          49.200          43.250



 124796324.083 7  97243869.46046  23747967.180                    23747970.980
     -3282.143       -2557.519          43.350          40.400    93192044.426 7
  23747977.200       -2450.782          46.150


 107835508.429 8  84027660.40748  20520420.220                    20520419.800
     -1863.292       -1451.917          51.050          50.900



 119886604.731 8  93418171.47247  22813643.620                    22813644.560
       163.774         127.618          48.050          47.950



 120340029.501 7  93771502.80647  22899928.860                    22899930.400
      2298.258        1790.854          46.300          44.950



 118197616.953 7  92102022.69447  22492264.940                    22492265.400
     -2631.805       -2050.760          47.350          43.050



 118016134.558 7  91960604.00047  22457734.660                    22457736.220
      -729.977        -568.814          46.900          45.250    88128927.977 8
  22457741.600        -545.174          50.850


 106558646.782 8  83032712.47648  20277438.020                    20277439.660
      1066.771         831.250          52.150          52.100    79573026.528 9
  20277440.560         796.589          56.050


 127644704.915 8                  24289988.060
      1463.427                          52.100                    95319090.949 8
  24289992.460        1092.812          52.950    97805665.654 8  24289989.460
      1121.321          53.350    96562385.952 9  24289991.400        1107.070
        55.950
 148533985.651 7                  28265084.440
      2891.544                          42.550                   110918249.993 6
  28265090.860        2159.147          39.200   113811759.898 7  28265088.660
      2215.521          42.900   112364996.100 7  28265090.700        2187.284
        43.850
 127257582.435 7                  24216318.520
     -1659.837                          47.600                    95030020.023 8
  24216324.080       -1239.365          48.050    97509059.202 8  24216320.680
     -1271.763          49.050    96269535.263 8  24216322.520       -1255.520
        51.400
 153145549.032 7                  29142637.900
     -2498.242                          43.700



 124675070.669 8                  23724881.140
      -648.920                          52.100                    93101527.630 9
  23724887.040        -484.582          54.050    95530256.997 9  23724883.340
      -497.206          54.650    94315882.470 9  23724885.620        -490.899
        57.150
 142010119.567 7                  27023644.100
     -2718.996                          43.750                   106046508.827 7
  27023655.180       -2030.365          45.850   108812931.769 7  27023650.340
     -2083.403          44.450   107429718.451 8  27023653.340       -2056.851
        48.100
 151040923.176 6                  28742133.100
      3036.276                          39.400                   112790351.707 6
  28742146.240        2267.395          38.350   115732701.062 6  28742142.640
      2326.265          36.600   114261521.039 6  28742145.440        2297.041
        40.600
 150073610.412 6                  28558059.180
       281.593                          39.250                   112067989.044 6
  28558068.700         210.067          41.700   114991486.168 7  28558064.580
       215.575          42.650   113529735.252 7  28558067.100         212.975
        44.900
 24  1 20 10 13 30.0000000  0 19G02G10G12G13G14G15G17G19G22G23G24E04
                                E09E19E20E21E27E31E34
 137758456.900 6 107344263.33146  26214563.120                    26214564.000
       386.896         301.479          37.600          38.300



 125046633.877 7  97438927.43447  23795595.440                    23795599.300
      1640.462        1278.282          45.700          45.700    93378961.285 7
  23795597.540        1225.013          47.100


 122332982.425 7  95324430.07847  23279183.680                    23279186.760
      3677.896        2865.896          47.100          46.950



 115606138.733 8  90082695.50647  21999123.180                    21999124.100
     -3047.453       -2374.642          48.900          42.700



 124894888.393 7  97320672.64646  23766723.540                    23766727.400
     -3288.192       -2562.234          43.000          40.600    93265647.460 7
  23766733.740       -2455.608          46.450


 107891686.828 8  84071435.72648  20531110.600                    20531110.160
     -1881.446       -1466.064          51.100          51.150



 119881988.899 8  93414574.76448  22812765.400                    22812765.840
       144.609         112.685          48.200          48.200



 120271308.068 7  93717953.72147  22886851.400                    22886853.000
      2283.866        1779.639          45.900          44.200



 118276731.078 7  92163669.98347  22507319.820                    22507320.320
     -2641.948       -2058.664          47.300          43.100



 118038350.559 7  91977915.09447  22461962.320                    22461963.780
      -750.553        -584.849          46.850          45.250    88145517.768 8
  22461969.540        -560.495          51.350


 106526861.408 8  83007944.64648  20271389.620                    20271390.940
      1052.688         820.275          52.150          52.100    79549290.691 9
  20271392.240         786.076          56.300


 127600956.421 8                  24281663.200
      1453.448                          52.200                    95286421.623 8
  24281667.380        1085.334          52.850    97772144.079 8  24281664.360
      1113.672          53.250    96529290.503 9  24281666.260        1099.515
        55.950
 148447274.284 7                  28248583.900
      2889.939                          43.100                   110853497.876 6
  28248590.800        2157.794          40.400   113745318.580 7  28248588.140
      2214.423          42.550   112299399.385 7  28248590.380        2186.010
        44.250
 127307544.545 7                  24225825.980
     -1670.476                          47.450                    95067329.334 8
  24225831.520       -1247.535          48.100    97547341.803 8  24225828.240
     -1280.052          48.850    96307331.224 8  24225830.100       -1263.774
        51.400
 153220615.679 7                  29156922.440
     -2505.876                          43.300



 124694723.632 8                  23728620.760
      -660.903                          51.750                    93116203.505 9
  23728626.860        -493.496          54.300    95545315.729 9  23728623.340
      -506.391          54.650    94330749.769 9  23728625.460        -499.941
        57.300
 142091752.284 7                  27039178.200
     -2722.927                          44.150                   106107468.149 7
  27039189.940       -2033.343          46.250   108875481.342 7  27039184.780
     -2086.239          44.350   107491472.902 8  27039187.720       -2059.843
        48.450
 150949866.184 6                  28724805.740
      3034.844                          39.900                   112722354.605 6
  28724818.600        2266.041          37.750   115662930.100 5  28724814.660
      2325.087          35.750   114192637.017 6  28724817.880        2295.672
        39.750
 150065403.240 6                  28556497.460
       266.309                          39.950                   112061860.358 6
  28556506.620         198.690          41.950   114985197.586 6  28556502.960
       203.889          41.900   113523526.621 7  28556505.280         201.354
        44.900
 24  1 20 10 14  0.0000000  0 19G02G10G12G13G14G15G17G19G22G23G24E04
                                E09E19E20E21E27E31E34
 137747078.518 6 107335397.16045  26212397.820                    26212398.780
       371.222         289.263          40.900          34.700



 124997685.352 7  97400785.73347  23786280.560                    23786284.500
      1622.411        1264.217          44.950          45.650    93342408.814 7
  23786282.720        1211.621          47.500


 122222752.436 7  95238536.68547  23258207.680                    23258210.520
      3670.430        2860.078          47.600          47.600



 115697715.837 8  90154054.19746  22016549.820                    22016550.720
     -3057.707       -2382.632          49.400          41.900



 124993625.375 7  97397610.37846  23785512.640                    23785516.840
     -3294.284       -2566.982          42.300          41.700    93339379.414 7
  23785523.320       -2460.063          46.950


 107948396.730 8  84115625.20848  20541902.160                    20541901.780
     -1899.503       -1480.134          51.200          51.100



 119877931.436 8  93411413.14748  22811993.380                    22811993.520
       125.766          98.002          48.400          48.400



 120203011.669 7  93664735.84347  22873854.680                    22873856.480
      2269.184        1768.198          45.650          44.900



 118356132.707 7  92225541.29247  22522429.580                    22522429.940
     -2651.840       -2066.371          47.950          42.700



 118061168.391 7  91995695.15547  22466304.580                    22466305.900
      -770.904        -600.707          47.450          44.700    88162556.985 8
  22466311.960        -575.639          51.450


 106495486.358 8  82983496.54348  20265419.220                    20265420.340
      1038.814         809.466          51.950          52.000    79525861.263 9
  20265422.040         775.675          56.600


 127557494.611 8                  24273392.860
      1443.650                          52.250                    95253966.371 8
  24273396.720        1078.047          52.700    97738842.167 8  24273393.820
      1106.163          53.300    96496411.921 9  24273395.680        1092.119
        55.800
 148360596.248 7                  28232089.680
      2888.446                          43.350                   110788770.604 6
  28232097.060        2156.998          41.300   113678902.818 6  28232093.840
      2213.173          41.900   112233827.870 7  28232096.260        2185.044
        44.500
 127357818.369 7                  24235392.820
     -1681.315                          47.600                    95104871.404 8
  24235398.180       -1255.427          48.050    97585863.240 8  24235395.100
     -1288.232          48.700    96345362.975 8  24235397.000       -1271.818
        51.250
 153295900.518 7                  29171248.600
     -2513.445                          42.750



 124714722.807 8                  23732426.340
      -672.605                          52.000                    93131137.930 9
  23732432.580        -502.349          54.350    95560639.744 9  23732429.260
      -515.431          54.650    94345878.991 9  23732431.180        -508.921
        57.300
 142173486.037 7                  27054731.580
     -2726.334                          44.600                   106168502.929 7
  27054743.920       -2035.922          46.850   108938108.372 7  27054738.480
     -2088.972          44.050   107553303.808 8  27054741.360       -2062.479
        48.450
 150858846.310 6                  28707485.380
      3033.257                          37.950                   112654385.199 5
  28707496.960        2265.061          35.950   115593187.591 6  28707494.500
      2324.237          36.050   114123781.058 6  28707497.020        2294.518
        39.050
 150057641.334 6                  28555020.460
       250.903                          39.850                   112056064.067 7
  28555029.340         187.591          42.700   114979250.098 7  28555026.000
       192.487          42.250   113517654.732 7  28555028.200         189.979
        45.350
 24  1 20 10 14 30.0000000  0 19G02G10G12G13G14G15G17G19G22G23G24E04
                                E09E19E20E21E27E31E34
 137736166.771 6 107326894.45345  26210321.280                    26210322.380
       356.122         277.500          41.450          35.650



 124949265.251 7  97363055.77347  23777066.300                    23777070.360
      1605.296        1250.879          44.850          45.200    93306250.932 7
  23777068.840        1198.718          47.600


 122112735.824 7  95152809.56247  23237272.160                    23237274.760
      3663.680        2854.818          47.600          47.600



 115789586.995 8  90225642.03246  22034032.400                    22034033.040
     -3067.077       -2389.933          49.850          41.750



 125092529.565 7  97474678.37746  23804333.560                    23804337.920
     -3299.423       -2570.986          43.100          40.900    93413236.217 7
  23804344.780       -2463.923          47.400


 108005633.644 8  84160225.34848  20552794.020                    20552793.720
     -1916.454       -1493.343          51.550          51.400



 119874429.497 8  93408684.40648  22811326.900                    22811327.320
       107.588          83.836          48.800          48.950



 120135140.227 7  93611849.08747  22860938.860                    22860940.840
      2255.442        1757.490          45.450          44.700



 118435816.646 8  92287632.58146  22537593.120                    22537593.340
     -2660.670       -2073.253          48.800          41.350



 118084583.597 8  92013940.70747  22470760.480                    22470761.780
      -790.342        -615.852          48.350          44.500    88180042.290 8
  22470767.960        -590.190          51.350


 106464519.017 8  82959366.14848  20259526.280                    20259527.480
      1025.664         799.219          51.850          51.450    79502736.306 9
  20259529.440         765.847          56.700


 127514317.450 8                  24265176.520
      1434.522                          52.100                    95221723.684 8
  24265180.180        1071.281          52.400    97705758.368 8  24265177.520
      1099.221          53.350    96463748.678 9  24265179.320        1085.271
        55.700
 148273949.483 7                  28215601.380
      2887.891                          42.900                   110724066.683 6
  28215609.280        2156.588          40.850   113612511.009 7  28215605.700
      2212.698          43.150   112168280.006 7  28215607.940        2184.597
        44.700
 127408400.342 7                  24245018.360
     -1691.016                          47.950                    95142643.600 7
  24245023.720       -1262.809          47.900    97624620.804 8  24245020.440
     -1295.689          48.600    96383627.858 8  24245022.500       -1279.273
        51.100
 153371399.450 7                  29185615.380
     -2520.083                          43.050



 124735064.012 8                  23736297.160
      -683.611                          52.550                    93146327.760 9
  23736303.420        -510.503          54.300    95576225.831 9  23736300.220
      -523.830          54.600    94361266.951 9  23736301.980        -517.182
        57.300
 142255316.233 7                  27070303.340
     -2729.078                          44.750                   106229609.715 7
  27070316.240       -2038.021          47.150   109000809.285 7  27070310.700
     -2091.117          44.550   107615207.653 8  27070313.420       -2064.555
        48.950
 150767861.409 6                  28690171.620
      3032.247                          40.200                   112586441.854 6
  28690182.860        2264.292          37.750   115523471.886 7  28690181.240
      2323.507          42.450   114054951.527 7  28690183.120        2293.841
        42.650
 150050321.556 6                  28553627.540
       236.893                          40.200                   112050598.005 7
  28553636.440         176.885          42.550   114973641.485 7  28553633.360
       181.419          42.950   113512117.393 7  28553635.460         179.163
        45.600
 24  1 20 10 15  0.0000000  0 19G02G10G12G13G14G15G17G19G22G23G24E04
                                E09E19E20E21E27E31E34
 137725724.259 6 107318757.49845  26208334.040                    26208335.060
       339.385         264.457          38.100          31.450



 124901376.817 7  97325740.11647  23767953.200                    23767957.520
      1586.917        1236.561          44.350          44.350    93270490.086 8
  23767956.320        1184.938          48.050


 122002936.575 8  95067251.83448  23216377.960                    23216380.440
      3655.690        2848.594          48.200          48.200



 115881752.812 8  90297459.45646  22051570.960                    22051571.660
     -3077.812       -2398.298          49.300          41.950



 125191600.741 7  97551876.53347  23823186.420                    23823190.920
     -3305.827       -2575.975          42.700          42.000    93487217.728 7
  23823197.960       -2468.595          47.500


 108063398.074 8  84205236.53648  20563786.260                    20563786.060
     -1934.880       -1507.700          51.050          50.950



 119871485.439 8  93406390.37648  22810766.600                    22810767.680
        88.183          68.715          48.750          48.600



 120067698.387 7  93559297.11247  22848104.920                    22848106.940
      2240.273        1745.672          45.600          44.750



 118515782.190 8  92349943.31646  22552810.260                    22552810.320
     -2670.783       -2081.133          48.600          41.850



 118108596.904 8  92032652.29747  22475330.220                    22475331.500
      -811.005        -631.954          48.600          44.500    88197974.213 8
  22475337.600        -605.580          51.100


 106433961.895 8  82935555.39748  20253711.280                    20253712.860
      1011.038         787.821          50.950          50.950    79479917.670 9
  20253714.820         755.053          56.750


 127471428.160 8                  24257014.780
      1424.305                          51.800                    95189695.978 8
  24257018.520        1063.600          52.400    97672895.160 8  24257016.000
      1091.340          53.550    96431303.218 9  24257017.780        1077.467
        55.800
 148187337.184 7                  28199119.660
      2885.910                          44.150                   110659388.510 6
  28199128.220        2155.352          41.850   113546145.618 7  28199124.300
      2211.252          43.200   112102758.223 7  28199126.440        2183.271
        45.350
 127459291.745 7                  24254702.860
     -1702.104                          47.800                    95180646.860 7
  24254708.080       -1271.076          47.900    97663615.465 8  24254704.760
     -1304.241          48.700    96422126.812 8  24254706.860       -1287.638
        51.100
 153447113.620 7                  29200023.120
     -2527.935                          42.350



 124755748.233 8                  23740233.320
      -695.780                          52.650                    93161773.742 9
  23740239.600        -519.546          54.400    95592074.754 9  23740236.380
      -533.124          54.650    94376914.400 9  23740238.060        -526.323
        57.300
 142337243.442 7                  27085893.880
     -2733.080                          45.250                   106290788.940 7
  27085906.860       -2040.963          47.200   109063584.523 7  27085901.360
     -2094.190          45.250   107677184.890 8  27085903.960       -2067.565
        49.100
 150676914.237 6                  28672864.840
      3030.523                          41.650                   112518526.811 6
  28672876.800        2262.979          39.900   115453785.111 6  28672874.740
      2321.992          40.900   113986150.616 7  28672876.780        2292.508
        43.100
 150043446.254 6                  28552319.300
       221.214                          41.350                   112045463.839 7
  28552328.000         165.094          42.400   114968373.344 7  28552325.420
       169.470          43.200   113506916.246 7  28552327.220         167.324
        45.600
 24  1 20 10 15 30.0000000  0 19G02G10G12G13G14G15G17G19G22G23G24E04
                                E09E19E20E21E27E31E34
 137715749.568 5 107310985.15945  26206435.740                    26206437.280
       324.853         253.134          35.750          35.750



 124854019.680 7  97288838.47447  23758941.360                    23758945.980
      1569.654        1223.107          44.650          44.650    93235125.999 8
  23758944.920        1172.113          48.300


 121893354.479 7  94981863.30447  23195524.940                    23195527.400
      3649.012        2843.389          47.750          47.700



 115974209.523 8  90369503.55847  22069164.900                    22069165.560
     -3086.787       -2405.292          48.700          42.300



 125290834.476 7  97629201.32747  23842069.980                    23842074.740
     -3310.408       -2579.547          42.900          42.100    93561320.626 7
  23842081.980       -2472.151          47.650


 108121686.010 8  84250655.65648  20574878.080                    20574878.100
     -1951.686       -1520.796          50.800          50.800



 119869097.559 8  93404529.73748  22810312.200                    22810313.780
        70.144          54.658          48.600          48.100



 120000686.511 7  93507080.15447  22835352.880                    22835354.860
      2226.451        1734.898          45.350          45.100



 118596024.706 8  92412469.86047  22568080.080                    22568080.140
     -2679.416       -2087.860          48.600          42.100



 118133204.817 8  92051827.22647  22480013.060                    22480014.340
      -830.308        -646.995          48.300          44.300    88216350.157 8
  22480020.260        -619.981          50.850


 106403813.299 8  82912062.99948  20247974.000                    20247975.920
       998.128         777.763          51.550          51.650    79457404.126 9
  20247977.780         745.319          56.850


 127428825.751 8                  24248907.540
      1415.313                          51.650                    95157882.502 8
  24248911.560        1056.849          52.400    97640251.763 8  24248909.040
      1084.429          53.400    96399074.786 9  24248910.860        1070.640
        55.450
 148100758.226 7                  28182644.260
      2885.441                          43.050                   110594735.292 7
  28182653.280        2154.631          42.300   113479805.768 7  28182648.900
      2210.842          42.600   112037261.686 7  28182651.120        2182.732
        44.950
 127510490.029 7                  24264445.740
     -1711.738                          47.900                    95218879.284 7
  24264451.020       -1278.303          47.950    97702845.252 8  24264447.360
     -1311.539          48.600    96460857.922 8  24264449.620       -1294.918
        50.800
 153523039.899 7                  29214471.400
     -2534.583                          42.250



 124776772.240 8                  23744234.160
      -706.487                          52.900                    93177473.462 9
  23744240.460        -527.559          54.550    95608184.034 9  23744237.080
      -541.360          54.400    94392818.901 9  23744238.800        -534.440
        56.950
 142419264.048 7                  27101502.260
     -2735.701                          45.350                   106352037.935 7
  27101515.060       -2042.902          46.800   109126431.323 7  27101509.760
     -2096.064          45.450   107739232.791 8  27101512.220       -2069.496
        48.800
 150586003.421 6                  28655564.800
      3029.785                          40.050                   112450638.966 6
  28655577.640        2262.427          40.350   115384126.249 6  28655574.980
      2321.562          41.900   113917377.262 7  28655577.220        2292.008
        43.650
 150037013.310 6                  28551095.340
       206.994                          40.500                   112040659.978 7
  28551103.940         154.521          43.600   114963444.189 7  28551101.340
       158.473          42.100   113502049.740 7  28551102.980         156.479
        45.550
 24  1 20 10 16  0.0000000  0 19G02G10G12G13G14G15G17G19G22G23G24E04
                                E09E19E20E21E27E31E34
 137706247.844 6 107303581.20446  26204627.700                    26204628.860
       309.191         240.929          38.550          36.950



 124807200.433 7  97252355.95847  23750031.920                    23750036.720
      1551.722        1209.135          43.800          44.150    93200163.588 8
  23750035.880        1158.829          48.400


 121783996.747 8  94896649.60448  23174714.660                    23174717.080
      3641.802        2837.771          48.250          48.250



 116066960.557 8  90441777.01046  22086814.900                    22086815.460
     -3096.368       -2412.757          48.550          41.950



 125390233.620 7  97706655.02046  23860985.080                    23860989.840
     -3315.722       -2583.684          44.000          41.850    93635547.045 7
  23860997.360       -2476.145          47.800


 108180501.184 8  84296485.61348  20586070.220                    20586070.440
     -1969.107       -1534.371          50.950          51.100



 119867271.040 7  93403106.51947  22809964.520                    22809966.400
        51.726          40.307          47.650          47.350



 119934112.385 7  93455204.31147  22822684.300                    22822686.180
      2212.104        1723.721          46.050          45.550



 118676547.293 8  92475214.63347  22583403.160                    22583403.260
     -2688.486       -2094.928          49.200          42.350



 118158411.093 8  92071468.41747  22484809.720                    22484811.080
      -849.954        -662.304          48.100          44.500    88235172.938 8
  22484816.580        -634.710          50.500


 106374078.953 8  82888893.38148  20242315.680                    20242317.640
       984.451         767.105          51.600          51.450    79435199.912 9
  20242319.640         735.082          57.050


 127386516.533 8                  24240856.220
      1405.635                          52.000                    95126287.960 8
  24240860.420        1049.655          52.300    97607833.022 8  24240857.740
      1077.020          53.250    96367068.143 9  24240859.720        1063.329
        55.450
 148014218.919 7                  28166176.480
      2884.006                          43.800                   110530111.654 7
  28166185.720        2153.733          43.150   113413496.310 7  28166181.280
      2209.884          43.050   111971795.147 7  28166183.300        2181.689
        45.750
 127562000.010 7                  24274247.900
     -1721.914                          47.850                    95257344.471 7
  24274253.120       -1285.913          47.900    97742313.891 8  24274249.440
     -1319.437          48.450    96499824.832 8  24274251.680       -1302.657
        50.850
 153599182.501 7                  29228960.820
     -2541.417                          42.600



 124798140.113 8                  23748300.380
      -717.816                          53.150                    93193429.970 9
  23748306.740        -536.013          54.500    95624556.802 9  23748303.180
      -549.993          54.150    94408983.540 9  23748304.980        -542.979
        57.000
 142501381.750 7                  27117129.020
     -2738.697                          45.100                   106413359.427 7
  27117141.640       -2045.098          46.500   109189352.537 7  27117136.480
     -2098.380          45.450   107801354.138 8  27117138.880       -2071.737
        48.650
 150495134.998 6                  28638272.840
      3028.197                          38.300                   112382782.794 6
  28638286.100        2261.424          40.700   115314499.932 7  28638283.260
      2320.542          42.650   113848636.015 7  28638285.520        2290.992
        44.350
 150031028.019 6                  28549956.460
       192.400                          41.250                   112036190.364 7
  28549965.000         143.580          42.300   114958857.960 6  28549962.320
       147.395          41.800   113497521.811 7  28549964.040         145.558
        44.850
 24  1 20 10 16 30.0000000  0 19G02G10G12G13G14G15G17G19G22G23G24E04
                                E09E19E20E21E27E31E34
 137697213.792 6 107296541.67645  26202908.700                    26202909.580
       293.223         228.481          37.450          33.500



 124760914.227 7  97216288.79547  23741224.000                    23741228.920
      1534.051        1195.365          44.600          44.350    93165599.223 8
  23741228.260        1145.551          48.450


 121674859.143 7  94811607.43847  23153946.220                    23153948.540
      3634.318        2831.941          47.300          47.550



 116159998.272 8  90514273.84646  22104519.460                    22104520.020
     -3105.954       -2420.226          48.600          41.450



 125489789.862 7  97784231.12346  23879930.160                    23879935.120
     -3321.108       -2587.885          43.350          41.600    93709890.765 7
  23879942.520       -2480.044          47.700


 108239835.826 8  84342720.35648  20597361.200                    20597361.640
     -1986.449       -1547.884          50.550          50.600



 119865999.897 8  93402116.06148  22809722.440                    22809724.480
        33.211          25.880          48.550          48.450



 119867972.537 7  93403666.85247  22810098.440                    22810100.140
      2197.461        1712.310          46.650          45.650



 118757341.251 8  92538170.85747  22598777.840                    22598778.020
     -2697.539       -2101.982          49.100          42.350



 118184208.241 7  92091570.02947  22489718.760                    22489720.180
      -869.719        -677.705          47.550          44.550    88254436.952 8
  22489725.320        -649.459          50.250


 106344753.170 8  82866042.12148  20236735.120                    20236737.180
       970.679         756.373          51.400          51.450    79413300.791 9
  20236739.340         724.890          57.100


 127344495.553 8                  24232859.900
      1395.929                          52.000                    95094908.655 8
  24232864.080        1042.429          52.200    97575635.131 8  24232861.200
      1069.609          53.100    96335279.545 9  24232863.440        1056.027
        55.300
 147927714.246 7                  28149715.240
      2882.916                          43.400                   110465513.889 7
  28149724.680        2152.953          43.450   113347213.408 7  28149720.220
      2208.938          42.950   111906354.804 7  28149722.140        2180.909
        45.750
 127613814.663 7                  24284108.000
     -1732.212                          47.650                    95296037.162 7
  24284113.300       -1293.530          47.900    97782015.963 8  24284109.440
     -1327.233          48.400    96539022.221 8  24284111.680       -1310.398
        50.800
 153675534.336 7                  29243490.260
     -2548.544                          42.200



 124819844.700 8                  23752430.720
      -729.052                          52.900                    93209637.921 9
  23752437.040        -544.440          54.350    95641187.573 9  23752433.320
      -558.620          54.000    94425402.901 9  23752435.260        -551.546
        56.850
 142583589.013 7                  27132772.740
     -2741.694                          45.250                   106474747.769 7
  27132785.300       -2047.267          46.150   109252342.357 7  27132780.120
     -2100.718          45.550   107863543.224 8  27132782.620       -2074.013
        48.600
 150404303.686 6                  28620987.940
      3027.212                          40.150                   112314954.409 6
  28621002.020        2260.471          41.350   115244902.093 6  28620998.700
      2319.569          40.900   113779922.910 7  28621000.920        2289.937
        43.750
 150025484.393 6                  28548901.500
       177.681                          39.600                   112032050.537 7
  28548910.100         132.504          43.100   114954610.182 7  28548907.740
       135.981          42.400   113493328.012 7  28548909.240         134.191
        45.450
 24  1 20 10 17  0.0000000  0 19G02G10G12G13G14G15G17G19G22G23G24E04
                                E09E19E20E21E27E31E34
 137688650.217 5 107289868.75545  26201279.200                    26201279.680
       277.413         216.168          34.850          31.550



 124715165.173 7  97180640.18847  23732518.420                    23732523.120
      1515.846        1181.179          44.500          44.550    93131435.984 8
  23732522.720        1132.047          48.400


 121565946.126 7  94726740.27947  23133220.500                    23133222.880
      3626.472        2825.827          47.150          47.200



 116253323.517 8  90586994.71847  22122278.780                    22122279.220
     -3115.672       -2427.800          48.400          42.450



 125589503.534 7  97861929.90646  23898905.160                    23898910.080
     -3326.308       -2591.933          43.900          40.700    93784352.060 7
  23898917.560       -2484.003          47.500


 108299690.775 8  84389360.52948  20608751.160                    20608751.900
     -2003.958       -1561.527          50.700          50.700



 119865287.004 8  93401560.61148  22809586.700                    22809588.840
        14.237          11.096          48.300          48.750



 119802272.116 7  93352471.80247  22797596.220                    22797597.720
      2182.459        1700.621          46.650          46.000



 118838406.721 8  92601338.64747  22614204.200                    22614204.560
     -2706.865       -2109.249          48.750          43.300



 118210597.503 7  92112133.02947  22494740.540                    22494741.920
      -889.603        -693.199          47.150          45.000    88274143.130 8
  22494746.820        -664.221          50.100


 106315839.153 8  82843511.72048  20231232.920                    20231235.180
       956.801         745.559          50.750          50.550    79391709.158 9
  20231237.360         714.558          57.250


 127302766.633 8                  24224919.260
      1386.003                          51.750                    95063747.448 8
  24224923.340        1035.035          52.200    97543661.021 8  24224920.220
      1062.039          53.100    96303711.888 9  24224922.740        1048.558
        55.450
 147841247.947 7                  28133261.400
      2881.444                          43.300                   110400944.796 7
  28133270.740        2151.831          43.400   113280959.908 7  28133266.400
      2207.975          43.700   111840943.504 7  28133268.200        2179.946
        46.350
 127665936.167 7                  24294026.400
     -1742.528                          47.650                    95334959.006 7
  24294031.640       -1301.186          47.650    97821953.161 8  24294028.000
     -1335.115          48.650    96578451.739 8  24294030.080       -1318.186
        50.900
 153752097.236 7                  29258059.860
     -2555.602                          42.300



 124841887.574 8                  23756625.440
      -740.488                          52.950                    93226098.486 9
  23756631.560        -552.924          54.050    95658077.547 8  23756627.820
      -567.349          53.950    94442078.169 9  23756629.920        -560.115
        56.850
 142665887.009 7                  27148433.920
     -2744.802                          45.950                   106536203.898 7
  27148446.160       -2049.639          45.550   109315401.720 7  27148441.120
     -2103.118          46.050   107925800.970 8  27148443.660       -2076.380
        48.650
 150313512.997 6                  28603710.440
      3025.861                          40.800                   112247156.268 6
  28603725.340        2259.427          40.550   115175335.266 6  28603721.620
      2318.377          38.750   113711240.427 7  28603723.820        2288.813
        42.650
 150020385.109 6                  28547931.120
       162.387                          38.750                   112028242.521 7
  28547939.980         121.338          42.600   114950702.820 7  28547937.600
       124.545          42.850   113489470.325 7  28547939.000         122.913
        45.550
 24  1 20 10 17 30.0000000  0 19G02G10G12G13G14G15G17G19G22G23G24E04
                                E09E19E20E21E27E31E34
 137680558.424 5 107283553.38945  26199739.160                    26199739.900
       262.639         204.638          35.450          31.100



 124669955.875 7  97145412.18147  23723915.680                    23723919.880
      1498.213        1167.439          45.750          45.700    93097675.825 8
  23723920.020        1118.719          48.750


 121457260.712 7  94642050.45947  23112538.160                    23112540.440
      3619.260        2820.204          47.250          47.300



 116346935.549 8  90659939.07546  22140092.700                    22140093.100
     -3124.923       -2435.007          49.200          41.200



 125689373.421 7  97939750.39446  23917909.940                    23917914.840
     -3331.326       -2595.847          44.250          41.250    93858929.980 7
  23917922.280       -2487.702          47.350


 108360065.536 8  84436405.74648  20620240.140                    20620241.020
     -2020.847       -1574.687          51.250          51.350



 119865133.951 8  93401441.39048  22809557.640                    22809559.560
        -4.072          -3.172          48.000          48.150



 119737014.720 7  93301621.96547  22785178.240                    22785179.640
      2167.986        1689.343          47.400          44.850



 118919742.552 8  92664717.11347  22629682.020                    22629682.400
     -2715.420       -2115.915          49.100          42.200



 118237578.334 7  92133156.98847  22499874.760                    22499876.400
      -908.985        -708.303          47.500          44.800    88294291.075 8
  22499881.060        -678.805          50.350


 106287338.234 8  82821303.22448  20225809.340                    20225811.680
       943.267         735.013          50.900          51.050    79370426.009 9
  20225814.060         704.485          57.650


 127261331.819 8                  24217034.540
      1376.402                          52.150                    95032805.862 8
  24217038.660        1027.827          52.500    97511912.261 8  24217035.240
      1054.699          53.150    96272366.718 9  24217037.960        1041.229
        55.700
 147754822.110 7                  28116815.320
      2880.249                          43.800                   110336405.902 7
  28116824.560        2150.896          44.350   113214737.398 7  28116820.200
      2207.042          43.400   111775562.810 7  28116822.020        2178.928
        46.800
 127718365.046 7                  24304003.300
     -1752.542                          47.750                    95374110.371 7
  24304008.560       -1308.660          47.750    97862125.870 8  24304005.020
     -1342.774          48.700    96618113.778 8  24304006.980       -1325.755
        51.050
 153828871.000 7                  29272669.680
     -2562.367                          42.750



 124864268.560 8                  23760884.520
      -751.444                          53.150                    93242811.544 9
  23760890.300        -561.136          54.100    95675226.600 8  23760886.640
      -575.755          53.950    94459009.229 9  23760888.920        -568.463
        56.900
 142748275.258 7                  27164112.220
     -2747.524                          46.350                   106597727.428 7
  27164124.080       -2051.775          45.050   109378530.219 7  27164119.340
     -2105.255          46.200   107988126.979 8  27164121.780       -2078.463
        48.550
 150222764.749 6                  28586440.860
      3024.335                          39.150                   112179389.689 6
  28586456.460        2258.504          38.750   115105800.866 7  28586452.660
      2317.381          42.600   113642589.923 7  28586454.540        2288.018
        43.150
 150015731.223 6                  28547045.560
       147.833                          40.050                   112024767.038 7
  28547054.640         110.596          42.350   114947136.722 7  28547052.120
       113.352          42.650   113485949.530 7  28547053.480         112.001
        45.350
 24  1 20 10 18  0.0000000  0 19G02G10G12G13G14G15G17G19G22G23G24E04
                                E09E19E20E21E27E31E34
 137672938.047 6 107277614.33745  26198289.160                    26198289.680
       246.554         192.126          36.350          34.500



 124625286.846 7  97110605.15047  23715415.720                    23715419.400
      1480.466        1153.609          45.850          45.900    93064319.087 8
  23715420.060        1105.455          49.050


 121348804.195 7  94557539.00847  23091899.420                    23091901.660
      3611.694        2814.313          47.100          47.600



 116440831.921 8  90733104.98346  22157960.700                    22157961.060
     -3134.244       -2442.271          49.450          41.000



 125789396.292 7  98017690.09946  23936943.800                    23936948.720
     -3336.156       -2599.609          44.550          39.950    93933622.149 7
  23936956.040       -2491.322          46.900


 108420957.156 8  84483853.70448  20631827.500                    20631828.440
     -2037.830       -1587.922          51.650          51.650



 119865539.658 8  93401757.55048  22809634.780                    22809636.640
       -22.380         -17.438          48.700          48.900



 119672202.237 7  93251118.81747  22772844.840                    22772846.320
      2153.446        1678.013          47.550          44.950



 119001345.857 8  92728303.99947  22645210.720                    22645211.240
     -2724.085       -2122.667          49.400          43.200



 118265148.339 7  92154640.03347  22505121.140                    22505122.980
      -928.355        -723.396          47.450          44.750    88314878.964 8
  22505127.700        -693.245          50.700


 106259249.993 8  82799416.29848  20220464.360                    20220466.680
       929.754         724.483          52.150          52.150    79349451.041 9
  20220469.340         694.297          57.850


 127220191.328 8                  24209205.840
      1366.860                          52.550                    95002084.070 8
  24209210.120        1020.678          52.850    97480389.030 8  24209206.420
      1047.315          53.150    96241244.202 9  24209209.160        1033.988
        56.000
 147668436.873 7                  28100376.900
      2879.313                          43.300                   110271897.351 7
  28100386.100        2150.091          44.700   113148546.028 7  28100381.700
      2206.158          43.200   111710212.851 7  28100383.540        2178.107
        46.950
 127771099.827 8                  24314038.400
     -1762.471                          48.100                    95413490.192 7
  24314043.500       -1316.183          47.650    97902532.987 8  24314040.300
     -1350.415          48.550    96658007.241 8  24314042.100       -1333.307
        51.100
 153905853.838 7                  29287319.160
     -2569.114                          43.150



 124886985.644 8                  23765207.580
      -762.338                          53.750                    93259775.589 9
  23765212.980        -569.305          54.050    95692633.188 8  23765209.460
      -584.155          53.850    94476194.542 9  23765211.860        -576.739
        57.050
 142830751.395 7                  27179807.160
     -2750.229                          46.800                   106659316.578 7
  27179818.680       -2053.714          44.500   109441726.061 7  27179814.280
     -2107.335          46.050   108050519.480 8  27179816.540       -2080.533
        48.250
 150132058.588 6                  28569178.860
      3023.197                          36.050                   112111654.747 6
  28569195.800        2257.705          41.250   115036298.914 7  28569191.840
      2316.607          42.100   113573971.488 7  28569193.740        2287.045
        44.600
 150011521.987 6                  28546244.340
       133.164                          40.250                   112021623.661 7
  28546253.840          99.569          44.100   114943911.353 7  28546250.940
       102.107          42.450   113482765.163 7  28546252.800         100.808
        46.450
 24  1 20 10 18 30.0000000  0 19G02G10G12G13G14G15G17G19G22G23G24E04
                                E09E19E20E21E27E31E34
 137665788.800 5 107272043.39545  26196928.980                    26196929.080
       230.304         179.453          35.800          35.000



 124581159.000 7  97076219.81747  23707018.680                    23707022.000
      1461.835        1139.093          46.300          46.100    93031366.498 8
  23707023.160        1091.471          49.200


 121240578.240 7  94473207.20747  23071304.580                    23071306.580
      3603.462        2807.896          46.700          46.700



 116535010.420 8  90806490.70946  22175882.420                    22175882.740
     -3144.019       -2449.889          49.000          41.300



 125889569.499 7  98095746.95946  23956006.280                    23956011.160
     -3341.726       -2603.947          43.500          41.550    94008426.602 7
  23956018.340       -2495.597          46.200


 108482363.822 8  84531702.99748  20643512.940                    20643513.680
     -2055.711       -1601.854          51.100          50.700



 119866503.379 8  93402508.52648  22809818.120                    22809819.940
       -41.314         -32.192          48.600          48.650



 119607836.910 7  93200964.10747  22760596.480                    22760597.980
      2137.702        1665.744          47.650          45.050



 119083213.576 8  92792096.92647  22660789.780                    22660790.280
     -2733.402       -2129.928          49.200          43.150



 118293305.689 7  92176580.74147  22510479.340                    22510481.240
      -948.602        -739.172          47.600          44.500    88335905.458 8
  22510486.260        -708.352          50.600


 106231574.493 8  82777850.97348  20215198.040                    20215200.240
       915.471         713.354          52.050          51.900    79328784.280 9
  20215203.080         683.564          57.650


 127179345.916 8                  24201433.280
      1356.346                          52.250                    94971582.621 8
  24201437.740        1012.841          52.800    97449091.892 8  24201433.940
      1039.249          53.800    96210344.911 9  24201436.500        1026.040
        55.900
 147582093.022 7                  28083946.440
      2877.215                          43.150                   110207419.694 7
  28083955.440        2148.566          44.550   113082386.358 7  28083950.980
      2204.602          43.750   111644894.176 7  28083952.900        2176.660
        46.850
 127824139.186 8                  24324131.500
     -1773.218                          48.100                    95453097.439 7
  24324136.500       -1324.219          47.300    97943173.481 8  24324133.480
     -1358.716          49.050    96698131.114 8  24324135.200       -1341.455
        50.800
 153983044.371 7                  29302008.240
     -2576.942                          42.150



 124910037.344 8                  23769594.320
      -774.193                          53.550                    93276989.508 8
  23769599.440        -578.118          53.950    95710296.166 9  23769596.060
      -593.177          54.400    94493632.991 9  23769598.480        -585.652
        56.850
 142913313.591 7                  27195518.360
     -2753.747                          46.400                   106720970.013 7
  27195529.600       -2056.324          43.700   109504987.844 7  27195525.540
     -2110.006          46.500   108112977.086 7  27195527.660       -2083.188
        47.600
 150041395.206 6                  28551925.960
      3020.984                          37.100                   112043951.731 7
  28551943.380        2256.085          42.800   114966829.748 7  28551939.340
      2314.876          44.500   113505385.401 7  28551941.180        2285.388
        46.150
 150007756.872 6                  28545527.840
       117.892                          40.700                   112018812.007 6
  28545537.320          87.951          41.750   114941026.308 6  28545534.360
        90.438          41.150   113479916.814 7  28545536.380          89.199
        44.200
 24  1 20 10 19  0.0000000  0 19G02G10G12G13G14G15G17G19G22G23G24E04
                                E09E19E20E21E27E31E34
 137659111.030 6 107266839.78845  26195658.460                    26195658.980
       214.372         167.040          40.600          35.200



 124537572.992 7  97042256.68647  23698724.700                    23698727.960
      1443.565        1124.855          46.600          46.500    92998818.487 8
  23698729.380        1078.003          49.650


 121132583.664 7  94389055.68647  23050753.880                    23050755.700
      3595.761        2801.896          46.900          46.800



 116629468.845 8  90880094.57246  22193857.340                    22193857.740
     -3153.561       -2457.324          49.050          40.750



 125989890.431 7  98173918.90346  23975096.840                    23975101.820
     -3346.888       -2607.973          42.800          41.850    94083341.329 7
  23975108.740       -2499.159          46.100


 108544283.240 8  84579951.83548  20655295.960                    20655296.260
     -2072.694       -1615.089          51.550          51.600



 119868025.403 8  93403694.54948  22810107.700                    22810109.540
       -60.169         -46.885          48.350          48.350



 119543920.497 7  93151159.20447  22748433.560                    22748435.000
      2122.884        1654.198          47.500          44.400



 119165342.694 8  92856093.54747  22676418.540                    22676419.080
     -2742.119       -2136.720          49.050          43.050



 118322048.371 7  92198977.54247  22515948.980                    22515950.880
      -968.067        -754.341          47.750          44.400    88357369.051 8
  22515956.320        -722.947          50.800


 106204311.724 8  82756607.26148  20210010.320                    20210012.320
       901.707         702.628          52.200          52.100    79308425.726 9
  20210015.080         673.291          57.600


 127138796.284 8                  24193716.940
      1346.432                          52.300                    94941302.052 8
  24193721.600        1005.478          53.000    97418021.393 8  24193717.860
      1031.686          53.750    96179669.376 9  24193720.100        1018.565
        56.100
 147495791.228 7                  28067523.880
      2875.741                          43.000                   110142973.443 7
  28067532.660        2147.528          44.700   113016258.928 7  28067528.260
      2203.482          43.750   111579607.337 7  28067530.280        2175.567
        47.100
 127877482.402 7                  24334282.420
     -1783.372                          47.850                    95492931.600 7
  24334287.180       -1331.834          47.400    97984046.798 8  24334284.520
     -1366.519          48.550    96738484.853 8  24334286.140       -1349.192
        50.750
 154060441.093 7                  29316736.340
     -2583.677                          42.550



 124933422.120 8                  23774044.400
      -785.269                          53.600                    93294452.154 9
  23774049.400        -586.435          54.100    95728214.361 9  23774046.140
      -601.707          54.050    94511323.411 9  23774048.460        -594.066
        56.950
 142995959.996 7                  27211245.440
     -2756.502                          46.000                   106782686.316 7
  27211256.760       -2058.562          43.650   109568314.156 7  27211252.740
     -2112.070          46.400   108175498.390 7  27211254.840       -2085.311
        47.650
 149950774.994 6                  28534681.980
      3019.942                          39.600                   111976280.978 6
  28534699.140        2254.889          41.850   114897393.622 6  28534694.820
      2313.792          40.000   113436831.962 7  28534696.700        2284.351
        44.000
 150004435.645 6                  28544895.560
       102.996                          37.050                   112016331.779 6
  28544905.320          76.733          41.000   114938481.385 6  28544902.020
        78.998          41.000   113477404.240 7  28544904.220          77.823
        43.700
 24  1 20 10 19 30.0000000  0 19G02G10G12G13G14G15G17G19G22G23G24E04
                                E09E19E20E21E27E31E34
 137652909.733 6 107262007.56046  26194478.580                    26194478.900
       198.905         154.990          41.350          36.300



 124494535.610 7  97008721.04747  23690535.020                    23690538.340
      1425.583        1110.844          46.600          46.550    92966680.169 8
  23690539.940        1064.534          50.050


 121024827.698 7  94305090.10947  23030248.540                    23030250.260
      3588.069        2795.901          46.400          46.550



 116724210.883 8  90953919.44147  22211886.260                    22211886.600
     -3162.512       -2464.298          48.450          42.200



 126090361.751 7  98252208.04046  23994215.980                    23994220.960
     -3351.297       -2611.407          42.250          41.300    94158368.389 7
  23994227.800       -2502.739          45.900


 108606718.918 8  84628602.95548  20667177.220                    20667177.120
     -2089.607       -1628.267          51.550          51.600



 119870110.238 7  93405319.11347  22810504.220                    22810506.180
       -78.789         -61.394          46.900          46.600



 119480460.478 7  93101709.92347  22736357.440                    22736358.760
      2107.856        1642.488          47.000          45.100



 119247735.996 8  92920296.02447  22692097.520                    22692098.080
     -2750.682       -2143.392          48.450          43.200



 118351379.782 7  92221833.09347  22521530.680                    22521532.400
      -987.110        -769.181          47.350          45.050    88379272.279 8
  22521538.300        -737.260          50.900


 106177467.101 8  82735689.37748  20204902.120                    20204903.900
       888.113         692.036          52.100          52.250    79288379.420 9
  20204906.400         663.141          57.650


 127098548.522 8                  24186058.040
      1336.718                          52.050                    94911246.907 8
  24186062.820         998.248          53.200    97387182.200 8  24186059.300
      1024.261          53.950    96149222.203 9  24186061.180        1011.282
        56.250
 147409537.553 7                  28051110.540
      2874.528                          42.600                   110078563.149 7
  28051119.100        2146.521          44.900   112950168.355 7  28051114.480
      2202.570          43.300   111514356.915 7  28051116.840        2174.487
        47.050
 127931133.642 7                  24344491.900
     -1793.257                          47.700                    95532995.773 7
  24344496.620       -1339.197          47.550    98025156.135 8  24344494.140
     -1374.109          48.700    96779071.608 8  24344495.700       -1356.635
        50.850
 154138048.037 6                  29331504.460
     -2590.030                          41.600



 124957143.799 8                  23778558.540
      -796.182                          53.200                    93312166.386 9
  23778563.540        -594.539          54.350    95746390.705 9  23778560.400
      -610.047          54.350    94529268.701 9  23778562.560        -602.314
        57.100
 143078694.118 7                  27226988.980
     -2759.128                          45.100                   106844468.092 7
  27227000.580       -2060.354          43.000   109631707.655 7  27226996.720
     -2114.124          46.500   108238086.029 7  27226998.740       -2087.230
        47.500
 149860203.687 6                  28517447.160
      3018.434                          38.650                   111908646.644 6
  28517463.760        2254.182          37.200   114827994.856 6  28517458.820
      2312.962          38.750   113368315.402 6  28517461.120        2283.550
        40.300
 150001563.135 6                  28544348.600
        88.537                          38.550                   112014186.631 6
  28544358.780          66.119          40.900   114936280.280 6  28544355.620
        67.831          41.350   113475231.114 7  28544357.540          66.986
        43.900
 24  1 20 10 20  0.0000000  0 19G02G10G12G13G14G15G17G19G22G23G24E04
                                E09E19E20E21E27E31E34
 137647177.900 6 107257541.13946  26193388.040                    26193388.160
       183.484         142.977          40.200          38.300



 124452040.516 7  96975607.97147  23682448.480                    23682451.900
      1407.822        1097.004          46.200          46.000    92934946.810 8
  23682453.680        1051.264          50.100


 120917305.074 7  94221306.33247  23009787.740                    23009789.000
      3580.547        2790.039          46.700          46.650



 116819227.264 8  91027958.05846  22229967.320                    22229967.860
     -3171.529       -2471.325          48.550          41.300



 126190974.005 7  98330606.99346  24013362.080                    24013367.140
     -3355.664       -2614.812          42.050          41.000    94233500.664 7
  24013373.580       -2505.918          44.950


 108669661.295 8  84677648.90848  20679154.880                    20679154.400
     -2106.145       -1641.153          50.950          50.750



 119872750.928 7  93407376.80747  22811006.500                    22811008.500
       -96.869         -75.482          46.750          46.200



 119417452.022 7  93052612.50147  22724367.200                    22724368.300
      2093.124        1631.008          46.950          44.650



 119330383.575 8  92984696.64747  22707824.820                    22707825.460
     -2758.780       -2149.701          48.000          43.500



 118381291.076 7  92245140.50947  22527222.800                    22527224.300
     -1006.325        -784.153          47.600          44.350    88401608.535 8
  22527230.520        -751.452          50.700


 106151033.749 8  82715091.96848  20199872.160                    20199873.700
       874.578         681.489          52.800          52.600    79268640.241 9
  20199876.020         653.098          57.500


 127058596.452 8                  24178455.480
      1327.212                          52.250                    94881412.577 8
  24178460.220         991.028          53.000    97356569.580 9  24178457.020
      1016.910          54.450    96118998.730 9  24178458.560        1003.956
        56.400
 147323325.851 7                  28034705.000
      2873.278                          42.200                   110014184.210 7
  28034713.460        2145.755          45.000   112884109.965 7  28034708.760
      2201.739          44.000   111449138.240 7  28034711.260        2173.755
        47.500
 127985085.155 7                  24354758.540
     -1803.016                          47.700                    95573284.170 7
  24354763.120       -1346.391          47.250    98066495.543 8  24354760.980
     -1381.533          49.050    96819885.510 8  24354762.400       -1363.966
        50.850
 154215857.030 6                  29346310.980
     -2596.672                          41.950



 124981193.982 8                  23783135.140
      -806.778                          53.050                    93330125.929 9
  23783140.180        -602.508          54.300    95764818.758 9  23783137.180
      -618.218          54.750    94547462.500 9  23783139.160        -610.380
        57.300
 143161507.221 7                  27242747.540
     -2761.348                          45.000                   106906308.879 7
  27242759.260       -2062.152          42.600   109695161.669 7  27242755.760
     -2115.829          46.450   108300733.429 7  27242757.520       -2089.007
        47.150
 149769674.761 6                  28500220.160
      3016.977                          37.850                   111841043.993 6
  28500236.540        2253.126          39.200   114758628.714 7  28500231.360
      2311.979          42.250   113299831.002 7  28500233.780        2282.628
        43.200
 149999132.166 6                  28543886.060
        73.790                          39.650                   112012371.242 6
  28543896.200          55.351          41.100   114934417.556 6  28543892.960
        56.756          40.750   113473392.052 7  28543894.820          56.029
        43.950
 24  1 20 10 20 30.0000000  0 19G02G10G12G13G14G15G17G19G22G23G24E04
                                E09E19E20E21E27E31E34
 137641921.086 6 107253444.89046  26192387.640                    26192388.300
       167.572         130.579          39.000          37.650



 124410094.360 7  96942922.65147  23674466.300                    23674469.940
      1388.881        1082.245          45.000          45.200    92903623.374 8
  23674471.800        1037.303          50.100


 120810022.816 7  94137709.87647  22989372.540                    22989373.820
      3571.989        2783.372          46.200          46.300



 116914521.491 8  91102213.19446  22248101.180                    22248101.880
     -3181.093       -2478.776          48.600          41.950



 126291730.193 7  98409118.10646  24032535.620                    24032540.720
     -3361.049       -2619.005          42.550          39.750    94308740.419 7
  24032546.780       -2509.697          44.750


 108733113.890 8  84727092.43748  20691229.580                    20691228.920
     -2123.593       -1654.750          50.950          51.100



 119875952.616 7  93409871.64347  22811615.720                    22811617.600
      -115.913         -90.321          47.500          47.350



 119354902.843 7  93003872.95447  22712464.280                    22712465.220
      2077.240        1618.631          46.350          44.550



 119413288.486 8  93049297.77947  22723601.100                    22723601.800
     -2767.807       -2156.735          48.350          43.500



 118411785.913 7  92268902.64347  22533025.900                    22533027.300
     -1025.952        -799.445          47.750          44.700    88424380.581 8
  22533033.480        -766.306          50.200


 106125017.396 8  82694819.48748  20194921.500                    20194922.960
       860.304         670.366          52.300          52.300    79249212.443 9
  20194925.140         642.460          57.400


 127018946.490 8                  24170910.460
      1316.661                          52.250                    94851803.839 8
  24170915.020         983.210          52.700    97326188.446 9  24170912.180
      1008.877          54.500    96089003.794 9  24170913.440         996.031
        56.050
 147237162.573 6                  28018308.700
      2871.493                          41.300                   109949841.424 7
  28018317.000        2144.159          44.700   112818088.680 7  28018312.420
      2200.066          43.850   111383956.207 7  28018314.980        2172.139
        46.950
 128039341.291 7                  24365083.120
     -1813.574                          47.600                    95613800.051 7
  24365087.780       -1354.235          47.100    98108068.373 8  24365085.800
     -1389.562          49.050    96860929.863 8  24365087.080       -1371.895
        50.600
 154293872.233 6                  29361156.740
     -2603.966                          41.500



 125005576.810 8                  23787774.960
      -818.270                          52.650                    93348333.874 8
  23787780.120        -611.057          53.950    95783501.699 9  23787777.240
      -626.974          54.700    94565907.937 9  23787779.060        -619.009
        56.900
 143244403.178 7                  27258521.940
     -2764.457                          45.000                   106968211.525 7
  27258533.700       -2064.296          42.400   109758679.183 7  27258530.520
     -2118.300          45.800   108363443.507 7  27258532.020       -2091.351
        46.550
 149679194.424 6                  28483002.340
      3015.259                          39.550                   111773477.714 6
  28483018.700        2251.586          41.050   114689299.792 7  28483013.320
      2310.388          42.950   113231383.410 7  28483016.080        2280.978
        44.500
 149997147.812 6                  28543508.540
        58.583                          39.350                   112010889.409 6
  28543518.760          43.831          41.000   114932897.059 6  28543515.460
        45.073          41.300   113471890.883 7  28543517.340          44.458
        43.800
 24  1 20 10 21  0.0000000  0 19G02G10G12G13G14G15G17G19G22G23G24E04
                                E09E19E20E21E27E31E34
 137637138.082 6 107249717.82246  26191477.200                    26191478.400
       151.705         118.211          40.550          38.300



 124368696.914 7  96910664.88847  23666588.440                    23666592.500
      1370.914        1068.243          45.600          45.450    92872709.687 8
  23666594.180        1023.706          50.150


 120702981.467 7  94054301.11647  22969003.280                    22969004.200
      3564.166        2777.275          47.050          47.050



 117010090.394 8  91176682.35447  22266287.320                    22266288.480
     -3190.038       -2485.749          48.050          42.600



 126392626.680 7  98487738.52746  24051735.800                    24051741.120
     -3365.541       -2622.506          42.900          40.800    94384084.967 7
  24051746.780       -2513.072          44.350


 108797073.573 8  84776931.09848  20703400.800                    20703399.960
     -2140.375       -1667.826          51.300          51.250



 119879713.858 7  93412802.49348  22812331.600                    22812333.340
      -134.647        -104.920          47.400          48.000



 119292814.284 7  92955492.34347  22700648.980                    22700649.940
      2062.220        1606.926          46.700          44.050



 119496447.139 8  93114096.64547  22739425.640                    22739426.280
     -2776.076       -2163.179          48.700          43.550



 118442861.287 8  92293117.13847  22538939.480                    22538940.760
     -1045.396        -814.598          48.250          45.000    88447586.119 8
  22538946.680        -780.661          50.050


 106099417.033 8  82674871.16348  20190049.820                    20190051.420
       846.533         659.637          52.000          52.000    79230095.303 9
  20190053.640         632.145          57.650


 126979598.319 8                  24163422.780
      1306.584                          52.600                    94822420.470 8
  24163427.200         975.739          52.750    97296038.560 9  24163424.660
      1001.218          54.350    96059237.164 9  24163425.800         988.484
        56.300
 147151047.380 6                  28001921.400
      2869.986                          41.350                   109885534.575 7
  28001929.760        2143.010          45.050   112752104.271 7  28001925.080
      2198.919          43.100   111318810.580 7  28001927.880        2170.981
        47.200
 128093900.349 8                  24375465.440
     -1823.734                          48.000                    95654542.140 7
  24375470.040       -1361.796          47.250    98149873.305 8  24375468.260
     -1397.330          48.850    96902203.374 8  24375469.380       -1379.554
        50.800
 154372091.208 7                  29376041.440
     -2610.641                          42.300



 125030289.744 8                  23792477.560
      -829.157                          52.650                    93366788.324 8
  23792482.780        -619.175          53.900    95802437.565 9  23792480.060
      -635.312          54.450    94584603.098 9  23792481.780        -627.250
        57.000
 143327379.150 7                  27274311.740
     -2767.228                          44.650                   107030173.921 7
  27274323.520       -2066.346          42.600   109822257.987 7  27274320.380
     -2120.198          45.350   108426214.104 7  27274321.860       -2093.238
        46.650
 149588762.061 6                  28465793.660
      3013.737                          41.200                   111705947.211 7
  28465809.740        2250.499          42.750   114620007.635 7  28465804.560
      2309.210          43.350   113162972.080 7  28465807.480        2279.789
        45.750
 149995608.728 6                  28543215.800
        43.896                          40.050                   112009740.030 7
  28543225.960          32.825          43.050   114931717.732 6  28543222.400
        33.587          41.500   113470726.538 7  28543224.540          33.134
        45.350
 24  1 20 10 21 30.0000000  0 19G02G10G12G13G14G15G17G19G22G23G24E04
                                E09E19E20E21E27E31E34
 137632830.558 6 107246361.31446  26190657.440                    26190658.400
       135.543         105.620          40.350          37.950



 124327850.882 7  96878836.80147  23658815.420                    23658819.800
      1352.521        1053.912          45.050          45.050    92842207.778 8
  23658821.340        1009.908          50.000


 120596184.314 7  93971082.65947  22948680.320                    22948681.320
      3555.887        2770.823          47.400          47.500



 117105933.877 7  91251365.47547  22284525.740                    22284527.320
     -3199.200       -2492.888          47.700          42.950



 126493662.496 6  98566467.52246  24070962.500                    24070967.900
     -3370.015       -2625.994          41.950          41.250    94459533.563 7
  24070973.200       -2516.562          44.250


 108861539.971 8  84827164.59548  20715668.340                    20715667.560
     -2157.147       -1680.896          51.100          51.250



 119884035.998 8  93416170.40548  22813154.260                    22813155.940
      -153.400        -119.532          48.000          48.000



 119231189.697 7  92907473.26647  22688922.060                    22688922.920
      2046.547        1594.715          46.850          44.000



 119579858.365 8  93179092.30947  22755298.280                    22755298.980
     -2784.426       -2169.686          48.450          43.650



 118474516.724 7  92317783.63847  22544963.340                    22544964.720
     -1064.700        -829.639          47.800          45.300    88471224.838 8
  22544970.040        -795.103          49.750


 106074234.312 8  82655248.26148  20185257.460                    20185259.260
       832.660         648.826          51.700          51.900    79211290.020 9
  20185261.600         621.769          57.450


 126940554.241 8                  24155992.880
      1296.452                          52.550                    94793264.188 8
  24155997.240         968.127          52.650    97266121.685 9  24155994.920
       993.412          54.650    96029700.591 9  24155996.020         980.743
        56.500
 147064982.650 6                  27985543.560
      2868.033                          41.250                   109821265.439 7
  27985552.160        2141.713          44.500   112686158.545 7  27985547.460
      2197.588          43.900   111253703.147 7  27985550.200        2169.674
        47.150
 128148762.586 7                  24385905.480
     -1833.726                          47.850                    95695510.636 7
  24385910.160       -1369.342          47.100    98191910.549 8  24385908.400
     -1405.019          49.000    96943706.242 8  24385909.380       -1387.132
        50.950
 154450514.215 6                  29390964.940
     -2617.640                          41.950



 125055332.855 8                  23797242.900
      -840.118                          52.150                    93385489.329 8
  23797248.220        -627.356          53.700    95821626.422 9  23797245.620
      -643.773          54.650    94603548.026 9  23797247.320        -635.536
        57.100
 143410434.928 7                  27290116.740
     -2769.677                          44.350                   107092195.910 7
  27290128.660       -2068.336          42.300   109885897.958 7  27290125.340
     -2122.288          45.300   108489045.082 7  27290126.940       -2095.285
        46.650
 149498379.663 6                  28448594.340
      3012.203                          39.400                   111638454.018 7
  28448610.260        2249.214          42.300   114550753.725 7  28448605.100
      2307.958          42.350   113094598.526 7  28448608.260        2278.556
        45.350
 149994516.022 6                  28543007.980
        29.115                          39.650                   112008924.062 7
  28543018.300          21.796          42.000   114930880.490 7  28543014.540
        22.158          42.900   113469899.929 7  28543016.780          22.063
        45.450
 24  1 20 10 22  0.0000000  0 19G02G10G12G13G14G15G17G19G22G23G24E04
                                E09E19E20E21E27E31E34
 137628997.567 6 107243374.54746  26189928.020                    26189929.000
       119.715          93.282          40.200          38.550



 124287556.676 7  96847438.72047  23651147.520                    23651152.120
      1333.675        1039.227          45.300          45.000    92812117.947 8
  23651153.340         996.007          49.750


 120489632.292 7  93888055.19847  22928404.120                    22928404.960
      3547.398        2764.210          47.000          46.600



 117202048.891 8  91326260.17047  22302815.940                    22302817.820
     -3208.425       -2500.074          48.050          42.950



 126594834.593 6  98645302.70946  24090215.080                    24090220.680
     -3374.757       -2629.688          41.850          41.350    94535083.904 7
  24090225.880       -2520.097          44.500


 108926510.260 8  84877790.72948  20728031.700                    20728031.060
     -2174.249       -1694.223          50.500          50.600



 119888918.016 8  93419974.59948  22814083.440                    22814084.980
      -172.345        -134.294          48.100          48.350



 119170031.034 7  92859817.23747  22677284.000                    22677284.680
      2030.705        1582.370          47.250          44.550



 119663518.714 8  93244282.09547  22771218.320                    22771219.140
     -2793.058       -2176.411          48.100          43.700



 118506749.690 7  92342900.15347  22551097.020                    22551098.560
     -1084.209        -844.842          47.250          45.550    88495294.812 8
  22551103.160        -809.588          49.500


 106049468.759 8  82635950.43848  20180544.560                    20180546.440
       818.430         637.737          51.500          51.850    79192796.271 9
  20180548.760         611.171          57.350


 126901814.508 8                  24148620.880
      1286.118                          52.250                    94764335.173 8
  24148625.180         960.432          52.650    97236438.010 9  24148622.960
       985.487          54.050    96000394.243 9  24148624.180         972.956
        56.250
 146978968.684 7                  27969175.400
      2866.035                          42.050                   109757034.189 7
  27969184.220        2140.297          44.650   112620251.702 7  27969179.620
      2196.293          43.050   111188634.099 7  27969182.360        2168.259
        47.000
 128203926.819 7                  24396402.940
     -1844.027                          47.750                    95736704.638 7
  24396407.700       -1376.893          47.200    98234179.188 8  24396405.940
     -1412.843          48.600    96985437.565 8  24396406.820       -1394.898
        50.800
 154529139.204 7                  29405927.100
     -2624.190                          42.500



 125080704.135 8                  23802070.700
      -851.277                          52.200                    93404435.398 8
  23802076.120        -635.666          53.600    95841066.737 9  23802073.580
      -652.295          54.050    94622741.223 9  23802075.280        -643.978
        56.800
 143493568.249 7                  27305936.680
     -2772.448                          44.750                   107154275.787 7
  27305948.680       -2070.366          42.550   109949597.328 7  27305945.180
     -2124.337          44.850   108551934.716 7  27305946.800       -2097.431
        46.500
 149408047.188 6                  28431404.140
      3010.200                          38.700                   111570998.073 6
  28431420.020        2247.916          41.000   114481538.073 6  28431415.120
      2306.443          41.150   113026262.724 7  28431418.340        2277.168
        44.100
 149993868.817 6                  28542884.960
        13.935                          39.350                   112008440.727 6
  28542895.260          10.448          41.250   114930384.546 7  28542891.540
        10.657          42.750   113469410.291 7  28542893.780          10.556
        44.850
 24  1 20 10 22 30.0000000  0 19G02G10G12G13G14G15G17G19G22G23G24E04
                                E09E19E20E21E27E31E34
 137625640.311 6 107240758.52446  26189289.200                    26189289.940
       103.993          81.034          40.700          37.200



 124247816.103 7  96816472.02447  23643584.960                    23643589.700
      1315.647        1025.181          44.700          44.700    92782441.533 8
  23643590.480         982.382          49.750


 120383328.101 7  93805220.86047  22908175.020                    22908175.840
      3539.427        2757.998          47.650          47.500



 117298434.881 8  91401366.00847  22321157.740                    22321160.000
     -3217.202       -2506.916          48.250          42.400



 126696141.637 7  98724243.05646  24109493.540                    24109498.980
     -3378.885       -2632.904          42.550          40.100    94610735.042 7
  24109504.360       -2523.336          44.700


 108991983.375 8  84928808.69248  20740490.720                    20740490.280
     -2190.684       -1707.028          50.200          50.300



 119894360.648 7  93424215.61647  22815119.200                    22815120.860
      -190.584        -148.506          47.800          47.550



 119109341.413 7  92812526.69247  22665735.180                    22665735.700
      2015.316        1570.378          47.200          44.300



 119747426.987 7  93309665.06947  22787185.540                    22787186.560
     -2800.905       -2182.527          47.300          44.350



 118539559.310 7  92368466.01647  22557340.360                    22557342.200
     -1103.138        -859.591          46.650          45.700    88519795.417 8
  22557345.980        -823.762          49.600


 106025121.649 8  82616978.66648  20175911.360                    20175913.260
       804.769         627.092          51.950          51.950    79174614.991 9
  20175915.460         600.898          57.550


 126863381.105 8                  24141307.100
      1276.112                          52.100                    94735634.920 8
  24141311.480         952.888          52.950    97206989.057 9  24141309.200
       977.781          54.050    95971319.638 9  24141310.620         965.341
        56.100
 146893007.450 6                  27952817.360
      2864.572                          41.300                   109692842.331 7
  27952826.360        2139.117          44.850   112554385.259 7  27952821.720
      2194.891          43.650   111123604.943 7  27952824.400        2167.054
        46.900
 128259392.932 7                  24406957.800
     -1853.771                          47.850                    95778124.070 7
  24406962.820       -1384.372          47.600    98276679.133 8  24406960.860
     -1420.495          48.700    97027397.254 8  24406961.720       -1402.411
        50.600
 154607966.189 7                  29420927.580
     -2630.831                          42.650



 125106403.284 8                  23806961.000
      -861.980                          52.650                    93423626.310 8
  23806966.500        -643.686          53.900    95860758.277 9  23806963.900
      -660.452          54.100    94642182.446 9  23806965.660        -652.071
        56.650
 143576778.546 7                  27321771.420
     -2774.771                          44.600                   107216413.178 7
  27321783.460       -2072.102          43.250   110013355.714 7  27321779.700
     -2126.268          44.650   108614882.595 7  27321781.240       -2099.166
        46.250
 149317766.296 6                  28414223.920
      3008.908                          40.350                   111503580.645 6
  28414239.920        2246.830          41.350   114412361.890 6  28414235.000
      2305.344          41.700   112957965.925 7  28414238.200        2276.007
        44.000
 149993667.865 6                  28542846.740
        -0.668                          38.600                   112008290.651 6
  28542856.920          -0.474          41.900   114930230.543 6  28542853.420
        -0.585          41.850   113469258.250 7  28542855.460          -0.532
        44.500
 24  1 20 10 23  0.0000000  0 19G02G10G12G13G14G15G17G19G22G23G24E04
                                E09E19E20E21E27E31E34
 137622757.598 6 107238512.26746  26188740.640                    26188741.500
        87.952          68.533          40.000          38.650



 124208629.149 7  96785936.72547  23636127.840                    23636132.500
      1296.552        1010.299          44.950          45.200    92753178.515 8
  23636132.820         968.349          49.100


 120277272.425 7  93722580.16647  22887993.340                    22887994.160
      3530.767        2751.249          47.650          47.850



 117395088.473 7  91476680.38447  22339550.460                    22339552.860
     -3226.450       -2514.120          47.950          42.650



 126797579.997 7  98803285.71946  24128796.800                    24128802.280
     -3383.585       -2636.567          42.650          40.550    94686484.231 7
  24128807.920       -2526.796          44.700


 109057956.062 8  84980215.93248  20753044.800                    20753044.600
     -2207.628       -1720.231          49.950          49.950



 119900362.353 8  93428892.27148  22816261.280                    22816263.200
      -209.765        -163.452          48.250          48.300



 119049121.775 7  92765602.37547  22654275.700                    22654276.120
      1999.329        1557.921          46.900          44.050



 119831579.091 7  93375238.04147  22803199.160                    22803200.460
     -2809.377       -2189.128          47.550          44.350



 118572942.488 7  92394478.81447  22563692.760                    22563695.060
     -1122.557        -874.722          46.300          45.850    88544724.341 8
  22563698.080        -838.308          49.200


 106001191.962 8  82598332.15948  20171357.700                    20171359.700
       790.451         615.937          51.900          51.750    79156745.410 9
  20171361.720         590.283          57.450


 126825253.683 8                  24134051.520
      1265.607                          52.100                    94707163.152 8
  24134056.040         945.069          53.000    97177774.556 8  24134053.620
       969.729          53.900    95942476.508 9  24134055.300         957.406
        56.300
 146807098.703 6                  27936469.220
      2862.588                          41.150                   109628689.648 7
  27936478.400        2137.484          44.250   112488559.038 7  27936474.060
      2193.374          43.850   111058615.498 7  27936476.500        2165.368
        47.050
 128315159.059 7                  24417569.780
     -1864.148                          47.850                    95819767.537 7
  24417574.960       -1392.066          47.400    98319408.958 8  24417572.760
     -1428.250          48.400    97069583.903 8  24417573.720       -1410.214
        50.650
 154686992.668 7                  29435966.140
     -2637.790                          43.200



 125132427.736 8                  23811913.380
      -873.150                          52.850                    93443060.146 8
  23811918.920        -652.000          53.800    95880699.085 9  23811916.140
      -669.011          54.050    94661869.769 9  23811917.940        -660.536
        56.800
 143660063.015 7                  27337620.180
     -2777.651                          44.500                   107278605.945 7
  27337632.560       -2074.222          43.600   110077170.916 7  27337628.360
     -2128.194          44.200   108677886.586 7  27337629.880       -2101.232
        46.550
 149227536.438 6                  28397053.780
      3006.604                          39.850                   111436201.314 7
  28397069.660        2245.159          43.150   114343224.833 7  28397065.000
      2303.694          42.350   112889707.729 7  28397068.060        2274.373
        45.600
 149993911.599 6                  28542893.140
       -15.744                          38.850                   112008472.739 6
  28542903.320         -11.821          41.050   114930417.360 6  28542899.900
       -12.049          40.950   113469442.712 7  28542901.840         -12.068
        43.900
 24  1 20 10 23 30.0000000  0 19G02G10G12G13G14G15G17G19G22G23G24E04
                                E09E19E20E21E27E31E34
 137620351.583 6 107236637.48446  26188282.620                    26188283.740
        72.418          56.428          38.200          36.900



 124169999.047 7  96755835.33847  23628776.780                    23628781.340
      1278.241         996.031          44.800          44.650    92724331.347 8
  23628781.220         954.679          48.900


 120171468.847 8  93640135.91948  22867859.580                    22867860.380
      3522.537        2744.837          48.350          48.450



 117492009.951 8  91552203.47947  22357994.240                    22357996.820
     -3235.107       -2520.868          48.350          42.500



 126899149.517 7  98882430.62646  24148125.200                    24148130.460
     -3387.796       -2639.844          42.450          39.650    94762331.370 7
  24148136.420       -2529.917          44.950


 109124428.714 8  85032012.76048  20765694.040                    20765694.100
     -2224.140       -1733.097          50.350          50.350



 119906925.314 7  93434006.27147  22817510.040                    22817512.060
      -228.321        -177.913          47.600          47.550



 118989376.633 7  92719047.78147  22642906.520                    22642906.680
      1983.558        1545.630          46.900          43.600



 119915975.058 7  93441001.03447  22819259.240                    22819260.800
     -2817.290       -2195.293          47.550          44.500



 118606899.505 7  92420938.77047  22570154.420                    22570157.160
     -1141.312        -889.336          46.050          45.850    88570081.781 8
  22570159.680        -852.410          49.150


 105977682.168 8  82580012.82948  20166883.840                    20166885.900
       776.553         605.105          51.450          51.450    79139189.387 9
  20166888.100         579.953          57.700


 126787435.421 8                  24126854.860
      1255.476                          52.200                    94678922.254 8
  24126859.540         937.520          53.250    97148796.938 8  24126856.840
       961.982          53.500    95913867.254 9  24126858.780         949.715
        56.250
 146721245.646 6                  27920131.820
      2860.831                          41.600                   109564578.536 7
  27920141.240        2136.292          44.650   112422775.483 7  27920136.940
      2191.943          43.200   110993668.157 7  27920139.360        2164.210
        46.900
 128371226.307 7                  24428238.980
     -1873.974                          47.950                    95861635.869 7
  24428244.480       -1399.463          47.500    98362369.509 8  24428241.900
     -1435.879          48.100    97111998.342 8  24428243.040       -1417.699
        50.650
 154766219.730 7                  29451042.780
     -2644.555                          42.550



 125158778.375 8                  23816927.900
      -883.750                          53.100                    93462737.562 8
  23816933.540        -659.978          53.900    95900889.831 8  23816930.460
      -677.211          53.800    94681803.847 9  23816932.300        -668.569
        56.750
 143743422.321 7                  27353483.140
     -2779.752                          43.850                   107340854.597 7
  27353495.700       -2075.907          43.500   110141043.478 7  27353491.320
     -2130.175          43.900   108740947.189 7  27353492.840       -2103.003
        46.300
 149137360.429 6                  28379894.320
      3005.100                          41.400                   111368862.194 6
  28379910.020        2244.024          41.800   114274129.026 6  28379905.360
      2302.456          41.550   112821490.266 7  28379907.940        2273.237
        44.500
 149994601.971 6                  28543024.500
       -30.307                          38.750                   112008988.304 6
  28543034.620         -22.879          41.950   114930946.373 6  28543031.440
       -23.341          40.350   113469964.992 7  28543033.140         -23.123
        44.150
 24  1 20 10 24  0.0000000  0 19G02G10G12G13G14G15G17G19G22G23G24E04
                                E09E19E20E21E27E31E34
 137618422.147 6 107235134.07346  26187915.420                    26187916.720
        56.735          44.213          39.200          38.050



 124131926.470 7  96726168.39347  23621531.980                    23621536.340
      1260.014         981.829          45.700          45.750    92695900.526 8
  23621536.000         940.927          48.450


 120065919.342 8  93557889.64048  22847774.140                    22847775.160
      3514.142        2738.295          48.050          48.000



 117589197.617 8  91627934.01546  22376488.640                    22376491.120
     -3243.788       -2527.631          48.800          41.500



 127000847.806 7  98961675.82946  24167477.940                    24167482.940
     -3391.691       -2642.886          42.500          40.150    94838274.655 7
  24167489.400       -2532.873          45.200


 109191399.120 8  85084197.43648  20778438.060                    20778438.440
     -2240.421       -1745.784          50.850          50.750



 119914049.048 7  93439557.23247  22818865.440                    22818867.200
      -246.683        -192.220          47.050          47.400



 118930108.189 7  92672864.64247  22631628.020                    22631627.920
      1967.814        1533.363          47.100          44.050



 120000612.218 8  93506951.95547  22835365.300                    22835366.920
     -2824.977       -2201.283          48.300          43.500



 118641428.375 7  92447844.31447  22576725.040                    22576728.140
     -1160.223        -904.072          46.750          46.200    88595866.242 8
  22576730.440        -866.436          49.100


 105954592.431 8  82562020.81748  20162489.880                    20162491.920
       762.782         594.376          51.500          51.550    79121947.035 9
  20162494.440         569.658          57.650


 126749927.185 8                  24119717.340
      1245.332                          52.650                    94650912.860 8
  24119722.120         929.970          53.500    97120056.867 8  24119719.040
       954.202          53.450    95885492.519 9  24119721.220         942.077
        56.250
 146635449.244 7                  27903805.200
      2859.065                          42.100                   109500509.734 7
  27903814.900        2134.941          44.150   112357035.302 7  27903810.480
      2190.746          43.550   110928763.672 7  27903812.780        2162.816
        46.550
 128427594.045 7                  24438965.400
     -1883.783                          47.850                    95903728.589 7
  24438971.120       -1406.759          47.400    98405560.310 8  24438968.260
     -1443.374          48.100    97154640.103 8  24438969.520       -1425.059
        50.500
 154845645.954 7                  29466157.300
     -2650.493                          43.250



 125185453.842 8                  23822004.220
      -894.399                          53.400                    93482657.541 8
  23822009.940        -667.885          53.850    95921329.458 8  23822006.660
      -685.326          53.950    94701983.650 9  23822008.500        -676.603
        56.650
 143826854.803 7                  27369360.000
     -2781.812                          44.250                   107403157.886 7
  27369372.780       -2077.453          43.500   110204972.090 7  27369368.220
     -2131.726          43.750   108804063.141 7  27369369.660       -2104.585
        46.150
 149047238.933 6                  28362745.300
      3003.433                          41.650                   111301563.765 6
  28362760.600        2242.751          40.950   114205074.951 6  28362756.260
      2301.250          41.550   112753314.013 7  28362758.240        2271.962
        43.850
 149995738.598 6                  28543240.840
       -44.993                          39.650                   112009837.072 6
  28543250.920         -33.653          41.550   114931817.299 6  28543248.100
       -34.577          41.500   113470824.844 7  28543249.400         -34.193
        44.200
 24  1 20 10 24 30.0000000  0 19G02G10G12G13G14G15G17G19G22G23G24E04
                                E09E19E20E21E27E31E34
 137616965.963 6 107233999.33345  26187638.240                    26187640.180
        40.903          31.870          39.950          34.750



 124094409.608 7  96696934.47947  23614393.020                    23614397.240
      1241.133         967.117          46.150          46.400    92667884.678 8
  23614396.360         926.913          48.200


 119960622.333 8  93475840.11748  22827736.700                    22827737.820
      3505.641        2731.671          48.750          48.700



 117686646.173 8  91703867.82747  22395032.660                    22395035.120
     -3252.737       -2534.604          48.600          42.050



 127102669.255 7  99041017.01746  24186854.040                    24186858.900
     -3396.047       -2646.277          43.600          40.750    94914309.909 7
  24186865.600       -2536.105          44.350


 109258861.465 8  85136765.43048  20791275.780                    20791276.360
     -2257.085       -1758.770          50.900          51.250



 119921729.472 7  93445541.95747  22820326.800                    22820328.460
      -265.320        -206.743          47.100          47.000



 118871315.206 7  92627051.99147  22620440.060                    22620439.800
      1951.562        1520.700          47.100          44.250



 120085484.682 8  93573086.24047  22851516.180                    22851517.740
     -2833.067       -2207.588          48.300          44.100



 118676523.840 7  92475191.36647  22583403.660                    22583406.800
     -1179.453        -919.057          47.900          45.700    88622073.809 8
  22583409.540        -880.637          49.700


 105931919.591 8  82544353.66748  20158175.260                    20158177.160
       748.833         583.506          51.750          51.750    79105016.020 9
  20158180.080         559.204          57.800


 126712726.566 8                  24112638.380
      1234.874                          52.700                    94623133.183 8
  24112643.320         922.145          53.900    97091552.499 8  24112639.760
       946.228          53.150    95857350.498 9  24112642.160         934.176
        56.350
 146549707.160 7                  27887489.080
      2857.128                          42.950                   109436481.460 7
  27887498.780        2133.597          43.950   112291336.757 7  27887494.460
      2189.188          43.050   110863900.259 7  27887496.700        2161.441
        46.200
 128484258.039 8                  24449748.200
     -1893.740                          48.000                    95946042.533 7
  24449754.180       -1414.095          47.700    98448978.113 8  24449750.980
     -1451.062          48.050    97197505.975 8  24449752.380       -1432.526
        50.650
 154925267.004 7                  29481308.880
     -2657.507                          43.200



 125212449.464 8                  23827141.440
      -905.263                          53.550                    93502816.590 8
  23827147.160        -675.994          53.900    95942014.402 8  23827143.840
      -693.631          53.950    94722405.651 9  23827145.620        -684.845
        56.650
 143910355.622 7                  27385249.860
     -2784.610                          43.800                   107465512.195 7
  27385262.720       -2079.376          43.400   110268953.055 7  27385257.920
     -2133.502          43.300   108867230.779 7  27385259.560       -2106.516
        46.000
 148957169.278 7                  28345606.100
      3001.360                          43.750                   111234303.967 6
  28345621.040        2241.263          41.100   114136060.582 6  28345616.940
      2299.702          41.550   112685176.930 7  28345618.500        2270.475
        44.000
 149997317.892 6                  28543541.540
       -59.909                          39.500                   112011016.422 7
  28543551.340         -44.845          42.300   114933027.403 6  28543548.480
       -46.143          41.250   113472019.569 7  28543549.720         -45.534
        44.650
 24  1 20 10 25  0.0000000  0 20G02G10G12G13G14G15G17G19G22G23G24E04
                                E09E18E19E20E21E27E31E34
 137615989.959 6 107233238.81045  26187452.520                    26187454.420
        24.853          19.369          39.100          34.650



 124057456.351 7  96668139.73147  23607361.260                    23607365.580
      1222.822         952.848          46.250          46.400    92640289.715 8
  23607364.120         913.216          48.100


 119855586.650 7  93393994.23047  22807748.840                    22807750.320
      3497.340        2725.205          47.650          47.350



 117784360.641 8  91780008.84646  22413627.280                    22413629.460
     -3261.241       -2541.231          48.550          41.250



 127204618.590 7  99120457.85346  24206254.580                    24206259.140
     -3399.952       -2649.321          43.750          36.850    94990440.667 7
  24206265.980       -2538.912          44.050


 109326820.984 8  85189720.84948  20804208.180                    20804208.780
     -2273.037       -1771.200          50.900          51.300



 119929973.737 7  93451966.04247  22821895.480                    22821897.480
      -283.949        -221.259          46.950          47.200



 118813007.233 7  92581617.26547  22609344.320                    22609344.160
      1935.880        1508.479          46.700          44.250



 120170597.163 8  93639407.54747  22867712.740                    22867714.100
     -2840.646       -2213.493          48.250          42.450



 118712191.014 8  92502983.90847  22590191.200                    22590194.220
     -1197.979        -933.492          48.550          44.850    88648708.328 8
  22590197.620        -894.606          50.300


 105909671.042 8  82527017.13248  20153941.400                    20153943.240
       734.803         572.573          51.400          51.600    79088401.837 9
  20153946.320         548.823          57.750


 126675841.619 8                  24105619.420
      1224.596                          52.500                    94595589.227 9
  24105624.580         914.523          54.100    97063290.007 8  24105620.560
       938.353          53.000    95829447.273 9  24105623.140         926.455
        56.300
 146464027.551 7                  27871184.920
      2855.487                          42.900                   109372499.875 7
  27871194.700        2132.302          44.200   112225686.083 7  27871190.200
      2187.877          42.900   110799084.141 7  27871192.480        2160.079
        46.200
 123427428.627 7                  23487458.580
      2284.933                          47.500                    92169864.128 7
  23487468.220        1706.387          42.800    94574283.707 7  23487463.380
      1750.839          44.550    93372076.572 7  23487466.240        1728.547
        46.200
 128541224.394 7                  24460588.560
     -1903.576                          47.800                    95988582.260 7
  24460594.720       -1421.415          47.700    98492627.577 8  24460591.320
     -1458.454          48.050    97240600.573 8  24460592.760       -1439.942
        50.500
 155005088.673 7                  29496498.740
     -2663.539                          43.750



 125239771.031 8                  23832340.560
      -915.749                          53.150                    93523219.036 8
  23832346.260        -683.820          53.950    95962949.092 9  23832343.020
      -701.693          54.000    94743074.220 9  23832344.780        -692.773
        56.650
 143993930.345 7                  27401153.760
     -2786.507                          43.600                   107527921.683 7
  27401166.580       -2080.888          43.550   110332990.645 7  27401161.560
     -2135.159          43.300   108930454.310 7  27401163.520       -2107.928
        45.900
 148867159.243 7                  28328478.020
      2999.967                          42.400                   111167088.748 7
  28328492.860        2240.033          42.400   114067091.899 7  28328489.200
      2298.557          43.600   112617084.983 7  28328490.140        2269.243
        45.350
 149999346.640 6                  28543927.640
       -74.702                          39.650                   112012531.328 7
  28543937.280         -55.862          42.050   114934581.846 7  28543934.100
       -57.296          42.200   113473554.240 7  28543935.840         -56.581
        44.900
 24  1 20 10 25 30.0000000  0 19G02G10G12G13G14G15G17G19G22G23G24E04
                                E09E19E20E21E27E31E34
 137615487.062 6 107232846.91046  26187356.860                    26187358.680
         8.353           6.511          38.800          37.950



 124021060.411 7  96639779.26747  23600435.400                    23600440.020
      1203.807         938.030          46.400          46.200    92613110.937 8
  23600438.060         898.766          48.050


 119750807.055 7  93312347.88247  22787809.780                    22787811.520
      3488.105        2718.007          47.550          47.500



 117882332.353 8  91856350.30846  22432270.800                    22432272.840
     -3270.147       -2548.170          48.250          41.700



 127306686.469 7  99199991.07446  24225677.540                    24225682.140
     -3404.305       -2652.713          43.550          38.800    95066659.963 7
  24225688.840       -2542.258          44.350


 109395268.746 8  85243056.71048  20817233.460                    20817234.100
     -2289.981       -1784.402          50.700          50.700



 119938774.492 7  93458823.77947  22823570.080                    22823572.480
      -302.779        -235.931          46.850          46.850



 118755178.991 7  92536556.37747  22598339.820                    22598339.860
      1919.347        1495.598          46.250          45.650



 120255939.785 7  93705908.19547  22883953.060                    22883954.260
     -2848.848       -2219.885          47.350          42.800



 118748420.863 8  92531214.89347  22597085.820                    22597088.600
     -1217.245        -948.505          48.750          45.650    88675763.022 8
  22597092.980        -908.999          50.800


 105887839.933 8  82510005.86548  20149787.060                    20149788.900
       720.535         561.455          50.950          50.850    79072099.379 9
  20149791.860         538.019          57.750


 126639266.196 8                  24098659.320
      1213.761                          52.100                    94568276.425 9
  24098664.640         906.378          54.300    97035264.685 8  24098660.200
       930.046          52.950    95801778.211 9  24098663.000         918.207
        56.650
 146378404.410 7                  27854891.640
      2852.913                          43.700                   109308560.463 7
  27854901.300        2130.347          44.050   112160078.695 7  27854896.940
      2185.999          43.400   110734310.733 7  27854898.940        2158.165
        46.600
 128598485.255 7                  24471484.920
     -1913.803                          47.500                    96031341.923 8
  24471491.300       -1429.130          48.000    98536502.722 8  24471487.720
     -1466.443          48.200    97283917.973 8  24471489.200       -1447.756
        50.900
 155085102.686 7                  29511725.060
     -2670.489                          43.100



 125267410.174 8                  23837600.020
      -926.823                          52.600                    93543858.632 8
  23837605.680        -692.121          53.900    95984127.111 9  23837602.580
      -710.185          54.150    94763983.026 9  23837604.340        -701.164
        56.900
 144077570.351 7                  27417070.040
     -2789.166                          43.500                   107590379.931 7
  27417082.860       -2082.918          43.800   110397078.273 7  27417077.400
     -2137.266          42.900   108993727.251 7  27417079.880       -2110.061
        46.200
 148777202.403 6                  28311359.540
      2997.495                          40.850                   111099913.274 7
  28311374.780        2238.417          44.150   113998164.050 7  28311371.460
      2296.805          43.400   112549033.315 7  28311372.060        2267.601
        46.700
 150001817.421 6                  28544397.940
       -90.031                          40.300                   112014376.339 7
  28544407.120         -67.174          42.400   114936475.004 7  28544404.140
       -68.888          43.250   113475423.314 7  28544406.220         -67.977
        45.850
 24  1 20 10 26  0.0000000  0 19G02G10G12G13G14G15G17G19G22G23G24E04
                                E09E19E20E21E27E31E34
 137615461.339 6 107232826.91945  26187352.120                    26187353.400
        -7.497          -5.844          39.750          35.450



 123985227.036 7  96611857.13447  23593616.560                    23593621.380
      1185.020         923.392          46.600          46.450    92586352.226 7
  23593618.980         884.930          47.600


 119646289.407 7  93230905.65647  22767920.520                    22767922.440
      3479.452        2711.267          47.600          47.550



 117980563.441 7  91932893.87746  22450963.580                    22450965.460
     -3278.871       -2554.970          47.750          41.450



 127408874.812 7  99279618.15846  24245123.320                    24245128.300
     -3408.286       -2655.813          43.150          37.450    95142969.189 7
  24245134.780       -2545.107          44.750


 109464206.753 8  85296774.57848  20830352.080                    20830352.540
     -2306.064       -1796.936          51.000          50.950



 119948135.379 7  93466117.96847  22825351.340                    22825353.880
      -321.521        -250.536          47.600          47.600



 118697837.405 7  92491874.70247  22587427.860                    22587428.140
      1903.144        1482.973          46.700          44.100



 120341514.840 7  93772589.96647  22900237.540                    22900238.500
     -2856.357       -2225.735          46.650          43.550



 118785215.599 8  92559886.06747  22604087.880                    22604090.300
     -1235.893        -963.034          49.100          44.950    88703239.556 8
  22604095.760        -922.893          50.850


 105866430.748 8  82493323.37148  20145713.100                    20145715.020
       706.480         550.504          51.750          51.950    79056111.984 9
  20145717.680         527.656          57.250


 126603005.477 8                  24091759.020
      1203.361                          52.150                    94541198.615 8
  24091764.460         898.649          53.950    97007480.489 8  24091759.740
       922.066          52.850    95774347.209 9  24091762.720         910.356
        56.650
 146292843.047 7                  27838610.120
      2851.054                          44.300                   109244667.191 7
  27838619.500        2128.886          43.600   112094518.646 7  27838615.300
      2184.473          43.150   110669584.072 7  27838617.220        2156.753
        46.550
 128656044.090 7                  24482438.000
     -1923.540                          47.900                    96074324.091 7
  24482444.540       -1436.395          47.600    98580606.172 8  24482440.900
     -1473.937          48.050    97327460.784 8  24482442.340       -1455.146
        50.950
 155165312.169 7                  29526988.720
     -2676.985                          43.600



 125295369.767 8                  23842920.360
      -937.352                          52.350                    93564737.517 8
  23842925.980        -699.909          53.400    96005550.668 9  23842923.020
      -718.212          54.000    94785134.244 9  23842924.900        -709.059
        56.900
 144161278.363 7                  27432999.380
     -2791.377                          43.600                   107652888.957 7
  27433012.000       -2084.481          42.900   110461217.997 7  27433006.300
     -2138.843          42.450   109057051.625 7  27433009.260       -2111.585
        45.850
 148687303.776 7                  28294252.260
      2995.532                          42.750                   111032781.271 7
  28294267.640        2237.051          43.350   113929280.736 7  28294264.360
      2295.425          42.400   112481025.651 7  28294264.700        2266.257
        46.100
 150004734.218 6                  28544952.960
      -104.660                          40.300                   112016554.504 7
  28544962.080         -78.146          42.150   114938709.968 7  28544959.320
       -80.193          42.400   113477629.884 7  28544961.320         -79.095
        45.400
 24  1 20 10 26 30.0000000  0 20G02G10G12G13G14G15G17G19G22G23G24G25
                                E04E09E19E20E21E27E31E34
 137615913.361 6 107233179.19945  26187438.080                    26187439.760
       -23.344         -18.187          38.800          35.900



 123949957.201 7  96584374.13747  23586904.980                    23586909.880
      1166.010         908.579          46.300          46.550    92560014.376 7
  23586907.180         870.658          47.700


 119542035.838 7  93149669.19147  22748081.640                    22748083.740
      3470.540        2704.319          47.650          47.850



 118079052.393 7  92009638.37846  22469705.440                    22469707.300
     -3287.495       -2561.689          47.350          41.350



 127511181.878 7  99359337.74346  24264591.760                    24264596.540
     -3412.430       -2659.044          42.650          37.350    95219367.066 7
  24264603.180       -2548.327          44.050


 109533633.423 8  85350873.22648  20843563.700                    20843564.000
     -2322.717       -1809.912          50.550          50.700



 119958056.773 7  93473848.91647  22827239.580                    22827241.920
      -340.059        -264.980          47.950          47.400



 118640984.937 7  92447574.13547  22576609.100                    22576609.420
      1886.606        1470.085          46.150          44.600



 120427320.160 7  93839451.16247  22916565.800                    22916566.680
     -2864.301       -2231.925          47.100          42.550



 118822573.694 8  92588996.21347  22611197.000                    22611199.140
     -1255.027        -977.944          48.350          44.800    88731136.781 8
  22611205.380        -937.140          51.000


 105845444.156 8  82476970.17548  20141719.620                    20141721.700
       692.328         539.477          51.700          51.600    79040440.176 9
  20141723.820         516.907          57.250


 133990523.986 6 104408231.05446  25497548.900                    25497559.140
      3938.396        3068.886          38.100          37.250   100057901.089 6
  25497561.720        2941.334          41.950


 126567060.887 8                  24084918.840
      1192.531                          51.850                    94514356.878 9
  24084924.340         890.534          54.000    96979938.525 8  24084919.600
       913.749          52.950    95747155.356 9  24084922.600         902.154
        56.450
 146207344.941 7                  27822340.540
      2848.576                          44.300                   109180821.171 7
  27822349.700        2127.299          43.350   112029007.088 7  27822345.740
      2182.674          42.900   110604905.281 7  27822347.460        2155.006
        46.000
 128713900.430 7                  24493447.720
     -1933.801                          47.400                    96117528.422 7
  24493454.420       -1444.110          47.800    98624937.587 8  24493450.600
     -1481.782          48.050    97371228.658 8  24493452.100       -1462.943
        50.700
 155245716.337 7                  29542289.140
     -2683.745                          43.350



 125323648.986 8                  23848301.460
      -948.341                          51.750                    93585855.092 8
  23848307.020        -708.145          53.300    96027219.133 9  23848304.280
      -726.611          54.000    94806527.262 9  23848306.280        -717.360
        56.600
 144245053.390 7                  27448941.420
     -2793.908                          43.400                   107715448.008 7
  27448953.720       -2086.297          42.550   110525409.041 7  27448948.120
     -2140.783          42.200   109120426.684 7  27448951.340       -2113.625
        45.250
 148597464.465 6                  28277156.120
      2993.186                          40.750                   110965693.577 7
  28277171.640        2235.276          42.000   113860442.883 7  28277168.340
      2293.662          43.500   112413062.887 7  28277168.480        2264.421
        45.450
 150008097.157 6                  28545592.780
      -119.718                          40.750                   112019065.825 6
  28545601.880         -89.551          41.500   114941286.784 6  28545599.140
       -91.770          41.600   113480173.965 7  28545601.280         -90.743
        44.500
 24  1 20 10 27  0.0000000  0 20G02G10G12G13G14G15G17G19G22G23G24G25
                                E04E09E19E20E21E27E31E34
 137616843.757 6 107233904.25146  26187615.140                    26187616.620
       -38.888         -30.299          38.500          37.350



 123915252.907 7  96557331.83047  23580301.020                    23580305.720
      1147.378         894.061          46.300          46.600    92534098.809 7
  23580303.380         856.968          47.900


 119438048.692 8  93068640.31947  22728293.460                    22728295.400
      3461.964        2697.636          48.000          47.850



 118177798.026 7  92086582.89646  22488496.180                    22488497.720
     -3295.724       -2568.099          47.750          40.400



 127613606.048 7  99439148.56246  24284082.440                    24284087.680
     -3415.956       -2661.792          42.600          38.050    95295852.398 7
  24284093.840       -2550.738          44.000


 109603547.411 8  85405351.60148  20856868.080                    20856868.140
     -2338.328       -1822.076          51.300          51.250



 119968538.931 8  93482016.82448  22829234.640                    22829236.800
      -358.635        -279.456          48.050          48.000



 118584624.279 7  92403656.79247  22565883.960                    22565884.160
      1870.526        1457.555          46.300          44.600



 120513354.100 7  93906490.49446  22932937.460                    22932938.280
     -2871.479       -2237.519          47.200          40.850



 118860493.764 7  92618544.27347  22618412.940                    22618414.900
     -1273.204        -992.109          47.600          44.900    88759453.670 8
  22618421.560        -950.736          50.850


 105824881.095 8  82460947.00048  20137806.740                    20137808.800
       678.452         528.663          51.300          51.250    79025084.629 9
  20137810.600         506.738          57.250


 133872365.268 5 104316159.46745  25475064.040                    25475073.840
      3937.721        3068.356          32.800          31.200    99969665.880 6
  25475075.620        2940.996          38.950


 126531434.046 8                  24078139.080
      1182.521                          51.800                    94487752.421 9
  24078144.660         883.047          54.050    96952640.038 8  24078140.220
       906.072          53.300    95720203.882 9  24078142.960         894.574
        56.600
 146121911.846 7                  27806083.220
      2846.819                          44.600                   109117023.736 7
  27806092.120        2125.868          42.900   111963545.362 7  27806088.460
      2181.351          43.250   110540275.701 7  27806090.100        2153.591
        45.900
 128772054.147 7                  24504514.080
     -1943.109                          47.500                    96160954.833 7
  24504520.780       -1451.107          47.700    98669496.862 7  24504517.060
     -1488.929          47.950    97415221.504 8  24504518.460       -1470.038
        50.600
 155326314.708 7                  29557626.580
     -2689.910                          42.750



 125352247.183 8                  23853743.300
      -958.443                          51.650                    93607210.857 8
  23853748.800        -715.687          53.250    96049132.009 9  23853746.240
      -734.405          54.050    94828161.587 9  23853748.340        -725.050
        56.550
 144328894.540 7                  27464896.200
     -2795.591                          43.950                   107778056.465 7
  27464908.100       -2087.614          42.900   110589650.795 7  27464902.520
     -2142.243          42.250   109183851.783 7  27464905.980       -2114.920
        45.450
 148507685.794 6                  28260071.580
      2991.729                          39.750                   110898651.203 7
  28260087.020        2234.165          43.250   113791651.601 7  28260083.900
      2292.417          43.550   112345146.060 7  28260084.220        2263.314
        46.050
 150011906.593 6                  28546317.620
      -134.364                          39.950                   112021910.523 7
  28546327.100        -100.225          42.300   114944205.718 6  28546323.900
      -102.849          40.900   113483055.775 7  28546326.140        -101.568
        44.700
 24  1 20 10 27 30.0000000  0 21G02G10G12G13G14G15G17G19G22G23G24G25
                                E04E09E15E19E20E21E27E31E34
 137618249.366 5 107234999.61345  26187882.560                    26187883.860
       -55.138         -42.957          35.600          33.400



 123881112.595 7  96530728.98747  23573804.400                    23573808.560
      1128.236         879.146          46.900          46.900    92508604.423 7
  23573807.040         842.562          47.850


 119334327.159 8  92987818.42548  22708555.860                    22708557.880
      3452.739        2690.447          48.300          48.300



 118276795.647 7  92163723.75246  22507334.860                    22507336.260
     -3304.555       -2574.982          47.250          40.050



 127716142.337 7  99519046.76046  24303594.560                    24303599.920
     -3419.876       -2664.845          42.400          38.300    95372421.477 7
  24303606.100       -2553.946          44.150


 109673943.826 8  85460205.88548  20870264.220                    20870264.220
     -2354.777       -1834.894          51.650          51.600



 119979578.134 7  93490618.77847  22831335.540                    22831337.520
      -377.461        -294.127          47.950          47.600



 118528755.264 7  92360122.55547  22555252.340                    22555252.420
      1853.902        1444.601          46.050          44.200



 120599611.243 7  93973703.75246  22949351.580                    22949352.460
     -2879.014       -2243.391          47.150          40.550



 118898971.058 7  92648526.53147  22625734.780                    22625736.780
     -1291.959       -1006.724          47.250          44.800    88788186.657 8
  22625743.420        -964.809          50.500


 105804739.067 8  82445251.91348  20133973.940                    20133975.920
       664.275         517.617          51.700          51.750    79010043.506 9
  20133977.560         496.006          57.000


 133754229.193 5 104224105.37545  25452583.780                    25452592.580
      3937.682        3068.324          34.250          35.100    99881447.424 6
  25452595.300        2940.049          39.000


 126496123.197 8                  24071419.500
      1171.535                          51.850                    94461383.928 8
  24071425.140         874.855          53.900    96925583.668 8  24071421.180
       897.710          53.650    95693491.452 9  24071423.480         886.279
        56.600
 146036542.124 7                  27789837.960
      2844.505                          44.650                   109053273.607 7
  27789846.640        2124.002          42.950   111898132.190 7  27789843.040
      2179.417          43.100   110475694.050 7  27789844.840        2151.741
        45.700
 151787572.820 6                  28884214.680
      1872.642                          40.950                   113347924.357 6
  28884229.760        1398.563          40.100   116304806.865 6  28884225.100
      1434.962          39.600   114826359.273 7  28884228.280        1416.803
        42.700
 128830501.608 7                  24515636.400
     -1953.371                          47.850                    96204600.576 7
  24515643.060       -1458.643          47.550    98714281.202 8  24515639.240
     -1496.743          48.000    97459436.543 8  24515640.700       -1477.694
        50.550
 155407103.287 7                  29572999.960
     -2696.117                          42.650



 125381160.333 8                  23859245.220
      -969.228                          51.700                    93628801.820 8
  23859250.660        -723.788          53.100    96071286.210 9  23859248.160
      -742.660          54.100    94850034.167 9  23859250.320        -733.209
        56.400
 144412797.703 7                  27480862.780
     -2798.051                          44.650                   107840711.214 7
  27480874.280       -2089.461          42.550   110653940.036 7  27480868.780
     -2143.896          42.400   109247323.780 7  27480872.480       -2116.692
        45.300
 148417965.819 6                  28242998.320
      2989.359                          41.850                   110831652.695 7
  28243013.840        2232.373          42.550   113722905.258 7  28243010.460
      2290.634          42.400   112277273.627 7  28243011.000        2261.607
        45.350
 150016159.409 6                  28547126.900
      -149.183                          40.250                   112025086.337 6
  28547136.420        -111.503          41.750   114947464.398 7  28547133.140
      -114.437          42.200   113486273.018 7  28547135.520        -112.951
        44.850
 24  1 20 10 28  0.0000000  0 21G02G10G12G13G14G15G17G19G22G23G24G25
                                E04E09E15E19E20E21E27E31E34
 137620131.463 6 107236466.22846  26188240.720                    26188241.700
       -70.730         -55.104          36.800          36.000



 123847537.874 7  96504566.87147  23567415.420                    23567419.040
      1109.555         864.588          46.900          46.850    92483532.411 7
  23567418.340         828.486          47.850


 119230874.279 8  92907205.85348  22688869.380                    22688871.220
      3443.585        2683.314          48.100          48.200



 118376045.037 7  92241060.83546  22526221.540                    22526222.360
     -3312.825       -2581.426          47.400          40.150



 127818789.833 7  99599031.61546  24323127.820                    24323133.400
     -3423.626       -2667.768          42.950          36.800    95449073.563 7
  24323139.800       -2556.553          45.000


 109744821.651 8  85515435.29748  20883751.960                    20883751.900
     -2370.921       -1847.473          51.400          51.100



 119991175.795 8  93499655.89448  22833542.600                    22833544.380
      -396.125        -308.669          48.750          48.600



 118473381.295 7  92316974.06047  22544714.960                    22544714.940
      1837.233        1431.612          46.150          44.000



 120686090.637 7  94041090.19046  22965808.000                    22965808.960
     -2886.586       -2249.293          46.650          40.350



 118938004.828 7  92678942.41447  22633162.620                    22633164.800
     -1310.635       -1021.275          47.550          45.450    88817335.211 8
  22633171.000        -978.734          50.350


 105785019.638 8  82429886.13148  20130221.580                    20130223.480
       650.035         506.521          51.950          52.050    78995317.957 9
  20130224.980         485.386          56.950


 133636118.101 6 104132070.76146  25430108.100                    25430116.980
      3936.440        3067.347          36.900          37.250    99793247.547 6
  25430119.420        2939.506          40.100


 126461130.578 8                  24064760.500
      1160.898                          51.700                    94435253.090 8
  24064766.180         866.886          53.900    96898771.152 8  24064762.740
       889.508          53.550    95667019.775 9  24064764.580         878.208
        56.500
 145951238.213 7                  27773605.220
      2842.070                          44.850                   108989572.607 7
  27773613.740        2122.283          42.400   111832769.431 7  27773610.340
      2177.652          42.900   110411162.170 7  27773612.020        2149.954
        45.300
 151731538.560 7                  28873551.880
      1862.475                          42.200                   113306080.846 7
  28873566.720        1390.810          42.600   116261871.779 6  28873562.000
      1427.063          41.600   114783969.959 7  28873565.180        1409.004
        44.850
 128889243.525 8                  24526814.780
     -1963.286                          48.250                    96248466.212 7
  24526821.100       -1465.980          47.400    98759291.167 7  24526817.560
     -1504.259          47.550    97503874.342 8  24526819.000       -1485.113
        50.250
 155488082.336 7                  29588409.700
     -2702.742                          42.700



 125410388.451 8                  23864807.180
      -979.808                          52.150                    93650627.977 8
  23864812.620        -731.643          53.200    96093681.745 8  23864810.060
      -750.703          53.900    94872145.013 9  23864812.260        -741.162
        56.300
 144496762.686 7                  27496841.200
     -2800.100                          44.850                   107903412.138 7
  27496852.280       -2091.041          42.100   110718276.648 7  27496846.880
     -2145.455          42.000   109310842.552 7  27496850.680       -2118.291
        44.800
 148328306.522 7                  28225936.980
      2987.439                          43.650                   110764699.475 6
  28225952.080        2230.895          41.500   113654205.427 6  28225948.300
      2289.126          41.500   112209447.110 7  28225949.180        2260.024
        44.150
 150020856.549 6                  28548020.620
      -164.362                          40.050                   112028594.015 6
  28548030.220        -122.725          40.650   114951063.499 6  28548027.200
      -125.798          41.350   113489826.416 7  28548029.220        -124.275
        43.600
 24  1 20 10 28 30.0000000  0 21G02G10G12G13G14G15G17G19G22G23G24G25
                                E04E09E15E19E20E21E27E31E34
 137622491.848 6 107238305.52345  26188689.900                    26188690.920
       -86.860         -67.683          38.050          34.000



 123814531.750 7  96478847.81647  23561134.720                    23561137.800
      1090.305         849.588          46.600          46.400    92458884.963 7
  23561137.560         814.186          47.700


 119127693.549 8  92826805.35248  22669234.720                    22669236.460
      3434.478        2676.218          48.050          48.100



 118475545.779 7  92318593.74546  22545155.960                    22545156.740
     -3321.275       -2588.011          47.500          39.500



 127921548.074 7  99679102.76846  24342682.320                    24342688.060
     -3427.638       -2670.894          43.900          37.700    95525808.346 7
  24342694.500       -2559.356          45.550


 109816180.692 8  85571039.68548  20897331.160                    20897331.200
     -2386.920       -1859.939          50.850          50.950



 120003332.968 8  93509129.00748  22835856.180                    22835857.580
      -415.009        -323.384          48.600          48.400



 118418505.942 7  92274214.08647  22534272.600                    22534272.360
      1820.499        1418.572          46.150          44.500



 120772791.638 7  94108649.30846  22982306.660                    22982307.500
     -2893.987       -2255.058          46.350          40.350



 118977594.731 7  92709791.64447  22640696.260                    22640698.660
     -1329.210       -1035.750          47.150          44.750    88846899.042 8
  22640704.400        -992.600          50.350


 105765724.756 8  82414851.15148  20126550.020                    20126551.740
       635.758         495.396          51.950          52.050    78980909.425 9
  20126553.200         474.790          57.050


 133518035.226 6 104040058.19346  25407637.720                    25407646.600
      3935.581        3066.683          38.550          39.050    99705068.803 7
  25407648.900        2938.762          42.450


 126426458.919 8                  24058162.640
      1150.046                          51.650                    94409361.921 8
  24058168.320         858.785          53.900    96872204.561 8  24058165.220
       881.214          53.700    95640790.894 9  24058166.780         869.998
        56.650
 145866002.875 7                  27757385.380
      2839.706                          44.000                   108925922.830 7
  27757393.880        2120.387          42.600   111767459.207 7  27757390.340
      2175.861          42.950   110346682.174 7  27757392.340        2148.067
        45.400
 151675812.094 6                  28862947.120
      1852.097                          37.250                   113264467.149 6
  28862962.280        1383.096          40.400   116219172.472 6  28862957.440
      1419.021          39.150   114741813.453 7  28862960.580        1401.191
        42.850
 128948280.443 8                  24538049.380
     -1973.124                          48.250                    96292552.146 7
  24538055.380       -1473.393          47.350    98804527.181 7  24538051.840
     -1511.841          47.700    97548535.314 8  24538053.460       -1492.560
        50.350
 155569252.304 7                  29603855.740
     -2709.042                          42.550



 125439931.946 8                  23870429.200
      -990.371                          52.000                    93672689.650 8
  23870434.800        -739.550          53.350    96116318.950 9  23870432.040
      -758.844          54.050    94894494.453 9  23870434.200        -749.189
        56.550
 144580789.776 7                  27512831.400
     -2802.224                          45.450                   107966159.432 7
  27512842.200       -2092.548          42.050   110782660.856 6  27512836.680
     -2147.078          41.800   109374408.301 7  27512840.660       -2119.863
        44.850
 148238710.377 7                  28208887.580
      2985.074                          42.750                   110697793.372 6
  28208902.360        2229.153          41.950   113585553.910 7  28208898.040
      2287.325          42.000   112141668.297 7  28208899.340        2258.270
        44.650
 150025999.392 6                  28548999.240
      -179.271                          39.900                   112032434.365 6
  28549008.860        -133.823          41.700   114955004.099 7  28549006.020
      -137.300          42.800   113493716.878 7  28549007.840        -135.441
        45.050
 24  1 20 10 29  0.0000000  0 21G02G10G12G13G14G15G17G19G22G23G24G25
                                E04E09E15E19E20E21E27E31E34
 137625330.240 6 107240517.22645  26189230.240                    26189230.620
      -102.689         -80.018          39.600          35.550



 123782094.991 7  96453572.41947  23554962.260                    23554964.940
      1071.658         835.059          46.600          46.500    92434662.708 7
  23554964.840         800.257          47.650


 119024786.610 7  92746618.20847  22649652.060                    22649653.720
      3425.581        2669.287          47.350          47.250



 118575295.890 7  92396320.97946  22564137.800                    22564138.480
     -3329.229       -2594.209          47.050          39.850



 128024414.757 7  99759258.43546  24362257.480                    24362263.380
     -3430.829       -2673.378          43.600          41.000    95602624.148 7
  24362269.780       -2561.910          45.450


 109888018.645 8  85627017.25448  20911001.420                    20911001.700
     -2402.735       -1872.264          50.700          50.450



 120016049.026 7  93519037.61247  22838275.920                    22838277.220
      -433.253        -337.601          47.800          47.850



 118364131.031 7  92231844.07547  22523925.640                    22523925.340
      1804.106        1405.799          47.200          44.000



 120859711.788 7  94176379.17346  22998847.200                    22998847.840
     -2901.022       -2260.541          47.500          40.600



 119017738.635 7  92741072.55347  22648335.360                    22648337.960
     -1347.469       -1049.977          47.400          44.750    88876876.560 8
  22648343.400       -1006.159          50.700


 105746854.615 8  82400147.13548  20122959.240                    20122960.820
       621.764         484.491          52.050          52.050    78966818.078 9
  20122962.240         464.378          57.150


 133399981.858 5 103948068.40445  25385172.720                    25385182.140
      3934.529        3065.860          35.750          35.750    99616912.071 6
  25385184.320        2937.964          36.300


 126392109.088 8                  24051626.100
      1139.671                          52.050                    94383711.083 8
  24051631.680         851.032          53.900    96845884.569 8  24051628.800
       873.220          53.650    95614805.477 9  24051630.220         862.128
        56.350
 145780837.182 7                  27741178.740
      2837.726                          44.000                   108862325.025 7
  27741187.280        2119.107          42.400   111702202.367 7  27741183.620
      2174.167          42.950   110282254.853 7  27741185.880        2146.596
        45.100
 151620394.794 6                  28852401.380
      1841.943                          39.200                   113223084.293 6
  28852416.620        1375.655          38.000   116176710.069 6  28852411.460
      1411.313          36.950   114699890.835 6  28852414.860        1393.492
        40.150
 129007611.414 8                  24549339.960
     -1982.655                          48.650                    96336857.663 7
  24549345.380       -1480.468          47.250    98849988.508 7  24549342.160
     -1519.173          47.550    97593418.737 8  24549343.860       -1499.832
        50.000
 155650612.022 7                  29619337.940
     -2715.257                          42.250



 125469789.509 8                  23876111.100
     -1000.497                          52.250                    93694985.844 8
  23876116.820        -747.093          53.550    96139196.789 9  23876113.860
      -766.610          54.050    94917081.470 9  23876115.940        -756.850
        56.400
 144664877.443 7                  27528833.080
     -2803.874                          45.900                   108028951.996 7
  27528843.540       -2093.908          42.050   110847091.507 6  27528838.020
     -2148.597          41.550   109438019.908 7  27528842.180       -2121.276
        44.350
 148149177.865 6                  28191850.020
      2983.357                          41.950                   110630934.900 6
  28191865.020        2227.857          41.900   113516951.256 7  28191860.000
      2285.923          42.000   112073937.732 7  28191861.580        2256.925
        44.350
 150031587.497 6                  28550062.680
      -193.733                          39.750                   112036607.251 6
  28550072.320        -144.545          41.600   114959285.855 7  28550069.740
      -148.347          43.600   113497944.199 7  28550071.280        -146.453
        45.100
 24  1 20 10 29 30.0000000  0 21G02G10G12G13G14G15G17G19G22G23G24G25
                                E04E09E15E19E20E21E27E31E34
 137628645.406 6 107243100.49845  26189861.180                    26189861.420
      -118.662         -92.461          39.900          32.900



 123750227.365 7  96428740.49147  23548898.060                    23548900.480
      1052.581         820.193          46.850          46.950    92410865.449 7
  23548900.440         786.043          47.650


 118922154.317 7  92666645.05047  22630121.780                    22630123.180
      3416.258        2662.021          47.700          47.700



 118675292.614 7  92474240.38246  22583166.640                    22583167.380
     -3337.446       -2600.611          47.250          41.350



 128127386.815 7  99839496.17346  24381852.640                    24381858.620
     -3434.370       -2676.140          42.950          40.550    95679518.611 7
  24381864.920       -2564.632          44.850


 109960332.752 8  85683365.85348  20924762.200                    20924762.800
     -2418.597       -1884.623          50.550          50.600



 120029322.912 7  93529380.86347  22840801.680                    22840803.280
      -451.917        -352.145          47.600          47.550



 118310258.362 7  92189865.41747  22513674.180                    22513673.900
      1787.066        1392.521          47.500          43.900



 120946847.720 8  94244277.18546  23015428.900                    23015429.220
     -2908.378       -2266.272          48.050          39.200



 119058433.464 7  92772782.75947  22656079.300                    22656082.080
     -1365.925       -1064.358          47.550          44.700    88907265.495 8
  22656087.420       -1019.951          50.900


 105728408.497 8  82385773.53748  20119449.080                    20119450.660
       607.563         473.426          52.100          52.000    78953043.383 9
  20119452.080         453.706          57.100


 133281958.291 5 103856102.09145  25362713.360                    25362723.040
      3934.046        3065.500          34.200          33.100    99528777.583 6
  25362725.040        2937.267          39.350


 126358081.146 8                  24045150.960
      1128.604                          52.200                    94358300.617 8
  24045156.320         842.841          53.750    96819811.217 8  24045153.500
       864.816          53.500    95589063.570 9  24045154.900         853.816
        56.250
 145695741.347 7                  27724985.500
      2835.240                          43.500                   108798779.401 6
  27724993.900        2117.138          41.900   111636999.016 7  27724990.180
      2172.311          42.450   110217880.370 7  27724992.740        2144.612
        44.750
 151565287.476 7                  28841914.560
      1831.493                          42.400                   113181932.740 6
  28841930.040        1367.805          36.900   116134484.967 6  28841925.040
      1403.290          36.050   114658202.516 6  28841928.120        1385.485
        39.050
 129067234.889 8                  24560686.200
     -1992.464                          48.700                    96381381.616 7
  24560691.160       -1487.991          47.200    98895673.958 7  24560688.080
     -1526.786          47.550    97638523.437 8  24560689.940       -1507.378
        50.050
 155732159.395 7                  29634856.000
     -2721.526                          42.750



 125499958.886 8                  23881852.320
     -1011.025                          52.600                    93717514.884 8
  23881858.200        -754.987          53.400    96162313.552 8  23881855.040
      -774.680          53.900    94939904.372 9  23881857.040        -764.854
        56.300
 144749023.380 7                  27544845.680
     -2806.101                          45.850                   108091788.034 7
  27544855.960       -2095.371          42.400   110911566.766 6  27544850.440
     -2149.923          41.150   109501675.560 7  27544854.780       -2122.711
        44.500
 148059708.879 6                  28174824.660
      2981.022                          41.250                   110564123.766 6
  28174839.460        2226.164          41.850   113448397.220 7  28174833.920
      2284.092          42.900   112006255.154 7  28174835.960        2255.076
        44.800
 150037619.584 6                  28551210.680
      -208.805                          38.750                   112041111.665 7
  28551220.320        -155.862          42.350   114963907.774 7  28551217.820
      -159.934          42.450   113502507.372 7  28551219.220        -157.903
        44.950
 24  1 20 10 30  0.0000000  0 21G02G10G12G13G14G15G17G19G22G23G24G25
                                E04E09E15E19E20E21E27E31E34
 137632438.093 6 107246055.80145  26190582.920                    26190582.980
      -134.362        -104.704          38.650          35.200



 123718930.471 7  96404353.29447  23542942.320                    23542944.760
      1033.915         805.647          46.050          46.200    92387494.394 7
  23542944.920         772.007          47.800


 118819799.266 8  92586887.96247  22610644.280                    22610645.560
      3407.241        2654.996          48.250          47.950



 118775534.896 7  92552351.11646  22602242.100                    22602242.900
     -3345.339       -2606.760          47.150          40.300



 128230462.838 7  99919814.93046  24401467.660                    24401473.680
     -3437.812       -2678.820          43.100          38.150    95756490.707 7
  24401479.720       -2566.926          44.750


 110033121.486 8  85740084.28448  20938613.320                    20938614.240
     -2434.119       -1896.719          50.550          50.850



 120043154.623 8  93540158.79348  22843433.820                    22843435.600
      -470.228        -366.413          48.400          48.550



 118256890.816 7  92148280.36947  22503518.740                    22503518.540
      1770.492        1379.606          47.200          44.150



 121034197.792 8  94312342.06446  23032051.400                    23032051.560
     -2915.050       -2271.473          48.400          40.100



 119099677.899 8  92804921.21647  22663927.960                    22663930.620
     -1383.677       -1078.193          48.100          44.150    88938064.838 8
  22663936.200       -1033.373          50.950


 105710387.459 8  82371731.16348  20116019.820                    20116021.440
       593.685         462.611          52.300          52.400    78939586.101 9
  20116022.800         443.358          57.000


 133163967.074 6 103764160.85446  25340260.300                    25340270.200
      3932.364        3064.181          38.100          37.750    99440667.221 6
  25340272.560        2936.599          39.550


 126324376.828 8                  24038737.520
      1118.094                          52.450                    94333131.824 8
  24038742.540         834.979          53.650    96793985.842 8  24038739.720
       856.752          53.750    95563566.485 9  24038741.160         845.881
        56.200
 145610717.306 7                  27708806.100
      2833.109                          43.700                   108735287.350 7
  27708814.200        2115.609          42.050   111571850.663 7  27708810.480
      2170.739          43.550   110153560.160 7  27708813.240        2143.189
        45.350
 151510492.301 6                  28831487.160
      1821.239                          38.000                   113141014.322 6
  28831502.760        1360.225          41.750   116092499.114 7  28831497.820
      1395.598          42.000   114616750.370 7  28831500.960        1377.880
        44.450
 129127150.809 8                  24572088.040
     -2001.950                          48.650                    96426123.944 7
  24572092.540       -1494.972          47.050    98941583.486 7  24572089.720
     -1533.915          47.650    97683849.370 8  24572091.660       -1514.446
        49.950
 155813894.001 7                  29650409.620
     -2727.460                          42.700



 125530439.537 8                  23887652.800
     -1021.081                          52.900                    93740276.380 8
  23887658.760        -762.524          53.350    96185668.828 9  23887655.420
      -782.411          54.200    94962962.757 9  23887657.360        -772.453
        56.250
 144833226.929 7                  27560869.140
     -2807.622                          45.900                   108154667.091 7
  27560879.460       -2096.536          42.400   110976086.203 6  27560873.860
     -2151.226          41.350   109565374.803 7  27560878.460       -2123.895
        44.600
 147970304.769 6                  28157811.180
      2979.343                          41.200                   110497361.148 6
  28157825.640        2224.686          41.900   113379892.959 7  28157820.440
      2282.721          43.850   111938621.702 7  28157822.900        2253.801
        45.300
 150044095.989 6                  28552443.060
      -223.404                          39.050                   112045947.832 6
  28552452.840        -166.568          41.850   114968870.077 7  28552450.200
      -170.984          42.000   113507406.610 7  28552451.520        -168.835
        44.550
 24  1 20 10 30 30.0000000  0 21G02G10G12G13G14G15G17G19G22G23G24G25
                                E04E09E15E19E20E21E27E31E34
 137636708.729 6 107249383.62444  26191395.560                    26191396.420
      -150.083        -116.935          36.250          28.450



 123688205.679 7  96380411.89647  23537095.360                    23537098.060
      1014.922         790.849          46.250          46.350    92364550.546 8
  23537098.440         757.881          48.050


 118717723.994 7  92507348.86847  22591220.020                    22591221.000
      3398.264        2648.001          47.400          47.400



 118876021.569 7  92630652.28046  22621364.080                    22621365.300
     -3353.116       -2612.823          46.900          40.950



 128333641.339 7 100000213.56446  24421102.060                    24421108.160
     -3440.503       -2680.919          43.700          38.350    95833539.353 7
  24421113.980       -2569.260          45.400


 110106383.112 8  85797171.20848  20952554.500                    20952555.640
     -2449.521       -1908.719          50.250          50.350



 120057545.304 8  93551372.29048  22846172.500                    22846174.040
      -488.430        -380.596          48.850          48.750



 118204031.005 7  92107090.95747  22493459.860                    22493459.800
      1753.934        1366.703          47.600          44.650



 121121760.482 8  94380572.63446  23048714.360                    23048714.340
     -2921.855       -2276.772          48.700          40.650



 119141470.573 8  92837486.88547  22671881.000                    22671883.420
     -1401.822       -1092.331          48.000          44.300    88969273.567 8
  22671889.460       -1046.906          51.000


 105692792.465 8  82358020.77448  20112671.580                    20112673.320
       579.924         451.889          51.900          51.750    78926446.976 9
  20112674.640         432.958          56.950


 133046010.010 6 103672246.33646  25317814.060                    25317823.920
      3931.633        3063.609          38.700          39.050    99352582.477 7
  25317826.380        2936.139          42.800


 126290997.815 8                  24032385.940
      1107.488                          52.600                    94308205.953 8
  24032390.660         827.032          53.550    96768409.730 8  24032387.780
       848.598          53.450    95538315.494 9  24032389.300         837.821
        56.350
 145525766.959 7                  27692640.740
      2830.741                          43.150                   108671850.300 7
  27692648.620        2113.958          42.250   111506758.758 7  27692644.940
      2169.146          43.350   110089295.691 7  27692647.860        2141.491
        45.700
 151456011.452 6                  28821119.760
      1811.086                          40.300                   113100330.671 6
  28821135.420        1352.527          41.200   116050754.134 6  28821130.700
      1387.853          39.800   114575536.054 7  28821133.660        1370.165
        43.450
 129187359.001 8                  24583545.400
     -2011.410                          48.400                    96471084.522 7
  24583549.720       -1502.073          46.900    98987716.966 7  24583547.060
     -1541.251          47.650    97729396.399 8  24583549.000       -1521.717
        50.150
 155895815.335 7                  29665998.900
     -2733.441                          42.650



 125561230.952 8                  23893512.420
     -1031.170                          52.850                    93763269.926 8
  23893518.320        -770.037          53.150    96209262.216 8  23893514.900
      -790.146          53.900    94986256.225 9  23893516.840        -780.062
        56.350
 144917487.413 7                  27576903.320
     -2809.251                          45.550                   108217588.681 7
  27576913.920       -2097.835          42.600   111040649.238 6  27576908.640
     -2152.550          41.550   109629117.122 7  27576913.020       -2125.285
        45.050
 147880967.184 7                  28140810.800
      2977.315                          42.350                   110430648.100 7
  28140824.500        2223.242          42.200   113311439.560 6  28140819.440
      2281.233          40.800   111871038.486 7  28140822.660        2252.245
        44.400
 150051017.057 6                  28553760.060
      -237.836                          38.000                   112051116.029 7
  28553770.180        -177.566          42.450   114974173.149 7  28553767.360
      -182.120          43.000   113512642.237 7  28553768.760        -179.816
        45.600
 24  1 20 10 31  0.0000000  0 21G02G10G12G13G14G15G17G19G22G23G24G25
                                E04E09E15E19E20E21E27E31E34
 137641456.420 5 107253083.16445  26192298.760                    26192299.960
      -165.547        -129.007          32.750          31.750



 123658053.497 7  96356916.67647  23531357.400                    23531360.240
       995.379         775.620          45.800          45.400    92342034.294 8
  23531360.880         743.292          48.000


 118615929.645 8  92428028.68748  22571849.260                    22571850.080
      3388.336        2640.265          48.400          48.350



 118976750.202 7  92709142.00146  22640532.160                    22640533.660
     -3361.768       -2619.562          46.950          41.450



 128436919.597 7 100080689.92046  24440755.460                    24440761.520
     -3444.495       -2684.029          43.400          40.950    95910662.460 7
  24440767.340       -2572.135          45.550


 110180114.868 8  85854624.46348  20966585.200                    20966586.480
     -2465.608       -1921.255          50.450          50.600



 120072492.183 7  93563019.19447  22849016.700                    22849018.220
      -507.614        -395.544          47.050          46.850



 118151680.633 7  92066298.51547  22483497.920                    22483497.960
      1736.471        1353.096          47.550          45.350



 121209532.783 8  94448966.52646  23065417.140                    23065417.040
     -2929.456       -2282.697          48.550          41.300



 119183808.694 7  92870477.55547  22679937.820                    22679939.900
     -1420.616       -1106.977          47.700          43.750    89000889.594 8
  22679946.480       -1060.766          50.950


 105675623.150 8  82344642.08948  20109404.300                    20109406.060
       565.075         440.318          51.800          51.950    78913625.733 9
  20109407.560         421.965          57.050


 132928087.973 5 103580359.23845  25295374.160                    25295384.200
      3930.166        3062.482          34.650          34.500    99264523.972 7
  25295386.640        2934.678          43.650


 126257944.488 8                  24026096.160
      1096.199                          52.300                    94283523.297 8
  24026100.740         818.577          53.550    96743083.172 8  24026097.760
       839.934          53.600    95513310.886 9  24026099.440         829.275
        56.300
 145440890.819 7                  27676489.620
      2827.729                          43.400                   108608468.712 7
  27676497.620        2111.658          42.650   111441723.731 7  27676493.720
      2166.787          43.850   110025087.380 7  27676496.580        2139.111
        45.950
 151401845.967 6                  28810812.520
      1800.005                          41.000                   113059882.420 6
  28810827.980        1344.027          39.700   116009250.701 6  28810823.520
      1379.324          38.700   114534560.209 7  28810826.300        1361.747
        42.000
 129247858.052 8                  24595057.980
     -2021.567                          48.000                    96516262.306 7
  24595062.240       -1509.649          46.900    99034073.310 7  24595059.820
     -1549.045          47.750    97775163.458 8  24595061.660       -1529.311
        50.100
 155977921.751 7                  29681623.200
     -2740.068                          42.050



 125592331.201 8                  23899430.720
     -1041.938                          52.400                    93786494.106 8
  23899436.540        -778.109          53.050    96233092.244 9  23899433.120
      -798.413          54.000    95009783.327 9  23899435.060        -788.249
        56.300
 145001802.836 7                  27592947.980
     -2811.673                          45.250                   108280551.266 7
  27592958.920       -2099.532          42.900   111105254.371 6  27592954.000
     -2154.384          41.700   109692900.973 7  27592957.920       -2126.936
        45.250
 147791696.053 6                  28123822.560
      2974.531                          41.700                   110363984.647 6
  28123835.760        2221.197          40.700   113243037.011 6  28123830.940
      2279.237          41.350   111803505.482 7  28123834.540        2250.232
        43.750
 150058381.914 6                  28555161.340
      -252.950                          38.700                   112056615.612 7
  28555171.860        -188.906          42.600   114979816.201 7  28555168.700
      -193.892          43.250   113518213.564 7  28555170.380        -191.445
        45.850
 24  1 20 10 31 30.0000000  0 21G02G10G12G13G14G15G17G19G22G23G24G25
                                E04E09E15E19E20E21E27E31E34
 137646682.692 5                  26193293.380
      -182.852                          31.500



 123628476.158 7  96333869.39947  23525728.900                    23525732.000
       976.144         760.631          45.750          45.850    92319947.312 8
  23525732.540         728.980          48.000


 118514419.344 7  92348929.84747  22552532.460                    22552533.080
      3378.718        2632.771          47.800          47.800



 119077720.367 7  92787819.90046  22659746.160                    22659748.080
     -3369.822       -2625.842          46.750          41.850



 128540297.017 7 100161243.52346  24460427.720                    24460433.820
     -3447.871       -2686.662          42.200          39.950    95987859.618 7
  24460439.420       -2574.584          45.150


 110254316.567 8  85912443.89748  20980705.340                    20980706.680
     -2481.366       -1933.534          50.800          50.900



 120087996.897 7  93575100.75947  22851966.940                    22851968.500
      -526.199        -410.027          47.650          47.750



 118099843.100 8  92025905.69147  22473633.600                    22473633.680
      1719.267        1339.690          48.000          44.750



 121297513.974 8  94517523.18846  23082159.620                    23082159.400
     -2936.374       -2288.089          48.950          40.050



 119226691.599 7  92903892.74647  22688098.340                    22688100.000
     -1438.767       -1121.120          47.050          43.100    89032912.463 8
  22688107.080       -1074.319          50.900


 105658881.290 8  82331596.48248  20106218.420                    20106220.100
       550.947         429.309          52.350          52.450    78901123.697 9
  20106221.780         411.296          57.300


 132810204.025 6 103488501.63646  25272941.600                    25272951.780
      3928.382        3061.077          37.950          37.350    99176493.857 6
  25272954.060        2933.633          37.000


 126225219.330 8                  24019868.680
      1085.250                          52.000                    94259085.693 8
  24019873.280         810.414          53.600    96718008.061 8  24019870.180
       831.551          53.550    95488554.529 9  24019872.000         820.986
        56.350
 145356091.631 7                  27660353.140
      2825.102                          43.400                   108545144.543 7
  27660361.120        2109.778          42.900   111376747.655 7  27660357.180
      2164.805          44.000   109960937.253 7  27660359.940        2137.267
        46.100
 151347998.861 6                  28800565.720
      1789.370                          39.600                   113019671.738 6
  28800581.300        1336.269          38.400   115967991.029 5  28800576.740
      1371.354          35.950   114493825.050 6  28800579.500        1353.851
        40.300
 129308648.510 7                  24606625.920
     -2031.324                          47.900                    96561657.695 7
  24606630.320       -1516.943          47.150    99080652.935 7  24606627.980
     -1556.434          47.850    97821150.967 8  24606629.780       -1536.643
        50.350
 156060213.507 6                  29697282.880
     -2746.469                          41.900



 125623740.537 8                  23905407.760
     -1052.239                          52.600                    93809949.091 8
  23905413.400        -785.774          53.050    96257159.100 9  23905410.120
      -806.241          54.000    95033544.250 9  23905412.080        -796.025
        56.350
 145086173.313 7                  27609003.120
     -2813.448                          44.900                   108343554.987 7
  27609014.340       -2100.857          42.750   111169901.690 6  27609009.700
     -2155.715          41.750   109756726.496 7  27609013.380       -2128.269
        45.100
 147702493.760 6                  28106847.500
      2972.239                          41.750                   110297372.481 7
  28106860.460        2219.338          42.150   113174687.212 7  28106856.620
      2277.311          42.850   111736024.495 7  28106859.860        2248.334
        45.200
 150066191.569 6                  28556647.820
      -267.769                          39.700                   112062447.340 7
  28556658.260        -200.134          43.200   114985800.090 7  28556655.000
      -205.327          43.350   113524121.365 7  28556656.620        -202.683
        46.200
 24  1 20 10 32  0.0000000  0 21G02G10G12G13G14G15G17G19G22G23G24G25
                                E04E09E15E19E20E21E27E31E34
 137652385.036 5                  26194378.500
      -198.471                          33.900



 123599472.180 7  96311268.88147  23520209.520                    23520213.060
       957.132         745.817          45.650          45.850    92298288.482 8
  23520213.100         714.693          48.200


 118413192.894 7  92270052.18047  22533269.640                    22533270.300
      3369.311        2625.441          47.500          47.400



 119178928.006 7  92866682.86946  22679005.440                    22679007.660
     -3377.527       -2631.844          46.250          41.900



 128643769.433 6 100241871.12946  24480117.860                    24480124.360
     -3450.341       -2688.587          41.550          40.150    96065127.719 7
  24480129.620       -2576.873          44.850


 110328983.900 8  85970626.16948  20994914.080                    20994915.400
     -2496.632       -1945.430          50.550          50.500



 120104056.963 8  93587615.05348  22855023.060                    22855024.540
      -544.592        -424.359          48.450          48.350



 118048518.564 7  91985912.59847  22463866.900                    22463866.920
      1702.179        1326.374          47.800          45.450



 121385699.431 8  94586239.02846  23098940.840                    23098940.600
     -2943.072       -2293.306          48.350          40.900



 119270115.137 7  92937729.20247  22696361.520                    22696362.940
     -1456.542       -1134.970          46.350          44.200    89065339.032 8
  22696370.340       -1087.717          50.750


 105642565.088 8  82318882.54648  20103113.560                    20103115.200
       536.708         418.214          52.000          51.950    78888939.504 9
  20103117.060         400.775          57.650


 132692357.448 6 103396673.18746  25250516.160                    25250526.620
      3927.332        3060.261          39.150          39.250    99088491.598 6
  25250528.160        2932.819          38.900


 126192821.274 8                  24013703.420
      1074.391                          51.850                    94234892.358 8
  24013708.060         802.303          53.700    96693183.587 8  24013704.860
       823.261          53.650    95464045.624 9  24013706.820         812.772
        56.400
 145271368.525 7                  27644231.100
      2822.657                          43.000                   108481877.210 7
  27644239.020        2107.818          43.300   111311829.884 7  27644235.080
      2162.851          44.500   109896844.702 7  27644237.820        2135.283
        46.700
 151294469.441 6                  28790379.320
      1779.066                          39.050                   112979698.395 6
  28790395.220        1328.353          40.500   115926974.947 6  28790390.440
      1363.025          39.300   114453330.328 7  28790393.160        1345.556
        42.800
 129369727.656 7                  24618248.780
     -2040.878                          47.700                    96607268.669 7
  24618253.340       -1524.053          47.100    99127453.773 7  24618251.120
     -1563.801          47.850    97867356.873 8  24618252.820       -1543.931
        50.300
 156142687.398 6                  29712977.080
     -2752.176                          41.850



 125655455.633 8                  23911442.940
     -1062.384                          52.300                    93833632.404 8
  23911448.360        -793.309          53.100    96281460.243 9  23911445.300
      -814.021          54.100    95057536.476 9  23911447.280        -803.671
        56.300
 145170595.455 7                  27625067.980
     -2814.898                          44.100                   108406597.282 7
  27625079.460       -2102.111          42.550   111234588.595 6  27625075.200
     -2156.826          41.800   109820591.102 7  27625078.640       -2129.622
        45.000
 147613358.839 6                  28089884.920
      2970.207                          40.000                   110230810.685 7
  28089898.980        2217.805          42.600   113106388.977 6  28089894.900
      2275.697          40.250   111668594.486 7  28089898.240        2246.807
        44.500
 150074443.696 6                  28558218.220
      -282.640                          39.950                   112068609.545 7
  28558228.600        -210.958          43.050   114992123.060 7  28558225.740
      -216.556          44.150   113530363.953 7  28558227.080        -213.671
        46.350
 24  1 20 10 32 30.0000000  0 21G02G10G12G13G14G15G17G19G22G23G24G25
                                E04E09E15E19E20E21E27E31E34
 137658566.879 5 107266406.86045  26195554.740                    26195556.140
      -213.548        -166.401          34.500          33.300



 123571046.353 7  96289118.88347  23514800.200                    23514804.260
       938.215         731.077          45.050          44.950    92277061.395 8
  23514803.640         700.694          48.300


 118312255.964 7  92191400.12747  22514061.920                    22514062.500
      3359.988        2618.177          47.950          47.900



 119280375.047 7  92945732.37447  22698310.320                    22698312.920
     -3385.304       -2637.902          46.150          42.700



 128747338.441 7 100322574.00546  24499826.420                    24499833.340
     -3453.697       -2691.200          42.100          40.650    96142467.918 7
  24499838.160       -2578.949          44.300


 110404118.358 8  86029172.43948  21009211.680                    21009212.980
     -2511.903       -1957.329          50.100          50.100



 120120675.527 8  93600564.54048  22858185.620                    22858187.000
      -562.904        -438.629          48.350          48.600



 117997712.574 7  91946323.57847  22454198.740                    22454198.920
      1685.220        1313.159          47.800          45.300



 121474090.891 8  94655115.38346  23115761.160                    23115760.940
     -2949.430       -2298.261          48.100          41.000



 119314080.726 7  92971988.01847  22704727.620                    22704729.120
     -1474.359       -1148.854          45.300          44.400    89098170.383 8
  22704736.580       -1100.832          50.550


 105626678.443 8  82306503.33448  20100090.380                    20100092.080
       522.715         407.311          51.800          51.900    78877076.087 9
  20100094.220         390.402          57.900


 132574553.323 5 103304877.80745  25228098.440                    25228109.320
      3925.859        3059.113          34.950          33.950    99000520.964 6
  25228110.800        2932.157          41.700


 126160754.950 8                  24007601.340
      1063.715                          51.950                    94210946.740 8
  24007605.980         794.379          53.750    96668613.299 8  24007602.740
       815.095          53.650    95439787.672 9  24007604.760         804.726
        56.350
 145186726.394 7                  27628124.480
      2820.308                          43.550                   108418670.329 7
  27628132.400        2106.171          43.750   111246974.143 7  27628128.280
      2161.129          44.250   109832813.396 7  27628131.120        2133.596
        46.600
 151241263.192 6                  28780254.620
      1768.434                          40.150                   112939966.336 6
  28780270.580        1320.686          39.350   115886206.360 6  28780265.800
      1355.177          36.600   114413080.001 6  28780268.240        1337.852
        40.750
 129431098.049 7                  24629927.000
     -2050.267                          47.650                    96653097.135 7
  24629931.780       -1531.041          47.200    99174477.768 7  24629929.500
     -1570.896          47.850    97913783.103 8  24629931.280       -1550.956
        50.250
 156225346.021 6                  29728706.480
     -2758.110                          41.300



 125687478.876 8                  23917536.760
     -1072.160                          52.300                    93857545.823 8
  23917542.000        -800.642          53.150    96305997.493 9  23917539.120
      -821.527          54.050    95081761.812 9  23917541.120        -811.062
        56.250
 145255071.577 7                  27641143.220
     -2816.387                          44.000                   108469679.871 7
  27641154.780       -2103.057          42.450   111299316.863 6  27641150.920
     -2158.027          41.800   109884496.525 7  27641154.100       -2130.579
        44.900
 147524295.780 6                  28072935.940
      2968.104                          38.950                   110164302.467 6
  28072951.080        2216.272          40.150   113038145.732 7  28072947.020
      2274.113          42.200   111601218.759 7  28072949.720        2245.126
        43.800
 150083141.470 6                  28559873.400
      -296.803                          38.600                   112075104.509 7
  28559883.780        -221.754          43.550   114998787.459 7  28559881.140
      -227.536          43.500   113536943.644 7  28559882.320        -224.750
        46.150
 24  1 20 10 33  0.0000000  0 22G02G10G12G13G14G15G17G19G22G23G24G25
                                G32E04E09E15E19E20E21E27E31E34
 137665223.500 5 107271593.86245  26196821.360                    26196822.300
      -229.968        -179.200          34.900          33.400



 123543194.402 7  96267416.06747  23509500.160                    23509504.660
       918.868         716.001          45.300          45.350    92256262.865 8
  23509503.740         686.175          48.350


 118211605.695 8  92112971.44648  22494908.640                    22494909.420
      3350.356        2610.672          48.200          48.050



 119382055.243 7  93024963.55947  22717659.460                    22717662.340
     -3393.133       -2644.003          46.350          42.250



 128850997.258 7 100403346.87146  24519552.220                    24519559.300
     -3456.727       -2693.562          42.900          39.350    96219875.215 7
  24519563.900       -2581.258          44.550


 110479713.142 8  86088077.40548  21023596.920                    21023598.020
     -2527.434       -1969.431          50.250          50.350



 120137847.301 8  93613945.10048  22861453.420                    22861454.900
      -581.450        -453.080          48.650          48.850



 117947422.741 7  91907136.76747  22444628.740                    22444629.140
      1667.771        1299.563          47.600          45.800



 121562681.459 8  94724146.88846  23132619.320                    23132619.320
     -2956.146       -2303.493          48.300          40.050



 119358581.615 7  93006663.94747  22713195.580                    22713197.340
     -1492.097       -1162.676          45.250          43.950    89131401.479 8
  22713204.520       -1114.317          50.000


 105611217.044 8  82294455.48248  20097148.100                    20097149.940
       508.435         396.183          51.750          51.900    78865530.234 9
  20097152.340         379.604          57.900


 132456788.373 6 103213113.06446  25205688.560                    25205699.440
      3924.778        3058.270          38.500          38.150    98912579.815 7
  25205701.100        2930.848          43.300


 137310911.239 6 106995528.39446  26129398.540                    26129400.940
      3589.069        2796.680          38.650          38.300   102537385.562 6
  26129401.700        2680.506          37.900


 126129016.790 8                  24001561.720
      1052.553                          52.100                    94187246.184 8
  24001566.440         785.954          53.600    96644294.466 9  24001563.180
       806.465          54.000    95415777.976 9  24001565.160         796.235
        56.400
 145102161.856 7                  27612032.340
      2817.592                          43.550                   108355521.439 7
  27612040.580        2103.968          43.550   111182177.900 7  27612036.260
      2158.871          44.850   109768840.817 7  27612039.140        2131.529
        46.850
 151188376.825 6                  28770191.000
      1757.617                          41.000                   112900473.092 6
  28770206.760        1312.320          38.500   115845682.933 6  28770202.100
      1346.472          40.700   114373071.663 6  28770204.380        1329.471
        41.950
 129492754.507 7                  24641659.740
     -2059.920                          47.850                    96699139.227 7
  24641664.740       -1538.280          46.800    99221720.962 7  24641662.440
     -1578.350          47.950    97960425.744 8  24641664.180       -1558.291
        50.050
 156308183.557 6                  29744469.940
     -2764.180                          41.350



 125719804.417 8                  23923688.080
     -1082.487                          52.400                    93881684.985 8
  23923693.280        -808.368          53.050    96330766.374 9  23923690.460
      -829.442          54.300    95106215.832 9  23923692.460        -818.897
        56.250
 145339595.746 7                  27657227.700
     -2818.392                          44.250                   108532798.333 7
  27657239.260       -2104.450          42.550   111364081.931 7  27657235.720
     -2159.468          42.650   109948438.285 7  27657238.800       -2131.931
        45.300
 147435300.785 6                  28056000.560
      2965.290                          39.700                   110097844.947 6
  28056016.240        2214.695          41.200   112969954.639 7  28056012.500
      2272.231          43.250   111533894.446 7  28056014.740        2243.444
        44.550
 150092279.896 6                  28561612.320
      -312.045                          38.450                   112081928.473 7
  28561622.840        -232.901          42.050   115005789.464 7  28561620.240
      -238.914          44.650   113543856.621 7  28561621.400        -235.884
        46.000
 24  1 20 10 33 30.0000000  0 22G02G10G12G13G14G15G17G19G22G23G24G25
                                G32E04E09E15E19E20E21E27E31E34
 137672357.455 5 107277152.64744  26198178.960                    26198180.480
      -245.396        -191.222          34.650          29.650



 123515920.145 7  96246163.38947  23504310.060                    23504314.880
       899.789         701.135          45.350          45.300    92235895.721 8
  23504313.980         671.767          48.850


 118111246.514 8  92034769.58048  22475810.820                    22475811.640
      3340.632        2603.095          48.000          48.000



 119483969.205 7  93104376.87946  22737053.120                    22737056.320
     -3400.764       -2649.950          45.950          41.350



 128954746.664 7 100484190.35546  24539295.380                    24539302.340
     -3459.733       -2695.902          42.100          38.600    96297350.148 7
  24539307.100       -2583.559          44.800


 110555768.879 8  86147341.55548  21038069.920                    21038070.920
     -2542.752       -1981.367          50.400          50.550



 120155574.693 8  93627758.61048  22864826.960                    22864828.580
      -599.955        -467.499          48.600          48.650



 117897653.666 7  91868355.71947  22435157.880                    22435158.520
      1650.379        1286.011          47.700          45.450



 121651471.408 7  94793333.75946  23149515.500                    23149515.800
     -2962.801       -2308.679          47.900          40.600



 119403618.372 7  93041757.45147  22721765.640                    22721767.660
     -1510.069       -1176.681          45.450          43.800    89165032.746 8
  22721774.260       -1127.639          49.800


 105596183.885 8  82282741.34148  20094287.320                    20094289.400
       494.105         385.019          52.000          52.100    78854304.182 9
  20094291.880         368.947          58.100


 132339067.278 6 103121382.30646  25183286.980                    25183298.220
      3923.449        3057.229          39.150          38.850    98824671.213 6
  25183298.900        2929.732          40.550


 137203242.113 7 106911630.12746  26108909.740                    26108913.000
      3588.877        2796.521          42.450          41.850   102456983.024 6
  26108913.140        2679.947          41.900


 126097610.520 8                  23995585.300
      1041.484                          52.100                    94163793.469 8
  23995590.120         777.702          53.800    96620229.935 9  23995586.860
       797.979          54.200    95392019.357 9  23995588.700         787.826
        56.350
 145017678.952 7                  27595955.700
      2814.789                          43.050                   108292433.478 7
  27595964.180        2102.032          43.950   111117444.194 7  27595959.760
      2156.802          44.600   109704929.995 7  27595962.740        2129.320
        46.700
 151135814.965 6                  28760189.080
      1746.884                          40.300                   112861222.242 6
  28760204.840        1304.457          41.250   115805408.142 6  28760200.500
      1338.471          41.200   114333308.845 7  28760202.540        1321.419
        43.550
 129554698.761 7                  24653447.320
     -2069.490                          47.700                    96745396.229 7
  24653452.400       -1545.396          47.100    99269184.686 8  24653449.860
     -1585.713          48.050    98007286.114 8  24653451.840       -1565.610
        50.100
 156391201.651 6                  29760267.800
     -2770.017                          41.300



 125752433.770 8                  23929897.200
     -1092.580                          52.250                    93906051.024 8
  23929902.460        -815.884          53.300    96355768.052 9  23929899.620
      -837.158          54.250    95130899.690 9  23929901.640        -826.514
        56.150
 145424169.380 7                  27673321.620
     -2819.767                          44.550                   108595953.755 7
  27673333.160       -2105.729          42.650   111428884.898 7  27673330.200
     -2160.618          43.600   110012417.482 7  27673332.900       -2133.095
        45.450
 147346377.379 6                  28039079.120
      2963.001                          40.200                   110031440.970 6
  28039095.280        2212.672          41.650   112901818.341 7  28039091.280
      2270.320          42.800   111466624.302 7  28039093.400        2241.572
        44.600
 150101861.339 6                  28563435.680
      -326.763                          39.650                   112089083.331 7
  28563446.300        -243.905          43.350   115013130.983 7  28563443.440
      -250.165          44.000   113551104.817 7  28563444.860        -247.134
        46.100
