     2.11           OBSERVATION DATA    M (MIXED)           RINEX VERSION / TYPE
RTKCONV 2.4.2                           20230831 194817 UTC PGM / RUN BY / DATE 
log: C:\Users\oo\Desktop\divers\verniquet\Reseau\verniquet  COMMENT             
format: u-blox                                              COMMENT             
                                                            MARKER NAME         
                                                            MARKER NUMBER       
                                                            OBSERVER / AGENCY   
                                                            REC # / TYPE / VERS 
                                                            ANT # / TYPE        
  4203492.4860   162802.2422  4778377.3147                  APPROX POSITION XYZ 
        0.0000        0.0000        0.0000                  ANTENNA: DELTA H/E/N
     1     1                                                WAVELENGTH FACT L1/2
     4    C1    L1    D1    S1                              # / TYPES OF OBSERV 
  2023     8    31    12    37   22.9970000     GPS         TIME OF FIRST OBS   
  2023     8    31    13    52   21.9980000     GPS         TIME OF LAST OBS    
                                                            END OF HEADER       
 23  8 31 12 37 22.9970000  0 10G 3G 4G 6G 7G 9G11G17G19G31G26
  21499816.323   112982297.576       -2843.509          43.000  
  19639808.450   103207892.250       -1235.679          46.000  
  19798686.418   104042795.367         965.100          48.000  
  23573360.503   123878863.307        3208.102          41.000  
  19431320.438   102112269.184         775.111          48.000  
  22669636.341   119129741.426        3105.542          42.000  
  23062438.422   121193917.990       -3259.106          40.000  
  21923235.491   115207368.537       -3014.542          44.000  
  23275716.780   122314692.941       -2730.181          40.000  
  24431961.489   128390827.594        1504.006          32.000  
 23  8 31 12 37 23.9970000  0 10G 3G 4G 6G 7G 9G11G17G19G31G26
  21500357.506   112985141.514       -2844.839          43.000  
  19640043.889   103209128.435       -1237.406          46.000  
  19798502.545   104041830.910         963.348          47.000  
  23572750.129   123875655.315        3207.144          41.000  
  19431173.123   102111494.649         773.340          48.000  
  22669045.320   119126635.963        3104.472          42.000  
  23063058.358   121197177.449       -3260.748          40.000  
  21923809.114   115210383.499       -3015.856          44.000  
  23276236.169   122317423.345       -2731.697          39.000  
  24431675.341   128389323.734        1502.708          32.000  
 23  8 31 12 37 24.9970000  0 10G 3G 4G 6G 7G 9G11G17G19G31G26
  21500899.126   112987986.366       -2844.856          43.000  
  19640279.309   103210365.817       -1237.319          46.000  
  19798318.742   104040867.730         963.245          47.000  
  23572139.947   123872448.075        3207.609          41.000  
  19431026.070   102110721.357         773.442          48.000  
  22668454.578   119123531.454        3104.840          42.000  
  23063678.504   121200437.700       -3260.004          40.000  
  21924382.685   115213399.561       -3016.060          44.000  
  23276756.063   122320154.930       -2731.495          39.000  
  24431389.262   128387820.997        1502.022          36.000  
 23  8 31 12 37 25.9970000  0 10G 3G 4G 6G 7G 9G11G17G19G31G26
  21501440.275   112990829.637       -2843.546          43.000  
  19640514.643   103211601.923       -1236.315          46.000  
  19798135.096   104039903.345         964.178          47.000  
  23571529.207   123869239.103        3208.889          42.000  
  19430878.634   102109946.835         774.322          48.000  
  22667863.260   119120425.386        3105.914          42.000  
  23064298.196   121203696.298       -3258.588          39.000  
  21924956.134   115216414.276       -3014.980          44.000  
  23277275.381   122322885.195       -2730.702          39.000  
  24431102.764   128386316.733        1504.165          33.000  
 23  8 31 12 37 26.9970000  0 10G 3G 4G 6G 7G 9G11G17G19G31G26
  21501981.336   112993672.897       -2844.703          43.000  
  19640750.029   103212838.293       -1238.108          46.000  
  19797951.607   104038939.296         962.555          47.000  
  23570918.519   123866029.925        3207.778          42.000  
  19430731.127   102109172.616         772.647          48.000  
  22667272.343   119117319.349        3104.483          41.000  
  23064918.063   121206954.806       -3260.034          39.000  
  21925529.706   115219429.101       -3016.324          44.000  
  23277794.508   122325615.715       -2732.152          40.000  
  24430816.458   128384812.849        1502.206          34.000  
 23  8 31 12 37 27.9970000  0 10G 3G 4G 6G 7G 9G11G17G19G31G26
  21502522.729   112996517.225       -2843.835          44.000  
  19640985.712   103214076.014       -1237.336          46.000  
  19797768.100   104037976.700         962.756          47.000  
  23570308.337   123862821.648        3208.633          42.000  
  19430584.056   102108399.793         772.956          48.000  
  22666681.548   119114214.416        3105.406          41.000  
  23065537.982   121210214.301       -3258.923          39.000  
  21926103.573   115222445.203       -3015.820          44.000  
  23278314.036   122328347.597       -2731.625          40.000  
  24430530.205   128383310.225        1503.931          33.000  
 23  8 31 12 38 41.9970000  0 10G 3G 4G 6G 7G 9G11G17G19G31G26
  21542851.858   113208453.5451      -2883.214          44.000  
  19658841.769   103307912.8741      -1297.768          45.000  
  19784683.596   103969211.2321        896.526          47.000  
  23525315.045   123626376.5721       3182.170          43.000  
  19420148.530   102053568.5731        709.827          47.000  
  22623251.813   118885991.0881       3063.717          41.000  
  23111666.376   121452632.0421      -3291.397          44.000  
  21968942.270   115447579.6681      -3068.050          43.000  
  23317201.410   122532712.4891      -2790.657          36.000  
  24409766.994   128274066.9821       1446.869          34.000  
 23  8 31 12 38 42.9970000  0 10G 3G 4G 6G 7G 9G11G17G19G31G26
  21543400.615   113211337.246       -2883.115          44.000  
  19659088.934   103309211.392       -1298.076          45.000  
  19784513.159   103968315.627         895.948          47.000  
  23524709.487   123623194.719        3182.531          44.000  
  19420013.709   102052859.434         709.577          47.000  
  22622669.063   118882927.847        3063.506          41.000  
  23112292.804   121455923.864       -3290.992          44.000  
  21969526.224   115450648.173       -3067.918          43.000  
  23317732.472   122535503.744       -2790.893          36.000  
  24409491.891   128272620.647        1446.764          34.000  
 23  8 31 12 38 43.9970000  0 10G 3G 4G 6G 7G 9G11G17G19G31G26
  21543949.337   113214221.645       -2886.098          44.000  
  19659336.465   103310510.868       -1301.146          45.000  
  19784342.828   103967421.070         892.658          47.000  
  23524104.296   123620013.413        3179.635          44.000  
  19419879.098   102052151.319         706.252          48.000  
  22622086.801   118879865.330        3060.741          41.000  
  23112919.668   121459216.308       -3293.979          44.000  
  21970110.457   115453717.551       -3071.019          43.000  
  23318263.762   122538295.991       -2794.207          36.000  
  24409217.155   128271175.189        1444.055          35.000  
 23  8 31 12 38 44.9970000  0 10G 3G 4G 6G 7G 9G11G17G19G31G26
  21544498.914   113217108.429       -2887.488          44.000  
  19659584.259   103311813.036       -1303.337          45.000  
  19784172.810   103966529.274         890.739          47.000  
  23523499.437   123616834.319        3178.312          45.000  
  19419744.697   102051445.893         704.670          48.000  
  22621504.505   118876805.228        3059.429          41.000  
  23113546.515   121462511.026       -3295.438          45.000  
  21970694.708   115456789.492       -3072.693          43.000  
  23318795.592   122541090.871       -2795.755          36.000  
  24408942.663   128269732.404        1442.165          35.000  
 23  8 31 12 38 45.9970000  0 10G 3G 4G 6G 7G 9G11G17G19G31G26
  21545048.456   113219995.624       -2887.679          43.000  
  19659831.912   103313115.871       -1303.433          45.000  
  19784003.194   103965638.228         890.464          46.000  
  23522894.752   123613655.447        3178.442          44.000  
  19419610.749   102050741.211         703.965          47.000  
  22620922.156   118873745.595        3058.948          41.000  
  23114173.833   121465806.048       -3295.688          44.000  
  21971279.133   115459861.992       -3073.072          43.000  
  23319327.649   122543886.398       -2795.981          36.000  
  24408667.979   128268290.232        1441.181          35.000  
 23  8 31 12 38 46.9970000  0 10G 3G 4G 6G 7G 9G11G17G19G31G26
  21545597.772   113222882.551       -2885.458          43.000  
  19660079.775   103314418.752       -1301.511          45.000  
  19783833.805   103964747.316         892.349          46.000  
  23522289.997   123610476.167        3181.214          44.000  
  19419476.766   102050036.586         706.155          48.000  
  22620339.755   118870685.729        3061.497          42.000  
  23114800.871   121469100.711       -3293.067          43.000  
  21971863.471   115462934.421       -3070.888          43.000  
  23319859.671   122546681.969       -2793.794          36.000  
  24408393.539   128266847.999        1443.854          34.000  
 23  8 31 12 38 47.9970000  0 10G 3G 4G 6G 7G 9G11G17G19G31G26
  21546146.912   113225767.393       -2886.878          43.000  
  19660327.324   103315719.836       -1303.384          44.000  
  19783664.049   103963854.690         890.528          46.000  
  23521684.527   123607294.639        3179.831          44.000  
  19419342.295   102049330.239         704.031          47.000  
  22619756.918   118867623.818        3060.017          43.000  
  23115427.037   121472393.198       -3294.346          41.000  
  21972447.617   115466004.928       -3072.533          43.000  
  23320391.187   122549475.707       -2795.912          36.000  
  24408118.664   128265404.014        1441.521          33.000  
 23  8 31 12 38 48.9970000  0 10G 3G 4G 6G 7G 9G11G17G19G31G26
  21546696.141   113228653.896       -2887.863          44.000  
  19660575.064   103317022.826       -1304.336          45.000  
  19783494.206   103962964.100         889.151          46.000  
  23521079.615   123604114.574        3178.717          44.000  
  19419208.260   102048625.830         702.885          48.000  
  22619174.744   118864563.571        3058.871          42.000  
  23116053.779   121475687.221       -3295.372          44.000  
  21973032.427   115469077.243       -3073.736          43.000  
  23320923.210   122552271.352       -2797.117          37.000  
  24407844.224   128263961.781        1441.384          33.000  
 23  8 31 12 38 49.9970000  0 10G 3G 4G 6G 7G 9G11G17G19G31G26
  21547245.439   113231539.949       -2883.854          44.000  
  19660823.102   103318325.686       -1301.143          45.000  
  19783324.957   103962073.423         892.499          47.000  
  23520474.250   123600933.904        3182.821          44.000  
  19419073.910   102047921.300         706.574          47.000  
  22618592.064   118861502.931        3062.806          42.000  
  23116680.382   121478980.732       -3291.278          43.000  
  21973617.044   115472149.301       -3070.150          43.000  
  23321455.302   122555066.802       -2792.926          37.000  
  24407569.575   128262519.470        1444.186          33.000  
 23  8 31 12 38 50.9970000  0 10G 3G 4G 6G 7G 9G11G17G19G31G26
  21547794.213   113234423.983       -2884.581          43.000  
  19661070.389   103319626.798       -1301.490          45.000  
  19783155.201   103961181.093         891.660          47.000  
  23519868.640   123597751.042        3182.568          44.000  
  19418939.439   102047215.087         705.625          47.000  
  22618009.296   118858440.317        3062.236          42.000  
  23117306.635   121482272.119       -3291.474          43.000  
  21974201.295   115475219.490       -3070.701          44.000  
  23321986.958   122557860.507       -2793.928          37.000  
  24407294.752   128261075.282        1443.414          33.000  
 23  8 31 12 38 51.9970000  0 10G 3G 4G 6G 7G 9G11G17G19G31G26
  21548342.813   113237308.522       -2885.493          43.000  
  19661318.234   103320928.706       -1303.145          45.000  
  19782985.567   103960289.652         890.109          46.000  
  23519263.048   123594568.536        3181.511          44.000  
  19418805.072   102046509.718         704.023          47.000  
  22617426.442   118855378.241        3060.879          41.000  
  23117932.889   121485563.918       -3292.769          43.000  
  21974785.859   115478290.371       -3072.012          44.000  
  23322518.701   122560654.998       -2795.845          37.000  
  24407020.190   128259631.843        1442.274          34.000  
 23  8 31 12 38 52.9970000  0 10G 3G 4G 6G 7G 9G11G17G19G31G26
  21548892.006   113240193.618       -2885.601          42.000  
  19661566.027   103322231.468       -1303.658          45.000  
  19782815.969   103959399.169         889.612          46.000  
  23518657.368   123591386.398        3181.716          44.000  
  19418671.281   102045805.229         703.817          48.000  
  22616843.866   118852316.748        3060.722          42.000  
  23118559.386   121488856.170       -3292.852          42.000  
  21975370.616   115481361.969       -3072.228          44.000  
  23323051.002   122563450.318       -2796.072          37.000  
  24406745.820   128258189.197        1442.303          34.000  
 23  8 31 12 38 53.9970000  0 10G 3G 4G 6G 7G 9G11G17G19G31G26
  21549441.391   113243080.624       -2888.342          43.000  
  19661814.344   103323536.367       -1306.555          45.000  
  19782646.754   103958510.903         887.021          46.000  
  23518052.160   123588205.996        3179.092          43.000  
  19418537.700   102045102.961         700.641          47.000  
  22616262.128   118849257.184        3057.761          42.000  
  23119186.286   121492150.196       -3295.555          42.000  
  21975956.211   115484435.623       -3074.910          44.000  
  23323583.513   122566247.764       -2798.498          37.000  
  24406471.677   128256748.698        1439.100          35.000  
 23  8 31 12 38 54.9970000  0 10G 3G 4G 6G 7G 9G11G17G19G31G26
  21549990.742   113245965.219       -2885.228          44.000  
  19662062.678   103324839.205       -1303.620          45.000  
  19782477.522   103957620.677         889.482          47.000  
  23517446.620   123585023.085        3182.433          44.000  
  19418403.857   102044398.643         703.457          48.000  
  22615679.535   118846195.310        3061.188          42.000  
  23119812.748   121495441.803       -3292.598          42.000  
  21976541.107   115487507.114       -3072.283          44.000  
  23324115.326   122569043.180       -2796.523          34.000  
  24406196.889   128255306.097        1441.281          34.000  
 23  8 31 12 38 55.9970000  0 10G 3G 4G 6G 7G 9G11G17G19G31G26
  21550539.795   113248850.424       -2888.738          43.000  
  19662310.803   103326142.907       -1307.257          45.000  
  19782308.673   103956731.385         885.613          47.000  
  23516841.114   123581840.581        3179.007          45.000  
  19418270.206   102043695.225         699.787          48.000  
  22615096.960   118843134.004        3057.683          42.000  
  23120439.072   121498733.873       -3295.266          43.000  
  21977125.986   115490579.310       -3075.837          44.000  
  23324647.330   122571839.338       -2799.293          36.000  
  24405922.449   128253864.247        1438.608          36.000  
 23  8 31 12 38 56.9970000  0 10G 3G 4G 6G 7G 9G11G17G19G31G26
  21551090.350   113251744.851       -2894.181          43.000  
  19662560.742   103327456.135       -1313.083          45.000  
  19782141.151   103955851.718         879.677          46.000  
  23516237.267   123578667.118        3173.823          45.000  
  19418138.299   102043001.367         694.074          48.000  
  22614516.321   118840082.038        3052.205          43.000  
  23121067.314   121502035.091       -3300.769          43.000  
  21977713.098   115493660.948       -3081.437          45.000  
  23325180.801   122574645.058       -2805.398          36.000  
  24405649.859   128252431.841        1432.555          34.000  
 23  8 31 12 38 57.9970000  0 10G 3G 4G 6G 7G 9G11G17G19G31G26
  21551637.903   113254636.912       -2889.054          43.000  
  19662812.688                       -1308.996          44.000  
  19781971.919   103954970.030         884.248          46.000  
  23515632.495                        3177.867          44.000  
  19418004.020   102042305.459         698.602          47.000  
  22613936.904                        3055.873          42.000  
  23121695.103   121505333.829       -3296.203          42.000  
  21978300.002                       -3078.304          44.000  
  23325714.272   122577448.785       -2803.851          35.000  
  24405374.599                        1434.640          31.000  
 23  8 31 12 38 58.9970000  0 10G 3G 4G 6G 7G 9G11G17G19G31G26
  21552188.248   113257513.0143      -2889.526          43.000  
  19663060.464   103330079.2133      -1308.749          44.000  
  19781804.798   103954085.2563        883.457          47.000  
  23515026.676   123572298.4943       3178.341          44.000  
  19417871.922   102041604.9313        697.726          48.000  
  22613354.398   118833978.9073       3056.719          42.000  
  23122322.351   121508623.4643      -3296.017          42.000  
  21978886.032   115499824.9463      -3077.067          45.000  
  23326244.305   122580240.9773      -2800.958          36.000  
  24405100.334   128249667.5713       1436.727          33.000  
 23  8 31 12 38 59.9970000  0 10G 3G 4G 6G 7G 9G11G17G19G31G26
  21552740.355   113260402.5792      -2888.809          43.000  
  19663308.746   103331388.4512      -1309.008          45.000  
  19781636.665   103953201.8472        883.731          47.000  
  23514424.259   123569119.6842       3179.607          44.000  
  19417737.573   102040907.2022        698.047          48.000  
  22612772.800   118830922.1662       3057.360          42.000  
  23122947.296   121511919.5492      -3295.630          43.000  
  21979471.888   115502902.2242      -3076.799          45.000  
  23326778.264   122583042.6542      -2800.966          36.000  
  24404826.959   128248231.0972       1436.396          34.000  
 23  8 31 12 39  0.9970000  0 10G 3G 4G 6G 7G 9G11G17G19G31G26
  21553289.356   113263292.2462      -2890.471          43.000  
  19663556.696   103332698.0042      -1310.108          45.000  
  19781469.248   103952318.8562        882.260          47.000  
  23513818.004   123565940.7832       3178.516          44.000  
  19417607.394   102040209.8532        696.698          48.000  
  22612191.010   118827865.5162       3056.143          42.000  
  23123575.120   121515215.5542      -3296.449          43.000  
  21980057.273   115505979.7192      -3078.058          45.000  
  23327312.973   122585844.6102      -2802.165          36.000  
  24404554.439   128246794.8442       1435.393          34.000  
 23  8 31 12 39  1.9970000  0 10G 3G 4G 6G 7G 9G11G17G19G31G26
  21553838.899   113266182.9082      -2890.913          43.000  
  19663806.391   103334008.8912      -1311.340          45.000  
  19781300.574   103951437.2752        880.882          47.000  
  23513212.900   123562762.7412       3177.634          44.000  
  19417473.289   102039513.8742        695.365          48.000  
  22611608.120   118824809.9542       3055.313          42.000  
  23124202.996   121518512.5162      -3297.292          42.000  
  21980641.594   115509058.4092      -3079.217          46.000  
  23327846.653   122588647.8642      -2803.822          36.000  
  24404281.937   128245359.8692       1434.358          33.000  
 23  8 31 12 39  2.9970000  0 10G 3G 4G 6G 7G 9G11G17G19G31G26
  21554390.238   113269074.3172      -2891.776          43.000  
  19664057.866   103335320.7952      -1312.473          45.000  
  19781134.989   103950556.8022        879.873          47.000  
  23512608.058   123559585.2752       3177.299          44.000  
  19417342.081   102038818.9462        694.422          48.000  
  22611028.913   118821755.1372       3054.606          42.000  
  23124830.995   121521810.0882      -3297.802          42.000  
  21981228.916   115512138.0062      -3079.947          45.000  
  23328379.042   122591452.1252      -2804.609          36.000  
  24404006.467   128243925.8712       1433.060          33.000  
 23  8 31 12 39  3.9970000  0 10G 3G 4G 6G 7G 9G11G17G19G31G26
  21554940.025   113271965.6292      -2891.225          43.000  
  19664306.794   103336632.8752      -1312.289          45.000  
  19780967.118   103949676.6012        880.015          47.000  
  23512004.385   123556407.5452       3177.618          44.000  
  19417209.669   102038124.2572        694.398          48.000  
  22610445.063   118818700.2962       3054.875          42.000  
  23125458.714   121525107.4642      -3297.521          42.000  
  21981815.994   115515217.6742      -3079.746          45.000  
  23328912.495   122594256.5392      -2804.515          36.000  
  24403734.680   128242491.9602       1434.244          33.000  
 23  8 31 12 39  4.9970000  0 10G 3G 4G 6G 7G 9G11G17G19G31G26
  21555489.811   113274857.5342      -2892.827          43.000  
  19664556.349   103337945.8182      -1313.852          45.000  
  19780800.626   103948797.3602        878.237          47.000  
  23511399.875   123553230.2182       3176.774          44.000  
  19417077.536   102037430.4652        692.749          48.000  
  22609864.006   118815646.0552       3053.273          42.000  
  23126085.334   121528405.3512      -3298.457          42.000  
  21982401.658   115518298.0932      -3081.288          45.000  
  23329444.535   122597061.8122      -2806.328          36.000  
  24403461.637   128241058.9082       1431.624          33.000  
 23  8 31 12 39  5.9970000  0 10G 3G 4G 6G 7G 9G11G17G19G31G26
  21556040.278   113277750.3802      -2893.434          43.000  
  19664806.829   103339260.0162      -1314.926          45.000  
  19780633.697   103947919.4412        877.220          47.000  
  23510794.823   123550053.7062       3176.132          44.000  
  19416945.821   102036737.9502        691.829          48.000  
  22609283.350   118812592.7962       3052.881          42.000  
  23126712.861   121531704.0832      -3299.142          42.000  
  21982987.636   115521379.6252      -3082.064          45.000  
  23329979.908   122599868.2962      -2807.523          36.000  
  24403189.885   128239627.0382       1431.460          33.000  
 23  8 31 12 39  6.9970000  0 10G 3G 4G 6G 7G 9G11G17G19G31G26
  21556590.728   113280643.677       -2893.620          43.000  
  19665056.996   103340574.4321      -1315.136          45.000  
  19780466.803   103947041.8581        876.603          47.000  
  23510190.365   123546876.9711       3176.134          44.000  
  19416814.299   102036046.236         691.102          48.000  
  22608702.327   118809539.5601       3052.217          42.000  
  23127340.929   121535003.204       -3299.613          42.000  
  21983573.964   115524461.802       -3082.802          45.000  
  23330513.989   122602674.9811      -2807.697          36.000  
  24402917.295   128238195.3371       1431.175          33.000  
 23  8 31 12 39  7.9970000  0 10G 3G 4G 6G 7G 9G11G17G19G31G26
  21557141.562   113283537.292       -2893.128          43.000  
  19665307.476   103341889.961       -1315.394          45.000  
  19780299.944   103946165.453         876.513          47.000  
  23509585.977   123543700.871        3176.366          44.000  
  19416683.056   102035355.134         691.284          48.000  
  22608121.392   118806487.133        3052.833          41.000  
  23127968.753   121538302.490       -3298.846          41.000  
  21984160.483   115527544.429       -3082.385          45.000  
  23331048.402   122605482.727       -2807.112          36.000  
  24402644.914   128236764.690        1431.068          33.000  
 23  8 31 12 39  8.9970000  0 10G 3G 4G 6G 7G 9G11G17G19G31G26
  21557692.325   113286431.026       -2894.025          43.000  
  19665557.765   103343205.896       -1316.465          45.000  
  19780133.312   103945289.555         875.308          47.000  
  23508981.536   123540524.739        3175.857          44.000  
  19416551.464   102034664.497         690.220          48.000  
  22607540.666   118803434.904        3051.729          42.000  
  23128596.438   121541601.827       -3299.441          41.000  
  21984746.915   115530627.384       -3083.532          44.000  
  23331583.007   122608290.927       -2808.604          36.000  
  24402372.987   128235334.409        1429.469          33.000  
 23  8 31 12 39  9.9970000  0 10G 3G 4G 6G 7G 9G11G17G19G31G26
  21558243.299   113289325.499       -2894.785          43.000  
  19665808.210   103344522.853       -1317.333          45.000  
  19779966.557   103944414.778         874.218          47.000  
  23508377.445   123537349.220        3175.070          44.000  
  19416420.238   102033974.937         689.069          48.000  
  22606960.045   118800383.457        3051.062          42.000  
  23129224.262   121544901.830       -3300.252          41.000  
  21985333.643   115533711.212       -3084.273          45.000  
  23332117.734   122611100.086       -2809.559          36.000  
  24402100.921   128233905.125        1428.625          33.000  
 23  8 31 12 39 10.9970000  0 10G 3G 4G 6G 7G 9G11G17G19G31G26
  21558794.272   113292220.667       -2895.411          43.000  
  19666059.144   103345840.784       -1318.257          45.000  
  19779800.170   103943541.053         873.116          47.000  
  23507773.650   123534174.165        3174.855          44.000  
  19416289.222   102033286.365         688.059          48.000  
  22606379.250   118797332.729        3050.351          42.000  
  23129852.365   121548202.404       -3300.578          42.000  
  21985920.512   115536795.916       -3085.161          45.000  
  23332652.670   122613910.214       -2810.667          36.000  
  24401828.855   128232476.670        1429.369          32.000  
 23  8 31 12 39 11.9970000  0 10G 3G 4G 6G 7G 9G11G17G19G31G26
  21559345.193   113295115.770       -2895.029          43.000  
  19666310.148   103347158.933       -1318.056          44.000  
  19779633.852   103942667.630         873.411          47.000  
  23507169.279   123530998.902        3175.517          44.000  
  19416158.276   102032598.071         688.134          48.000  
  22605798.471   118794281.963        3050.765          42.000  
  23130480.503   121551502.821       -3300.176          42.000  
  21986507.555   115539880.714       -3084.801          45.000  
  23333187.572   122616720.549       -2810.738          36.000  
  24401557.015   128231048.462        1428.932          32.000  
 23  8 31 12 39 12.9970000  0 10G 3G 4G 6G 7G 9G11G17G19G31G26
  21559896.148   113298010.907       -2895.338          43.000  
  19666561.013   103348477.412       -1319.037          44.000  
  19779467.656   103941794.639         872.338          47.000  
  23506564.856   123527823.518        3175.006          44.000  
  19416027.626   102031910.142         687.333          48.000  
  22605218.147   118791231.273        3050.238          42.000  
  23131108.344   121554803.139       -3300.490          42.000  
  21987094.458   115542965.742       -3085.744          45.000  
  23333722.334   122619531.140       -2810.677          36.000  
  24401285.438   128229620.553        1427.313          32.000  
 23  8 31 12 39 13.9970000  0 10G 3G 4G 6G 7G 9G11G17G19G31G26
  21560447.296   113300907.045       -2896.188          43.000  
  19666811.894   103349797.136       -1319.651          44.000  
  19779302.036   103940922.989         871.608          47.000  
  23505960.782   123524648.953        3174.576          44.000  
  19415897.151   102031223.529         686.383          48.000  
  22604637.596   118788181.628        3049.604          42.000  
  23131736.395   121558104.391       -3301.240          42.000  
  21987681.762   115546051.897       -3086.275          45.000  
  23334257.357   122622343.015       -2812.003          36.000  
  24401013.807   128228193.836        1426.085          32.000  
 23  8 31 12 39 14.9970000  0 10G 3G 4G 6G 7G 9G11G17G19G31G26
  21560998.688   113303803.515       -2896.642          43.000  
  19667063.090   103351117.515       -1320.760          44.000  
  19779135.997   103940052.076         870.415          47.000  
  23505356.725   123521474.576        3174.184          44.000  
  19415766.850   102030537.590         685.557          48.000  
  22604057.324   118785132.362        3049.011          42.000  
  23132364.568   121561405.861       -3301.444          41.000  
  21988269.014   115549138.579       -3086.969          45.000  
  23334792.538   122625155.513       -2812.823          36.000  
  24400742.317   128226767.686        1425.261          32.000  
 23  8 31 12 39 15.9970000  0 10G 3G 4G 6G 7G 9G11G17G19G31G26
  21561549.993   113306700.526       -2897.209          43.000  
  19667314.443   103352438.698       -1321.499          44.000  
  19778970.551   103939182.046         869.663          47.000  
  23504752.912   123518300.561        3174.064          44.000  
  19415636.270   102029852.508         684.874          48.000  
  22603477.348   118782083.658        3048.638          42.000  
  23132992.933   121564707.779       -3301.955          42.000  
  21988855.865   115552225.961       -3087.632          44.000  
  23335328.085   122627968.780       -2813.984          36.000  
  24400471.036   128225342.231        1425.399          32.000  
 23  8 31 12 39 16.9970000  0 10G 3G 4G 6G 7G 9G11G17G19G31G26
  21562101.524   113309597.398       -2896.757          43.000  
  19667565.604   103353760.050       -1321.513          44.000  
  19778804.984   103938312.296         869.451          47.000  
  23504148.681   123515126.270        3174.238          44.000  
  19415506.213   102029167.643         684.473          48.000  
  22602897.094   118779034.896        3048.448          42.000  
  23133621.193   121568009.480       -3301.895          42.000  
  21989442.873   115555313.385       -3087.589          44.000  
  23335863.598   122630782.174       -2813.181          36.000  
  24400199.668   128223916.968        1425.259          32.000  
 23  8 31 12 39 17.9970000  0 10G 3G 4G 6G 7G 9G11G17G19G31G26
  21562653.178   113312494.944       -2897.971          43.000  
  19667817.376   103355082.321       -1322.859          44.000  
  19778639.748   103937443.549         867.959          47.000  
  23503544.834   123511952.443        3173.293          44.000  
  19415375.808   102028483.725         683.290          48.000  
  22602316.909   118775986.789        3047.625          42.000  
  23134249.872   121571311.699       -3302.886          41.000  
  21990030.160   115558401.609       -3088.797          43.000  
  23336399.319   122633596.508       -2814.930          36.000  
  24399928.439   128222492.571        1424.090          33.000  
 23  8 31 12 39 18.9970000  0 10G 3G 4G 6G 7G 9G11G17G19G31G26
  21563204.657   113315393.126       -2898.136          44.000  
  19668069.200   103356405.517       -1323.012          45.000  
  19778474.564   103936575.845         867.462          47.000  
  23502940.864   123508779.127        3173.234          44.000  
  19415245.664   102027800.832         682.643          48.000  
  22601737.021   118772939.404        3047.512          42.000  
  23134878.359   121574614.526       -3302.926          42.000  
  21990617.779   115561490.671       -3089.119          44.000  
  23336935.285   122636411.753       -2814.997          36.000  
  24399657.681   128221069.085        1423.362          33.000  
 23  8 31 12 39 19.9970000  0 10G 3G 4G 6G 7G 9G11G17G19G31G26
  21563756.294   113318291.615       -2898.041          44.000  
  19668321.251   103357729.350       -1323.581          45.000  
  19778309.380   103935708.831         867.048          47.000  
  23502336.808   123505605.951        3173.817          43.000  
  19415116.061   102027118.546         682.407          48.000  
  22601156.958   118769892.362        3047.302          42.000  
  23135507.020   121577917.528       -3302.710          42.000  
  21991205.397   115564580.221       -3089.274          44.000  
  23337471.565   122639227.553       -2815.355          37.000  
  24399386.819   128219646.106        1423.845          33.000  
 23  8 31 12 39 20.9970000  0 10G 3G 4G 6G 7G 9G11G17G19G31G26
  21564307.755   113321189.854       -2898.628          44.000  
  19668573.284   103359053.171       -1324.227          45.000  
  19778144.336   103934841.900         866.472          47.000  
  23501733.013   123502432.353        3173.248          43.000  
  19414985.865   102026436.312         681.740          47.000  
  22600577.087   118766845.085        3047.087          42.000  
  23136135.647   121581220.163       -3302.760          42.000  
  21991793.313   115567669.638       -3089.618          44.000  
  23338007.235   122642043.383       -2816.441          37.000  
  24399116.201   128218223.131        1422.719          33.000  
 23  8 31 12 39 21.9970000  0 10G 3G 4G 6G 7G 9G11G17G19G31G26
  21564859.671   113324088.898       -2899.648          43.000  
  19668825.667   103360378.101       -1325.743          45.000  
  19777979.868   103933976.159         864.993          47.000  
  23501129.095   123499259.392        3172.285          43.000  
  19414855.844   102025755.208         680.641          47.000  
  22599997.443   118763798.659        3045.889          41.000  
  23136764.256   121584523.542       -3303.842          41.000  
  21992381.368   115570760.077       -3091.260          44.000  
  23338543.305   122644860.227       -2817.088          36.000  
  24398845.461   128216801.170        1421.076          33.000  
 23  8 31 12 39 22.9970000  0 10G 3G 4G 6G 7G 9G11G17G19G31G26
  21565411.569   113326988.568       -2899.639          44.000  
  19669077.770   103361703.957       -1326.211          45.000  
  19777815.242   103933111.460         864.243          47.000  
  23500525.074   123496086.887        3172.454          43.000  
  19414726.119   102025075.085         680.032          47.000  
  22599417.922   118760752.923        3045.931          42.000  
  23137393.162   121587827.437       -3303.909          41.000  
  21992969.684   115573851.307       -3091.197          44.000  
  23339079.393   122647678.010       -2817.673          37.000  
  24398575.227   128215380.090        1421.120          33.000  
 23  8 31 12 39 23.9970000  0 10G 3G 4G 6G 7G 9G11G17G19G31G26
  21565963.589   113329888.617       -2900.085          44.000  
  19669330.240   103363030.439       -1326.698          45.000  
  19777650.966   103932247.463         863.879          47.000  
  23499921.785   123492914.577        3172.259          43.000  
  19414596.568   102024395.641         679.157          47.000  
  22598838.382   118757707.587        3045.287          42.000  
  23138022.312   121591131.599       -3304.230          40.000  
  21993558.193   115576943.050       -3091.645          44.000  
  23339615.447   122650496.437       -2818.934          37.000  
  24398304.993   128213959.610        1420.511          33.000  
 23  8 31 12 39 24.9970000  0 10G 3G 4G 6G 7G 9G11G17G19G31G26
  21566515.365   113332788.481       -2899.997          44.000  
  19669582.867   103364357.031       -1326.536          45.000  
  19777486.463   103931383.687         863.413          47.000  
  23499317.623   123489741.993        3172.539          44.000  
  19414467.140   102023716.371         679.006          47.000  
  22598258.808   118754662.116        3045.570          42.000  
  23138651.096   121594435.473       -3303.536          41.000  
  21994146.928   115580034.787       -3091.693          44.000  
  23340151.674   122653314.918       -2818.794          36.000  
  24398035.125   128212539.196        1420.234          33.000  
 23  8 31 12 39 25.9970000  0 10G 3G 4G 6G 7G 9G11G17G19G31G26
  21567067.595   113335689.059       -2901.299          44.000  
  19669835.651   103365684.632       -1328.452          45.000  
  19777321.977   103930520.978         861.788          47.000  
  23498713.950   123486569.884        3171.541          44.000  
  19414338.305   102023038.111         677.379          47.000  
  22597679.636   118751617.390        3044.132          42.000  
  23139279.932   121597739.948       -3304.949          42.000  
  21994735.262   115583127.428       -3093.385          44.000  
  23340688.077   122656134.377       -2820.477          36.000  
  24397765.205   128211119.698        1419.177          33.000  
 23  8 31 12 39 26.9970000  0 10G 3G 4G 6G 7G 9G11G17G19G31G26
  21567619.615   113338590.321       -2901.812          44.000  
  19670089.010   103367013.197       -1329.197          45.000  
  19777157.858   103929659.352         860.816          47.000  
  23498110.417   123483398.331        3170.999          43.000  
  19414209.767   102022360.884         676.612          47.000  
  22597100.428   118748573.402        3043.415          42.000  
  23139908.873   121601045.056       -3305.953          41.000  
  21995323.893   115586220.899       -3094.116          44.000  
  23341225.212   122658954.789       -2821.392          37.000  
  24397495.652   128209701.163        1418.015          33.000  
 23  8 31 12 39 27.9970000  0 10G 3G 4G 6G 7G 9G11G17G19G31G26
  21568171.809   113341492.096       -2901.605          43.000  
  19670342.004   103368342.541       -1329.417          45.000  
  19776993.878   103928798.588         860.616          47.000  
  23497506.797   123480227.116        3171.390          43.000  
  19414081.176   102021684.478         676.365          47.000  
  22596521.517   118745529.955        3043.434          42.000  
  23140538.058   121604350.510       -3305.281          41.000  
  21995912.943   115589315.037       -3093.997          44.000  
  23341762.260   122661775.917       -2820.886          37.000  
  24397225.854   128208283.341        1417.750          33.000  
 23  8 31 12 39 28.9970000  0 10G 3G 4G 6G 7G 9G11G17G19G31G26
  21568723.882   113344393.528       -2901.488          43.000  
  19670594.927   103369671.841       -1329.605          45.000  
  19776830.020   103927937.867         860.417          47.000  
  23496902.967   123477055.396        3171.667          43.000  
  19413952.777   102021008.069         676.028          47.000  
  22595942.519   118742486.205        3043.639          42.000  
  23141166.964   121607655.542       -3304.765          42.000  
  21996501.835   115592409.023       -3094.196          44.000  
  23342299.063   122664597.045       -2821.651          36.000  
  24396956.178   128206865.437        1417.820          33.000  
 23  8 31 12 39 29.9970000  0 10G 3G 4G 6G 7G 9G11G17G19G31G26
  21569276.094   113347295.527       -2902.689          44.000  
  19670847.955   103371002.000       -1331.031          45.000  
  19776666.407   103927078.097         858.910          47.000  
  23496299.242   123473884.090        3170.614          43.000  
  19413824.501   102020332.564         674.481          48.000  
  22595363.311   118739443.067        3042.561          42.000  
  23141796.219   121610961.094       -3306.386          41.000  
  21997090.763   115595503.734       -3095.505          44.000  
  23342835.989   122667418.980       -2822.900          36.000  
  24396686.502   128205448.356        1415.935          33.000  
 23  8 31 12 39 30.9970000  0 10G 3G 4G 6G 7G 9G11G17G19G31G26
  21569828.585   113350198.282       -2902.712          44.000  
  19671101.559   103372333.178       -1331.454          44.000  
  19776503.283   103926219.454         858.490          47.000  
  23495695.883   123470713.377        3171.038          43.000  
  19413696.364   102019658.132         674.285          48.000  
  22594784.348   118736400.734        3042.450          42.000  
  23142425.316   121614267.256       -3305.966          41.000  
  21997679.864   115598599.336       -3095.370          44.000  
  23343372.897   122670241.900       -2822.778          36.000  
  24396417.333   128204032.209        1416.095          33.000  
 23  8 31 12 39 31.9970000  0 10G 3G 4G 6G 7G 9G11G17G19G31G26
  21570381.042   113353101.362       -2903.116          44.000  
  19671355.041   103373664.972       -1332.192          44.000  
  19776339.914   103925361.511         857.598          47.000  
  23495092.577   123467542.837        3170.544          43.000  
  19413568.244   102018984.355         673.442          48.000  
  22594205.611   118733358.765        3041.858          42.000  
  23143054.275   121617573.668       -3306.827          41.000  
  21998269.298   115601695.470       -3096.546          44.000  
  23343910.172   122673065.443       -2823.927          36.000  
  24396148.373   128202616.615        1415.726          34.000  
 23  8 31 12 39 32.9970000  0 10G 3G 4G 6G 7G 9G11G17G19G31G26
  21570933.725   113356004.530       -2903.329          44.000  
  19671608.593   103374997.120       -1332.462          45.000  
  19776176.649   103924504.023         857.125          47.000  
  23494489.672   123464372.199        3170.660          43.000  
  19413440.160   102018310.976         673.103          48.000  
  22593627.137   118730316.904        3041.777          42.000  
  23143683.617   121620880.029       -3306.622          41.000  
  21998858.382   115604791.818       -3096.477          44.000  
  23344447.552   122675889.292       -2823.813          36.000  
  24395879.535   128201201.386        1414.798          33.000  
 23  8 31 12 39 33.9970000  0 10G 3G 4G 6G 7G 9G11G17G19G31G26
  21571486.269   113358908.051       -2903.860          44.000  
  19671862.179   103376329.918       -1333.234          45.000  
  19776013.455   103923647.275         856.312          47.000  
  23493886.313   123461201.781        3169.995          43.000  
  19413312.163   102017638.293         672.149          48.000  
  22593048.487   118727275.453        3041.155          42.000  
  23144312.854   121624186.680       -3307.157          40.000  
  21999447.624   115607888.705       -3097.245          44.000  
  23344985.472   122678713.808       -2824.747          36.000  
  24395610.487   128199786.742        1413.831          33.000  
 23  8 31 12 39 34.9970000  0 10G 3G 4G 6G 7G 9G11G17G19G31G26
  21572038.708   113361812.179       -2904.153          44.000  
  19672115.906   103377663.618       -1334.127          45.000  
  19775850.575   103922791.518         855.155          47.000  
  23493283.041   123458031.793        3169.775          43.000  
  19413183.973   102016966.559         671.193          48.000  
  22592469.838   118724234.661        3040.507          42.000  
  23144942.144   121627493.810       -3307.211          41.000  
  22000037.284   115610986.368       -3098.002          44.000  
  23345523.323   122681539.182       -2825.718          36.000  
  24395341.562   128198372.932        1413.826          33.000  
 23  8 31 12 39 35.9970000  0 10G 3G 4G 6G 7G 9G11G17G19G31G26
  21572591.705   113364716.854       -2905.089          44.000  
  19672370.120   103378998.137       -1334.840          45.000  
  19775687.956   103921936.654         854.559          47.000  
  23492679.491   123454862.174        3169.622          43.000  
  19413055.906   102016295.645         670.496          47.000  
  22591891.067   118721194.433        3040.111          42.000  
  23145571.434   121630801.385       -3307.385          41.000  
  22000626.857   115614084.726       -3098.612          44.000  
  23346061.278   122684365.346       -2826.533          36.000  
  24395072.514   128196959.882        1413.338          33.000  
 23  8 31 12 39 36.9970000  0 10G 3G 4G 6G 7G 9G11G17G19G31G26
  21573144.371   113367621.389       -2904.152          44.000  
  19672624.178   103380332.815       -1334.682          45.000  
  19775525.337   103921082.058         854.730          47.000  
  23492076.184   123451692.286        3170.321          43.000  
  19412928.345   102015624.977         670.820          47.000  
  22591312.505   118718154.149        3040.533          42.000  
  23146200.636   121634108.775       -3307.335          41.000  
  22001216.640   115617183.135       -3098.302          44.000  
  23346599.181   122687191.642       -2825.811          36.000  
  24394803.572   128195547.003        1412.441          33.000  
 23  8 31 12 39 37.9970000  0 10G 3G 4G 6G 7G 9G11G17G19G31G26
  21573697.159   113370526.342       -2905.027          44.000  
  19672878.149   103381668.173       -1335.643          45.000  
  19775363.033   103920228.243         853.455          47.000  
  23491473.297   123448522.640        3169.405          43.000  
  19412800.662   102014955.030         669.681          47.000  
  22590734.030   118715114.294        3039.778          42.000  
  23146830.048   121637416.386       -3307.172          41.000  
  22001806.649   115620282.109       -3099.197          44.000  
  23347137.468   122690018.623       -2826.786          36.000  
  24394534.542   128194134.665        1412.528          32.000  
 23  8 31 12 39 38.9970000  0 10G 3G 4G 6G 7G 9G11G17G19G31G26
  21574250.017   113373431.788       -2905.720          44.000  
  19673132.520   103383004.315       -1336.451          45.000  
  19775200.973   103919375.310         852.228          47.000  
  23490870.147   123445353.332        3169.228          43.000  
  19412673.310   102014285.911         668.471          47.000  
  22590155.643   118712075.004        3038.950          42.000  
  23147459.652   121640724.463       -3308.364          41.000  
  22002396.554   115623381.750       -3099.958          44.000  
  23347675.632   122692846.352       -2828.208          36.000  
  24394266.053   128192723.131        1411.307          32.000  
 23  8 31 12 39 39.9970000  0 10G 3G 4G 6G 7G 9G11G17G19G31G26
  21574803.189   113376337.683       -2906.027          44.000  
  19673387.102   103384341.175       -1337.153          45.000  
  19775038.965   103918523.163         851.910          47.000  
  23490267.085   123442184.289        3169.089          43.000  
  19412545.749   102013617.545         667.972          47.000  
  22589577.116   118709036.156        3038.690          42.000  
  23148089.256   121644032.859       -3308.758          40.000  
  22002986.720   115626481.999       -3100.495          44.000  
  23348214.024   122695674.763       -2828.431          37.000  
  24393997.564   128191312.234        1411.093          32.000  
 23  8 31 12 39 40.9970000  0 10G 3G 4G 6G 7G 9G11G17G19G31G26
  21575356.012   113379243.828       -2905.757          44.000  
  19673641.630   103385678.593       -1337.442          45.000  
  19774877.201   103917671.690         851.642          47.000  
  23489663.919   123439015.365        3169.314          43.000  
  19412418.502   102012949.775         667.926          47.000  
  22588998.920   118705997.648        3038.713          42.000  
  23148718.842   121647341.401       -3308.186          40.000  
  22003576.817   115629582.681       -3100.566          44.000  
  23348752.573   122698503.732       -2828.624          37.000  
  24393729.354   128189901.882        1410.766          32.000  
 23  8 31 12 39 41.9970000  0 10G 3G 4G 6G 7G 9G11G17G19G31G26
  21575908.870   113382150.151       -2906.874          44.000  
  19673896.107   103387016.463       -1338.650          45.000  
  19774715.403   103916820.744         850.322          47.000  
  23489060.979   123435846.438        3168.503          42.000  
  19412291.238   102012282.494         666.660          47.000  
  22588420.620   118702959.346        3037.706          42.000  
  23149348.254   121650650.041       -3309.012          40.000  
  22004166.651   115632683.690       -3101.603          44.000  
  23349290.877   122701333.094       -2829.817          36.000  
  24393460.812   128188491.924        1408.765          32.000  
 23  8 31 12 39 42.9970000  0 10G 3G 4G 6G 7G 9G11G17G19G31G26
  21576462.268   113385057.153       -2906.933          44.000  
  19674150.880   103388355.283       -1338.784          45.000  
  19774553.692   103915970.870         849.549          47.000  
  23488457.794   123432678.050        3168.316          43.000  
  19412164.566   102011616.250         665.860          47.000  
  22587843.000   118699921.760        3037.377          42.000  
  23149978.050   121653959.253       -3309.366          40.000  
  22004756.643   115635785.547       -3102.045          44.000  
  23349829.460   122704163.415       -2830.273          37.000  
  24393194.138   128187082.872        1408.831          31.000  
 23  8 31 12 39 43.9970000  0 10G 3G 4G 6G 7G 9G11G17G19G31G26
  21577015.353   113387964.613       -2907.513          44.000  
  19674405.863   103389694.853       -1339.759          45.000  
  19774392.522   103915121.824         848.618          47.000  
  23487854.837   123429509.943        3167.810          43.000  
  19412038.070   102010950.768         665.170          47.000  
  22587265.101   118696884.675        3036.827          42.000  
  23150607.689   121657268.832       -3309.712          40.000  
  22005346.949   115638888.037       -3102.661          44.000  
  23350368.428   122706994.470       -2831.172          37.000  
  24392921.042   128185674.509        1407.719          31.000  
 23  8 31 12 39 44.9970000  0 10G 3G 4G 6G 7G 9G11G17G19G31G26
  21577568.874   113390872.264       -2906.908          44.000  
  19674660.653   103391034.898       -1339.611          45.000  
  19774231.282   103914273.346         848.810          47.000  
  23487251.984   123426341.881        3168.448          43.000  
  19411911.660   102010285.812         665.188          47.000  
  22586687.115   118693847.816        3037.281          42.000  
  23151237.537   121660578.505       -3309.316          40.000  
  22005937.412   115641990.885       -3102.445          44.000  
  23350907.483   122709825.980       -2831.206          37.000  
  24392653.583   128184266.553        1408.528          31.000  
 23  8 31 12 39 45.9970000  0 10G 3G 4G 6G 7G 9G11G17G19G31G26
  21578122.116   113393779.767       -2908.010          44.000  
  19674915.706   103392375.069       -1340.790          45.000  
  19774069.815   103913425.080         847.711          47.000  
  23486649.009   123423173.489        3168.015          42.000  
  19411785.373   102009621.023         664.075          47.000  
  22586109.426   118690810.842        3036.498          42.000  
  23151867.524   121663887.897       -3309.793          40.000  
  22006527.980   115645093.725       -3103.383          44.000  
  23351446.153   122712657.563       -2831.959          37.000  
  24392385.949   128182858.718        1407.005          31.000  
 23  8 31 12 39 46.9970000  0 10G 3G 4G 6G 7G 9G11G17G19G31G26
  21578675.636   113396688.237       -2908.635          44.000  
  19675170.950   103393716.489       -1341.817          45.000  
  19773908.627   103912578.174         846.514          47.000  
  23486046.244   123420005.931        3167.401          42.000  
  19411659.365   102008957.533         663.152          48.000  
  22585531.666   118687774.898        3035.877          42.000  
  23152497.059   121667198.200       -3310.590          40.000  
  22007118.478   115648197.714       -3104.266          44.000  
  23351985.191   122715490.403       -2833.119          37.000  
  24392122.538   128181452.122        1405.915          32.000  
 23  8 31 12 39 47.9970000  0 10G 3G 4G 6G 7G 9G11G17G19G31G26
  21579229.262   113399597.234       -2909.500          44.000  
  19675426.317   103395058.709       -1342.986          45.000  
  19773747.893   103911732.155         845.316          47.000  
  23485443.374   123416838.712        3166.891          42.000  
  19411533.340   102008294.888         662.053          48.000  
  22584954.169   118684739.514        3034.849          42.000  
  23153126.872   121670508.871       -3311.175          40.000  
  22007709.464   115651302.379       -3105.344          44.000  
  23352524.612   122718324.013       -2834.148          37.000  
  24391852.879   128180046.237        1405.456          32.000  
 23  8 31 12 39 48.9970000  0 10G 3G 4G 6G 7G 9G11G17G19G31G26
  21579782.800   113402506.447       -2908.912          44.000  
  19675681.543   103396401.454       -1342.807          45.000  
  19773587.037   103910886.759         845.391          47.000  
  23484840.539   123413671.580        3167.471          43.000  
  19411407.541   102007632.803         662.290          48.000  
  22584376.654   118681704.398        3035.356          42.000  
  23153757.156   121673819.690       -3310.455          40.000  
  22008300.329   115654407.438       -3104.908          43.000  
  23353063.911   122721158.130       -2834.395          37.000  
  24391584.687   128178640.866        1404.895          32.000  
 23  8 31 12 39 49.9970000  0 10G 3G 4G 6G 7G 9G11G17G19G31G26
  21580336.548   113405415.547       -2909.281          44.000  
  19675937.015   103397744.355       -1343.220          44.000  
  19773426.286   103910041.611         844.552          47.000  
  23484238.018   123410504.164        3167.084          43.000  
  19411281.795   102006970.926         661.595          48.000  
  22583798.842   118678669.224        3034.991          42.000  
  23154387.563   121677130.299       -3310.644          40.000  
  22008891.088   115657512.553       -3105.375          43.000  
  23353603.454   122723992.343       -2834.391          37.000  
  24391316.652   128177235.571        1404.336          32.000  
 23  8 31 12 39 50.9970000  0 10G 3G 4G 6G 7G 9G11G17G19G31G26
  21580890.278   113408325.273       -2910.069          44.000  
  19676192.538   103399088.164       -1344.412          45.000  
  19773265.569   103909197.447         843.713          47.000  
  23483635.374   123407337.206        3166.539          43.000  
  19411156.467   102006310.003         660.527          48.000  
  22583221.275   118675634.697        3034.203          42.000  
  23155017.690   121680441.390       -3311.030          42.000  
  22009482.023   115660618.447       -3106.410          44.000  
  23354143.067   122726827.469       -2834.985          37.000  
  24391050.012   128175831.115        1404.295          33.000  
 23  8 31 12 39 51.9970000  0 10G 3G 4G 6G 7G 9G11G17G19G31G26
  21581443.991   113411235.727       -2910.894          44.000  
  19676448.481   103400432.983       -1345.420          45.000  
  19773104.888   103908354.400         842.656          47.000  
  23483032.679   123404170.799        3166.367          43.000  
  19411031.192   102005650.141         659.297          48.000  
  22582643.708   118672600.953        3033.293          42.000  
  23155648.062   121683753.163       -3311.912          40.000  
  22010073.341   115663725.250       -3107.486          44.000  
  23354682.855   122729663.595       -2836.992          37.000  
  24390783.984   128174427.646        1403.477          33.000  
 23  8 31 12 39 52.9970000  0 10G 3G 4G 6G 7G 9G11G17G19G31G26
  21581997.966   113414146.433       -2910.993          44.000  
  19676704.318   103401778.357       -1345.546          44.000  
  19772944.014   103907512.010         841.977          47.000  
  23482430.053   123401004.524        3166.067          43.000  
  19410906.004   102004990.867         658.972          48.000  
  22582066.402   118669567.508        3033.533          42.000  
  23156278.538   121687065.111       -3311.806          40.000  
  22010664.816   115666832.470       -3107.414          44.000  
  23355222.974   122732500.229       -2836.827          37.000  
  24390517.152   128173024.730        1402.207          33.000  
 23  8 31 12 39 53.9970000  0 10G 3G 4G 6G 7G 9G11G17G19G31G26
  21582551.853   113417056.840       -2910.895          44.000  
  19676960.121   103403123.680       -1345.810          44.000  
  19772783.577   103906669.672         841.658          47.000  
  23481827.200   123397837.758        3166.195          43.000  
  19410780.694   102004331.622         658.562          48.000  
  22581489.166   118666533.799        3033.310          42.000  
  23156908.683   121690376.593       -3312.018          40.000  
  22011255.837   115669939.540       -3107.806          44.000  
  23355762.517   122735336.789       -2836.833          36.000  
  24390250.112   128171621.691        1402.359          32.000  
 23  8 31 12 39 54.9970000  0 10G 3G 4G 6G 7G 9G11G17G19G31G26
  21583105.776   113419968.023       -2911.501          44.000  
  19677216.238   103404470.072       -1346.525          44.000  
  19772623.070   103905828.483         840.851          47.000  
  23481224.644   123394671.615        3166.162          43.000  
  19410655.646   102003673.448         657.875          48.000  
  22580911.983   118663500.913        3032.715          43.000  
  23157539.456   121693688.761       -3312.427          40.000  
  22011847.469   115673047.532       -3108.161          44.000  
  23356302.200   122738174.389       -2837.310          36.000  
  24389983.228   128170219.632        1402.151          32.000  
 23  8 31 12 39 55.9970000  0 10G 3G 4G 6G 7G 9G11G17G19G31G26
  21583659.820   113422879.570       -2911.294          44.000  
  19677472.494   103405817.156       -1347.169          44.000  
  19772463.138   103904988.064         840.392          47.000  
  23480622.053   123391505.689        3166.188          42.000  
  19410530.458   102003015.999         657.525          48.000  
  22580335.166   118660468.460        3032.580          42.000  
  23158169.758   121697001.214       -3312.396          40.000  
  22012439.328   115676156.111       -3108.585          44.000  
  23356842.162   122741012.684       -2838.355          36.000  
  24389716.310   128168818.218        1402.019          32.000  
 23  8 31 12 39 56.9970000  0 10G 3G 4G 6G 7G 9G11G17G19G31G26
  21584213.952   113425791.436       -2912.077          44.000  
  19677728.838   103407164.779       -1347.850          44.000  
  19772303.155   103904148.319         839.367          47.000  
  23480019.567   123388339.907        3165.696          42.000  
  19410405.741   102002359.177         656.574          48.000  
  22579758.157   118657436.324        3032.124          42.000  
  23158800.112   121700313.839       -3312.801          42.000  
  22013030.699   115679265.101       -3109.210          44.000  
  23357382.246   122743851.479       -2838.734          36.000  
  24389449.548   128167417.357        1401.191          32.000  
 23  8 31 12 39 57.9970000  0 10G 3G 4G 6G 7G 9G11G17G19G31G26
  21584767.961   113428703.350       -2911.749          44.000  
  19677985.007   103408512.758       -1348.146          44.000  
  19772143.415   103903309.007         839.067          46.000  
  23479417.063   123385174.038        3165.896          42.000  
  19410280.798   102001702.750         656.187          48.000  
  22579181.096   118654404.325        3032.043          42.000  
  23159430.571   121703626.459       -3312.585          41.000  
  22013622.191   115682374.341       -3109.381          44.000  
  23357922.418   122746690.637       -2838.825          36.000  
  24389182.839   128166016.826        1399.816          32.000  
 23  8 31 12 39 58.9970000  0 10G 3G 4G 6G 7G 9G11G17G19G31G26
  21585322.215   113431615.598       -2912.223          43.000  
  19678241.682   103409861.343       -1348.605          44.000  
  19771983.641   103902470.408         838.306          46.000  
  23478814.507   123382008.336        3165.718          42.000  
  19410155.959   102001046.972         655.402          48.000  
  22578604.122   118651372.674        3031.612          43.000  
  23160061.170   121706939.273       -3313.121          41.000  
  22014213.859   115685484.061       -3109.788          43.000  
  23358462.432   122749530.346       -2839.716          36.000  
  24388916.636   128164616.771        1400.398          32.000  
 23  8 31 12 39 59.9970000  0 10G 3G 4G 6G 7G 9G11G17G19G31G26
  21585876.469   113434528.535       -2913.082          43.000  
  19678498.462   103411210.927       -1350.232          44.000  
  19771824.129   103901632.888         837.125          47.000  
  23478211.882   123378843.170        3165.005          42.000  
  19410031.068   102000392.220         654.455          48.000  
  22578027.270   118648341.777        3030.760          42.000  
  23160691.820   121710252.681       -3313.221          41.000  
  22014805.735   115688594.664       -3111.175          43.000  
  23359002.831   122752371.056       -2841.305          35.000  
  24388650.520   128163217.731        1398.399          32.000  
 23  8 31 12 40  0.9970000  0 10G 3G 4G 6G 7G 9G11G17G19G31G26
  21586430.897   113437441.955       -2913.320          43.000  
  19678755.504   103412561.240       -1350.248          44.000  
  19771664.773   103900796.206         836.689          46.000  
  23477609.500   123375678.307        3165.045          42.000  
  19409906.508   101999738.265         653.760          48.000  
  22577450.820   118645311.402        3030.557          42.000  
  23161322.419   121713566.467       -3313.337          41.000  
  22015397.873   115691705.869       -3111.139          43.000  
  23359542.915   122755212.458       -2841.410          35.000  
  24388384.387   128161819.387        1398.231          33.000  
 23  8 31 12 40  1.9970000  0 10G 3G 4G 6G 7G 9G11G17G19G31G26
  21586985.046   113440355.492       -2914.107          43.000  
  19679012.511   103413911.966       -1351.115          44.000  
  19771506.011   103899960.026         835.570          47.000  
  23477007.171   123372513.394        3164.763          42.000  
  19409782.088   101999084.736         653.020          48.000  
  22576874.230   118642281.157        3030.117          42.000  
  23161953.052   121716880.272       -3314.203          41.000  
  22015990.081   115694817.370       -3112.151          44.000  
  23360083.313   122758054.230       -2842.100          35.000  
  24388118.341   128160421.368        1397.606          33.000  
 23  8 31 12 40  2.9970000  0 10G 3G 4G 6G 7G 9G11G17G19G31G26
  21587539.405   113443269.294       -2913.600          43.000  
  19679269.762   103415263.241       -1351.152          44.000  
  19771347.040   103899124.493         835.449          47.000  
  23476404.824   123369348.616        3165.279          42.000  
  19409657.808   101998431.830         652.943          48.000  
  22576297.465   118639251.260        3030.066          43.000  
  23162583.651   121720194.238       -3313.839          41.000  
  22016582.446   115697929.312       -3111.831          44.000  
  23360624.043   122760896.528       -2841.614          35.000  
  24387852.400   128159023.895        1397.137          33.000  
 23  8 31 12 40  3.9970000  0 10G 3G 4G 6G 7G 9G11G17G19G31G26
  21588093.641   113446183.383       -2914.699          43.000  
  19679526.734   103416615.095       -1352.400          45.000  
  19771188.522   103898289.624         834.343          47.000  
  23475802.513   123366183.986        3164.231          42.000  
  19409533.737   101997779.544         651.665          48.000  
  22575721.084   118636221.697        3029.247          43.000  
  23163214.249   121723508.374       -3314.318          41.000  
  22017175.038   115701041.702       -3112.742          44.000  
  23361164.703   122763739.421       -2843.104          35.000  
  24387586.929   128157626.936        1396.378          33.000  
 23  8 31 12 40  4.9970000  0 10G 3G 4G 6G 7G 9G11G17G19G31G26
  21588648.087   113449098.048       -2915.162          43.000  
  19679784.508   103417967.782       -1353.152          45.000  
  19771030.266   103897455.700         833.365          47.000  
  23475200.428   123363019.749        3163.687          42.000  
  19409409.927   101997128.140         650.561          48.000  
  22575144.651   118633192.745        3028.593          43.000  
  23163845.302   121726823.017       -3315.424          41.000  
  22017767.648   115704154.832       -3113.765          44.000  
  23361705.590   122766583.132       -2844.353          34.000  
  24387321.442   128156230.757        1396.174          33.000  
 23  8 31 12 40  5.9970000  0 10G 3G 4G 6G 7G 9G11G17G19G31G26
  21589202.934   113452012.804       -2915.127          43.000  
  19680042.021   103419320.874       -1353.265          45.000  
  19770872.377   103896622.258         833.061          47.000  
  23474598.308   123359855.460        3164.004          42.000  
  19409286.170   101996477.162         650.751          48.000  
  22574568.323   118630163.947        3028.718          42.000  
  23164476.127   121730137.617       -3314.820          41.000  
  22018360.065   115707268.220       -3113.638          44.000  
  23362246.617   122769427.166       -2844.096          34.000  
  24387055.972   128154834.977        1395.431          33.000  
 23  8 31 12 40  6.9970000  0 10G 3G 4G 6G 7G 9G11G17G19G31G26
  21589757.362   113454927.955       -2915.484          43.000  
  19680299.691   103420674.639       -1354.485          45.000  
  19770714.278   103895789.590         832.054          47.000  
  23473996.118   123356691.401        3163.783          42.000  
  19409162.291   101995826.922         649.599          48.000  
  22573991.942   118627135.569        3027.897          42.000  
  23165107.109   121733452.516       -3315.334          41.000  
  22018952.709   115710382.144       -3114.500          44.000  
  23362787.835   122772271.896       -2845.814          34.000  
  24386790.275   128153439.805        1394.402          33.000  
 23  8 31 12 40  7.9970000  0 10G 3G 4G 6G 7G 9G11G17G19G31G26
  21590312.140   113457843.705       -2915.649          43.000  
  19680557.413   103422029.271       -1354.785          45.000  
  19770556.126   103894957.893         831.648          47.000  
  23473394.103   123353527.757        3164.009          42.000  
  19409038.657   101995177.586         649.228          48.000  
  22573415.736   118624107.826        3027.944          42.000  
  23165738.005   121736767.914       -3315.316          41.000  
  22019545.424   115713496.845       -3114.720          44.000  
  23363328.914   122775117.453       -2845.751          34.000  
  24386525.014   128152045.433        1393.745          33.000  
 23  8 31 12 40  8.9970000  0 10G 3G 4G 6G 7G 9G11G17G19G31G26
  21590866.655   113460759.983       -2916.356          42.000  
  19680815.345   103423384.723       -1355.671          45.000  
  19770398.533   103894127.100         830.528          47.000  
  23472792.036   123350364.515        3163.376          42.000  
  19408915.353   101994529.110         648.327          48.000  
  22572839.792   118621080.690        3027.087          42.000  
  23166369.127   121740083.691       -3315.288          41.000  
  22020138.260   115716612.244       -3115.403          44.000  
  23363870.394   122777963.764       -2846.195          34.000  
  24386259.980   128150651.863        1393.367          33.000  
 23  8 31 12 40  9.9970000  0 10G 3G 4G 6G 7G 9G11G17G19G31G26
  21591421.380   113463676.239       -2916.177          42.000  
  19681073.416   103424740.405       -1355.529          45.000  
  19770240.748   103893296.658         830.505          47.000  
  23472190.003   123347201.050        3164.131          42.000  
  19408792.347   101993880.946         648.235          48.000  
  22572263.899   118618053.555        3027.364          42.000  
  23167000.074   121743399.385       -3315.225          41.000  
  22020731.079   115719727.774       -3115.270          43.000  
  23364412.119   122780810.369       -2846.746          34.000  
  24385994.894   128149258.464        1393.650          34.000  
 23  8 31 12 40 10.9970000  0 10G 3G 4G 6G 7G 9G11G17G19G31G26
  21591976.245   113466592.718       -2916.948          43.000  
  19681331.400   103426096.628       -1356.769          45.000  
  19770082.667   103892466.831         829.069          47.000  
  23471588.023   123344037.700        3163.065          42.000  
  19408669.009   101993233.356         646.678          48.000  
  22571688.025   118615026.692        3026.212          42.000  
  23167631.144   121746715.225       -3316.264          41.000  
  22021324.194   115722843.689       -3116.552          43.000  
  23364953.966   122783657.433       -2847.941          34.000  
  24385730.017   128147865.617        1392.135          34.000  
 23  8 31 12 40 11.9970000  0 10G 3G 4G 6G 7G 9G11G17G19G31G26
  21592531.301   113469510.052       -2917.911          42.000  
  19681589.786   103427453.992       -1358.073          45.000  
  19769924.673   103891638.249         827.990          47.000  
  23470985.956   123340875.062        3162.206          42.000  
  19408545.915   101992586.933         645.937          48.000  
  22571112.115   118612000.745        3025.518          42.000  
  23168262.248   121750031.785       -3316.647          41.000  
  22021917.467   115725960.638       -3117.540          43.000  
  23365495.900   122786505.626       -2848.997          34.000  
  24385465.175   128146473.814        1391.147          34.000  
 23  8 31 12 40 12.9970000  0 10G 3G 4G 6G 7G 9G11G17G19G31G26
  21593086.148   113472427.588       -2917.631          42.000  
  19681848.293   103428811.828       -1358.113          45.000  
  19769766.853   103890810.227         827.899          47.000  
  23470384.080   123337712.439        3162.764          42.000  
  19408423.065   101991941.040         645.776          48.000  
  22570536.310   118608975.043        3025.487          42.000  
  23168893.335   121753348.463       -3316.471          41.000  
  22022510.722   115729077.917       -3117.220          43.000  
  23366038.008   122789354.255       -2848.633          34.000  
  24385200.211   128145082.474        1390.719          34.000  
 23  8 31 12 40 13.9970000  0 10G 3G 4G 6G 7G 9G11G17G19G31G26
  21593641.554   113475345.288       -2917.650          42.000  
  19682106.469   103430170.090       -1358.350          45.000  
  19769609.068   103889982.759         827.089          47.000  
  23469782.519   123334549.813        3162.644          42.000  
  19408300.390   101991295.638         645.251          48.000  
  22569960.558   118605949.533        3025.665          42.000  
  23169524.300   121756665.210       -3316.779          41.000  
  22023103.855   115732195.540       -3117.565          43.000  
  23366580.204   122792203.293       -2848.556          34.000  
  24384935.788   128143691.513        1390.526          33.000  
 23  8 31 12 40 14.9970000  0 10G 3G 4G 6G 7G 9G11G17G19G31G26
  21594196.314   113478263.168       -2918.187          42.000  
  19682365.186   103431528.822       -1359.200          45.000  
  19769451.231   103889155.839         826.557          46.000  
  23469180.486   123331387.203        3162.600          42.000  
  19408177.401   101990650.736         644.431          48.000  
  22569384.736   118602924.253        3024.826          42.000  
  23170155.457   121759981.991       -3317.129          41.000  
  22023697.127   115735313.521       -3118.550          43.000  
  23367122.068   122795052.844       -2850.650          35.000  
  24384670.963   128142300.951        1390.697          33.000  
 23  8 31 12 40 15.9970000  0 10G 3G 4G 6G 7G 9G11G17G19G31G26
  21594751.597   113481181.615       -2918.875          42.000  
  19682623.781   103432888.426       -1360.095          45.000  
  19769293.603   103888329.886         825.397          46.000  
  23468578.873   123328225.041        3161.755          42.000  
  19408054.272   101990006.742         643.394          48.000  
  22568809.175   118599899.605        3024.107          42.000  
  23170786.579   121763299.267       -3317.436          40.000  
  22024290.504   115738432.215       -3119.179          43.000  
  23367664.647   122797903.134       -2850.633          35.000  
  24384406.522   128140911.223        1389.294          33.000  
 23  8 31 12 40 16.9970000  0 10G 3G 4G 6G 7G 9G11G17G19G31G26
  21595307.055   113484100.621       -2919.094          42.000  
  19682882.446   103434248.873       -1360.933          45.000  
  19769136.167   103887504.879         824.338          46.000  
  23467977.364   123325063.279        3161.186          42.000  
  19407931.527   101989363.651         642.526          48.000  
  22568233.527   118596875.572        3023.531          42.000  
  23171418.120   121766617.004       -3317.825          41.000  
  22024883.916   115741551.646       -3120.051          43.000  
  23368207.210   122800754.299       -2851.571          35.000  
  24384142.256   128139522.319        1388.399          33.000  
 23  8 31 12 40 17.9970000  0 10G 3G 4G 6G 7G 9G11G17G19G31G26
  21595862.304   113487019.780       -2918.553          42.000  
  19683141.564   103435609.740       -1360.626          45.000  
  19768979.063   103886680.383         824.769          46.000  
  23467375.645   123321901.476        3162.169          42.000  
  19407808.870   101988721.015         642.721          48.000  
  22567657.775   118593851.721        3024.133          42.000  
  23172049.277   121769934.769       -3317.187          41.000  
  22025477.224   115744671.361       -3119.447          43.000  
  23368749.999   122803605.856       -2851.517          35.000  
  24383877.903   128138133.795        1388.643          33.000  
 23  8 31 12 40 18.9970000  0 10G 3G 4G 6G 7G 9G11G17G19G31G26
  21596417.482   113489938.901       -2919.620          42.000  
  19683400.804   103436970.857       -1362.151          44.000  
  19768821.784   103885856.217         823.588          46.000  
  23466774.136   123318739.490        3161.353          42.000  
  19407686.509   101988078.641         641.791          47.000  
  22567082.284   118590827.846        3023.546          42.000  
  23172680.678   121773252.400       -3318.476          40.000  
  22026070.793   115747791.202       -3120.744          43.000  
  23369292.753   122806457.600       -2852.388          35.000  
  24383613.689   128136745.457        1387.456          33.000  
 23  8 31 12 40 19.9970000  0 10G 3G 4G 6G 7G 9G11G17G19G31G26
  21596973.150   113492858.891       -2920.450          42.000  
  19683659.818   103438333.105       -1363.048          44.000  
  19768664.819   103885033.325         822.288          46.000  
  23466172.627   123315578.210        3160.809          42.000  
  19407564.200   101987437.518         640.617          47.000  
  22566506.898   118587804.943        3022.286          42.000  
  23173312.237   121776570.786       -3318.810          40.000  
  22026664.571   115750912.074       -3121.261          43.000  
  23369835.873   122809310.505       -2853.639          35.000  
  24383349.790   128135358.205        1387.063          32.000  
 23  8 31 12 40 20.9970000  0 10G 3G 4G 6G 7G 9G11G17G19G31G26
  21597528.677   113495779.411       -2920.634          42.000  
  19683919.372   103439696.180       -1363.412          44.000  
  19768508.291   103884211.344         821.733          46.000  
  23465571.153   123312417.331        3160.668          42.000  
  19407441.665   101986797.222         639.920          47.000  
  22565931.844   118584782.584        3022.412          42.000  
  23173943.516   121779889.646       -3319.004          41.000  
  22027258.559   115754033.667       -3121.617          43.000  
  23370379.029   122812164.194       -2853.925          35.000  
  24383086.239   128133971.775        1385.955          32.000  
 23  8 31 12 40 21.9970000  0 10G 3G 4G 6G 7G 9G11G17G19G31G26
  21598084.502   113498700.106       -2920.344          42.000  
  19684179.049   103441059.689       -1363.206          45.000  
  19768351.780   103883389.899         821.577          46.000  
  23464969.836   123309256.443        3161.463          42.000  
  19407319.950   101986157.443         640.115          47.000  
  22565356.772   118581760.469        3022.587          42.000  
  23174575.126   121783208.529       -3318.425          41.000  
  22027852.425   115757155.568       -3121.710          43.000  
  23370922.429   122815018.334       -2854.095          35.000  
  24382822.374   128132585.722        1385.943          33.000  
 23  8 31 12 40 22.9970000  0 10G 3G 4G 6G 7G 9G11G17G19G31G26
  21598640.431   113501620.805       -2921.027          42.000  
  19684438.604   103442423.503       -1364.119          45.000  
  19768195.565   103882568.825         820.585          46.000  
  23464368.135   123306095.399        3160.747          43.000  
  19407198.165   101985517.979         639.115          47.000  
  22564781.525   118578738.377        3021.936          42.000  
  23175206.615   121786527.302       -3319.074          41.000  
  22028446.378   115760277.623       -3122.247          43.000  
  23371465.776   122817872.671       -2854.280          36.000  
  24382558.928   128131199.899        1385.211          33.000  
 23  8 31 12 40 23.9970000  0 10G 3G 4G 6G 7G 9G11G17G19G31G26
  21599196.482   113504542.118       -2921.779          42.000  
  19684698.385   103443788.221       -1365.117          45.000  
  19768039.386   103881748.779         819.513          46.000  
  23463766.940   123302934.854        3160.073          43.000  
  19407076.746   101984879.489         637.847          47.000  
  22564206.523   118575716.995        3020.818          42.000  
  23175838.103   121789846.611       -3319.490          40.000  
  22029040.768   115763400.480       -3123.263          43.000  
  23372009.350   122820727.986       -2856.284          36.000  
  24382295.360   128129814.949        1384.968          33.000  
 23  8 31 12 40 24.9970000  0 10G 3G 4G 6G 7G 9G11G17G19G31G26
  21599752.289   113507464.051       -2922.301          42.000  
  19684958.254   103445153.827       -1366.110          45.000  
  19767883.590   103880929.717         818.405          46.000  
  23463165.728   123299774.736        3159.600          43.000  
  19406955.607   101984241.921         637.012          47.000  
  22563631.853   118572696.235        3020.130          42.000  
  23176469.906   121793166.434       -3320.303          40.000  
  22029635.523   115766524.098       -3123.948          44.000  
  23372553.134   122823584.111       -2856.944          36.000  
  24382031.949   128128430.878        1383.755          33.000  
 23  8 31 12 40 25.9970000  0 10G 3G 4G 6G 7G 9G11G17G19G31G26
  21600308.497   113510386.281       -2922.230          42.000  
  19685218.210   103446520.041       -1366.339          45.000  
  19767727.882   103880111.333         818.391          46.000  
  23462564.620   123296614.774        3159.745          43.000  
  19406834.781   101983605.004         636.640          47.000  
  22563057.217   118569675.844        3020.483          42.000  
  23177101.342   121796486.439       -3319.764          40.000  
  22030229.965   115769648.207       -3124.140          43.000  
  23373096.918   122826440.808       -2857.018          36.000  
  24381768.468   128127047.366        1383.021          33.000  
 23  8 31 12 40 26.9970000  0 10G 3G 4G 6G 7G 9G11G17G19G31G26
  21600864.880   113513308.257       -2922.385          42.000  
  19685478.427   103447886.267       -1367.072          45.000  
  19767572.488   103879293.092         817.487          46.000  
  23461963.181   123293454.400        3160.029          43.000  
  19406713.939   101982968.137         636.438          48.000  
  22562482.250   118566655.247        3020.101          42.000  
  23177733.075   121799806.112       -3320.028          41.000  
  22030824.634   115772772.203       -3124.448          43.000  
  23373641.277   122829297.488       -2857.366          36.000  
  24381504.953   128125663.802        1383.115          33.000  
 23  8 31 12 40 27.9970000  0 10G 3G 4G 6G 7G 9G11G17G19G31G26
  21601420.931   113516230.979       -2922.963          42.000  
  19685738.697   103449253.504       -1367.460          45.000  
  19767417.198   103878475.960         816.927          46.000  
  23461362.056   123290294.617        3159.673          43.000  
  19406593.096   101982332.360         635.649          48.000  
  22561907.352   118563635.433        3019.765          42.000  
  23178364.633   121803126.423       -3320.634          41.000  
  22031419.320   115775897.112       -3125.136          43.000  
  23374185.305   122832155.195       -2857.885          36.000  
  24381241.856   128124281.244        1382.582          33.000  
 23  8 31 12 40 28.9970000  0 10G 3G 4G 6G 7G 9G11G17G19G31G26
  21601977.575   113519154.150       -2923.182          42.000  
  19685999.142   103450621.480       -1368.183          45.000  
  19767262.328   103877659.667         816.078          46.000  
  23460761.105   123287135.130        3159.399          43.000  
  19406472.166   101981697.371         634.662          48.000  
  22561332.752   118560616.138        3018.893          42.000  
  23178996.139   121806447.044       -3320.360          41.000  
  22032014.337   115779022.626       -3125.677          43.000  
  23374729.525   122835013.587       -2858.198          36.000  
  24380978.881   128122899.365        1381.617          33.000  
 23  8 31 12 40 29.9970000  0 10G 3G 4G 6G 7G 9G11G17G19G31G26
  21602534.115   113522077.747       -2924.093          43.000  
  19686259.796   103451990.157       -1369.364          45.000  
  19767107.283   103876844.158         814.982          46.000  
  23460159.876   123283975.881        3159.166          43.000  
  19406351.306   101981063.092         634.117          47.000  
  22560758.063   118557597.281        3018.475          42.000  
  23179627.715   121809768.011       -3321.241          41.000  
  22032609.320   115782148.715       -3126.435          43.000  
  23375273.797   122837872.694       -2859.920          36.000  
  24380715.732   128121518.168        1380.753          34.000  
 23  8 31 12 40 30.9970000  0 10G 3G 4G 6G 7G 9G11G17G19G31G26
  21603090.882   113525001.219       -2923.542          43.000  
  19686520.345   103453359.014       -1369.253          45.000  
  19766952.255   103876028.938         814.880          46.000  
  23459558.803   123280816.406        3159.528          43.000  
  19406230.690   101980429.070         633.813          47.000  
  22560183.724   118554578.378        3018.695          42.000  
  23180259.430   121813088.765       -3320.993          40.000  
  22033204.459   115785274.857       -3126.252          43.000  
  23375818.070   122840731.895       -2858.974          36.000  
  24380452.670   128120137.106        1380.351          34.000  
 23  8 31 12 40 31.9970000  0 10G 3G 4G 6G 7G 9G11G17G19G31G26
  21603647.561   113527925.290       -2924.237          43.000  
  19686781.016   103454728.731       -1370.105          45.000  
  19766797.192   103875214.669         813.917          46.000  
  23458957.573   123277657.341        3158.945          43.000  
  19406110.213   101979795.940         632.709          47.000  
  22559609.508   118551560.101        3018.024          42.000  
  23180891.302   121816409.978       -3321.588          41.000  
  22033799.669   115788401.755       -3127.158          43.000  
  23376362.639   122843591.978       -2860.374          36.000  
  24380189.957   128118756.874        1379.244          34.000  
 23  8 31 12 40 32.9970000  0 10G 3G 4G 6G 7G 9G11G17G19G31G26
  21604204.502   113530850.159       -2925.285          43.000  
  19687041.914   103456099.533       -1371.240          45.000  
  19766642.636   103874401.602         812.389          46.000  
  23458356.448   123274498.929        3158.023          42.000  
  19405989.842   101979163.952         631.331          47.000  
  22559035.343   118548542.694        3016.906          42.000  
  23181523.280   121819731.899       -3322.111          41.000  
  22034394.896   115791529.623       -3128.629          43.000  
  23376907.417   122846453.088       -2861.521          36.000  
  24379927.418   128117377.672        1378.049          34.000  
 23  8 31 12 40 33.9970000  0 10G 3G 4G 6G 7G 9G11G17G19G31G26
  21604761.443   113533775.485       -2925.726          43.000  
  19687302.621   103457471.070       -1372.457          45.000  
  19766488.009   103873589.347         811.524          46.000  
  23457755.236   123271340.826        3157.535          42.000  
  19405869.871   101978532.742         630.727          47.000  
  22558461.022   118545525.760        3016.575          42.000  
  23182155.501   121823054.182       -3322.924          40.000  
  22034990.001   115794658.077       -3129.034          43.000  
  23377452.056   122849314.926       -2861.917          37.000  
  24379665.019   128115999.146        1377.708          34.000  
 23  8 31 12 40 34.9970000  0 10G 3G 4G 6G 7G 9G11G17G19G31G26
  21605318.297   113536700.532       -2924.892          43.000  
  19687563.536   103458842.607       -1371.453          45.000  
  19766333.365   103872777.216         812.036          46.000  
  23457154.145   123268182.271        3158.579          42.000  
  19405749.605   101977901.590         631.031          47.000  
  22557886.997   118542508.632        3017.243          42.000  
  23182787.548   121826376.061       -3321.603          40.000  
  22035585.123   115797786.437       -3128.374          43.000  
  23377996.764   122852176.770       -2861.942          36.000  
  24379403.144   128114620.614        1378.408          34.000  
 23  8 31 12 40 35.9970000  0 10G 3G 4G 6G 7G 9G11G17G19G31G26
  21605874.907   113539626.038       -2925.859          43.000  
  19687824.609   103460214.878       -1372.719          45.000  
  19766178.861   103871965.912         810.605          46.000  
  23456553.073   123265024.012        3157.954          43.000  
  19405629.547   101977271.211         629.667          47.000  
  22557312.797   118539491.994        3016.258          42.000  
  23183419.822   121829698.301       -3322.773          40.000  
  22036180.559   115800915.394       -3129.439          43.000  
  23378541.612   122855039.308       -2862.887          36.000  
  24379140.640   128113242.790        1376.756          34.000  
 23  8 31 12 40 36.9970000  0 10G 3G 4G 6G 7G 9G11G17G19G31G26
  21606431.743   113542552.114       -2926.153          43.000  
  19688086.083   103461588.029       -1373.185          45.000  
  19766024.619   103871155.553         810.292          46.000  
  23455951.965   123261866.180        3158.104          43.000  
  19405510.048   101976641.736         629.327          48.000  
  22556738.929   118536475.976        3016.047          42.000  
  23184052.322   121833020.999       -3322.947          40.000  
  22036775.803   115804045.103       -3129.736          42.000  
  23379086.530   122857902.670       -2863.384          36.000  
  24378878.852   128111865.711        1377.579          34.000  
 23  8 31 12 40 37.9970000  0 10G 3G 4G 6G 7G 9G11G17G19G31G26
  21606988.667   113545478.460       -2926.655          43.000  
  19688347.313   103462961.700       -1373.848          45.000  
  19765870.498   103870345.858         809.361          46.000  
  23455351.276   123258708.466        3157.650          43.000  
  19405390.514   101976012.867         628.275          48.000  
  22556164.870   118533460.281        3015.464          42.000  
  23184684.561   121836343.884       -3323.386          40.000  
  22037370.961   115807175.235       -3130.427          42.000  
  23379631.344   122860766.583       -2864.631          36.000  
  24378616.819   128110489.198        1376.701          33.000  
 23  8 31 12 40 38.9970000  0 10G 3G 4G 6G 7G 9G11G17G19G31G26
  21607545.608   113548404.600       -2926.288          43.000  
  19688608.700   103464335.469       -1374.280          44.000  
  19765716.134   103869536.341         809.016          46.000  
  23454750.273   123255550.388        3158.015          43.000  
  19405271.242   101975384.110         628.550          48.000  
  22555591.002   118530444.420        3015.701          42.000  
  23185316.590   121839666.439       -3323.237          39.000  
  22037966.432   115810305.328       -3130.207          42.000  
  23380176.297   122863630.509       -2863.964          36.000  
  24378354.525   128109112.748        1376.157          33.000  
 23  8 31 12 40 39.9970000  0 10G 3G 4G 6G 7G 9G11G17G19G31G26
  21608102.759   113551331.163       -2926.868          43.000  
  19688870.104   103465709.933       -1374.761          45.000  
  19765562.293   103868727.620         808.059          46.000  
  23454149.462   123252392.582        3157.646          42.000  
  19405151.882   101974756.110         627.538          48.000  
  22555017.343   118527429.055        3014.959          42.000  
  23185948.986   121842989.282       -3323.047          40.000  
  22038561.624   115813435.990       -3130.966          42.000  
  23380721.302   122866495.151       -2865.110          36.000  
  24378092.842   128107736.902        1375.776          33.000  
 23  8 31 12 40 40.9970000  0 10G 3G 4G 6G 7G 9G11G17G19G31G26
  21608659.857   113554258.387       -2927.319          43.000  
  19689131.735   103467085.352       -1375.618          45.000  
  19765408.399   103867919.947         807.581          46.000  
  23453548.826   123249235.281        3157.506          43.000  
  19405032.558   101974129.110         626.916          48.000  
  22554443.755   118524414.382        3014.721          42.000  
  23186581.312   121846312.729       -3323.198          40.000  
  22039157.217   115816567.495       -3131.710          42.000  
  23381266.621   122869360.679       -2865.189          36.000  
  24377831.525   128106361.987        1374.677          33.000  
 23  8 31 12 40 41.9970000  0 10G 3G 4G 6G 7G 9G11G17G19G31G26
  21609216.798   113557186.138       -2928.112          43.000  
  19689393.628   103468461.552       -1376.403          44.000  
  19765254.645   103867113.196         806.206          46.000  
  23452948.434   123246078.374        3156.375          43.000  
  19404913.338   101973502.973         625.347          48.000  
  22553869.922   118521400.299        3013.526          42.000  
  23187214.179   121849636.589       -3324.616          39.000  
  22039753.229   115819699.676       -3132.922          42.000  
  23381811.940   122872227.028       -2866.903          36.000  
  24377570.574   128104987.868        1373.358          33.000  
 23  8 31 12 40 42.9970000  0 10G 3G 4G 6G 7G 9G11G17G19G31G26
  21609774.141   113560113.528       -2927.215          43.000  
  19689655.468   103469837.680       -1376.181          45.000  
  19765101.101   103866306.434         806.781          46.000  
  23452347.500   123242920.909        3157.826          43.000  
  19404793.821   101972876.788         626.135          48.000  
  22553296.089   118518385.886        3014.679          42.000  
  23187846.506   121852959.963       -3322.688          39.000  
  22040349.224   115822831.631       -3131.939          43.000  
  23382357.382   122875093.242       -2866.156          36.000  
  24377309.170   128103613.585        1374.911          33.000  
 23  8 31 12 40 43.9970000  0 10G 3G 4G 6G 7G 9G11G17G19G31G26
  21610331.396   113563041.140       -2927.936          43.000  
  19689917.536   103471214.331       -1377.008          44.000  
  19764947.679   103865500.289         805.681          46.000  
  23451746.812   123239763.559        3157.087          43.000  
  19404674.828   101972251.129         625.405          47.000  
  22552722.308   118515371.763        3013.947          41.000  
  23188478.971   121856283.439       -3323.252          40.000  
  22040945.638   115825963.980       -3132.777          42.000  
  23382903.050   122877959.921       -2866.611          36.000  
  24377047.591   128102239.845        1372.551          33.000  
 23  8 31 12 40 44.9970000  0 10G 3G 4G 6G 7G 9G11G17G19G31G26
  21610888.948   113565969.648       -2928.728          43.000  
  19690179.847   103472592.168       -1378.389          44.000  
  19764794.535   103864695.448         804.376          46.000  
  23451146.158   123236606.931        3156.385          43.000  
  19404556.097   101971626.741         623.975          47.000  
  22552148.859   118512358.594        3012.818          41.000  
  23189111.995   121859607.776       -3324.722          41.000  
  22041541.999   115829097.415       -3133.845          43.000  
  23383448.788   122880827.820       -2868.636          36.000  
  24376786.344   128100867.192        1372.275          34.000  
 23  8 31 12 40 45.9970000  0 10G 3G 4G 6G 7G 9G11G17G19G31G26
  21611446.360   113568898.535       -2929.198          43.000  
  19690442.020   103473970.624       -1378.965          44.000  
  19764641.480   103863891.328         803.722          46.000  
  23450545.329   123233450.526        3156.155          43.000  
  19404437.191   101971003.031         623.480          47.000  
  22551575.584   118509345.822        3013.030          42.000  
  23189744.478   121862932.318       -3324.669          39.000  
  22042138.447   115832231.368       -3134.194          42.000  
  23383994.544   122883696.253       -2868.325          36.000  
  24376525.411   128099495.148        1371.329          34.000  
 23  8 31 12 40 46.9970000  0 10G 3G 4G 6G 7G 9G11G17G19G31G26
  21612004.052   113571827.332       -2928.496          43.000  
  19690704.209   103475349.307       -1378.706          44.000  
  19764488.825   103863087.522         803.882          46.000  
  23449944.972   123230293.865        3157.306          43.000  
  19404318.268   101970379.574         623.641          47.000  
  22551002.275   118506333.036        3013.155          42.000  
  23190377.520   121866256.696       -3324.257          39.000  
  22042735.000   115835365.376       -3133.775          44.000  
  23384540.142   122886564.916       -2868.465          36.000  
  24376264.740   128098123.260        1372.043          34.000  
 23  8 31 12 40 47.9970000  0 10G 3G 4G 6G 7G 9G11G17G19G31G26
  21612561.708   113574756.468       -2929.519          43.000  
  19690966.311   103476728.589       -1379.899          44.000  
  19764336.014   103862284.417         802.591          46.000  
  23449344.824   123227137.424        3156.096          43.000  
  19404200.078   101969756.792         622.200          47.000  
  22550429.157   118503320.653        3011.943          42.000  
  23191010.474   121869581.328       -3325.044          39.000  
  22043331.536   115838499.886       -3134.847          43.000  
  23385086.456   122889434.172       -2870.002          36.000  
  24376003.597   128096751.975        1371.005          34.000  
 23  8 31 12 40 48.9970000  0 10G 3G 4G 6G 7G 9G11G17G19G31G26
  21613119.208   113577686.074       -2930.094          43.000  
  19691228.745   103478108.618       -1380.526          44.000  
  19764183.464   103861482.177         801.761          46.000  
  23448744.257   123223981.283        3155.757          43.000  
  19404082.079   101969134.777         621.603          48.000  
  22549856.092   118500308.744        3011.693          42.000  
  23191643.272   121872906.277       -3325.270          40.000  
  22043928.264   115841635.023       -3135.508          43.000  
  23385632.666   122892304.156       -2871.185          35.000  
  24375742.612   128095381.398        1370.566          34.000  
 23  8 31 12 40 49.9970000  0 10G 3G 4G 6G 7G 9G11G17G19G31G26
  21613676.515   113580616.061       -2930.510          43.000  
  19691491.441   103479489.319       -1381.481          44.000  
  19764031.245   103860680.705         800.808          46.000  
  23448143.603   123220825.360        3155.563          43.000  
  19403964.029   101968513.509         620.599          48.000  
  22549283.132   118497297.307        3010.891          42.000  
  23192276.400   121876231.525       -3325.751          40.000  
  22044525.149   115844770.726       -3136.218          43.000  
  23386178.962   122895174.711       -2870.918          35.000  
  24375482.045   128094011.480        1369.062          34.000  
 23  8 31 12 40 50.9970000  0 10G 3G 4G 6G 7G 9G11G17G19G31G26
  21614233.910   113583546.212       -2929.995          43.000  
  19691754.154   103480870.480       -1381.204          44.000  
  19763878.765   103859879.790         800.870          46.000  
  23447543.072   123217669.475        3155.963          43.000  
  19403845.978   101967892.729         620.728          48.000  
  22548710.032   118494286.087        3011.313          42.000  
  23192909.390   121879556.828       -3324.949          40.000  
  22045122.225   115847906.736       -3135.989          43.000  
  23386725.049   122898045.765       -2871.225          35.000  
  24375221.269   128092641.949        1369.156          33.000  
 23  8 31 12 40 51.9970000  0 10G 3G 4G 6G 7G 9G11G17G19G31G26
  21614791.584   113586476.632       -2930.805          43.000  
  19692017.111   103482252.167       -1382.384          44.000  
  19763726.634   103859079.508         799.716          46.000  
  23446942.452   123214513.663        3155.501          43.000  
  19403727.979   101967272.527         619.678          48.000  
  22548137.054   118491275.170        3010.377          42.000  
  23193542.414   121882882.289       -3325.723          40.000  
  22045719.162   115851043.168       -3136.918          43.000  
  23387271.520   122900917.312       -2872.052          35.000  
  24374960.702   128091272.909        1368.479          34.000  
 23  8 31 12 40 52.9970000  0 10G 3G 4G 6G 7G 9G11G17G19G31G26
  21615349.381   113589407.757       -2931.203          43.000  
  19692280.156   103483634.848       -1382.805          44.000  
  19763574.346   103858280.314         799.073          46.000  
  23446341.973   123211358.440        3155.203          43.000  
  19403610.278   101966653.373         619.158          48.000  
  22547564.059   118488265.009        3010.176          42.000  
  23194175.734   121886208.368       -3325.705          40.000  
  22046316.623   115854180.461       -3137.229          43.000  
  23387818.078   122903789.836       -2873.125          35.000  
  24374700.188   128089904.829        1367.918          34.000  
 23  8 31 12 40 53.9970000  0 10G 3G 4G 6G 7G 9G11G17G19G31G26
  21615907.264   113592339.302       -2932.044          43.000  
  19692543.479   103485018.229       -1383.712          44.000  
  19763422.564   103857481.925         797.928          46.000  
  23445741.738   123208203.474        3154.858          43.000  
  19403492.419   101966034.958         618.020          48.000  
  22546991.290   118485255.329        3009.255          42.000  
  23194809.055   121889534.745       -3326.737          40.000  
  22046913.909   115857318.344       -3138.145          43.000  
  23388365.073   122906663.005       -2873.679          35.000  
  24374440.075   128088537.428        1366.544          34.000  
 23  8 31 12 40 54.9970000  0 10G 3G 4G 6G 7G 9G11G17G19G31G26
  21616464.973   113595270.936       -2931.417          43.000  
  19692806.978   103486401.985       -1383.938          44.000  
  19763270.940   103856684.013         797.883          46.000  
  23445141.520   123205048.444        3155.489          43.000  
  19403374.909   101965416.984         617.839          48.000  
  22546418.696   118482245.787        3009.749          42.000  
  23195442.289   121892861.125       -3326.093          40.000  
  22047511.073   115860456.465       -3138.155          43.000  
  23388911.858   122909536.527       -2873.459          35.000  
  24374179.770   128087170.345        1367.222          33.000  
 23  8 31 12 40 55.9970000  0 10G 3G 4G 6G 7G 9G11G17G19G31G26
  21617022.944   113598202.733       -2932.079          43.000  
  19693069.970   103487786.168       -1384.681          44.000  
  19763119.105   103855886.638         796.807          46.000  
  23444541.268   123201893.426        3154.774          43.000  
  19403257.522   101964799.473         617.045          48.000  
  22545846.120   118479236.443        3009.095          42.000  
  23196075.644   121896187.546       -3327.076          40.000  
  22048108.778   115863594.892       -3138.742          43.000  
  23389458.696   122912410.458       -2874.283          35.000  
  24373919.657   128085803.695        1365.841          33.000  
 23  8 31 12 40 56.9970000  0 10G 3G 4G 6G 7G 9G11G17G19G31G26
  21617580.914   113601135.016       -2932.582          43.000  
  19693333.241   103489171.129       -1385.440          44.000  
  19762967.445   103855090.142         795.944          46.000  
  23443941.434   123198738.751        3154.518          43.000  
  19403140.204   101964182.789         616.260          48.000  
  22545273.473   118476227.654        3008.463          42.000  
  23196708.285   121899514.311       -3326.898          40.000  
  22048706.046   115866733.981       -3139.410          44.000  
  23390005.795   122915285.166       -2875.107          36.000  
  24373659.213   128084437.723        1365.563          33.000  
 23  8 31 12 40 57.9970000  0 10G 3G 4G 6G 7G 9G11G17G19G31G26
  21618138.676   113604067.686       -2932.805          43.000  
  19693596.984   103490556.766       -1385.807          44.000  
  19762815.995   103854294.407         795.677          46.000  
  23443341.234   123195584.298        3154.723          43.000  
  19403023.148   101963566.830         615.760          48.000  
  22544700.757   118473219.295        3008.532          43.000  
  23197341.588   121902841.400       -3326.780          40.000  
  22049303.472   115869873.611       -3139.561          44.000  
  23390552.911   122918160.471       -2875.184          36.000  
  24373399.466   128083072.376        1366.019          32.000  
 23  8 31 12 40 58.9970000  0 10G 3G 4G 6G 7G 9G11G17G19G31G26
  21618696.716   113607000.492       -2932.620          43.000  
  19693860.953   103491942.802       -1386.029          44.000  
  19762664.963   103853499.185         795.202          46.000  
  23442741.121   123192429.840        3154.670          43.000  
  19402906.057   101962951.317         615.520          48.000  
  22544128.215   118470211.128        3008.208          42.000  
  23197974.769   121906168.516       -3327.225          40.000  
  22049901.159   115873013.546       -3139.974          44.000  
  23391100.290   122921036.201       -2875.461          36.000  
  24373139.353   128081707.504        1364.099          32.000  
 23  8 31 12 40 59.9970000  0 10G 3G 4G 6G 7G 9G11G17G19G31G26
  21619254.704   113609933.441       -2933.566          43.000  
  19694124.591   103493329.283       -1387.266          44.000  
  19762513.705   103852704.507         793.844          46.000  
  23442141.025   123189275.390        3153.910          43.000  
  19402789.228   101962336.288         614.345          48.000  
  22543555.621   118467203.162        3007.259          42.000  
  23198607.828   121909495.643       -3327.545          41.000  
  22050498.882   115876153.756       -3140.676          44.000  
  23391647.564   122923912.329       -2876.761          36.000  
  24372879.746   128080342.940        1363.827          31.000  
 23  8 31 12 41  0.9970000  0 10G 3G 4G 6G 7G 9G11G17G19G31G26
  21619812.727   113612867.078       -2933.920          43.000  
  19694388.962   103494716.702       -1387.694          44.000  
  19762362.516   103851910.881         793.109          46.000  
  23441540.720   123186121.448        3153.813          43.000  
  19402672.311   101961722.279         613.471          48.000  
  22542983.533   118464195.936        3006.885          42.000  
  23199241.061   121912823.368       -3328.012          40.000  
  22051096.726   115879294.832       -3141.355          44.000  
  23392194.977   122926789.392       -2877.577          36.000  
  24372620.070   128078979.353        1362.465          31.000  
 23  8 31 12 41  1.9970000  0 10G 3G 4G 6G 7G 9G11G17G19G31G26
  21620371.012   113615801.205       -2934.058          43.000  
  19694653.211   103496104.904       -1388.190          44.000  
  19762211.484   103851118.134         792.645          46.000  
  23440940.520   123182967.846        3153.888          43.000  
  19402555.552   101961109.065         612.952          48.000  
  22542411.655   118461189.226        3006.775          42.000  
  23199873.911   121916151.448       -3328.106          40.000  
  22051694.815   115882436.532       -3141.650          44.000  
  23392742.669   122929667.192       -2877.959          36.000  
  24372360.550   128077616.437        1362.038          31.000  
 23  8 31 12 41  2.9970000  0 10G 3G 4G 6G 7G 9G11G17G19G31G26
  21620929.175   113618735.205       -2933.615          43.000  
  19694917.425   103497493.276       -1388.216          44.000  
  19762060.610   103850325.652         792.699          46.000  
  23440340.267   123179813.992        3154.194          43.000  
  19402438.845   101960496.083         613.400          48.000  
  22541839.445   118458182.483        3006.944          42.000  
  23200507.127   121919479.328       -3327.484          41.000  
  22052292.206   115885578.280       -3141.284          44.000  
  23393290.484   122932545.130       -2877.578          36.000  
  24372101.135   128076253.670        1363.106          31.000  
 23  8 31 12 41  3.9970000  0 10G 3G 4G 6G 7G 9G11G17G19G31G26
  21621487.233   113621669.286       -2934.711          43.000  
  19695181.743   103498882.004       -1389.364          44.000  
  19761909.857   103849533.638         791.262          46.000  
  23439739.980   123176660.068        3153.170          43.000  
  19402322.033   101959883.526         611.903          48.000  
  22541267.060   118455175.841        3006.118          42.000  
  23201140.430   121922807.176       -3328.397          40.000  
  22052889.736   115888720.280       -3142.459          43.000  
  23393838.299   122935423.421       -2879.264          36.000  
  24371841.964   128074891.248        1361.539          31.000  
 23  8 31 12 41  4.9970000  0 10G 3G 4G 6G 7G 9G11G17G19G31G26
  21622045.518   113624604.207       -2935.102          43.000  
  19695446.445   103500271.829       -1389.972          44.000  
  19761759.192   103848742.827         790.465          46.000  
  23439140.146   123173506.784        3153.386          43.000  
  19402205.239   101959272.110         611.058          48.000  
  22540695.199   118452170.077        3005.819          42.000  
  23201773.524   121926135.733       -3328.932          40.000  
  22053487.668   115891863.262       -3143.130          43.000  
  23394386.497   122938302.780       -2879.809          36.000  
  24371582.706   128073529.875        1361.526          32.000  
 23  8 31 12 41  5.9970000  0 10G 3G 4G 6G 7G 9G11G17G19G31G26
  21622604.099   113627539.483       -2935.688          43.000  
  19695710.781   103501662.303       -1390.729          44.000  
  19761608.859   103847952.761         789.691          46.000  
  23438540.085   123170353.738        3152.845          43.000  
  19402088.793   101958661.384         610.220          47.000  
  22540123.547   118449164.767        3004.955          42.000  
  23202406.671   121929464.540       -3328.668          40.000  
  22054085.791   115895006.763       -3143.896          43.000  
  23394934.609   122941182.775       -2880.745          36.000  
  24371323.937   128072169.154        1359.861          32.000  
 23  8 31 12 41  6.9970000  0 10G 3G 4G 6G 7G 9G11G17G19G31G26
  21623162.332   113630474.958       -2935.458          43.000  
  19695975.676   103503053.276       -1391.085          44.000  
  19761458.560   103847163.291         789.366          46.000  
  23437940.426   123167200.750        3153.315          43.000  
  19401972.522   101958051.187         610.298          47.000  
  22539551.913   118446159.684        3005.256          42.000  
  23203039.991   121932793.448       -3328.300          40.000  
  22054684.177   115898150.619       -3143.873          43.000  
  23395483.191   122944063.192       -2880.376          36.000  
  24371065.133   128070808.857        1360.454          33.000  
 23  8 31 12 41  7.9970000  0 10G 3G 4G 6G 7G 9G11G17G19G31G26
  21623720.791   113633410.546       -2935.181          43.000  
  19696240.343   103504444.653       -1391.512          44.000  
  19761308.436   103846374.325         788.674          46.000  
  23437340.104   123164047.731        3153.405          43.000  
  19401856.129   101957441.458         609.567          47.000  
  22538980.122   118443154.801        3004.838          42.000  
  23203673.312   121936122.384       -3328.610          40.000  
  22055282.492   115901294.750       -3144.128          43.000  
  23396031.146   122946944.012       -2880.809          36.000  
  24370806.538   128069448.953        1359.673          33.000  
 23  8 31 12 41  8.9970000  0 10G 3G 4G 6G 7G 9G11G17G19G31G26
  21624279.495   113636346.211       -2936.047          43.000  
  19696505.272   103505836.337       -1392.189          45.000  
  19761158.434   103845585.792         788.073          46.000  
  23436739.903   123160894.617        3152.758          43.000  
  19401740.033   101956832.111         608.799          47.000  
  22538408.051   118440150.008        3004.522          42.000  
  23204306.563   121939451.312       -3329.708          39.000  
  22055880.948   115904439.106       -3144.513          43.000  
  23396579.798   122949825.182       -2882.323          36.000  
  24370547.629   128068089.282        1359.646          33.000  
 23  8 31 12 41  9.9970000  0 10G 3G 4G 6G 7G 9G11G17G19G31G26
  21624838.111   113639282.409       -2936.342          43.000  
  19696770.271   103507228.888       -1393.008          44.000  
  19761008.815   103844798.202         787.200          46.000  
  23436140.139   123157741.891        3152.737          43.000  
  19401623.867   101956223.627         608.259          47.000  
  22537836.522   118437145.815        3003.996          42.000  
  23204939.674   121942780.631       -3329.713          39.000  
  22056479.647   115907584.161       -3145.373          43.000  
  23397128.276   122952707.100       -2882.445          36.000  
  24370289.453   128066730.512        1358.295          33.000  
 23  8 31 12 41 10.9970000  0 10G 3G 4G 6G 7G 9G11G17G19G31G26
  21625396.954   113642218.919       -2936.390          42.000  
  19697035.218   103508621.990       -1392.814          44.000  
  19760859.232   103844011.283         787.183          46.000  
  23435540.149   123154589.320        3153.003          43.000  
  19401508.207   101955615.784         607.958          47.000  
  22537264.940   118434141.978        3004.206          42.000  
  23205573.274   121946110.109       -3329.074          40.000  
  22057078.486   115910729.672       -3145.169          43.000  
  23397676.719   122955589.559       -2881.820          35.000  
  24370030.963   128065372.224        1358.161          33.000  
 23  8 31 12 41 11.9970000  0 10G 3G 4G 6G 7G 9G11G17G19G31G26
  21625955.256   113645155.446       -2937.014          42.000  
  19697300.182   103510015.421       -1394.316          44.000  
  19760709.405   103843224.803         785.709          46.000  
  23434940.210   123151436.645        3151.791          43.000  
  19401392.355   101955008.304         606.707          47.000  
  22536693.114   118431138.248        3003.165          42.000  
  23206206.595   121949439.587       -3330.370          39.000  
  22057677.308   115913875.378       -3146.348          43.000  
  23398225.406   122958472.365       -2883.148          35.000  
  24369772.508   128064014.219        1357.278          34.000  
 23  8 31 12 41 12.9970000  0 10G 3G 4G 6G 7G 9G11G17G19G31G26
  21626513.960   113648092.661       -2937.272          42.000  
  19697565.739   103511409.782       -1394.648          44.000  
  19760560.135   103842439.361         785.021          46.000  
  23434340.586   123148284.458        3151.958          44.000  
  19401276.887   101954401.832         606.201          47.000  
  22536121.619   118428135.243        3002.827          42.000  
  23206839.619   121952769.555       -3330.413          39.000  
  22058276.182   115917021.916       -3146.944          43.000  
  23398774.459   122961356.045       -2883.631          35.000  
  24369514.786   128062657.146        1356.635          34.000  
 23  8 31 12 41 13.9970000  0 10G 3G 4G 6G 7G 9G11G17G19G31G26
  21627072.803   113651030.180       -2937.600          42.000  
  19697831.279   103512804.771       -1395.511          44.000  
  19760410.901   103841654.618         784.553          46.000  
  23433741.084   123145132.478        3151.840          43.000  
  19401161.489   101953795.990         605.529          47.000  
  22535550.072   118425132.583        3002.674          42.000  
  23207473.376   121956099.794       -3330.392          39.000  
  22058875.230   115920168.909       -3147.173          43.000  
  23399323.129   122964240.360       -2884.670          35.000  
  24369256.732   128061300.618        1356.116          34.000  
 23  8 31 12 41 14.9970000  0 10G 3G 4G 6G 7G 9G11G17G19G31G26
  21627631.891   113653967.869       -2937.305          42.000  
  19698096.592   103514200.204       -1395.387          44.000  
  19760261.475   103840870.455         784.184          46.000  
  23433141.407   123141980.499        3152.435          43.000  
  19401046.422   101953190.659         605.566          47.000  
  22534978.752   118422130.154        3002.874          42.000  
  23208106.941   121959430.089       -3330.014          39.000  
  22059474.314   115923316.266       -3147.079          43.000  
  23399871.834   122967125.069       -2884.638          35.000  
  24368998.731   128059944.547        1356.375          34.000  
 23  8 31 12 41 15.9970000  0 10G 3G 4G 6G 7G 9G11G17G19G31G26
  21628190.786   113656905.333       -2937.586          42.000  
  19698362.080   103515595.655       -1395.672          44.000  
  19760112.415   103840086.417         783.604          46.000  
  23432541.503   123138828.139        3152.220          43.000  
  19400931.216   101952585.418         605.075          47.000  
  22534407.031   118419127.565        3002.547          41.000  
  23208740.367   121962759.974       -3330.089          39.000  
  22060073.240   115926463.496       -3147.256          43.000  
  23400420.626   122970009.768       -2884.934          35.000  
  24368741.165   128058588.486        1355.459          34.000  
 23  8 31 12 41 16.9970000  0 10G 3G 4G 6G 7G 9G11G17G19G31G26
  21628749.996   113659843.428       -2938.612          43.000  
  19698627.882   103516992.045       -1396.935          44.000  
  19759963.425   103839303.397         782.324          46.000  
  23431941.931   123135676.269        3151.383          43.000  
  19400816.533   101951981.144         603.582          47.000  
  22533835.623   118416125.635        3001.483          42.000  
  23209373.845   121966090.434       -3330.953          39.000  
  22060672.428   115929611.555       -3148.785          44.000  
  23400969.714   122972895.399       -2886.608          35.000  
  24368483.059   128057233.259        1354.104          34.000  
 23  8 31 12 41 17.9970000  0 10G 3G 4G 6G 7G 9G11G17G19G31G26
  21629309.293   113662782.149       -2938.727          43.000  
  19698893.457   103518389.346       -1397.776          44.000  
  19759814.505   103838521.409         781.410          46.000  
  23431342.237   123132524.884        3151.302          43.000  
  19400702.007   101951377.839         602.775          48.000  
  22533264.495   118413124.407        3001.152          42.000  
  23210007.532   121969421.465       -3331.248          39.000  
  22061271.494   115932760.397       -3149.318          43.000  
  23401518.942   122975781.896       -2887.129          34.000  
  24368225.232   128055878.952        1353.603          33.000  
 23  8 31 12 41 18.9970000  0 10G 3G 4G 6G 7G 9G11G17G19G31G26
  21629868.520   113665721.058       -2938.443          43.000  
  19699159.293   103519787.080       -1397.189          44.000  
  19759665.847   103837739.960         781.992          46.000  
  23430742.595   123129373.513        3152.072          43.000  
  19400587.568   101950775.033         603.171          48.000  
  22532693.332   118410123.417        3001.646          41.000  
  23210640.940   121972752.468       -3330.244          39.000  
  22061870.752   115935909.550       -3148.864          43.000  
  23402067.996   122978668.783       -2886.189          34.000  
  24367967.510   128054525.057        1353.843          33.000  
 23  8 31 12 41 19.9970000  0 10G 3G 4G 6G 7G 9G11G17G19G31G26
  21630427.782   113668659.889       -2939.349          43.000  
  19699425.287   103521185.069       -1398.600          44.000  
  19759517.188   103836958.847         780.706          46.000  
  23430142.814   123126221.946        3151.077          43.000  
  19400473.287   101950172.504         601.929          48.000  
  22532122.343   118407122.414        3000.589          42.000  
  23211274.505   121976083.353       -3331.483          39.000  
  22062470.045   115939058.803       -3149.819          43.000  
  23402617.242   122981555.947       -2887.983          34.000  
  24367710.154   128053171.339        1352.809          32.000  
 23  8 31 12 41 20.9970000  0 10G 3G 4G 6G 7G 9G11G17G19G31G26
  21630987.603   113671599.429       -2939.880          43.000  
  19699691.298   103522584.016       -1399.446          44.000  
  19759368.809   103836178.832         779.380          46.000  
  23429543.102   123123070.917        3150.837          43.000  
  19400359.389   101949571.000         600.924          48.000  
  22531551.477   118404122.163        2999.944          41.000  
  23211908.209   121979414.828       -3331.938          39.000  
  22063069.216   115942208.920       -3150.705          43.000  
  23403166.452   122984444.002       -2888.660          33.000  
  24367452.763   128051818.612        1351.541          32.000  
 23  8 31 12 41 21.9970000  0 10G 3G 4G 6G 7G 9G11G17G19G31G26
  21631547.126   113674539.384       -2939.792          43.000  
  19699957.501   103523983.664       -1399.738          44.000  
  19759220.709   103835399.602         779.151          46.000  
  23428943.652   123119920.170        3150.898          43.000  
  19400245.300   101948970.247         600.789          48.000  
  22530980.698   118401122.390        2999.755          41.000  
  23212542.263   121982746.581       -3331.448          39.000  
  22063668.596   115945359.609       -3150.732          43.000  
  23403715.907   122987332.738       -2888.684          33.000  
  24367195.565   128050466.478        1351.835          32.000  
 23  8 31 12 41 22.9970000  0 10G 3G 4G 6G 7G 9G11G17G19G31G26
  21632106.947   113677479.770       -2940.197          43.000  
  19700224.280   103525384.011       -1400.442          44.000  
  19759072.522   103834621.191         778.355          46.000  
  23428344.272   123116769.682        3150.784          43.000  
  19400131.210   101948370.249         600.004          48.000  
  22530409.971   118398123.098        2999.259          41.000  
  23213176.387   121986078.654       -3331.525          39.000  
  22064267.941   115948510.863       -3151.182          43.000  
  23404265.153   122990222.156       -2888.892          33.000  
  24366938.139   128049115.073        1350.893          31.000  
 23  8 31 12 41 23.9970000  0 10G 3G 4G 6G 7G 9G11G17G19G31G26
  21632666.540   113680419.903       -2940.219          43.000  
  19700490.588   103526784.407       -1400.790          44.000  
  19758924.771   103833842.905         778.020          46.000  
  23427744.595   123113618.819        3150.657          43.000  
  19400016.894   101947770.323         599.482          48.000  
  22529839.227   118395123.610        2999.254          41.000  
  23213810.178   121989410.418       -3332.012          39.000  
  22064867.565   115951662.052       -3151.640          43.000  
  23404814.294   122993111.604       -2889.457          33.000  
  24366680.626   128047763.558        1352.352          32.000  
 23  8 31 12 41 24.9970000  0 10G 3G 4G 6G 7G 9G11G17G19G31G26
  21633226.361   113683360.565       -2940.988          43.000  
  19700757.349   103528185.590       -1401.815          44.000  
  19758776.933   103833065.535         776.843          46.000  
  23427145.233   123110468.300        3150.330          43.000  
  19399902.996   101947171.249         598.545          48.000  
  22529268.762   118392124.678        2998.602          41.000  
  23214444.354   121992742.561       -3332.788          39.000  
  22065467.155   115954813.895       -3152.417          43.000  
  23405363.976   122996001.827       -2890.756          32.000  
  24366423.567   128046412.948        1349.856          32.000  
 23  8 31 12 41 25.9970000  0 10G 3G 4G 6G 7G 9G11G17G19G31G26
  21633786.199   113686301.751       -2941.440          43.000  
  19701024.041   103529587.599       -1402.604          44.000  
  19758629.251   103832289.078         776.030          46.000  
  23426545.574   123107318.193        3149.845          43.000  
  19399788.942   101946573.038         597.837          48.000  
  22528698.000   118389126.361        2998.126          41.000  
  23215078.548   121996075.129       -3333.145          39.000  
  22066066.779   115957966.432       -3152.986          43.000  
  23405913.675   122998892.782       -2890.829          32.000  
  24366166.543   128045063.061        1349.466          32.000  
 23  8 31 12 41 26.9970000  0 10G 3G 4G 6G 7G 9G11G17G19G31G26
  21634346.316   113689243.021       -2940.879          43.000  
  19701291.047   103530989.953       -1402.245          44.000  
  19758481.535   103831513.095         776.205          47.000  
  23425946.089   123104168.003        3150.662          43.000  
  19399675.079   101945975.250         597.939          48.000  
  22528127.430   118386128.178        2998.438          41.000  
  23215712.706   121999407.660       -3331.970          39.000  
  22066666.543   115961119.213       -3152.558          43.000  
  23406463.566   123001784.105       -2890.423          32.000  
  24365909.361   128043713.512        1349.665          31.000  
 23  8 31 12 41 27.9970000  0 10G 3G 4G 6G 7G 9G11G17G19G31G26
  21634906.014   113692184.091       -2941.434          43.000  
  19701557.791   103532392.384       -1402.667          44.000  
  19758334.482   103830737.284         775.395          47.000  
  23425346.482   123101017.463        3150.471          43.000  
  19399561.496   101945377.576         597.299          48.000  
  22527556.756   118383129.844        2998.125          41.000  
  23216346.742   122002739.877       -3332.253          39.000  
  22067266.307   115964271.919       -3152.876          43.000  
  23407013.301   123004675.501       -2891.725          32.000  
  24365652.494   128042364.009        1348.762          32.000  
 23  8 31 12 41 28.9970000  0 10G 3G 4G 6G 7G 9G11G17G19G31G26
  21635466.061   113695125.803       -2942.126          43.000  
  19701824.831   103533795.747       -1403.705          44.000  
  19758187.063   103829962.514         774.316          47.000  
  23424747.049   123097867.439        3149.634          43.000  
  19399447.912   101944780.887         596.263          48.000  
  22526986.552   118380132.205        2997.202          41.000  
  23216980.796   122006072.662       -3333.337          39.000  
  22067866.507   115967425.441       -3153.770          43.000  
  23407563.454   123007567.757       -2892.265          32.000  
  24365395.802   128041015.379        1347.998          33.000  
 23  8 31 12 41 29.9970000  0 10G 3G 4G 6G 7G 9G11G17G19G31G26
  21636025.952   113698067.976       -2942.246          43.000  
  19702091.994   103535199.847       -1404.218          44.000  
  19758039.835   103829188.579         773.705          47.000  
  23424147.495   123094717.705        3149.666          43.000  
  19399334.538   101944184.973         595.869          48.000  
  22526416.244   118377135.096        2996.996          41.000  
  23217614.849   122009405.765       -3332.827          39.000  
  22068466.394   115970579.579       -3154.218          43.000  
  23408113.432   123010460.757       -2892.964          32.000  
  24365139.371   128039667.500        1347.335          33.000  
 23  8 31 12 41 30.9970000  0 10G 3G 4G 6G 7G 9G11G17G19G31G26
  21636586.034   113701010.615       -2942.731          43.000  
  19702359.454   103536604.696       -1404.999          44.000  
  19757892.643   103828415.511         772.667          47.000  
  23423547.836   123091568.298        3149.414          42.000  
  19399221.426   101943589.874         594.860          48.000  
  22525846.041   118374138.501        2996.366          41.000  
  23218249.217   122012739.255       -3333.458          39.000  
  22069066.576   115973734.317       -3154.860          43.000  
  23408663.672   123013354.435       -2893.251          32.000  
  24364882.922   128038320.314        1346.781          33.000  
 23  8 31 12 41 31.9970000  0 10G 3G 4G 6G 7G 9G11G17G19G31G26
  21637145.854   113703953.141       -2942.499          43.000  
  19702627.001   103538009.723       -1405.460          44.000  
  19757745.555   103827642.711         772.391          47.000  
  23422948.543   123088418.629        3149.612          43.000  
  19399107.947   101942994.982         594.532          48.000  
  22525275.785   118371141.847        2996.426          42.000  
  23218883.515   122016072.488       -3333.448          39.000  
  22069666.585   115976889.139       -3155.293          43.000  
  23409214.035   123016248.332       -2894.496          32.000  
  24364626.701   128036973.267        1346.653          33.000  
 23  8 31 12 41 32.9970000  0 10G 3G 4G 6G 7G 9G11G17G19G31G26
  21637705.849   113706895.998       -2943.080          43.000  
  19702894.477   103539415.343       -1406.097          44.000  
  19757598.519   103826870.617         771.606          47.000  
  23422349.128   123085269.150        3148.939          42.000  
  19398995.341   101942400.749         593.842          48.000  
  22524705.600   118368145.567        2995.873          42.000  
  23219517.900   122019405.952       -3333.762          39.000  
  22070266.802   115980044.417       -3155.702          43.000  
  23409764.467   123019142.760       -2895.223          31.000  
  24364370.863   128035626.796        1345.723          33.000  
 23  8 31 12 41 33.9970000  0 10G 3G 4G 6G 7G 9G11G17G19G31G26
  21638265.512   113709839.480       -2943.205          43.000  
  19703162.059   103540821.873       -1406.485          44.000  
  19757451.606   103826099.554         771.097          47.000  
  23421749.974   123082120.121        3149.357          42.000  
  19398882.892   101941807.489         593.279          48.000  
  22524135.292   118365149.986        2995.792          42.000  
  23220152.268   122022739.918       -3333.496          39.000  
  22070867.072   115983200.465       -3155.844          43.000  
  23410314.882   123022038.028       -2894.622          31.000  
  24364115.025   128034281.172        1346.116          34.000  
 23  8 31 12 41 34.9970000  0 10G 3G 4G 6G 7G 9G11G17G19G31G26
  21638825.612   113712783.202       -2943.536          43.000  
  19703429.728   103542228.923       -1406.987          44.000  
  19757304.745   103825329.104         770.423          46.000  
  23421150.577   123078971.210        3149.496          42.000  
  19398770.320   101941214.786         592.726          48.000  
  22523565.751   118362154.706        2995.436          42.000  
  23220786.444   122026074.072       -3334.161          39.000  
  22071467.814   115986356.932       -3156.224          43.000  
  23410865.506   123024933.854       -2895.414          31.000  
  24363858.978   128032936.085        1345.010          34.000  
 23  8 31 12 41 35.9970000  0 10G 3G 4G 6G 7G 9G11G17G19G31G26
  21639385.642   113715726.701       -2943.704          43.000  
  19703697.432   103543636.025       -1407.610          44.000  
  19757157.744   103824558.809         769.870          47.000  
  23420551.057   123075821.918        3149.118          42.000  
  19398657.993   101940622.195         592.101          48.000  
  22522995.688   118359159.240        2995.057          42.000  
  23221420.934   122029407.854       -3333.919          39.000  
  22072068.485   115989513.322       -3156.683          43.000  
  23411416.392   123027829.666       -2895.714          31.000  
  24363603.158   128031590.991        1344.702          34.000  
 23  8 31 12 41 36.9970000  0 10G 3G 4G 6G 7G 9G11G17G19G31G26
  21639945.619   113718670.818       -2944.681          43.000  
  19703965.415   103545044.022       -1408.756          44.000  
  19757011.093   103823789.524         768.447          47.000  
  23419951.695   123072673.090        3148.418          42.000  
  19398545.631   101940030.538         590.999          48.000  
  22522425.851   118356164.447        2994.360          42.000  
  23222055.563   122032742.118       -3334.469          40.000  
  22072669.209   115992670.441       -3157.564          43.000  
  23411967.627   123030726.365       -2897.390          31.000  
  24363347.495   128030246.799        1343.425          34.000  
 23  8 31 12 41 37.9970000  0 10G 3G 4G 6G 7G 9G11G17G19G31G26
  21640505.963   113721615.449       -2945.051          43.000  
  19704233.398   103546452.818       -1409.095          44.000  
  19756864.947   103823021.134         767.996          47.000  
  23419352.367   123069524.621        3148.538          42.000  
  19398433.496   101939439.743         590.324          48.000  
  22521856.188   118353170.253        2993.771          41.000  
  23222690.263   122036076.822       -3334.949          40.000  
  22073269.932   115995828.276       -3158.132          43.000  
  23412519.211   123033623.839       -2897.962          32.000  
  24363091.605   128028903.340        1343.287          34.000  
 23  8 31 12 41 38.9970000  0 10G 3G 4G 6G 7G 9G11G17G19G31G26
  21641066.290   113724560.237       -2944.813          43.000  
  19704501.538   103547862.055       -1409.664          44.000  
  19756718.906   103822253.310         767.400          47.000  
  23418753.231   123066376.203        3148.303          42.000  
  19398321.204   101938849.436         589.847          48.000  
  22521286.596   118350176.257        2993.588          42.000  
  23223325.346   122039411.564       -3334.743          40.000  
  22073871.302   115998986.425       -3158.695          43.000  
  23413070.777   123036521.723       -2898.474          32.000  
  24362836.256   128027560.301        1342.786          33.000  
 23  8 31 12 41 39.9970000  0 10G 3G 4G 6G 7G 9G11G17G19G31G26
  21641626.512   113727504.894       -2945.002          43.000  
  19704769.713   103549271.448       -1409.902          44.000  
  19756572.900   103821485.729         766.933          47.000  
  23418154.043   123063227.490        3148.235          42.000  
  19398208.580   101938259.321         589.574          48.000  
  22520716.724   118347182.193        2993.519          42.000  
  23223960.324   122042746.078       -3334.774          40.000  
  22074472.444   116002144.575       -3158.703          43.000  
  23413622.396   123039419.706       -2898.201          32.000  
  24362580.663   128026217.411        1342.136          33.000  
 23  8 31 12 41 40.9970000  0 10G 3G 4G 6G 7G 9G11G17G19G31G26
  21642186.838   113730450.183       -2945.563          43.000  
  19705038.027   103550681.738       -1410.483          44.000  
  19756426.877   103820719.154         766.334          47.000  
  23417554.907   123060079.231        3148.419          42.000  
  19398096.166   101937670.161         588.936          48.000  
  22520147.114   118344188.800        2993.411          42.000  
  23224595.094   122046081.114       -3335.107          40.000  
  22075073.918   116005303.512       -3159.121          43.000  
  23414174.294   123042318.572       -2898.563          32.000  
  24362325.349   128024875.374        1341.260          32.000  
 23  8 31 12 41 41.9970000  0 10G 3G 4G 6G 7G 9G11G17G19G31G26
  21642747.444   113733396.009       -2946.142          43.000  
  19705306.289   103552092.850       -1411.462          44.000  
  19756281.325   103819953.511         765.302          47.000  
  23416955.457   123056931.392        3147.977          42.000  
  19397983.664   101937081.883         587.922          48.000  
  22519577.661   118341196.015        2992.591          42.000  
  23225230.072   122049416.564       -3335.755          40.000  
  22075675.009   116008463.149       -3160.058          43.000  
  23414725.756   123045218.246       -2899.857          32.000  
  24362069.842   128023534.113        1341.012          31.000  
 23  8 31 12 41 42.9970000  0 10G 3G 4G 6G 7G 9G11G17G19G31G26
  21643307.980   113736342.162       -2945.862          43.000  
  19705574.447   103553504.557       -1411.287          43.000  
  19756136.226   103819188.595         765.127          47.000  
  23416356.356   123053783.746        3148.138          42.000  
  19397872.035   101936494.262         587.778          48.000  
  22519008.260   118338203.620        2992.782          42.000  
  23225865.068   122052752.228       -3335.265          41.000  
  22076276.273   116011623.267       -3159.854          43.000  
  23415277.427   123048118.502       -2900.261          32.000  
  24361814.389   128022193.444        1340.629          31.000  
 23  8 31 12 41 43.9970000  0 10G 3G 4G 6G 7G 9G11G17G19G31G26
  21643868.603   113739288.032       -2946.040          42.000  
  19705843.250   103554916.277       -1411.798          44.000  
  19755990.936   103818423.768         764.655          47.000  
  23415757.116   123050635.651        3148.202          42.000  
  19397760.022   101935906.678         587.403          48.000  
  22518438.773   118335211.003        2992.505          42.000  
  23226500.047   122056087.495       -3335.150          41.000  
  22076877.747   116014783.245       -3159.949          43.000  
  23415829.395   123051018.671       -2899.930          32.000  
  24361559.162   128020852.722        1340.464          31.000  
 23  8 31 12 41 44.9970000  0 10G 3G 4G 6G 7G 9G11G17G19G31G26
  21644429.139   113742234.429       -2947.190          42.000  
  19706112.036   103556328.786       -1413.229          43.000  
  19755845.645   103817659.859         762.990          47.000  
  23415158.067   123047487.943        3146.920          42.000  
  19397648.184   101935319.959         585.701          48.000  
  22517869.320   118332218.966        2991.218          42.000  
  23227135.304   122059423.186       -3336.337          41.000  
  22077479.466   116017943.910       -3161.300          43.000  
  23416381.415   123053919.688       -2901.528          32.000  
  24361303.883   128019512.745        1339.364          31.000  
 23  8 31 12 41 45.9970000  0 10G 3G 4G 6G 7G 9G11G17G19G31G26
  21644989.727   113745181.362       -2946.800          42.000  
  19706381.083   103557742.117       -1412.997          44.000  
  19755700.442   103816896.865         762.952          47.000  
  23414558.862   123044340.610        3147.462          41.000  
  19397536.485   101934734.107         585.605          48.000  
  22517300.443   118329227.516        2991.313          42.000  
  23227770.719   122062759.297       -3335.736          41.000  
  22078081.289   116021105.275       -3161.408          43.000  
  23416933.749   123056821.478       -2901.565          33.000  
  24361048.935   128018173.634        1338.634          31.000  
 23  8 31 12 41 46.9970000  0 10G 3G 4G 6G 7G 9G11G17G19G31G26
  21645550.368   113748128.503       -2947.401          42.000  
  19706649.974   103559155.958       -1414.308          44.000  
  19755555.657   103816134.498         761.822          47.000  
  23413960.127   123041193.374        3147.006          41.000  
  19397424.961   101934148.802         584.838          48.000  
  22516731.304   118326236.334        2991.005          42.000  
  23228405.890   122066095.529       -3336.611          41.000  
  22078683.147   116024267.013       -3162.174          43.000  
  23417486.101   123059723.735       -2902.777          33.000  
  24360794.214   128016834.971        1337.302          31.000  
 23  8 31 12 41 47.9970000  0 10G 3G 4G 6G 7G 9G11G17G19G31G26
  21646111.200   113751075.856       -2947.823          42.000  
  19706919.213   103560570.258       -1414.728          44.000  
  19755411.204   103815372.684         761.198          47.000  
  23413361.027   123038046.188        3146.488          41.000  
  19397313.611   101933564.015         584.289          48.000  
  22516162.060   118323245.417        2990.471          42.000  
  23229040.676   122069431.817       -3336.433          41.000  
  22079284.935   116027429.089       -3162.535          43.000  
  23418038.662   123062626.410       -2902.480          33.000  
  24360539.633   128015496.680        1338.106          31.000  
 23  8 31 12 41 48.9970000  0 10G 3G 4G 6G 7G 9G11G17G19G31G26
  21646672.103   113754023.704       -2948.394          42.000  
  19707188.627   103561985.358       -1415.621          44.000  
  19755266.629   103814611.767         760.263          47.000  
  23412762.170   123034899.335        3146.376          41.000  
  19397202.505   101932980.073         583.194          48.000  
  22515593.043   118320255.059        2989.687          42.000  
  23229675.882   122072768.519       -3337.183          42.000  
  22079886.933   116030591.821       -3163.321          43.000  
  23418591.293   123065529.879       -2903.958          33.000  
  24360285.034   128014159.214        1336.661          31.000  
 23  8 31 12 41 49.9970000  0 10G 3G 4G 6G 7G 9G11G17G19G31G26
  21647233.162   113756972.011       -2948.788          42.000  
  19707458.181   103563401.184       -1416.464          44.000  
  19755122.176   103813851.717         759.342          47.000  
  23412163.418   123031752.809        3145.903          41.000  
  19397091.173   101932396.916         582.502          48.000  
  22515023.870   118317265.215        2989.489          42.000  
  23230311.209   122076105.567       -3337.584          42.000  
  22080488.948   116033755.175       -3163.942          43.000  
  23419144.011   123068434.078       -2904.720          34.000  
  24360030.558   128012822.438        1335.465          31.000  
 23  8 31 12 41 50.9970000  0 10G 3G 4G 6G 7G 9G11G17G19G31G26
  21647794.064   113759920.732       -2948.837          42.000  
  19707727.525   103564817.697       -1416.859          44.000  
  19754977.846   103813092.434         758.989          47.000  
  23411564.597   123028606.530        3146.390          42.000  
  19396980.416   101931814.499         582.376          48.000  
  22514454.853   118314275.849        2989.368          41.000  
  23230946.380   122079442.891       -3337.140          42.000  
  22081090.823   116036919.086       -3163.884          43.000  
  23419697.305   123071338.881       -2904.642          34.000  
  24359776.378   128011486.304        1335.680          31.000  
 23  8 31 12 41 51.9970000  0 10G 3G 4G 6G 7G 9G11G17G19G31G26
  21648355.071   113762869.284       -2948.483          42.000  
  19707997.270   103566234.310       -1416.576          44.000  
  19754833.532   103812333.397         758.910          47.000  
  23410965.792   123025459.973        3146.637          41.000  
  19396869.206   101931232.256         582.178          47.000  
  22513886.063   118311286.363        2989.531          41.000  
  23231581.567   122082779.947       -3336.647          42.000  
  22081693.100   116040082.985       -3163.847          43.000  
  23420250.547   123074243.837       -2905.641          34.000  
  24359522.163   128010150.249        1336.638          31.000  
 23  8 31 12 41 52.9970000  0 10G 3G 4G 6G 7G 9G11G17G19G31G26
  21648916.183   113765818.052       -2949.342          42.000  
  19708266.859   103567651.455       -1417.831          44.000  
  19754689.132   103811574.966         757.891          47.000  
  23410367.058   123022313.489        3146.068          41.000  
  19396758.205   101930650.569         581.062          47.000  
  22513317.081   118308297.168        2988.879          41.000  
  23232216.563   122086117.124       -3337.278          42.000  
  22082295.028   116043247.267       -3164.791          43.000  
  23420803.928   123077149.225       -2906.263          34.000  
  24359268.227   128008814.757        1334.701          32.000  
 23  8 31 12 41 53.9970000  0 10G 3G 4G 6G 7G 9G11G17G19G31G26
  21649477.801   113768767.744       -2950.015          42.000  
  19708536.866   103569069.774       -1418.292          44.000  
  19754544.714   103810817.845         756.798          47.000  
  23409768.498   123019167.780        3145.541          41.000  
  19396647.554   101930070.124         579.886          47.000  
  22512748.396   118305308.951        2988.059          41.000  
  23232852.170   122089455.117       -3338.209          42.000  
  22082897.235   116046412.618       -3165.569          43.000  
  23421357.537   123080055.788       -2907.035          34.000  
  24359014.344   128007480.350        1334.337          32.000  
 23  8 31 12 41 54.9970000  0 10G 3G 4G 6G 7G 9G11G17G19G31G26
  21650039.366   113771717.695       -2949.807          42.000  
  19708806.733   103570488.657       -1418.884          44.000  
  19754400.750   103810061.356         756.469          47.000  
  23409169.676   123016022.188        3145.703          41.000  
  19396537.512   101929490.260         579.840          47.000  
  22512179.920   118302321.047        2988.161          41.000  
  23233487.550   122092793.266       -3337.845          42.000  
  22083499.756   116049578.383       -3165.874          43.000  
  23421910.883   123082962.867       -2907.369          34.000  
  24358760.618   128006146.506        1333.422          32.000  
 23  8 31 12 41 55.9970000  0 10G 3G 4G 6G 7G 9G11G17G19G31G26
  21650600.740   113774667.518       -2949.637          42.000  
  19709077.002   103571907.666       -1418.836          44.000  
  19754256.698   103809305.142         756.336          47.000  
  23408570.453   123012876.319        3146.307          41.000  
  19396426.808   101928910.613         579.769          47.000  
  22511611.445   118299333.089        2988.112          41.000  
  23234122.965   122096131.141       -3337.690          43.000  
  22084101.876   116052744.183       -3165.676          43.000  
  23422464.561   123085870.028       -2906.810          34.000  
  24358507.014   128004812.762        1334.377          32.000  
 23  8 31 12 41 56.9970000  0 10G 3G 4G 6G 7G 9G11G17G19G31G26
  21651162.550   113777617.663       -2950.635          43.000  
  19709346.940   103573327.284       -1420.009          43.000  
  19754112.856   103808549.628         754.732          47.000  
  23407972.068   123009730.616        3145.717          41.000  
  19396316.436   101928331.600         578.419          47.000  
  22511042.934   118296345.485        2986.970          41.000  
  23234758.327   122099469.247       -3338.541          42.000  
  22084704.153   116055910.411       -3166.444          43.000  
  23423018.134   123088777.795       -2907.964          34.000  
  24358253.358   128003479.576        1332.872          32.000  
 23  8 31 12 41 57.9970000  0 10G 3G 4G 6G 7G 9G11G17G19G31G26
  21651724.028   113780568.211       -2950.479          42.000  
  19709617.139   103574747.599       -1420.587          44.000  
  19753969.171   103807794.921         754.357          47.000  
  23407373.543   123006585.200        3145.448          41.000  
  19396206.220   101927753.353         578.079          47.000  
  22510474.633   118293358.396        2987.131          41.000  
  23235393.759   122102807.640       -3338.229          42.000  
  22085306.552   116059077.261       -3166.798          43.000  
  23423572.109   123091686.228       -2908.416          34.000  
  24357999.771   128002147.107        1331.887          32.000  
 23  8 31 12 41 58.9970000  0 10G 3G 4G 6G 7G 9G11G17G19G31G26
  21652285.611   113783519.193       -2951.167          42.000  
  19709887.530   103576168.605       -1421.308          44.000  
  19753825.363   103807041.012         753.483          47.000  
  23406775.053   123003440.048        3144.786          41.000  
  19396096.371   101927175.844         577.259          47.000  
  22509906.367   118290371.732        2986.407          41.000  
  23236029.157   122106146.371       -3339.011          43.000  
  22085908.986   116062244.668       -3167.728          43.000  
  23424125.909   123094595.311       -2908.821          34.000  
  24357746.481   128000815.257        1331.100          33.000  
 23  8 31 12 41 59.9970000  0 10G 3G 4G 6G 7G 9G11G17G19G31G26
  21652847.420   113786470.083       -2950.983          43.000  
  19710158.305   103577589.809       -1421.406          44.000  
  19753681.661   103806287.407         753.472          47.000  
  23406176.301   123000294.653        3145.619          41.000  
  19395986.609   101926598.591         577.227          47.000  
  22509337.891   118287385.073        2986.768          41.000  
  23236664.676   122109484.881       -3338.417          43.000  
  22086511.646   116065412.136       -3167.546          42.000  
  23424679.674   123097504.605       -2909.011          34.000  
  24357493.156   127999483.587        1331.204          33.000  
 23  8 31 12 42  0.9970000  0 10G 3G 4G 6G 7G 9G11G17G19G31G26
  21653409.003   113789421.332       -2951.315          43.000  
  19710428.871   103579011.637       -1421.703          44.000  
  19753538.168   103805534.544         752.931          46.000  
  23405577.741   122997149.504        3145.189          41.000  
  19395876.952   101926022.017         576.564          47.000  
  22508769.572   118284398.818        2986.555          41.000  
  23237300.335   122112823.645       -3338.672          43.000  
  22087114.010   116068580.102       -3167.835          42.000  
  23425233.282   123100414.493       -2910.135          34.000  
  24357240.163   127998152.555        1330.449          33.000  
 23  8 31 12 42  1.9970000  0 10G 3G 4G 6G 7G 9G11G17G19G31G26
  21653971.162   113792373.197       -2951.962          43.000  
  19710699.995   103580434.394       -1422.844          44.000  
  19753395.111   103804782.708         751.439          46.000  
  23404979.198   122994004.816        3144.436          41.000  
  19395767.469   101925446.420         575.188          47.000  
  22508201.585   118281413.290        2984.976          41.000  
  23237935.925   122116162.916       -3339.330          43.000  
  22087716.793   116071748.852       -3169.187          42.000  
  23425787.292   123103325.226       -2910.742          34.000  
  24356987.397   127996822.330        1330.240          33.000  
 23  8 31 12 42  2.9970000  0 10G 3G 4G 6G 7G 9G11G17G19G31G26
  21654532.937   113795325.542       -2951.980          43.000  
  19710971.171   103581857.877       -1423.276          44.000  
  19753252.141   103804031.724         750.990          46.000  
  23404380.673   122990860.448        3144.750          41.000  
  19395658.283   101924871.609         574.843          47.000  
  22507633.650   118278428.232        2984.970          41.000  
  23238571.566   122119502.557       -3339.320          43.000  
  22088320.047   116074918.235       -3169.386          42.000  
  23426341.615   123106236.737       -2911.621          34.000  
  24356734.194   127995492.879        1329.870          33.000  
 23  8 31 12 42  3.9970000  0 10G 3G 4G 6G 7G 9G11G17G19G31G26
  21655094.799   113798277.688       -2951.962          43.000  
  19711241.999   103583281.462       -1423.455          44.000  
  19753109.137   103803280.943         750.689          46.000  
  23403782.113   122987715.749        3144.922          41.000  
  19395549.464   101924296.924         574.708          47.000  
  22507065.541   118275443.084        2985.052          41.000  
  23239206.719   122122841.883       -3339.194          43.000  
  22088922.987   116078087.551       -3169.173          42.000  
  23426895.590   123109148.311       -2912.230          33.000  
  24356481.480   127994163.515        1329.149          32.000  
 23  8 31 12 42  4.9970000  0 10G 3G 4G 6G 7G 9G11G17G19G31G26
  21655656.993   113801230.134       -2952.629          43.000  
  19711513.227   103584705.609       -1424.426          44.000  
  19752966.307   103802530.833         749.823          46.000  
  23403183.606   122984571.197        3144.644          41.000  
  19395440.365   101923722.887         573.812          48.000  
  22506497.676   118272458.268        2984.626          41.000  
  23239842.029   122126181.401       -3339.726          43.000  
  22089526.276   116081257.336       -3170.064          42.000  
  23427449.739   123112060.383       -2912.514          33.000  
  24356228.504   127992834.653        1328.822          32.000  
 23  8 31 12 42  5.9970000  0 10G 3G 4G 6G 7G 9G11G17G19G31G26
  21656219.082   113804183.073       -2953.187          43.000  
  19711784.561   103586130.533       -1425.387          44.000  
  19752823.599   103801781.605         748.728          46.000  
  23402585.238   122981426.999        3143.926          41.000  
  19395331.371   101923149.656         572.780          48.000  
  22505929.427   118269474.018        2983.934          41.000  
  23240477.409   122129521.278       -3340.213          43.000  
  22090129.478   116084427.746       -3170.773          42.000  
  23428004.080   123114973.207       -2913.384          33.000  
  24355975.755   127991506.517        1327.992          33.000  
 23  8 31 12 42  6.9970000  0 10G 3G 4G 6G 7G 9G11G17G19G31G26
  21656781.223   113807136.474       -2953.762          43.000  
  19712055.597   103587556.188       -1426.053          44.000  
  19752681.327   103801033.231         747.602          46.000  
  23401986.940   122978283.122        3143.417          41.000  
  19395222.586   101922577.229         571.794          48.000  
  22505361.771   118266490.281        2983.323          41.000  
  23241112.737   122132861.511       -3340.632          43.000  
  22090733.203   116087598.776       -3171.418          42.000  
  23428558.613   123117886.730       -2913.343          33.000  
  24355723.355   127990179.142        1326.829          33.000  
 23  8 31 12 42  7.9970000  0 10G 3G 4G 6G 7G 9G11G17G19G31G26
  21657343.120   113810089.720       -2953.172          43.000  
  19712327.088   103588981.965       -1425.433          44.000  
  19752538.776   103800285.089         748.234          46.000  
  23401388.764   122975138.923        3144.401          41.000  
  19395113.714   101922004.971         572.279          48.000  
  22504793.959   118263506.443        2984.031          41.000  
  23241748.029   122136201.465       -3339.433          43.000  
  22091336.631   116090769.806       -3170.851          42.000  
  23429113.024   123120800.382       -2913.381          33.000  
  24355470.728   127988851.825        1327.679          33.000  
 23  8 31 12 42  8.9970000  0 10G 3G 4G 6G 7G 9G11G17G19G31G26
  21657904.860   113813042.997       -2953.796          43.000  
  19712598.160   103590408.083       -1426.580          44.000  
  19752396.278   103799537.379         747.118          46.000  
  23400790.623   122971994.648        3143.895          41.000  
  19395004.965   101921433.081         571.372          48.000  
  22504226.321   118260522.721        2983.251          41.000  
  23242383.531   122139541.376       -3340.326          43.000  
  22091939.816   116093941.023       -3171.650          42.000  
  23429667.383   123123714.312       -2914.336          33.000  
  24355218.119   127987524.825        1326.468          33.000  
 23  8 31 12 42  9.9970000  0 10G 3G 4G 6G 7G 9G11G17G19G31G26
  21658466.879   113815997.009       -2954.308          43.000  
  19712869.633   103591835.197       -1427.650          44.000  
  19752253.884   103798790.779         745.994          46.000  
  23400192.394   122968850.959        3143.016          41.000  
  19394896.302   101920862.263         570.309          48.000  
  22503658.805   118257539.775        2982.457          41.000  
  23243019.191   122142881.872       -3340.859          43.000  
  22092543.314   116097113.123       -3172.786          42.000  
  23430221.706   123126629.229       -2915.341          32.000  
  24354965.981   127986198.835        1325.146          33.000  
 23  8 31 12 42 10.9970000  0 10G 3G 4G 6G 7G 9G11G17G19G31G26
  21659029.212   113818951.585       -2954.991          43.000  
  19713141.629   103593263.138       -1428.476          44.000  
  19752111.735   103798045.127         745.201          46.000  
  23399594.079   122965707.638        3143.232          41.000  
  19394787.954   101920292.326         569.504          48.000  
  22503091.446   118254557.453        2981.826          41.000  
  23243654.937   122146222.852       -3341.334          42.000  
  22093146.865   116100285.910       -3173.038          42.000  
  23430776.431   123129544.890       -2915.653          32.000  
  24354713.825   127984873.597        1324.744          33.000  
 23  8 31 12 42 11.9970000  0 10G 3G 4G 6G 7G 9G11G17G19G31G26
  21659591.424   113821906.068       -2954.530          43.000  
  19713413.469   103594691.294       -1428.523          44.000  
  19751969.864   103797299.780         745.209          46.000  
  23398995.938   122962564.153        3143.728          41.000  
  19394679.658   101919722.636         569.675          48.000  
  22502524.209   118251575.105        2982.275          41.000  
  23244290.439   122149563.603       -3340.563          42.000  
  22093750.764   116103458.804       -3172.859          42.000  
  23431331.139   123132460.787       -2915.824          32.000  
  24354461.286   127983548.565        1324.660          33.000  
 23  8 31 12 42 12.9970000  0 10G 3G 4G 6G 7G 9G11G17G19G31G26
  21660153.373   113824860.931       -2955.017          43.000  
  19713685.273   103596120.092       -1429.020          44.000  
  19751828.186   103796555.229         743.882          46.000  
  23398397.919   122959420.867        3142.924          41.000  
  19394571.449   101919153.676         568.395          48.000  
  22501956.867   118248593.210        2981.667          41.000  
  23244925.976   122152904.647       -3341.544          42.000  
  22094354.472   116106632.220       -3173.918          42.000  
  23431886.091   123135377.336       -2917.653          32.000  
  24354208.973   127982224.205        1323.442          33.000  
 23  8 31 12 42 13.9970000  0 10G 3G 4G 6G 7G 9G11G17G19G31G26
  21660715.444   113827816.487       -2956.245          42.000  
  19713957.427   103597549.863       -1430.567          44.000  
  19751686.525   103795811.712         742.793          46.000  
  23397799.917   122956278.159        3142.119          41.000  
  19394463.153   101918585.707         567.377          48.000  
  22501389.509   118245612.049        2980.791          41.000  
  23245561.722   122156246.249       -3342.031          42.000  
  22094958.285   116109806.457       -3175.027          42.000  
  23432440.885   123138294.776       -2918.499          32.000  
  24353956.974   127980900.719        1322.830          33.000  
 23  8 31 12 42 14.9970000  0 10G 3G 4G 6G 7G 9G11G17G19G31G26
  21661277.603   113830772.489       -2955.949          42.000  
  19714229.511   103598980.354       -1430.548          44.000  
  19751545.405   103795069.065         742.633          46.000  
  23397201.916   122953135.715        3142.610          41.000  
  19394355.345   101918018.539         567.193          48.000  
  22500822.411   118242631.410        2980.773          41.000  
  23246197.852   122159588.209       -3341.684          42.000  
  22095562.498   116112981.302       -3174.843          42.000  
  23432996.081   123141212.949       -2919.474          32.000  
  24353705.220   127979577.982        1322.262          33.000  
 23  8 31 12 42 15.9970000  0 10G 3G 4G 6G 7G 9G11G17G19G31G26
  21661839.692   113833728.588       -2956.059          42.000  
  19714501.455   103600411.224       -1431.056          44.000  
  19751404.355   103794326.879         742.082          46.000  
  23396603.705   122949993.264        3142.478          41.000  
  19394247.695   101917451.793         566.653          48.000  
  22500255.070   118239650.929        2980.189          41.000  
  23246833.651   122162930.124       -3341.811          42.000  
  22096167.061   116116156.394       -3175.178          42.000  
  23433551.644   123144131.356       -2918.303          32.000  
  24353453.797   127978255.548        1322.437          33.000  
 23  8 31 12 42 16.9970000  0 10G 3G 4G 6G 7G 9G11G17G19G31G26
  21662402.270   113836684.780       -2956.544          42.000  
  19714773.818   103601842.474       -1432.109          44.000  
  19751263.357   103793585.205         740.970          46.000  
  23396005.790   122946850.751        3142.047          41.000  
  19394140.062   101916885.477         565.832          48.000  
  22499688.130   118236670.606        2979.902          41.000  
  23247469.205   122166272.024       -3342.458          42.000  
  22096771.310   116119331.738       -3176.162          43.000  
  23434106.683   123147050.194       -2919.094          31.000  
  24353202.026   127976933.510        1320.920          33.000  
 23  8 31 12 42 17.9970000  0 10G 3G 4G 6G 7G 9G11G17G19G31G26
  21662964.830   113839641.596       -2957.295          42.000  
  19715046.251   103603274.597       -1432.581          44.000  
  19751122.621   103792844.515         740.024          46.000  
  23395408.173   122943708.703        3142.038          40.000  
  19394032.359   101916320.110         564.622          48.000  
  22499121.067   118233690.942        2979.301          41.000  
  23248105.196   122169614.458       -3342.722          43.000  
  22097375.977   116122507.814       -3176.712          43.000  
  23434662.490   123149969.870       -2919.954          32.000  
  24352950.394   127975612.297        1320.557          32.000  
 23  8 31 12 42 18.9970000  0 10G 3G 4G 6G 7G 9G11G17G19G31G26
  21663527.652   113842598.981       -2957.316          42.000  
  19715318.963   103604707.577       -1432.812          44.000  
  19750982.147   103792104.808         739.655          46.000  
  23394810.293   122940567.130        3141.949          41.000  
  19393924.761   101915755.656         564.395          48.000  
  22498553.796   118230711.943        2978.973          41.000  
  23248741.099   122172957.344       -3342.603          42.000  
  22097980.784   116125684.666       -3176.743          43.000  
  23435218.175   123152890.418       -2920.171          31.000  
  24352699.006   127974291.959        1319.604          32.000  
 23  8 31 12 42 19.9970000  0 10G 3G 4G 6G 7G 9G11G17G19G31G26
  21664090.421   113845556.177       -2957.197          42.000  
  19715591.622   103606140.670       -1433.083          44.000  
  19750841.778   103791365.287         739.507          46.000  
  23394212.187   122937425.206        3141.906          41.000  
  19393817.041   101915191.329         564.148          48.000  
  22497987.257   118227732.797        2979.222          41.000  
  23249377.003   122176299.894       -3342.064          42.000  
  22098585.714   116128861.434       -3176.776          43.000  
  23435774.243   123155810.959       -2919.720          32.000  
  24352447.600   127972971.627        1320.167          32.000  
 23  8 31 12 42 20.9970000  0 10G 3G 4G 6G 7G 9G11G17G19G31G26
  21664653.016   113848513.760       -2957.804          42.000  
  19715864.614   103607574.405       -1434.180          44.000  
  19750701.024   103790626.549         738.141          46.000  
  23393614.500   122934283.499        3141.237          41.000  
  19393709.775   101914627.709         562.991          48.000  
  22497420.526   118224754.102        2978.173          40.000  
  23250012.959   122179642.758       -3343.270          42.000  
  22099190.800   116132038.749       -3177.685          43.000  
  23436329.771   123158732.260       -2922.538          31.000  
  24352196.247   127971651.973        1318.912          32.000  
 23  8 31 12 42 21.9970000  0 10G 3G 4G 6G 7G 9G11G17G19G31G26
  21665215.856   113851471.847       -2958.388          42.000  
  19716137.483   103609008.957       -1435.129          44.000  
  19750560.655   103789888.711         737.050          46.000  
  23393016.847   122931142.186        3140.955          41.000  
  19393602.543   101914064.952         562.208          48.000  
  22496853.586   118221775.981        2977.596          40.000  
  23250649.124   122182986.003       -3343.547          42.000  
  22099795.799   116135216.743       -3178.515          43.000  
  23436885.613   123161654.214       -2922.719          31.000  
  24351945.331   127970333.094        1317.940          32.000  
 23  8 31 12 42 22.9970000  0 10G 3G 4G 6G 7G 9G11G17G19G31G26
  21665778.887   113854430.322       -2958.298          42.000  
  19716410.596   103610444.136       -1435.074          44.000  
  19750420.093   103789151.635         736.970          46.000  
  23392419.160   122928001.107        3140.945          41.000  
  19393495.521   101913502.916         561.917          47.000  
  22496286.873   118218798.321        2977.453          40.000  
  23251285.114   122186329.525       -3343.576          42.000  
  22100400.728   116138395.254       -3178.333          43.000  
  23437441.734   123164576.836       -2922.881          31.000  
  24351694.187   127969014.791        1318.710          32.000  
 23  8 31 12 42 23.9970000  0 10G 3G 4G 6G 7G 9G11G17G19G31G26
  21666342.075   113857388.731       -2958.156          42.000  
  19716683.709   103611879.552       -1435.240          44.000  
  19750279.863   103788414.880         736.669          46.000  
  23391821.664   122924859.808        3141.503          41.000  
  19393388.184   101912941.133         561.675          47.000  
  22495719.950   118215820.630        2978.110          40.000  
  23251921.192   122189672.852       -3343.133          42.000  
  22101006.146   116141573.853       -3178.649          43.000  
  23437997.680   123167499.601       -2922.653          31.000  
  24351443.044   127967696.762        1318.146          31.000  
 23  8 31 12 42 24.9970000  0 10G 3G 4G 6G 7G 9G11G17G19G31G26
  21666904.932   113860347.426       -2959.228          42.000  
  19716956.788   103613315.534       -1436.883          44.000  
  19750139.581   103787678.811         735.335          46.000  
  23391223.837   122921718.667        3140.481          41.000  
  19393281.337   101912379.953         560.377          47.000  
  22495153.342   118212843.310        2976.557          40.000  
  23252557.288   122193016.364       -3344.229          42.000  
  22101611.389   116144752.878       -3179.898          43.000  
  23438553.470   123170422.907       -2923.881          31.000  
  24351192.249   127966379.198        1316.983          31.000  
 23  8 31 12 42 25.9970000  0 10G 3G 4G 6G 7G 9G11G17G19G31G26
  21667467.911   113863306.553       -2959.275          42.000  
  19717230.215   103614752.211       -1437.118          44.000  
  19749999.403   103786943.566         734.781          46.000  
  23390625.958   122918577.798        3140.809          41.000  
  19393174.611   101911819.552         559.993          47.000  
  22494586.646   118209866.481        2976.283          39.000  
  23253193.540   122196360.174       -3344.087          42.000  
  22102216.895   116147932.487       -3179.888          43.000  
  23439109.852   123173346.947       -2924.718          31.000  
  24350941.455   127965062.410        1316.313          31.000  
 23  8 31 12 42 26.9970000  0 10G 3G 4G 6G 7G 9G11G17G19G31G26
  21668030.942   113866266.248       -2960.093          42.000  
  19717504.096   103616189.735       -1438.214          44.000  
  19749859.348   103786209.281         733.735          46.000  
  23390028.166   122915437.384        3140.154          41.000  
  19393068.165   101911260.055         559.026          47.000  
  22494020.177   118206890.274        2975.778          39.000  
  23253829.967   122199704.446       -3344.499          42.000  
  22102822.487   116151112.818       -3180.509          43.000  
  23439666.340   123176271.762       -2924.976          31.000  
  24350691.114   127963746.396        1315.034          31.000  
 23  8 31 12 42 27.9970000  0 10G 3G 4G 6G 7G 9G11G17G19G31G26
  21668594.148   113869226.066       -2959.336          42.000  
  19717777.629   103617627.657       -1437.546          44.000  
  19749719.467   103785475.521         733.802          46.000  
  23389430.671   122912296.952        3140.778          41.000  
  19392961.911   101910701.027         559.002          47.000  
  22493453.568   118203914.260        2976.208          39.000  
  23254466.376   122203048.733       -3343.785          42.000  
  22103427.573   116154293.441       -3180.490          43.000  
  23440223.054   123179197.020       -2925.879          31.000  
  24350440.825   127962430.770        1315.369          32.000  
 23  8 31 12 42 28.9970000  0 10G 3G 4G 6G 7G 9G11G17G19G31G26
  21669157.458   113872186.050       -2960.178          42.000  
  19718051.614   103619066.042       -1438.733          44.000  
  19749579.708   103784742.302         732.824          46.000  
  23388833.018   122909156.532        3140.220          41.000  
  19392855.621   101910142.458         558.313          47.000  
  22492887.204   118200938.461        2975.555          39.000  
  23255102.786   122206393.069       -3344.532          43.000  
  22104032.886   116157474.353       -3181.228          43.000  
  23440779.681   123182122.600       -2925.978          32.000  
  24350190.502   127961115.500        1315.369          32.000  
 23  8 31 12 42 29.9970000  0 10G 3G 4G 6G 7G 9G11G17G19G31G26
  21669720.577   113875146.126       -2960.479          42.000  
  19718325.635   103620504.760       -1439.075          44.000  
  19749440.228   103784009.560         732.230          45.000  
  23388235.139   122906016.058        3140.035          41.000  
  19392749.489   101909584.337         557.749          47.000  
  22492320.630   118197962.814        2975.678          39.000  
  23255739.405   122209737.383       -3344.536          43.000  
  22104638.322   116160655.503       -3181.410          43.000  
  23441336.902   123185048.531       -2926.014          32.000  
  24349940.179   127959800.674        1314.426          32.000  
 23  8 31 12 42 30.9970000  0 10G 3G 4G 6G 7G 9G11G17G19G31G26
  21670283.957   113878106.691       -2960.870          42.000  
  19718599.726   103621944.273       -1440.160          44.000  
  19749300.923   103783277.715         731.315          45.000  
  23387637.538   122902875.935        3139.937          41.000  
  19392643.409   101909027.041         556.819          48.000  
  22491754.563   118194987.756        2974.595          39.000  
  23256375.971   122213082.078       -3345.082          43.000  
  22105243.757   116163837.301       -3182.242          43.000  
  23441894.244   123187975.233       -2927.361          32.000  
  24349689.785   127958486.530        1313.674          31.000  
 23  8 31 12 42 31.9970000  0 10G 3G 4G 6G 7G 9G11G17G19G31G26
  21670847.495   113881067.611       -2960.582          42.000  
  19718873.938   103623384.449       -1440.366          44.000  
  19749161.461   103782546.615         731.009          45.000  
  23387040.078   122899736.034        3140.288          41.000  
  19392537.347   101908470.432         556.753          48.000  
  22491188.460   118192013.099        2974.648          39.000  
  23257012.695   122216426.993       -3344.387          42.000  
  22105848.983   116167019.615       -3182.245          43.000  
  23442451.255   123190902.536       -2927.301          32.000  
  24349439.427   127957173.018        1313.785          31.000  
 23  8 31 12 42 32.9970000  0 10G 3G 4G 6G 7G 9G11G17G19G31G26
  21671411.014   113884028.797       -2961.148          42.000  
  19719148.500   103624825.110       -1440.623          44.000  
  19749022.174   103781816.162         730.248          45.000  
  23386442.670   122896596.250        3139.805          41.000  
  19392431.616   101907914.421         555.688          48.000  
  22490622.707   118189038.758        2974.210          40.000  
  23257649.087   122219772.090       -3345.180          42.000  
  22106454.401   116170202.318       -3182.730          43.000  
  23443008.615   123193830.344       -2928.416          32.000  
  24349189.523   127955860.040        1312.796          31.000  
 23  8 31 12 42 33.9970000  0 10G 3G 4G 6G 7G 9G11G17G19G31G26
  21671974.657   113886989.809       -2961.329          43.000  
  19719422.748   103626265.898       -1441.111          44.000  
  19748882.903   103781085.935         729.720          46.000  
  23385845.209   122893456.166        3140.021          41.000  
  19392325.902   101907358.567         555.682          48.000  
  22490056.587   118186064.307        2974.271          40.000  
  23258285.653   122223116.870       -3344.746          42.000  
  22107059.854   116173385.027       -3182.968          43.000  
  23443565.609   123196758.262       -2928.177          32.000  
  24348939.653   127954547.133        1312.517          32.000  
 23  8 31 12 42 34.9970000  0 10G 3G 4G 6G 7G 9G11G17G19G31G26
  21672538.368   113889951.324       -2961.656          43.000  
  19719697.170   103627707.493       -1442.264          45.000  
  19748743.930   103780356.590         728.757          45.000  
  23385247.766   122890316.433        3139.342          41.000  
  19392220.311   101906803.544         554.597          48.000  
  22489490.572   118183090.428        2973.625          39.000  
  23258922.202   122226462.066       -3345.704          42.000  
  22107665.359   116176568.385       -3183.847          43.000  
  23444123.038   123199686.905       -2929.392          32.000  
  24348689.801   127953234.979        1311.697          31.000  
 23  8 31 12 42 35.9970000  0 10G 3G 4G 6G 7G 9G11G17G19G31G26
  21673102.220   113892913.340       -2961.982          43.000  
  19719971.418   103629149.843       -1442.646          45.000  
  19748605.131   103779628.143         728.296          45.000  
  23384650.340   122887177.077        3139.276          41.000  
  19392114.650   101906249.364         553.798          48.000  
  22488924.696   118180117.152        2972.861          39.000  
  23259558.943   122229807.623       -3345.536          42.000  
  22108271.405   116179752.392       -3184.135          43.000  
  23444680.939   123202616.287       -2929.723          32.000  
  24348440.036   127951923.554        1311.552          31.000  
 23  8 31 12 42 36.9970000  0 10G 3G 4G 6G 7G 9G11G17G19G31G26
  21673666.281   113895875.595       -2962.662          43.000  
  19720246.014   103630592.714       -1443.670          45.000  
  19748466.681   103778900.329         727.471          45.000  
  23384053.002   122884037.801        3138.916          41.000  
  19392009.094   101905695.734         553.497          47.000  
  22488359.065   118177144.127        2972.665          40.000  
  23260195.981   122233153.324       -3346.012          43.000  
  22108877.119   116182936.775       -3184.669          43.000  
  23445239.032   123205546.158       -2930.035          33.000  
  24348190.777   127950612.685        1309.795          31.000  
 23  8 31 12 42 37.9970000  0 10G 3G 4G 6G 7G 9G11G17G19G31G26
  21674230.237   113898838.286       -2962.822          43.000  
  19720520.785   103632036.285       -1443.738          45.000  
  19748328.527   103778173.333         726.571          46.000  
  23383455.541   122880898.840        3138.707          41.000  
  19391903.572   101905142.895         552.553          47.000  
  22487793.346   118174171.623        2972.213          40.000  
  23260832.704   122236499.320       -3345.959          43.000  
  22109483.130   116186121.757       -3185.273          43.000  
  23445796.584   123208476.736       -2930.719          32.000  
  24347941.553   127949302.459        1310.109          31.000  
 23  8 31 12 42 38.9970000  0 10G 3G 4G 6G 7G 9G11G17G19G31G26
  21674794.594   113901801.029       -2962.826          43.000  
  19720795.626   103633480.196       -1444.239          45.000  
  19748190.566   103777446.789         726.177          46.000  
  23382858.325   122877759.784        3138.857          41.000  
  19391798.295   101904590.436         552.117          47.000  
  22487227.976   118171199.237        2972.162          41.000  
  23261469.498   122239845.273       -3345.856          43.000  
  22110089.403   116189306.930       -3185.394          43.000  
  23446354.520   123211407.586       -2930.918          33.000  
  24347692.468   127947992.531        1309.697          31.000  
 23  8 31 12 42 39.9970000  0 10G 3G 4G 6G 7G 9G11G17G19G31G26
  21675358.603   113904764.145       -2963.316          43.000  
  19721070.520   103634924.766       -1444.862          44.000  
  19748052.587   103776721.008         725.407          45.000  
  23382261.214   122874620.949        3138.556          41.000  
  19391693.123   101904038.668         551.386          47.000  
  22486662.624   118168227.285        2971.597          41.000  
  23262106.431   122243191.488       -3346.311          43.000  
  22110695.414   116192492.634       -3186.137          43.000  
  23446912.107   123214339.048       -2931.547          33.000  
  24347443.210   127946683.254        1309.103          32.000  
 23  8 31 12 42 40.9970000  0 10G 3G 4G 6G 7G 9G11G17G19G31G26
  21675922.541   113907727.465       -2963.312          43.000  
  19721345.518   103636369.795       -1444.826          44.000  
  19747914.922   103775995.813         725.038          46.000  
  23381664.137   122871482.191        3138.917          41.000  
  19391587.985   101903487.435         551.200          47.000  
  22486097.481   118165255.598        2971.687          41.000  
  23262743.276   122246537.792       -3346.047          43.000  
  22111301.949   116195678.667       -3186.265          43.000  
  23447469.955   123217270.989       -2931.692          32.000  
  24347194.561   127945374.495        1308.484          32.000  
 23  8 31 12 42 41.9970000  0 10G 3G 4G 6G 7G 9G11G17G19G31G26
  21676486.463   113910690.784       -2963.065          43.000  
  19721620.585   103637815.146       -1445.429          44.000  
  19747777.258   103775271.039         724.776          46.000  
  23381067.078   122868343.304        3139.075          41.000  
  19391483.249   101902936.567         550.763          47.000  
  22485532.339   118162284.001        2971.650          41.000  
  23263380.087   122249884.001       -3346.194          43.000  
  22111908.274   116198864.895       -3186.415          43.000  
  23448027.821   123220203.177       -2931.947          32.000  
  24346945.651   127944065.926        1308.943          33.000  
 23  8 31 12 42 42.9970000  0 10G 3G 4G 6G 7G 9G11G17G19G31G26
  21677050.489   113913654.177       -2963.672          43.000  
  19721895.513   103639260.813       -1446.200          44.000  
  19747639.506   103774546.711         723.599          46.000  
  23380469.984   122865204.351        3138.382          41.000  
  19391378.600   101902386.090         549.825          47.000  
  22484966.882   118159312.530        2970.866          41.000  
  23264016.758   122253230.147       -3346.482          43.000  
  22112514.495   116202051.282       -3186.622          43.000  
  23448585.774   123223135.695       -2932.692          32.000  
  24346696.811   127942757.732        1307.712          33.000  
 23  8 31 12 42 43.9970000  0 10G 3G 4G 6G 7G 9G11G17G19G31G26
  21677614.637   113916618.304       -2964.537          43.000  
  19722170.773   103640707.491       -1446.907          44.000  
  19747501.893   103773823.492         722.917          46.000  
  23379872.750   122862065.991        3137.871          41.000  
  19391273.986   101901836.653         549.122          47.000  
  22484401.687   118156341.814        2970.571          41.000  
  23264653.674   122256576.877       -3346.830          43.000  
  22113120.715   116205238.573       -3187.406          43.000  
  23449143.815   123226069.163       -2933.088          32.000  
  24346448.024   127941450.496        1306.692          32.000  
 23  8 31 12 42 44.9970000  0 10G 3G 4G 6G 7G 9G11G17G19G31G26
  21678179.012   113919582.739       -2964.528          43.000  
  19722445.946   103642154.774       -1447.745          44.000  
  19747364.543   103773100.998         722.173          46.000  
  23379275.324   122858927.779        3138.244          41.000  
  19391169.564   101901287.889         548.602          47.000  
  22483836.771   118153371.521        2970.214          42.000  
  23265290.624   122259923.861       -3347.177          43.000  
  22113727.425   116208426.334       -3187.854          43.000  
  23449702.082   123229003.220       -2934.144          32.000  
  24346199.428   127940143.849        1306.220          32.000  
 23  8 31 12 42 45.9970000  0 10G 3G 4G 6G 7G 9G11G17G19G31G26
  21678743.264   113922547.736       -2965.484          43.000  
  19722721.589   103643602.861       -1448.499          44.000  
  19747227.401   103772379.435         721.129          46.000  
  23378678.265   122855789.989        3137.755          41.000  
  19391065.369   101900739.997         547.616          47.000  
  22483271.733   118150401.833        2969.335          41.000  
  23265927.522   122263271.232       -3347.632          43.000  
  22114334.116   116211614.783       -3188.617          43.000  
  23450260.350   123231938.041       -2934.833          32.000  
  24345951.129   127938838.014        1305.034          32.000  
 23  8 31 12 42 46.9970000  0 10G 3G 4G 6G 7G 9G11G17G19G31G26
  21679307.587   113925512.886       -2965.352          43.000  
  19722996.936   103645051.400       -1448.965          44.000  
  19747090.208   103771658.425         720.703          46.000  
  23378080.909   122852652.208        3137.826          41.000  
  19390961.295   101900192.595         547.118          47.000  
  22482706.503   118147432.358        2969.378          41.000  
  23266564.717   122266618.672       -3347.664          43.000  
  22114940.703   116214803.533       -3189.042          42.000  
  23450818.966   123234873.292       -2935.149          32.000  
  24345703.004   127937532.557        1305.021          32.000  
 23  8 31 12 42 47.9970000  0 10G 3G 4G 6G 7G 9G11G17G19G31G26
  21679871.822   113928478.222       -2965.239          43.000  
  19723272.510   103646500.410       -1448.998          44.000  
  19746953.136   103770938.010         720.245          46.000  
  23377483.937   122849514.517        3137.938          41.000  
  19390857.240   101899645.730         546.660          47.000  
  22482141.430   118144463.166        2969.077          41.000  
  23267202.173   122269966.184       -3347.404          43.000  
  22115547.552   116217992.649       -3189.219          42.000  
  23451377.303   123237809.011       -2936.348          32.000  
  24345454.495   127936227.545        1305.578          33.000  
 23  8 31 12 42 48.9970000  0 10G 3G 4G 6G 7G 9G11G17G19G31G26
  21680436.162   113931443.876       -2965.611          43.000  
  19723548.224   103647950.010       -1449.474          44.000  
  19746816.414   103770218.295         719.530          46.000  
  23376886.965   122846376.962        3137.952          41.000  
  19390753.306   101899099.499         545.881          47.000  
  22481576.863   118141494.346        2968.729          41.000  
  23267839.351   122273313.873       -3347.299          43.000  
  22116154.139   116221182.218       -3189.875          42.000  
  23451936.269   123240745.247       -2936.185          32.000  
  24345206.092   127934923.136        1304.510          32.000  
 23  8 31 12 42 49.9970000  0 10G 3G 4G 6G 7G 9G11G17G19G31G26
  21681000.328   113934409.569       -2965.864          43.000  
  19723824.077   103649399.921       -1449.871          44.000  
  19746679.621   103769499.003         719.239          46.000  
  23376290.028   122843239.326        3138.159          40.000  
  19390649.669   101898553.628         545.589          47.000  
  22481011.825   118138525.619        2968.900          41.000  
  23268476.266   122276661.504       -3347.406          43.000  
  22116760.639   116224371.954       -3189.947          42.000  
  23452494.745   123243681.821       -2936.837          32.000  
  24344957.950   127933618.999        1304.519          33.000  
 23  8 31 12 42 50.9970000  0 10G 3G 4G 6G 7G 9G11G17G19G31G26
  21681564.546   113937375.452       -2966.133          43.000  
  19724100.244   103650850.302       -1450.501          44.000  
  19746543.021   103768780.315         718.254          46.000  
  23375692.882   122840101.776        3137.050          41.000  
  19390546.050   101898008.305         544.746          47.000  
  22480446.944   118135557.152        2968.258          41.000  
  23269113.478   122280009.226       -3347.911          43.000  
  22117367.523   116227562.048       -3190.500          42.000  
  23453053.728   123246618.798       -2938.041          32.000  
  24344710.069   127932315.355        1303.415          33.000  
 23  8 31 12 42 51.9970000  0 10G 3G 4G 6G 7G 9G11G17G19G31G26
  21682129.043   113940341.734       -2965.664          43.000  
  19724376.411   103652301.387       -1450.984          44.000  
  19746406.211   103768062.406         718.073          46.000  
  23375095.561   122836964.448        3137.689          41.000  
  19390442.361   101897463.699         544.932          47.000  
  22479882.098   118132589.158        2968.449          41.000  
  23269750.638   122283357.222       -3347.729          44.000  
  22117974.703   116230752.679       -3190.187          42.000  
  23453612.554   123249556.404       -2937.003          31.000  
  24344462.189   127931012.336        1303.497          33.000  
 23  8 31 12 42 52.9970000  0 10G 3G 4G 6G 7G 9G11G17G19G31G26
  21682693.331   113943307.851       -2966.391          43.000  
  19724652.596   103653752.543       -1451.385          44.000  
  19746269.454   103767344.722         717.061          46.000  
  23374498.449   122833826.825        3136.918          41.000  
  19390338.759   101896919.262         543.594          48.000  
  22479317.217   118129621.059        2967.807          41.000  
  23270388.234   122286704.908       -3348.028          44.000  
  22118581.761   116233943.299       -3191.247          42.000  
  23454171.188   123252494.066       -2937.534          31.000  
  24344214.640   127929709.444        1301.967          33.000  
 23  8 31 12 42 53.9970000  0 10G 3G 4G 6G 7G 9G11G17G19G31G26
  21683258.072   113946274.597       -2967.183          43.000  
  19724928.850   103655204.630       -1452.645          44.000  
  19746133.325   103766628.060         715.915          46.000  
  23373901.739   122830689.668        3136.812          41.000  
  19390235.663   101896375.779         542.928          48.000  
  22478752.423   118126653.646        2967.116          41.000  
  23271025.673   122290053.122       -3348.365          44.000  
  22119189.378   116237134.679       -3191.893          42.000  
  23454730.188   123255432.720       -2939.659          31.000  
  24343966.672   127928407.399        1301.610          33.000  
 23  8 31 12 42 54.9970000  0 10G 3G 4G 6G 7G 9G11G17G19G31G26
  21683822.691   113949241.776       -2967.379          43.000  
  19725205.279   103656657.407       -1452.855          44.000  
  19745996.952   103765912.206         715.712          46.000  
  23373304.575   122827552.841        3136.977          41.000  
  19390132.602   101895833.070         542.599          48.000  
  22478188.013   118123686.739        2966.948          41.000  
  23271662.955   122293401.656       -3348.468          44.000  
  22119796.453   116240326.636       -3192.159          42.000  
  23455291.928   123258371.922       -2939.124          31.000  
  24343719.036   127927106.038        1301.385          33.000  
 23  8 31 12 42 55.9970000  0 10G 3G 4G 6G 7G 9G11G17G19G31G26
  21684386.909   113952209.196       -2967.308          43.000  
  19725482.039   103658110.740       -1453.573          44.000  
  19745861.049   103765197.020         715.002          46.000  
  23372707.586   122824416.127        3136.761          41.000  
  19390029.576   101895290.952         542.104          48.000  
  22477623.481   118120720.133        2967.052          41.000  
  23272300.289   122296750.327       -3348.448          44.000  
  22120403.738   116243519.012       -3192.470          42.000  
  23455853.650   123261311.648       -2939.579          31.000  
  24343471.662   127925805.210        1301.003          34.000  
 23  8 31 12 42 56.9970000  0 10G 3G 4G 6G 7G 9G11G17G19G31G26
  21684951.616   113955176.969       -2967.852          43.000  
  19725758.468   103659564.656       -1454.208          44.000  
  19745725.269   103764482.560         714.124          46.000  
  23372110.527   122821279.614        3136.305          40.000  
  19389927.021   101894749.512         541.153          48.000  
  22477058.984   118117753.966        2966.051          41.000  
  23272937.379   122300099.231       -3349.017          44.000  
  22121011.442   116246711.867       -3193.093          43.000  
  23456411.621   123264252.056       -2941.245          31.000  
  24343224.654   127924504.974        1300.396          34.000  
 23  8 31 12 42 57.9970000  0 10G 3G 4G 6G 7G 9G11G17G19G31G26
  21685516.217   113958145.103       -2968.114          43.000  
  19726035.159   103661019.249       -1454.892          44.000  
  19745589.629   103763768.847         713.581          46.000  
  23371513.590   122818143.329        3136.178          40.000  
  19389824.326   101894208.746         540.776          48.000  
  22476494.644   118114788.211        2965.716          41.000  
  23273574.766   122303448.364       -3348.959          44.000  
  22121619.233   116249905.217       -3193.281          43.000  
  23456966.905   123267192.962       -2940.490          31.000  
  24342977.594   127923205.373        1299.518          34.000  
 23  8 31 12 42 58.9970000  0 10G 3G 4G 6G 7G 9G11G17G19G31G26
  21686080.732   113961113.498       -2968.641          42.000  
  19726312.059   103662474.344       -1455.342          44.000  
  19745454.128   103763055.800         712.410          46.000  
  23370916.862   122815007.125        3136.086          41.000  
  19389721.597   101893668.581         539.578          48.000  
  22475930.513   118111822.779        2965.331          41.000  
  23274212.240   122306797.651       -3349.451          44.000  
  22122227.216   116253098.978       -3194.244          43.000  
  23457526.062   123270134.464       -2942.587          31.000  
  24342730.516   127921906.293        1298.373          34.000  
 23  8 31 12 42 59.9970000  0 10G 3G 4G 6G 7G 9G11G17G19G31G26
  21686645.578   113964082.321       -2969.131          42.000  
  19726588.994   103663930.181       -1456.184          44.000  
  19745318.941   103762343.571         711.691          47.000  
  23370319.977   122811871.275        3135.730          41.000  
  19389619.443   101893129.189         538.936          48.000  
  22475366.069   118108857.867        2964.638          40.000  
  23274849.854   122310147.269       -3349.832          44.000  
  22122835.095   116256293.315       -3194.613          43.000  
  23458086.458   123273076.585       -2942.505          31.000  
  24342483.648   127920607.879        1298.068          34.000  
 23  8 31 12 43  0.9970000  0 10G 3G 4G 6G 7G 9G11G17G19G31G26
  21687210.302   113967051.318       -2969.113          42.000  
  19726866.173   103665386.456       -1456.390          44.000  
  19745183.475   103761631.907         711.438          47.000  
  23369723.389   122808735.452        3135.627          41.000  
  19389517.028   101892590.294         538.745          48.000  
  22474801.763   118105893.192        2964.643          41.000  
  23275487.031   122313496.931       -3349.437          44.000  
  22123442.781   116259487.965       -3194.576          43.000  
  23458645.144   123276019.152       -2942.125          31.000  
  24342236.832   127919309.892        1298.398          34.000  
 23  8 31 12 43  1.9970000  0 10G 3G 4G 6G 7G 9G11G17G19G31G26
  21687775.340   113970020.584       -2969.460          42.000  
  19727143.370   103666843.276       -1457.128          44.000  
  19745048.148   103760920.924         710.552          46.000  
  23369126.976   122805599.747        3135.384          41.000  
  19389414.648   101892052.008         537.757          48.000  
  22474237.546   118102928.843        2963.961          41.000  
  23276124.452   122316846.763       -3350.226          44.000  
  22124050.834   116262683.059       -3195.238          43.000  
  23459204.302   123278962.237       -2943.317          31.000  
  24341989.929   127918012.494        1296.687          33.000  
 23  8 31 12 43  2.9970000  0 10G 3G 4G 6G 7G 9G11G17G19G31G26
  21688340.256   113972989.834       -2969.615          42.000  
  19727420.654   103668300.339       -1457.331          44.000  
  19744912.996   103760210.301         710.124          46.000  
  23368530.649   122802463.870        3135.804          41.000  
  19389311.936   101891514.037         537.495          48.000  
  22473673.607   118099964.533        2964.165          40.000  
  23276762.083   122320196.428       -3349.759          44.000  
  22124658.642   116265878.267       -3195.719          43.000  
  23459764.576   123281905.530       -2943.291          31.000  
  24341742.799   127916715.252        1296.858          33.000  
 23  8 31 12 43  3.9970000  0 10G 3G 4G 6G 7G 9G11G17G19G31G26
  21688905.050   113975959.390       -2969.822          42.000  
  19727698.287   103669758.026       -1458.321          44.000  
  19744778.071   103759500.384         709.306          46.000  
  23367933.817   122799328.197        3135.515          41.000  
  19389209.555   101890976.696         536.755          48.000  
  22473109.459   118097000.617        2963.530          40.000  
  23277399.505   122323546.296       -3350.027          44.000  
  22125266.870   116269073.921       -3196.252          43.000  
  23460325.234   123284849.443       -2944.777          31.000  
  24341496.315   127915418.659        1295.167          33.000  
 23  8 31 12 43  4.9970000  0 10G 3G 4G 6G 7G 9G11G17G19G31G26
  21689470.472   113978929.672       -2970.415          42.000  
  19727975.815   103671216.675       -1458.831          44.000  
  19744643.268   103758791.578         708.465          46.000  
  23367337.229   122796193.099        3135.184          41.000  
  19389107.245   101890440.427         535.773          48.000  
  22472545.817   118094037.484        2962.751          40.000  
  23278037.310   122326896.777       -3350.698          44.000  
  22125874.957   116272270.452       -3196.824          43.000  
  23460886.119   123287794.241       -2944.753          31.000  
  24341249.970   127914122.962        1295.292          33.000  
 23  8 31 12 43  5.9970000  0 10G 3G 4G 6G 7G 9G11G17G19G31G26
  21690035.998   113981900.196       -2970.642          42.000  
  19728253.465   103672675.869       -1459.542          44.000  
  19744508.361   103758083.418         707.731          46.000  
  23366740.693   122793058.121        3134.843          41.000  
  19389005.266   101889904.719         535.474          48.000  
  22471981.878   118091074.664        2962.715          40.000  
  23278674.871   122330247.382       -3350.725          44.000  
  22126482.801   116275467.369       -3197.145          43.000  
  23461446.847   123290739.550       -2944.979          31.000  
  24341003.591   127912827.832        1294.715          33.000  
 23  8 31 12 43  6.9970000  0 10G 3G 4G 6G 7G 9G11G17G19G31G26
  21690601.159   113984870.738       -2971.060          42.000  
  19728531.098   103674135.343       -1459.771          44.000  
  19744373.296   103757375.650         707.267          46.000  
  23366143.913   122789922.987        3135.101          41.000  
  19388903.147   101889369.356         534.965          48.000  
  22471417.939   118088111.918        2962.312          40.000  
  23279312.328   122333597.885       -3350.918          44.000  
  22127091.168   116278664.424       -3197.256          43.000  
  23462007.540   123293685.207       -2946.526          31.000  
  24340756.932   127911532.915        1294.706          33.000  
 23  8 31 12 43  7.9970000  0 10G 3G 4G 6G 7G 9G11G17G19G31G26
  21691166.511   113987841.703       -2971.290          42.000  
  19728809.098   103675595.520       -1460.696          44.000  
  19744238.633   103756668.706         706.462          46.000  
  23365547.308   122786788.172        3134.448          41.000  
  19388801.168   101888834.772         534.084          48.000  
  22470854.315   118085149.679        2961.835          41.000  
  23279949.994   122336948.699       -3351.165          44.000  
  22127699.936   116281862.102       -3198.047          43.000  
  23462568.442   123296631.412       -2945.948          32.000  
  24340510.727   127910238.729        1293.402          33.000  
 23  8 31 12 43  8.9970000  0 10G 3G 4G 6G 7G 9G11G17G19G31G26
  21691732.177   113990812.959       -2971.161          42.000  
  19729086.923   103677056.271       -1460.828          44.000  
  19744104.109   103755962.455         706.283          46.000  
  23364950.545   122783653.515        3134.707          41.000  
  19388699.625   101888300.818         533.815          48.000  
  22470290.394   118082187.777        2961.847          41.000  
  23280587.450   122340299.697       -3350.666          44.000  
  22128308.966   116285060.189       -3198.161          43.000  
  23463129.554   123299578.262       -2947.192          32.000  
  24340264.277   127908945.102        1293.994          33.000  
 23  8 31 12 43  9.9970000  0 10G 3G 4G 6G 7G 9G11G17G19G31G26
  21692297.721   113993784.539       -2971.529          43.000  
  19729365.027   103678517.612       -1461.193          44.000  
  19743969.393   103755256.909         705.573          46.000  
  23364354.202   122780519.013        3134.929          41.000  
  19388597.855   101887767.492         533.286          48.000  
  22469726.542   118079226.290        2961.778          40.000  
  23281225.168   122343650.888       -3351.146          44.000  
  22128917.665   116288258.730       -3198.481          44.000  
  23463690.561   123302525.609       -2947.576          32.000  
  24340018.020   127907652.034        1293.522          33.000  
 23  8 31 12 43 10.9970000  0 10G 3G 4G 6G 7G 9G11G17G19G31G26
  21692863.440   113996756.347       -2971.907          43.000  
  19729643.096   103679979.479       -1462.188          44.000  
  19743834.817   103754551.998         704.651          46.000  
  23363758.207   122777384.649        3134.079          41.000  
  19388496.400   101887234.732         532.708          48.000  
  22469163.232   118076265.103        2961.019          40.000  
  23281863.061   122347002.207       -3351.371          44.000  
  22129526.677   116291457.650       -3198.912          44.000  
  23464251.620   123305473.417       -2947.545          32.000  
  24339771.692   127906359.484        1292.110          33.000  
 23  8 31 12 43 11.9970000  0 10G 3G 4G 6G 7G 9G11G17G19G31G26
  21693429.106   113999728.205       -2971.704          42.000  
  19729921.235   103681441.662       -1462.302          44.000  
  19743700.293   103753847.548         704.288          46.000  
  23363161.950   122774250.177        3134.552          41.000  
  19388395.380   101886702.385         532.166          48.000  
  22468600.131   118073304.039        2961.136          40.000  
  23282500.500   122350353.449       -3351.382          44.000  
  22130135.899   116294656.800       -3199.289          43.000  
  23464812.854   123308421.615       -2948.372          32.000  
  24339525.487   127905067.243        1291.952          33.000  
 23  8 31 12 43 12.9970000  0 10G 3G 4G 6G 7G 9G11G17G19G31G26
  21693994.633   114002699.797       -2971.713          42.000  
  19730199.357   103682903.850       -1462.577          44.000  
  19743565.805   103753143.200         703.829          46.000  
  23362565.467   122771115.308        3134.758          40.000  
  19388294.065   101886170.070         532.046          48.000  
  22468036.593   118070342.780        2960.872          40.000  
  23283138.096   122353704.291       -3350.813          44.000  
  22130745.191   116297855.780       -3199.147          43.000  
  23465374.437   123311369.742       -2948.633          32.000  
  24339279.561   127903774.970        1291.963          33.000  
 23  8 31 12 43 13.9970000  0 10G 3G 4G 6G 7G 9G11G17G19G31G26
  21694560.229   114005672.054       -2972.802          42.000  
  19730477.775   103684366.979       -1463.557          44.000  
  19743432.049   103752439.909         702.758          46.000  
  23361968.966   122767980.953        3134.022          40.000  
  19388193.447   101885638.766         530.740          48.000  
  22467473.545   118067382.209        2960.277          40.000  
  23283775.832   122357055.683       -3351.588          44.000  
  22131354.186   116301055.581       -3200.204          43.000  
  23465935.985   123314318.735       -2949.689          33.000  
  24339034.054   127902483.604        1291.161          33.000  
 23  8 31 12 43 14.9970000  0 10G 3G 4G 6G 7G 9G11G17G19G31G26
  21695125.895   114008644.966       -2972.978          43.000  
  19730756.280   103685831.059       -1464.091          44.000  
  19743298.328   103751737.692         701.971          46.000  
  23361372.832   122764847.166        3133.504          41.000  
  19388092.619   101885108.460         530.166          48.000  
  22466910.443   118064422.429        2959.340          40.000  
  23284413.759   122360407.670       -3352.100          44.000  
  22131963.443   116304256.194       -3200.548          43.000  
  23466497.603   123317268.725       -2950.681          32.000  
  24338788.617   127901193.209        1290.012          33.000  
 23  8 31 12 43 15.9970000  0 10G 3G 4G 6G 7G 9G11G17G19G31G26
  21695691.719   114011618.415       -2973.653          42.000  
  19731035.222   103687295.921       -1464.983          44.000  
  19743164.799   103751036.369         701.155          46.000  
  23360776.767   122761713.734        3133.288          41.000  
  19387991.827   101884579.006         529.187          48.000  
  22466347.342   118061463.187        2959.128          41.000  
  23285051.268   122363760.021       -3352.352          44.000  
  22132572.787   116307457.518       -3201.695          43.000  
  23467059.098   123320219.422       -2950.697          32.000  
  24338543.441   127899903.552        1289.509          33.000  
 23  8 31 12 43 16.9970000  0 10G 3G 4G 6G 7G 9G11G17G19G31G26
  21696257.524   114014592.033       -2973.638          43.000  
  19731314.024   103688761.262       -1465.511          44.000  
  19743031.584   103750335.645         700.734          46.000  
  23360180.511   122758580.355        3133.397          41.000  
  19387891.314   101884050.076         528.834          48.000  
  22465784.241   118058504.214        2959.003          41.000  
  23285689.196   122367112.413       -3352.309          44.000  
  22133182.184   116310659.123       -3201.673          43.000  
  23467620.891   123323170.546       -2950.748          32.000  
  24338298.161   127898614.397        1288.890          33.000  
 23  8 31 12 43 17.9970000  0 10G 3G 4G 6G 7G 9G11G17G19G31G26
  21696823.505   114017565.524       -2973.138          43.000  
  19731592.914   103690226.747       -1465.376          44.000  
  19742898.718   103749635.174         700.585          46.000  
  23359584.272   122755446.700        3134.173          41.000  
  19387790.469   101883521.345         528.949          48.000  
  22465221.297   118055545.177        2959.547          41.000  
  23286327.315   122370464.584       -3351.511          43.000  
  22133791.231   116313860.760       -3201.275          43.000  
  23468182.770   123326121.827       -2950.861          32.000  
  24338052.968   127897325.294        1289.519          33.000  
 23  8 31 12 43 18.9970000  0 10G 3G 4G 6G 7G 9G11G17G19G31G26
  21697389.468   114020539.079       -2973.821          43.000  
  19731871.733   103691692.561       -1466.112          44.000  
  19742765.520   103748935.159         699.585          46.000  
  23358988.033   122752312.994        3133.533          41.000  
  19387689.624   101882993.007         527.962          48.000  
  22464658.161   118052586.288        2958.606          41.000  
  23286965.069   122373816.709       -3352.137          44.000  
  22134400.663   116317062.599       -3202.071          43.000  
  23468744.737   123329073.392       -2951.443          32.000  
  24337807.985   127896036.583        1288.164          33.000  
 23  8 31 12 43 19.9970000  0 10G 3G 4G 6G 7G 9G11G17G19G31G26
  21697955.221   114023513.250       -2974.406          43.000  
  19732150.657   103693159.274       -1467.116          44.000  
  19742632.707   103748236.153         698.589          46.000  
  23358391.811   122749179.754        3132.811          41.000  
  19387589.268   101882465.613         527.161          48.000  
  22464095.270   118049628.070        2958.139          41.000  
  23287602.857   122377169.317       -3352.687          44.000  
  22135010.164   116320265.188       -3202.749          43.000  
  23469306.756   123332025.807       -2952.489          33.000  
  24337562.931   127894748.752        1287.040          34.000  
 23  8 31 12 43 20.9970000  0 10G 3G 4G 6G 7G 9G11G17G19G31G26
  21698521.394   114026487.826       -2974.707          43.000  
  19732429.774   103694626.652       -1467.417          44.000  
  19742500.207   103747537.950         697.722          46.000  
  23357795.747   122746046.792        3132.569          41.000  
  19387488.946   101881938.970         526.050          48.000  
  22463532.395   118046670.332        2957.542          41.000  
  23288240.732   122380522.250       -3353.092          44.000  
  22135619.700   116323468.359       -3203.599          43.000  
  23469869.020   123334978.895       -2953.741          32.000  
  24337318.139   127893461.493        1287.260          34.000  
 23  8 31 12 43 21.9970000  0 10G 3G 4G 6G 7G 9G11G17G19G31G26
  21699087.653   114029462.695       -2974.844          43.000  
  19732709.326   103696094.638       -1468.351          44.000  
  19742367.708   103746840.442         697.381          46.000  
  23357199.804   122742913.968        3133.199          41.000  
  19387388.485   101881412.951         525.760          48.000  
  22462969.748   118043712.956        2957.423          41.000  
  23288878.851   122383875.321       -3353.121          44.000  
  22136229.097   116326671.946       -3203.397          43.000  
  23470431.231   123337932.509       -2953.467          32.000  
  24337073.435   127892174.905        1286.120          33.000  
 23  8 31 12 43 22.9970000  0 10G 3G 4G 6G 7G 9G11G17G19G31G26
  21699653.948   114032437.924       -2975.656          43.000  
  19732988.634   103697563.206       -1468.664          44.000  
  19742235.452   103746143.675         696.379          46.000  
  23356603.565   122739781.399        3132.401          42.000  
  19387288.653   101880887.617         524.834          48.000  
  22462407.066   118040756.002        2956.560          41.000  
  23289516.884   122387228.640       -3353.647          44.000  
  22136838.301   116329876.036       -3204.239          43.000  
  23470993.250   123340886.729       -2954.512          32.000  
  24336828.556   127890888.891        1285.141          33.000  
 23  8 31 12 43 23.9970000  0 10G 3G 4G 6G 7G 9G11G17G19G31G26
  21700220.312   114035413.321       -2975.525          43.000  
  19733268.100   103699032.270       -1469.479          44.000  
  19742103.337   103745447.492         695.855          46.000  
  23356007.291   122736648.858        3132.430          41.000  
  19387188.663   101880362.786         524.701          48.000  
  22461844.733   118037799.304        2956.278          41.000  
  23290154.724   122390582.017       -3353.604          44.000  
  22137447.872   116333080.447       -3204.579          43.000  
  23471555.967   123343841.383       -2954.753          33.000  
  24336584.079   127889603.261        1285.427          33.000  
 23  8 31 12 43 24.9970000  0 10G 3G 4G 6G 7G 9G11G17G19G31G26
  21700786.641   114038388.654       -2975.556          43.000  
  19733547.268   103700501.520       -1469.639          44.000  
  19741971.134   103744751.629         695.407          47.000  
  23355411.349   122733516.109        3132.583          42.000  
  19387089.075   101879838.234         524.139          48.000  
  22461282.120   118034842.600        2956.266          41.000  
  23290792.547   122393935.208       -3353.188          44.000  
  22138057.618   116336284.918       -3204.474          43.000  
  23472118.143   123346796.211       -2954.716          32.000  
  24336339.409   127888317.881        1285.435          33.000  
 23  8 31 12 43 25.9970000  0 10G 3G 4G 6G 7G 9G11G17G19G31G26
  21701352.674   114041364.521       -2976.136          43.000  
  19733827.082   103701971.567       -1470.325          44.000  
  19741839.001   103744056.685         694.456          47.000  
  23354815.441   122730383.735        3132.251          42.000  
  19386989.469   101879314.526         523.213          48.000  
  22460719.665   118031886.480        2956.174          42.000  
  23291430.562   122397288.795       -3353.814          44.000  
  22138667.363   116339490.067       -3205.424          42.000  
  23472680.721   123349751.821       -2955.822          32.000  
  24336095.054   127887033.267        1284.088          33.000  
 23  8 31 12 43 26.9970000  0 10G 3G 4G 6G 7G 9G11G17G19G31G26
  21701918.933   114044340.798       -2976.692          43.000  
  19734106.897   103703442.309       -1470.766          44.000  
  19741706.781   103743362.564         693.751          46.000  
  23354219.551   122727251.682        3131.748          41.000  
  19386889.985   101878791.588         522.386          48.000  
  22460157.419   118028930.870        2955.203          41.000  
  23292068.769   122400642.697       -3354.103          44.000  
  22139277.580   116342695.794       -3206.193          42.000  
  23473243.159   123352708.060       -2956.455          32.000  
  24335850.698   127885749.369        1283.510          33.000  
 23  8 31 12 43 27.9970000  0 10G 3G 4G 6G 7G 9G11G17G19G31G26
  21702485.525   114047317.565       -2976.986          43.000  
  19734386.868   103704913.836       -1472.142          44.000  
  19741574.805   103742669.314         692.814          46.000  
  23353623.731   122724119.953        3131.626          41.000  
  19386791.060   101878269.443         521.893          48.000  
  22459594.963   118025975.816        2954.694          41.000  
  23292706.801   122403996.955       -3354.689          44.000  
  22139887.744   116345902.144       -3206.781          42.000  
  23473805.963   123355665.073       -2957.659          32.000  
  24335606.343   127884466.157        1282.889          33.000  
 23  8 31 12 43 28.9970000  0 10G 3G 4G 6G 7G 9G11G17G19G31G26
  21703052.011   114050294.451       -2976.827          43.000  
  19734667.206   103706385.740       -1472.139          44.000  
  19741443.003   103741976.581         692.479          46.000  
  23353027.859   122720988.234        3131.494          41.000  
  19386691.873   101877747.779         521.384          48.000  
  22459032.612   118023020.955        2954.578          41.000  
  23293345.078   122407351.236       -3354.367          44.000  
  22140497.682   116349108.756       -3206.698          42.000  
  23474368.628   123358622.438       -2958.182          32.000  
  24335361.988   127883183.388        1282.185          33.000  
 23  8 31 12 43 29.9970000  0 10G 3G 4G 6G 7G 9G11G17G19G31G26
  21703618.602   114053271.606       -2977.412          43.000  
  19734947.474   103707858.197       -1472.743          44.000  
  19741311.167   103741284.524         691.482          46.000  
  23352431.724   122717856.647        3131.233          41.000  
  19386592.756   101877226.715         520.469          48.000  
  22458470.244   118020066.417        2954.022          40.000  
  23293983.407   122410705.641       -3354.647          43.000  
  22141107.793   116352315.786       -3207.492          42.000  
  23474931.328   123361580.290       -2958.234          32.000  
  24335118.051   127881901.135        1281.767          33.000  
 23  8 31 12 43 30.9970000  0 10G 3G 4G 6G 7G 9G11G17G19G31G26
  21704185.019   114056249.131       -2977.827          43.000  
  19735227.986   103709331.296       -1473.149          44.000  
  19741179.470   103740593.219         690.915          46.000  
  23351836.026   122714725.302        3131.081          41.000  
  19386494.092   101876706.342         519.964          48.000  
  22457908.016   118017112.321        2953.758          40.000  
  23294621.910   122414060.306       -3354.706          44.000  
  22141717.888   116355523.296       -3207.659          42.000  
  23475494.726   123364538.784       -2959.080          32.000  
  24334874.114   127880619.515        1281.135          32.000  
 23  8 31 12 43 31.9970000  0 10G 3G 4G 6G 7G 9G11G17G19G31G26
  21704751.488   114059226.624       -2977.561          42.000  
  19735508.568   103710804.651       -1473.678          44.000  
  19741048.174   103739902.283         690.561          46.000  
  23351240.241   122711593.775        3131.321          41.000  
  19386395.254   101876186.277         519.726          48.000  
  22457345.787   118014158.277        2953.928          41.000  
  23295259.768   122417414.817       -3354.499          44.000  
  22142328.052   116358730.964       -3208.009          42.000  
  23476057.792   123367497.448       -2958.358          32.000  
  24334630.125   127879338.112        1280.551          32.000  
 23  8 31 12 43 32.9970000  0 10G 3G 4G 6G 7G 9G11G17G19G31G26
  21705317.817   114062204.575       -2978.274          42.000  
  19735789.359   103712278.733       -1474.642          44.000  
  19740916.844   103739212.203         689.567          46.000  
  23350644.403   122708462.585        3130.941          41.000  
  19386296.468   101875667.003         518.939          48.000  
  22456783.768   118011204.774        2953.230          40.000  
  23295897.905   122420769.685       -3355.156          44.000  
  22142938.478   116361939.218       -3208.582          41.000  
  23476620.858   123370456.898       -2960.254          32.000  
  24334386.451   127878057.469        1279.816          33.000  
 23  8 31 12 43 33.9970000  0 10G 3G 4G 6G 7G 9G11G17G19G31G26
  21705884.321   114065182.712       -2977.637          42.000  
  19736070.290   103713753.283       -1474.507          44.000  
  19740785.496   103738522.716         689.433          46.000  
  23350048.478   122705331.458        3131.194          41.000  
  19386197.613   101875148.268         518.679          48.000  
  22456221.836   118008251.504        2953.460          40.000  
  23296536.269   122424124.617       -3354.917          43.000  
  22143548.678   116365147.799       -3208.534          41.000  
  23477183.889   123373416.710       -2959.562          32.000  
  24334142.566   127876777.225        1280.555          33.000  
 23  8 31 12 43 34.9970000  0 10G 3G 4G 6G 7G 9G11G17G19G31G26
  21706451.034   114068160.566       -2978.221          42.000  
  19736351.030   103715227.800       -1474.822          44.000  
  19740654.218   103737833.317         688.767          46.000  
  23349452.257   122702199.882        3131.235          41.000  
  19386098.914   101874629.553         518.059          48.000  
  22455659.520   118005298.031        2952.885          40.000  
  23297174.755   122427479.122       -3354.813          43.000  
  22144159.208   116368356.227       -3208.850          41.000  
  23477746.973   123376376.487       -2960.339          31.000  
  24333899.118   127875496.994        1279.129          33.000  
 23  8 31 12 43 35.9970000  0 10G 3G 4G 6G 7G 9G11G17G19G31G26
  21707017.817   114071138.989       -2978.760          42.000  
  19736631.838   103716703.199       -1475.881          44.000  
  19740523.045   103737144.897         687.926          46.000  
  23348856.297   122699068.775        3130.740          41.000  
  19386000.425   101874111.778         517.019          48.000  
  22455097.519   118002345.215        2952.083          40.000  
  23297812.839   122430834.091       -3355.222          43.000  
  22144769.634   116371565.394       -3209.719          41.000  
  23478310.458   123379337.085       -2961.179          31.000  
  24333655.740   127874217.555        1279.126          33.000  
 23  8 31 12 43 36.9970000  0 10G 3G 4G 6G 7G 9G11G17G19G31G26
  21707584.304   114074117.981       -2978.954          42.000  
  19736912.892   103718179.415       -1476.104          44.000  
  19740392.221   103736457.447         687.273          46.000  
  23348260.354   122695938.079        3130.779          41.000  
  19385902.111   101873594.883         516.704          48.000  
  22454535.814   117999392.993        2952.726          40.000  
  23298451.011   122434189.516       -3355.577          43.000  
  22145380.322   116374775.243       -3209.782          41.000  
  23478873.838   123382298.482       -2960.995          31.000  
  24333412.344   127872938.995        1278.815          33.000  
 23  8 31 12 43 37.9970000  0 10G 3G 4G 6G 7G 9G11G17G19G31G26
  21708151.104   114077097.068       -2979.412          42.000  
  19737194.015   103719656.026       -1477.243          44.000  
  19740261.309   103735770.483         686.387          46.000  
  23347664.482   122692807.367        3130.202          41.000  
  19385803.849   101873078.419         515.772          48.000  
  22453974.266   117996440.990        2951.684          40.000  
  23299089.410   122437544.915       -3356.013          43.000  
  22145991.028   116377985.342       -3210.463          41.000  
  23479437.201   123385260.231       -2961.636          31.000  
  24333169.001   127871660.779        1277.775          33.000  
 23  8 31 12 43 38.9970000  0 10G 3G 4G 6G 7G 9G11G17G19G31G26
  21708717.922   114080076.674       -2979.785          42.000  
  19737475.260   103721133.435       -1477.983          44.000  
  19740131.061   103735084.433         685.667          46.000  
  23347068.574   122689677.033        3130.340          41.000  
  19385705.691   101872562.799         515.417          48.000  
  22453412.752   117993489.558        2951.198          40.000  
  23299728.297   122440900.696       -3355.796          43.000  
  22146602.064   116381196.119       -3211.174          42.000  
  23480000.703   123388222.758       -2962.768          31.000  
  24332925.780   127870383.342        1276.986          33.000  
 23  8 31 12 43 39.9970000  0 10G 3G 4G 6G 7G 9G11G17G19G31G26
  21709284.897   114083056.438       -2979.526          42.000  
  19737756.627   103722611.253       -1477.725          44.000  
  19740000.586   103734398.951         685.427          46.000  
  23346472.580   122686546.740        3130.659          41.000  
  19385607.848   101872047.693         515.148          48.000  
  22452851.204   117990538.365        2951.104          40.000  
  23300367.045   122444256.542       -3355.617          43.000  
  22147213.328   116384407.174       -3211.027          42.000  
  23480564.642   123391185.693       -2962.384          30.000  
  24332682.908   127869106.316        1277.737          33.000  
 23  8 31 12 43 40.9970000  0 10G 3G 4G 6G 7G 9G11G17G19G31G26
  21709852.117   114086036.292       -2979.832          42.000  
  19738037.785   103724089.456       -1478.448          44.000  
  19739870.110   103733713.953         684.687          46.000  
  23345876.690   122683416.426        3130.223          41.000  
  19385509.551   101871533.002         514.430          48.000  
  22452289.639   117987587.325        2950.994          40.000  
  23301005.758   122447612.358       -3355.794          43.000  
  22147824.452   116387618.474       -3211.350          42.000  
  23481127.342   123394149.014       -2964.631          30.000  
  24332440.036   127867829.656        1276.674          33.000  
 23  8 31 12 43 41.9970000  0 10G 3G 4G 6G 7G 9G11G17G19G31G26
  21710419.528   114089016.521       -2980.166          42.000  
  19738319.222   103725568.291       -1478.889          44.000  
  19739739.949   103733029.702         684.068          46.000  
  23345281.079   122680286.349        3130.150          41.000  
  19385411.341   101871019.009         513.934          48.000  
  22451727.916   117984636.722        2950.689          40.000  
  23301644.296   122450968.412       -3355.960          43.000  
  22148435.716   116390830.263       -3211.568          42.000  
  23481689.221   123397112.815       -2963.696          30.000  
  24332197.146   127866553.628        1275.812          33.000  
 23  8 31 12 43 42.9970000  0 10G 3G 4G 6G 7G 9G11G17G19G31G26
  21710986.468   114091996.749       -2980.591          42.000  
  19738600.624   103727047.421       -1479.766          44.000  
  19739609.840   103732345.870         683.384          47.000  
  23344685.363   122677156.130        3130.262          41.000  
  19385313.794   101870505.365         513.186          48.000  
  22451166.299   117981686.198        2950.098          40.000  
  23302283.027   122454324.373       -3356.362          43.000  
  22149047.049   116394042.229       -3212.280          42.000  
  23482248.448   123400076.910       -2963.971          30.000  
  24331954.588   127865277.875        1275.208          33.000  
 23  8 31 12 43 43.9970000  0 10G 3G 4G 6G 7G 9G11G17G19G31G26
  21711553.722   114094977.280       -2980.566          42.000  
  19738882.323   103728527.122       -1479.968          44.000  
  19739479.801   103731662.732         682.972          47.000  
  23344089.665   122674026.128        3130.082          42.000  
  19385216.038   101869992.346         512.675          48.000  
  22450604.663   117978736.055        2950.051          40.000  
  23302921.966   122457680.496       -3356.291          43.000  
  22149658.627   116397254.640       -3212.678          42.000  
  23482813.993   123403041.596       -2965.255          30.000  
  24331711.943   127864002.660        1274.982          33.000  
 23  8 31 12 43 44.9970000  0 10G 3G 4G 6G 7G 9G11G17G19G31G26
  21712121.029   114097957.778       -2980.524          43.000  
  19739163.778   103730007.047       -1479.981          44.000  
  19739350.007   103730979.948         682.660          47.000  
  23343494.159   122670895.917        3130.209          41.000  
  19385118.230   101869479.635         512.424          48.000  
  22450043.272   117975785.941        2950.073          40.000  
  23303560.452   122461036.464       -3355.844          43.000  
  22150270.170   116400467.156       -3212.607          42.000  
  23483376.832   123406006.465       -2965.196          29.000  
  24331469.647   127862727.704        1274.671          33.000  
 23  8 31 12 43 45.9970000  0 10G 3G 4G 6G 7G 9G11G17G19G31G26
  21712688.527   114100938.461       -2981.211          43.000  
  19739445.215   103731487.471       -1480.990          44.000  
  19739220.212   103730297.767         681.566          46.000  
  23342898.443   122667765.773        3129.686          41.000  
  19385020.945   101868967.437         511.488          48.000  
  22449482.056   117972836.103        2949.179          40.000  
  23304198.991   122464392.533       -3356.638          43.000  
  22150881.730   116403679.999       -3213.757          43.000  
  23483934.925   123408971.753       -2965.730          29.000  
  24331227.333   127861453.146        1274.126          33.000  
 23  8 31 12 43 46.9970000  0 10G 3G 4G 6G 7G 9G11G17G19G31G26
  21713256.061   114103919.822       -2981.851          43.000  
  19739727.176   103732968.837       -1482.035          44.000  
  19739090.679   103729616.653         680.478          46.000  
  23342302.902   122664636.180        3129.187          41.000  
  19384923.503   101868456.263         510.430          48.000  
  22448920.874   117969887.004        2948.473          40.000  
  23304838.053   122467749.113       -3356.897          43.000  
  22151493.552   116406893.663       -3214.285          42.000  
  23484492.895   123411938.015       -2967.147          29.000  
  24330985.141   127860179.593        1272.848          33.000  
 23  8 31 12 43 47.9970000  0 10G 3G 4G 6G 7G 9G11G17G19G31G26
  21713823.664   114106901.507       -2982.208          43.000  
  19740009.049   103734450.782       -1482.543          44.000  
  19738961.355   103728936.251         679.787          46.000  
  23341707.274   122661506.759        3129.099          41.000  
  19384826.322   101867945.734         509.842          48.000  
  22448359.641   117966938.293        2948.090          40.000  
  23305477.010   122471105.908       -3357.115          43.000  
  22152105.427   116410107.769       -3214.531          42.000  
  23485057.567   123414904.809       -2967.208          29.000  
  24330743.334   127858906.609        1272.172          33.000  
 23  8 31 12 43 48.9970000  0 10G 3G 4G 6G 7G 9G11G17G19G31G26
  21714391.197   114109883.421       -2982.218          43.000  
  19740291.010   103735933.263       -1482.800          44.000  
  19738831.857   103728256.489         679.481          47.000  
  23341111.471   122658377.453        3129.161          41.000  
  19384729.509   101867435.787         509.601          48.000  
  22447798.546   117963989.901        2948.113          41.000  
  23306116.019   122474462.830       -3356.932          43.000  
  22152716.987   116413322.282       -3214.884          43.000  
  23485623.530   123417872.096       -2967.879          29.000  
  24330501.369   127857634.139        1271.991          33.000  
 23  8 31 12 43 49.9970000  0 10G 3G 4G 6G 7G 9G11G17G19G31G26
  21714958.801   114112865.484       -2982.310          43.000  
  19740572.970   103737416.131       -1483.136          44.000  
  19738702.778   103727577.255         678.857          47.000  
  23340515.930   122655248.149        3128.899          41.000  
  19384632.538   101866926.297         509.116          48.000  
  22447237.661   117961041.694        2948.184          41.000  
  23306754.680   122477819.767       -3357.074          43.000  
  22153328.844   116416537.044       -3214.935          43.000  
  23486186.910   123420839.697       -2967.987          29.000  
  24330259.369   127856362.002        1272.122          33.000  
 23  8 31 12 43 50.9970000  0 10G 3G 4G 6G 7G 9G11G17G19G31G26
  21715526.596   114115847.629       -2982.203          43.000  
  19740855.210   103738899.389       -1483.447          44.000  
  19738573.629   103726898.518         678.343          47.000  
  23339920.424   122652118.786        3129.280          41.000  
  19384535.602   101866417.247         508.627          48.000  
  22446676.707   117958093.701        2947.775          41.000  
  23307393.375   122481176.665       -3356.885          43.000  
  22153940.876   116419752.062       -3215.257          43.000  
  23486752.559   123423807.684       -2968.435          29.000  
  24330017.440   127855090.278        1271.912          33.000  
 23  8 31 12 43 51.9970000  0 10G 3G 4G 6G 7G 9G11G17G19G31G26
  21716094.182   114118830.170       -2982.501          43.000  
  19741137.694   103740383.304       -1483.909          44.000  
  19738444.934   103726220.558         677.908          47.000  
  23339324.639   122648989.677        3129.442          41.000  
  19384438.701   101865908.913         508.062          48.000  
  22446115.717   117955146.135        2947.734          41.000  
  23308032.420   122484533.839       -3357.025          43.000  
  22154553.186   116422967.614       -3215.534          43.000  
  23487318.539   123426776.317       -2968.628          29.000  
  24329775.754   127853819.230        1270.688          33.000  
 23  8 31 12 43 52.9970000  0 10G 3G 4G 6G 7G 9G11G17G19G31G26
  21716662.029   114121812.908       -2983.044          43.000  
  19741420.353   103741867.696       -1484.718          44.000  
  19738316.238   103725543.190         677.081          47.000  
  23338729.220   122645860.668        3128.838          41.000  
  19384342.061   101865401.114         507.395          48.000  
  22445554.431   117952198.864        2946.953          41.000  
  23308671.394   122487891.101       -3357.543          43.000  
  22155165.218   116426183.515       -3216.282          43.000  
  23487883.089   123429745.400       -2969.679          29.000  
  24329533.615   127852548.618        1270.041          33.000  
 23  8 31 12 43 53.9970000  0 10G 3G 4G 6G 7G 9G11G17G19G31G26
  21717229.964   114124795.830       -2983.015          43.000  
  19741703.081   103743352.541       -1485.017          44.000  
  19738187.421   103724866.417         676.598          47.000  
  23338133.504   122642731.703        3128.881          41.000  
  19384245.387   101864893.833         507.046          48.000  
  22444993.581   117949251.838        2946.784          41.000  
  23309310.386   122491248.429       -3357.531          43.000  
  22155777.441   116429399.720       -3216.505          43.000  
  23488448.284   123432714.856       -2969.465          29.000  
  24329291.772   127851278.424        1270.138          33.000  
 23  8 31 12 43 54.9970000  0 10G 3G 4G 6G 7G 9G11G17G19G31G26
  21717797.462   114127778.528       -2982.405          43.000  
  19741985.722   103744837.463       -1485.003          44.000  
  19738058.533   103724189.832         676.385          47.000  
  23337538.068   122639602.396        3129.101          41.000  
  19384148.800   101864386.680         506.932          48.000  
  22444432.678   117946304.671        2947.243          41.000  
  23309949.117   122494605.409       -3356.917          43.000  
  22156389.577   116432615.841       -3216.073          43.000  
  23489011.123   123435684.423       -2970.021          29.000  
  24329050.174   127850008.314        1270.647          33.000  
 23  8 31 12 43 55.9970000  0 10G 3G 4G 6G 7G 9G11G17G19G31G26
  21718365.467   114130761.725       -2983.202          43.000  
  19742268.468   103746323.127       -1486.043          44.000  
  19737929.873   103723514.101         675.413          47.000  
  23336942.510   122636473.407        3129.071          41.000  
  19384052.143   101863880.314         506.295          47.000  
  22443872.020   117943358.059        2946.309          41.000  
  23310587.673   122497962.729       -3357.311          43.000  
  22157001.958   116435832.600       -3217.040          43.000  
  23489578.063   123438654.627       -2970.614          29.000  
  24328808.558   127848738.942        1268.880          33.000  
 23  8 31 12 43 56.9970000  0 10G 3G 4G 6G 7G 9G11G17G19G31G26
  21718933.262   114133745.415       -2984.078          43.000  
  19742551.563   103747809.555       -1487.021          44.000  
  19737801.143   103722839.278         674.389          47.000  
  23336347.195   122633344.800        3128.475          41.000  
  19383955.557   101863374.790         505.125          47.000  
  22443311.362   117940411.996        2945.937          41.000  
  23311226.647   122501320.432       -3357.774          43.000  
  22157613.954   116439049.974       -3217.408          42.000  
  23490141.636   123441625.565       -2971.023          29.000  
  24328566.960   127847470.324        1268.035          33.000  
 23  8 31 12 43 57.9970000  0 10G 3G 4G 6G 7G 9G11G17G19G31G26
  21719501.249   114136729.553       -2984.447          43.000  
  19742834.239   103749296.714       -1487.341          44.000  
  19737672.866   103722165.304         673.563          47.000  
  23335751.777   122630216.538        3127.947          41.000  
  19383859.580   101862870.057         504.453          47.000  
  22442750.792   117937466.502        2945.353          41.000  
  23311865.465   122504678.487       -3358.179          43.000  
  22158226.370   116442267.989       -3218.392          42.000  
  23490714.561   123444597.233       -2971.599          30.000  
  24328325.746   127846202.455        1267.163          33.000  
 23  8 31 12 43 58.9970000  0 10G 3G 4G 6G 7G 9G11G17G19G31G26
  21720069.167   114139713.948       -2984.017          43.000  
  19743117.386   103750784.421       -1487.647          44.000  
  19737544.973   103721491.985         673.488          47.000  
  23335156.427   122627088.395        3128.336          41.000  
  19383763.587   101862365.933         504.182          47.000  
  22442190.413   117934521.317        2945.404          41.000  
  23312504.544   122508036.670       -3357.731          43.000  
  22158838.663   116445486.380       -3218.180          42.000  
  23491284.119   123447569.384       -2971.549          30.000  
  24328084.723   127844935.053        1268.072          33.000  
 23  8 31 12 43 59.9970000  0 10G 3G 4G 6G 7G 9G11G17G19G31G26
  21720637.032   114142698.355       -2984.731          43.000  
  19743400.760   103752272.414       -1488.363          44.000  
  19737416.522   103720819.082         672.458          47.000  
  23334561.148   122623960.121        3128.215          41.000  
  19383667.279   101861862.135         503.257          47.000  
  22441629.790   117931576.233        2944.594          41.000  
  23313143.501   122511394.747       -3358.074          43.000  
  22159450.852   116448704.924       -3219.051          42.000  
  23491851.408   123450541.857       -2972.237          30.000  
  24327843.701   127843667.972        1266.832          33.000  
 23  8 31 12 44  0.9970000  0 10G 3G 4G 6G 7G 9G11G17G19G31G26
  21721205.036   114145683.205       -2984.986          43.000  
  19743684.082   103753761.106       -1488.861          44.000  
  19737288.892   103720147.004         671.893          46.000  
  23333965.642   122620832.151        3127.887          41.000  
  19383571.948   101861359.110         502.907          47.000  
  22441069.568   117928631.648        2944.373          41.000  
  23313782.703   122514753.149       -3358.407          43.000  
  22160063.110   116451924.024       -3219.288          42.000  
  23492415.940   123453514.976       -2973.625          30.000  
  24327602.783   127842401.640        1265.922          33.000  
 23  8 31 12 44  1.9970000  0 10G 3G 4G 6G 7G 9G11G17G19G31G26
  21721773.111   114148668.056       -2985.168          43.000  
  19743967.195   103755250.097       -1489.388          44.000  
  19737160.667   103719475.365         670.868          46.000  
  23333370.747   122617704.074        3127.769          41.000  
  19383476.129   101860856.447         502.067          47.000  
  22440509.014   117925687.164        2943.928          41.000  
  23314421.957   122518111.425       -3358.530          42.000  
  22160675.560   116455143.323       -3219.937          42.000  
  23492980.263   123456488.332       -2974.218          30.000  
  24327361.604   127841135.513        1265.690          33.000  
 23  8 31 12 44  2.9970000  0 10G 3G 4G 6G 7G 9G11G17G19G31G26
  21722341.115   114151653.184       -2984.842          43.000  
  19744250.621   103756739.633       -1489.432          44.000  
  19737033.071   103718804.370         670.913          46.000  
  23332775.450   122614576.135        3128.098          41.000  
  19383380.886   101860354.374         502.042          47.000  
  22439948.548   117922742.996        2944.260          40.000  
  23315061.245   122521469.874       -3358.349          43.000  
  22161287.853   116458362.985       -3219.443          41.000  
  23493549.314   123459462.219       -2973.241          30.000  
  24327120.703   127839869.937        1265.489          33.000  
 23  8 31 12 44  3.9970000  0 10G 3G 4G 6G 7G 9G11G17G19G31G26
  21722909.120   114154638.691       -2985.422          43.000  
  19744534.222   103758229.819       -1490.209          44.000  
  19736905.388   103718134.151         670.037          46.000  
  23332179.979   122611448.430        3128.002          41.000  
  19383285.782   101859853.030         501.158          48.000  
  22439388.361   117919799.314        2943.533          40.000  
  23315700.674   122524828.552       -3358.544          43.000  
  22161900.269   116461583.200       -3219.985          41.000  
  23494118.104   123462436.733       -2974.652          30.000  
  24326879.786   127838604.998        1264.805          32.000  
 23  8 31 12 44  4.9970000  0 10G 3G 4G 6G 7G 9G11G17G19G31G26
  21723477.264   114157623.925       -2985.432          43.000  
  19744817.579   103759720.013       -1490.672          44.000  
  19736777.705   103717464.062         669.532          46.000  
  23331584.630   122608320.330        3127.890          41.000  
  19383190.399   101859351.732         500.935          48.000  
  22438827.913   117916855.405        2943.396          40.000  
  23316339.840   122528186.846       -3358.325          43.000  
  22162512.789   116464803.278       -3220.623          41.000  
  23494684.486   123465411.208       -2974.762          31.000  
  24326639.217   127837340.066        1264.274          32.000  
 23  8 31 12 44  5.9970000  0 10G 3G 4G 6G 7G 9G11G17G19G31G26
  21724045.286   114160609.629       -2986.506          43.000  
  19745101.249   103761210.941       -1491.733          44.000  
  19736650.545   103716794.831         668.441          46.000  
  23330989.542   122605192.567        3126.997          41.000  
  19383095.261   101858851.240         499.584          48.000  
  22438267.569   117913912.060        2942.543          40.000  
  23316979.007   122531545.491       -3359.272          43.000  
  22163125.431   116468023.949       -3221.543          41.000  
  23495248.477   123468386.427       -2976.335          31.000  
  24326398.212   127836075.809        1264.041          32.000  
 23  8 31 12 44  6.9970000  0 10G 3G 4G 6G 7G 9G11G17G19G31G26
  21724613.378   114163596.010       -2985.820          43.000  
  19745384.972   103762702.843       -1491.604          44.000  
  19736523.316   103716126.702         668.468          46.000  
  23330394.804   122602065.383        3127.662          42.000  
  19383000.297   101858351.798         499.790          48.000  
  22437707.452   117910969.480        2942.748          40.000  
  23317618.243   122534904.709       -3358.432          43.000  
  22163738.632   116471245.477       -3220.987          41.000  
  23495813.969   123471362.523       -2975.565          31.000  
  24326157.800   127834812.595        1263.507          32.000  
 23  8 31 12 44  7.9970000  0 10G 3G 4G 6G 7G 9G11G17G19G31G26
  21725181.522   114166582.425       -2986.476          43.000  
  19745668.730   103764195.040       -1492.531          44.000  
  19736396.505   103715458.982         667.524          46.000  
  23329799.699   122598938.060        3127.170          42.000  
  19382905.228   101857852.689         498.754          48.000  
  22437147.247   117908026.969        2942.451          40.000  
  23318257.724   122538263.828       -3359.107          43.000  
  22164351.850   116474467.141       -3221.666          41.000  
  23496385.481   123474338.879       -2976.494          31.000  
  24325917.249   127833549.628        1262.885          32.000  
 23  8 31 12 44  8.9970000  0 10G 3G 4G 6G 7G 9G11G17G19G31G26
  21725749.841   114169569.302       -2986.708          43.000  
  19745952.715   103765687.951       -1492.999          44.000  
  19736269.712   103714792.113         667.045          46.000  
  23329204.734   122595811.080        3127.127          42.000  
  19382810.526   101857354.356         498.207          48.000  
  22436587.427   117905084.994        2942.088          40.000  
  23318897.222   122541623.267       -3359.061          43.000  
  22164964.806   116477689.409       -3222.319          41.000  
  23496954.131   123477315.973       -2977.405          31.000  
  24325677.152   127832287.380        1262.268          33.000  
 23  8 31 12 44  9.9970000  0 10G 3G 4G 6G 7G 9G11G17G19G31G26
  21726317.968   114172556.137       -2987.529          43.000  
  19746236.892   103767181.106       -1493.643          44.000  
  19736142.848   103714125.621         665.660          47.000  
  23328609.559   122592683.948        3126.501          42.000  
  19382715.876   101856856.329         497.338          48.000  
  22436027.990   117902143.083        2941.182          40.000  
  23319536.580   122544982.564       -3359.654          43.000  
  22165577.885   116480911.774       -3222.775          42.000  
  23497520.844   123480293.289       -2978.709          32.000  
  24325437.089   127831025.360        1261.494          33.000  
 23  8 31 12 44 10.9970000  0 10G 3G 4G 6G 7G 9G11G17G19G31G26
  21726886.391   114175543.287       -2987.509          43.000  
  19746520.999   103768674.875       -1494.097          44.000  
  19736016.317   103713459.849         665.276          47.000  
  23328014.420   122589556.985        3126.833          42.000  
  19382620.999   101856358.968         496.954          48.000  
  22435468.257   117899201.558        2941.236          40.000  
  23320175.869   122548342.066       -3359.554          43.000  
  22166191.155   116484134.632       -3223.103          42.000  
  23498087.645   123483271.110       -2977.719          32.000  
  24325196.904   127829763.975        1260.497          33.000  
 23  8 31 12 44 11.9970000  0 10G 3G 4G 6G 7G 9G11G17G19G31G26
  21727454.710   114178530.826       -2987.704          43.000  
  19746805.472   103770169.299       -1495.050          44.000  
  19735889.838   103712794.830         664.707          47.000  
  23327419.507   122586430.297        3126.403          42.000  
  19382526.611   101855862.314         496.313          48.000  
  22434908.559   117896260.470        2941.160          40.000  
  23320815.245   122551701.822       -3359.881          43.000  
  22166804.810   116487357.976       -3223.572          42.000  
  23498655.283   123486249.623       -2978.774          32.000  
  24324956.737   127828503.186        1260.291          33.000  
 23  8 31 12 44 12.9970000  0 10G 3G 4G 6G 7G 9G11G17G19G31G26
  21728022.941   114181518.056       -2987.341          43.000  
  19747090.068   103771663.673       -1494.740          44.000  
  19735763.620   103712129.938         664.625          47.000  
  23326824.594   122583303.168        3127.055          42.000  
  19382432.083   101855365.692         496.545          48.000  
  22434348.878   117893319.192        2941.131          40.000  
  23321454.499   122555061.145       -3359.196          43.000  
  22167418.342   116490581.167       -3223.310          42.000  
  23499222.607   123489228.075       -2978.839          32.000  
  24324716.866   127827242.391        1260.096          33.000  
 23  8 31 12 44 13.9970000  0 10G 3G 4G 6G 7G 9G11G17G19G31G26
  21728591.556   114184505.948       -2988.743          43.000  
  19747374.594   103773158.979       -1495.925          44.000  
  19735637.647   103711466.089         663.082          47.000  
  23326229.507   122580176.561        3126.239          42.000  
  19382337.660   101854870.069         494.971          48.000  
  22433789.023   117890378.642        2939.712          40.000  
  23322093.840   122558420.997       -3360.158          43.000  
  22168031.891   116493805.151       -3224.536          42.000  
  23499789.599   123492207.392       -2980.247          33.000  
  24324477.310   127825982.508        1259.319          33.000  
 23  8 31 12 44 14.9970000  0 10G 3G 4G 6G 7G 9G11G17G19G31G26
  21729160.346   114187494.298       -2988.194          43.000  
  19747659.102   103774655.059       -1496.248          44.000  
  19735511.936   103710803.119         662.824          47.000  
  23325634.629   122577050.310        3126.486          42.000  
  19382243.359   101854375.267         494.624          48.000  
  22433229.621   117887438.641        2939.930          40.000  
  23322733.617   122561781.223       -3360.150          43.000  
  22168645.843   116497029.775       -3224.794          43.000  
  23500356.854   123495187.446       -2980.595          33.000  
  24324237.386   127824723.354        1259.218          33.000  
 23  8 31 12 44 15.9970000  0 10G 3G 4G 6G 7G 9G11G17G19G31G26
  21729729.276   114190482.850       -2988.613          43.000  
  19747943.750   103776151.599       -1496.915          44.000  
  19735385.910   103710140.737         662.207          47.000  
  23325039.734   122573924.125        3126.353          42.000  
  19382149.110   101853880.957         494.284          47.000  
  22432670.150   117884498.880        2939.959          40.000  
  23323373.238   122565141.513       -3360.242          43.000  
  22169259.741   116500254.695       -3225.160          43.000  
  23500924.247   123498167.905       -2980.629          33.000  
  24323997.743   127823464.678        1258.537          33.000  
 23  8 31 12 44 16.9970000  0 10G 3G 4G 6G 7G 9G11G17G19G31G26
  21730298.013   114193471.494       -2989.112          43.000  
  19748228.642   103777648.504       -1497.710          44.000  
  19735260.182   103709478.854         661.042          47.000  
  23324444.890   122570797.916        3125.605          42.000  
  19382055.071   101853387.105         493.208          47.000  
  22432110.835   117881559.301        2939.188          40.000  
  23324012.771   122568501.771       -3360.718          44.000  
  22169873.692   116503479.866       -3226.023          43.000  
  23501491.728   123501148.730       -2981.649          34.000  
  24323758.430   127822206.366        1257.573          33.000  
 23  8 31 12 44 17.9970000  0 10G 3G 4G 6G 7G 9G11G17G19G31G26
  21730866.821   114196460.600       -2989.021          43.000  
  19748513.657   103779146.138       -1497.734          44.000  
  19735134.435   103708817.817         660.859          47.000  
  23323850.222   122567672.019        3125.949          42.000  
  19381961.101   101852894.021         493.072          47.000  
  22431551.661   117878620.269        2939.110          40.000  
  23324652.339   122571862.373       -3360.631          44.000  
  22170487.975   116506705.603       -3225.595          43.000  
  23502059.541   123504130.213       -2981.807          34.000  
  24323519.083   127820948.787        1256.621          33.000  
 23  8 31 12 44 18.9970000  0 10G 3G 4G 6G 7G 9G11G17G19G31G26
  21731435.314   114199449.841       -2989.385          43.000  
  19748798.724   103780644.190       -1498.453          44.000  
  19735008.305   103708157.321         660.197          47.000  
  23323255.588   122564546.126        3125.788          42.000  
  19381867.498   101852401.434         492.307          48.000  
  22430992.521   117875681.456        2938.707          41.000  
  23325291.802   122575222.986       -3360.524          44.000  
  22171102.030   116509931.639       -3226.252          43.000  
  23502627.458   123507112.108       -2982.057          34.000  
  24323279.841   127819691.569        1257.228          33.000  
 23  8 31 12 44 19.9970000  0 10G 3G 4G 6G 7G 9G11G17G19G31G26
  21732004.383   114202439.542       -2989.973          43.000  
  19749084.139   103782142.963       -1498.840          44.000  
  19734882.384   103707497.685         659.380          47.000  
  23322660.815   122561420.562        3125.484          41.000  
  19381773.983   101851909.625         491.649          47.000  
  22430433.398   117872743.168        2938.097          41.000  
  23325931.405   122578583.921       -3360.923          44.000  
  22171716.226   116513158.271       -3226.765          43.000  
  23503195.236   123510094.660       -2982.524          34.000  
  24323041.034   127818435.123        1256.068          32.000  
 23  8 31 12 44 20.9970000  0 10G 3G 4G 6G 7G 9G11G17G19G31G26
  21732573.155   114205429.400       -2989.604          43.000  
  19749369.660   103783642.214       -1499.318          44.000  
  19734757.005   103706838.642         658.892          47.000  
  23322065.763   122558295.053        3125.644          41.000  
  19381680.589   101851418.352         491.043          48.000  
  22429874.346   117869805.150        2937.957          41.000  
  23326570.746   122581944.928       -3361.003          43.000  
  22172330.456   116516385.228       -3226.908          43.000  
  23503763.049   123513077.664       -2982.692          35.000  
  24322801.932   127817179.078        1256.395          32.000  
 23  8 31 12 44 21.9970000  0 10G 3G 4G 6G 7G 9G11G17G19G31G26
  21733141.753   114208419.513       -2990.515          42.000  
  19749655.372   103785141.924       -1499.956          44.000  
  19734631.712   103706180.192         658.087          47.000  
  23321470.798   122555169.633        3125.214          41.000  
  19381587.353   101850927.601         490.231          48.000  
  22429315.241   117866867.379        2937.461          41.000  
  23327210.139   122585306.004       -3361.549          43.000  
  22172944.686   116519612.522       -3227.717          43.000  
  23504330.966   123516061.120       -2983.492          35.000  
  24322562.846   127815923.543        1254.734          32.000  
 23  8 31 12 44 22.9970000  0 10G 3G 4G 6G 7G 9G11G17G19G31G26
  21733710.927   114211409.902       -2989.946          42.000  
  19749941.015   103786642.236       -1500.110          44.000  
  19734506.803   103705522.467         657.769          47.000  
  23320876.024   122552044.411        3125.628          41.000  
  19381494.046   101850437.499         490.265          48.000  
  22428756.258   117863930.033        2937.475          41.000  
  23327849.777   122588667.271       -3360.883          43.000  
  22173558.847   116522840.280       -3227.657          43.000  
  23504898.761   123519045.153       -2983.979          34.000  
  24322324.232   127814668.575        1255.102          32.000  
 23  8 31 12 44 23.9970000  0 10G 3G 4G 6G 7G 9G11G17G19G31G26
  21734279.717   114214400.494       -2990.677          42.000  
  19750226.814   103788143.006       -1500.890          44.000  
  19734381.895   103704865.327         656.786          47.000  
  23320281.303   122548919.250        3125.211          42.000  
  19381401.106   101849947.935         489.420          48.000  
  22428197.345   117860992.940        2937.168          41.000  
  23328489.188   122592028.649       -3361.581          43.000  
  22174173.199   116526068.359       -3228.195          44.000  
  23505466.888   123522029.579       -2984.708          35.000  
  24322085.478   127813414.099        1253.981          32.000  
 23  8 31 12 44 24.9970000  0 10G 3G 4G 6G 7G 9G11G17G19G31G26
  21734848.821   114217391.186       -2990.955          42.000  
  19750512.335   103789644.164       -1501.461          44.000  
  19734256.951   103704208.687         656.161          47.000  
  23319686.757   122545794.052        3125.189          42.000  
  19381308.393   101849458.797         488.871          48.000  
  22427638.728   117858056.036        2936.715          41.000  
  23329128.965   122595389.980       -3361.394          43.000  
  22174787.569   116529296.651       -3228.326          43.000  
  23506035.172   123525014.362       -2984.714          35.000  
  24321847.091   127812159.989        1253.184          33.000  
 23  8 31 12 44 25.9970000  0 10G 3G 4G 6G 7G 9G11G17G19G31G26
  21735418.082   114220382.181       -2990.834          43.000  
  19750797.943   103791145.865       -1501.385          44.000  
  19734131.990   103703552.723         656.191          47.000  
  23319091.984   122542669.030        3125.397          42.000  
  19381215.541   101848970.287         488.652          48.000  
  22427079.781   117855119.501        2936.799          42.000  
  23329768.847   122598751.487       -3361.135          43.000  
  22175401.991   116532525.405       -3228.498          44.000  
  23506603.456   123527999.678       -2984.694          35.000  
  24321608.529   127810906.383        1253.367          32.000  
 23  8 31 12 44 26.9970000  0 10G 3G 4G 6G 7G 9G11G17G19G31G26
  21735987.028   114223372.876       -2990.668          43.000  
  19751083.725   103792647.595       -1502.010          44.000  
  19734006.802   103702896.903         655.443          47.000  
  23318497.088   122539543.604        3125.132          42.000  
  19381122.566   101848481.831         488.462          48.000  
  22426520.745   117852182.756        2936.846          41.000  
  23330408.276   122602112.597       -3361.058          43.000  
  22176016.448   116535754.000       -3228.530          44.000  
  23507171.443   123530984.944       -2984.984          35.000  
  24321369.967   127809652.766        1254.314          32.000  
 23  8 31 12 44 27.9970000  0 10G 3G 4G 6G 7G 9G11G17G19G31G26
  21736556.516   114226364.285       -2991.901          43.000  
  19751369.682   103794150.281       -1503.300          44.000  
  19733882.452   103702242.167         654.018          47.000  
  23317902.629   122536418.728        3124.431          42.000  
  19381030.062   101847994.424         486.747          48.000  
  22425962.269   117849246.798        2935.324          41.000  
  23331048.070   122605474.302       -3362.269          43.000  
  22176631.306   116538983.450       -3229.961          44.000  
  23507739.988   123533971.192       -2986.620          35.000  
  24321131.527   127808400.197        1251.286          31.000  
 23  8 31 12 44 28.9970000  0 10G 3G 4G 6G 7G 9G11G17G19G31G26
  21737125.917   114229356.140       -2991.888          43.000  
  19751655.830   103795653.685       -1503.782          44.000  
  19733757.927   103701588.289         653.538          47.000  
  23317307.926   122533294.196        3124.409          42.000  
  19380937.419   101847507.793         486.337          48.000  
  22425403.844   117846311.362        2935.201          41.000  
  23331687.917   122608836.297       -3361.896          43.000  
  22177246.357   116542213.476       -3230.084          44.000  
  23508308.377   123536958.117       -2987.682          35.000  
  24320893.157   127807148.284        1251.405          32.000  
 23  8 31 12 44 29.9970000  0 10G 3G 4G 6G 7G 9G11G17G19G31G26
  21737695.283   114232348.158       -2992.209          43.000  
  19751941.804   103797157.545       -1504.319          44.000  
  19733633.751   103700934.969         652.951          47.000  
  23316713.170   122530169.693        3124.276          42.000  
  19380844.863   101847021.656         485.646          48.000  
  22424845.263   117843376.166        2934.861          41.000  
  23332327.468   122612198.346       -3362.276          43.000  
  22177861.006   116545443.821       -3230.837          44.000  
  23508877.149   123539945.409       -2987.663          35.000  
  24320654.560   127805896.796        1251.236          32.000  
 23  8 31 12 44 30.9970000  0 10G 3G 4G 6G 7G 9G11G17G19G31G26
  21738264.980   114235340.588       -2992.550          43.000  
  19752227.988   103798662.072       -1504.820          44.000  
  19733509.715   103700282.465         652.088          47.000  
  23316118.729   122527045.464        3124.192          42.000  
  19380752.412   101846536.279         484.973          48.000  
  22424286.803   117840441.454        2934.361          41.000  
  23332967.490   122615560.687       -3362.672          43.000  
  22178476.074   116548674.684       -3231.096          44.000  
  23509445.834   123542933.367       -2988.213          35.000  
  24320416.801   127804646.014        1249.898          33.000  
 23  8 31 12 44 31.9970000  0 10G 3G 4G 6G 7G 9G11G17G19G31G26
  21738834.171   114238333.259       -2992.811          43.000  
  19752514.398   103800167.124       -1505.399          44.000  
  19733385.592   103699630.596         651.535          47.000  
  23315524.357   122523921.362        3123.895          42.000  
  19380660.065   101846051.460         484.448          48.000  
  22423728.484   117837507.065        2934.125          41.000  
  23333607.110   122618923.125       -3362.537          43.000  
  22179090.670   116551905.944       -3231.544          44.000  
  23510014.642   123545921.854       -2989.229          35.000  
  24320179.007   127803395.745        1249.336          33.000  
 23  8 31 12 44 32.9970000  0 10G 3G 4G 6G 7G 9G11G17G19G31G26
  21739403.676   114241325.949       -2992.854          43.000  
  19752800.879   103801672.470       -1505.677          44.000  
  19733261.434   103698979.150         651.159          46.000  
  23314929.880   122520797.149        3124.043          42.000  
  19380567.806   101845567.004         484.166          48.000  
  22423170.129   117834572.778        2934.043          41.000  
  23334247.044   122622285.453       -3362.301          43.000  
  22179705.529   116555137.350       -3231.516          44.000  
  23510583.187   123548910.495       -2988.812          35.000  
  24319941.108   127802145.717        1249.905          33.000  
 23  8 31 12 44 33.9970000  0 10G 3G 4G 6G 7G 9G11G17G19G31G26
  21739973.304   114244318.991       -2993.242          43.000  
  19753087.621   103803178.439       -1506.572          44.000  
  19733137.869   103698328.456         650.286          46.000  
  23314335.491   122517673.158        3123.817          42.000  
  19380475.547   101845083.238         483.365          48.000  
  22422611.914   117831638.915        2933.691          41.000  
  23334886.926   122625648.040       -3362.848          43.000  
  22180320.370   116558369.258       -3232.250          44.000  
  23511152.117   123551899.776       -2989.411          35.000  
  24319703.052   127800896.321        1249.490          33.000  
 23  8 31 12 44 34.9970000  0 10G 3G 4G 6G 7G 9G11G17G19G31G26
  21740542.722   114247312.337       -2993.453          43.000  
  19753373.979   103804684.984       -1506.872          44.000  
  19733013.850   103697678.461         649.603          46.000  
  23313741.258   122514549.352        3123.673          42.000  
  19380383.183   101844600.101         482.945          48.000  
  22422053.926   117828705.444        2933.146          41.000  
  23335526.913   122629010.776       -3362.700          43.000  
  22180935.490   116561601.595       -3232.344          43.000  
  23511721.116   123554889.610       -2989.572          34.000  
  24319465.415   127799647.527        1249.269          33.000  
 23  8 31 12 44 35.9970000  0 10G 3G 4G 6G 7G 9G11G17G19G31G26
  21741112.384   114250305.942       -2993.249          43.000  
  19753660.581   103806192.078       -1506.867          44.000  
  19732889.884   103697029.154         649.151          46.000  
  23313147.009   122511425.687        3123.870          42.000  
  19380291.220   101844117.584         482.515          48.000  
  22421495.816   117825772.326        2933.136          41.000  
  23336167.092   122632373.687       -3362.499          43.000  
  22181550.558   116564834.368       -3232.841          43.000  
  23512290.255   123557879.963       -2990.063          34.000  
  24319227.516   127798399.273        1248.904          33.000  
 23  8 31 12 44 36.9970000  0 10G 3G 4G 6G 7G 9G11G17G19G31G26
  21741682.186   114253299.528       -2993.879          43.000  
  19753947.323   103807699.409       -1507.970          44.000  
  19732766.144   103696380.193         648.527          46.000  
  23312552.829   122508301.851        3123.711          42.000  
  19380199.205   101843635.348         481.927          48.000  
  22420937.566   117822839.235        2932.915          42.000  
  23336806.817   122635736.418       -3362.797          42.000  
  22182165.748   116568067.210       -3233.235          43.000  
  23512859.289   123560870.498       -2990.577          34.000  
  24318989.897   127797151.271        1247.457          33.000  
 23  8 31 12 44 37.9970000  0 10G 3G 4G 6G 7G 9G11G17G19G31G26
  21742251.692   114256293.265       -2994.165          42.000  
  19754234.327   103809207.144       -1508.100          44.000  
  19732642.439   103695731.795         647.739          46.000  
  23311958.544   122505178.067        3123.357          43.000  
  19380107.417   101843153.614         481.185          48.000  
  22420379.665   117819906.389        2932.482          42.000  
  23337446.507   122639099.187       -3363.026          42.000  
  22182780.868   116571300.352       -3233.683          43.000  
  23513428.306   123563861.452       -2991.432          34.000  
  24318752.853   127795903.683        1246.976          34.000  
 23  8 31 12 44 38.9970000  0 10G 3G 4G 6G 7G 9G11G17G19G31G26
  21742821.424   114259287.546       -2994.563          42.000  
  19754521.226   103810715.746       -1509.081          44.000  
  19732519.241   103695084.361         646.691          46.000  
  23311364.260   122502054.708        3123.145          43.000  
  19380016.257   101842672.766         480.151          48.000  
  22419821.659   117816974.167        2931.757          42.000  
  23338086.494   122642462.406       -3363.479          42.000  
  22183396.197   116574534.193       -3234.222          43.000  
  23513997.375   123566853.196       -2992.499          33.000  
  24318515.425   127794656.897        1246.697          34.000  
 23  8 31 12 44 39.9970000  0 10G 3G 4G 6G 7G 9G11G17G19G31G26
  21743391.138   114262282.314       -2994.805          42.000  
  19754808.125   103812225.092       -1509.910          44.000  
  19732396.147   103694437.788         646.104          46.000  
  23310769.801   122498931.709        3122.902          43.000  
  19379925.045   101842192.734         479.576          48.000  
  22419263.776   117814042.533        2931.057          42.000  
  23338726.323   122645825.978       -3363.887          42.000  
  22184011.405   116577768.668       -3235.145          43.000  
  23514566.531   123569845.630       -2992.920          33.000  
  24318278.469   127793410.870        1245.740          34.000  
 23  8 31 12 44 40.9970000  0 10G 3G 4G 6G 7G 9G11G17G19G31G26
  21743961.080   114265277.303       -2995.444          42.000  
  19755095.286   103813734.912       -1510.250          44.000  
  19732273.001   103693791.837         645.630          46.000  
  23310175.481   122495808.802        3122.528          43.000  
  19379833.798   101841713.247         478.906          48.000  
  22418705.927   117811111.160        2931.041          42.000  
  23339365.909   122649189.623       -3364.219          42.000  
  22184626.665   116581003.464       -3235.287          42.000  
  23515135.792   123572838.557       -2993.242          33.000  
  24318041.407   127792165.345        1244.978          34.000  
 23  8 31 12 44 41.9970000  0 10G 3G 4G 6G 7G 9G11G17G19G31G26
  21744530.795   114268272.563       -2995.220          42.000  
  19755382.534   103815245.292       -1510.294          44.000  
  19732149.994   103693146.575         645.204          46.000  
  23309581.284   122492686.037        3122.919          43.000  
  19379742.899   101841234.385         478.661          48.000  
  22418148.044   117808180.156        2930.910          41.000  
  23340005.895   122652553.410       -3363.472          42.000  
  22185242.116   116584238.676       -3235.190          42.000  
  23515705.001   123575832.010       -2993.744          33.000  
  24317804.503   127790920.334        1244.998          34.000  
 23  8 31 12 44 42.9970000  0 10G 3G 4G 6G 7G 9G11G17G19G31G26
  21745100.841   114271267.897       -2995.816          42.000  
  19755669.904   103816756.025       -1511.048          44.000  
  19732027.424   103692501.807         644.273          46.000  
  23308987.051   122489563.256        3122.229          43.000  
  19379652.123   101840755.943         477.994          48.000  
  22417590.335   117805249.291        2930.458          41.000  
  23340645.516   122655917.163       -3363.897          42.000  
  22185857.551   116587474.115       -3235.780          42.000  
  23516274.593   123578825.729       -2994.453          33.000  
  24317567.390   127789675.716        1243.940          33.000  
 23  8 31 12 44 43.9970000  0 10G 3G 4G 6G 7G 9G11G17G19G31G26
  21745670.643   114274263.411       -2995.647          42.000  
  19755957.641   103818267.219       -1511.292          44.000  
  19731904.923   103691857.593         644.097          46.000  
  23308392.575   122486440.489        3122.737          43.000  
  19379561.138   101840278.001         477.706          48.000  
  22417032.469   117802318.705        2930.789          42.000  
  23341285.520   122659280.971       -3363.773          42.000  
  22186473.386   116590709.863       -3235.769          42.000  
  23516844.482   123581819.863       -2993.806          33.000  
  24317330.520   127788431.491        1244.038          33.000  
 23  8 31 12 44 44.9970000  0 10G 3G 4G 6G 7G 9G11G17G19G31G26
  21746240.776   114277259.202       -2995.942          42.000  
  19756245.447   103819778.949       -1511.939          44.000  
  19731782.388   103691214.068         643.039          46.000  
  23307798.343   122483317.886        3122.486          43.000  
  19379470.379   101839800.677         476.837          48.000  
  22416474.568   117799388.488        2929.933          42.000  
  23341925.559   122662644.917       -3363.945          41.000  
  22187088.995   116593946.036       -3236.598          42.000  
  23517414.406   123584814.572       -2995.593          33.000  
  24317093.808   127787187.880        1243.340          32.000  
 23  8 31 12 44 45.9970000  0 10G 3G 4G 6G 7G 9G11G17G19G31G26
  21746810.840   114280255.357       -2995.957          42.000  
  19756533.585   103821291.336       -1512.421          44.000  
  19731660.010   103690571.306         642.650          46.000  
  23307204.285   122480195.523        3122.528          43.000  
  19379379.813   101839324.050         476.554          48.000  
  22415917.208   117796458.686        2929.957          42.000  
  23342565.231   122666009.119       -3363.680          41.000  
  22187704.569   116597182.703       -3236.614          42.000  
  23517984.313   123587809.834       -2995.312          32.000  
  24316857.236   127785944.832        1243.262          33.000  
 23  8 31 12 44 46.9970000  0 10G 3G 4G 6G 7G 9G11G17G19G31G26
  21747380.869   114283251.369       -2996.014          42.000  
  19756821.077   103822803.846       -1512.733          44.000  
  19731537.719   103689928.795         642.420          46.000  
  23306610.000   122477072.892        3122.562          43.000  
  19379289.124   101838847.615         476.219          48.000  
  22415359.446   117793528.844        2929.791          42.000  
  23343205.375   122669373.072       -3363.948          41.000  
  22188320.527   116600419.369       -3236.566          42.000  
  23518554.342   123590805.211       -2995.541          32.000  
  24316620.611   127784701.934        1243.144          33.000  
 23  8 31 12 44 47.9970000  0 10G 3G 4G 6G 7G 9G11G17G19G31G26
  21747951.090   114286247.740       -2995.829          42.000  
  19757108.936   103824316.991       -1513.281          44.000  
  19731415.550   103689287.063         641.714          46.000  
  23306016.099   122473950.516        3122.526          43.000  
  19379198.679   101838371.883         475.688          48.000  
  22414802.034   117790599.428        2929.647          42.000  
  23343845.275   122672737.245       -3363.968          41.000  
  22188936.764   116603656.529       -3237.075          42.000  
  23519124.475   123593801.208       -2996.364          32.000  
  24316384.370   127783459.675        1243.208          33.000  
 23  8 31 12 44 48.9970000  0 10G 3G 4G 6G 7G 9G11G17G19G31G26
  21748521.450   114289244.482       -2996.898          42.000  
  19757396.673   103825830.743       -1513.879          44.000  
  19731293.782   103688646.085         640.532          46.000  
  23305421.937   122470828.335        3122.156          43.000  
  19379108.410   101837896.817         474.909          48.000  
  22414244.465   117787670.449        2928.960          42.000  
  23344485.593   122676101.632       -3364.463          41.000  
  22189552.634   116606894.159       -3237.743          42.000  
  23519694.434   123596797.767       -2996.067          32.000  
  24316148.059   127782218.079        1240.682          33.000  
 23  8 31 12 44 49.9970000  0 10G 3G 4G 6G 7G 9G11G17G19G31G26
  21749091.776   114292241.616       -2997.682          42.000  
  19757685.264   103827345.200       -1515.080          44.000  
  19731172.032   103688005.902         639.535          46.000  
  23304827.862   122467706.454        3121.496          43.000  
  19379018.035   101837422.520         473.655          48.000  
  22413687.053   117784741.957        2927.873          42.000  
  23345125.789   122679466.308       -3365.085          41.000  
  22190168.784   116610132.356       -3238.809          42.000  
  23520264.882   123599795.012       -2997.944          32.000  
  24315911.731   127780977.112        1240.821          33.000  
 23  8 31 12 44 50.9970000  0 10G 3G 4G 6G 7G 9G11G17G19G31G26
  21749662.136   114295239.052       -2997.354          42.000  
  19757973.559   103828860.230       -1515.248          44.000  
  19731050.456   103687366.437         639.337          46.000  
  23304233.839   122464584.764        3121.683          43.000  
  19378927.782   101836948.857         473.610          48.000  
  22413129.919   117781813.863        2927.847          42.000  
  23345765.933   122682831.162       -3364.754          41.000  
  22190785.143   116613370.976       -3238.562          42.000  
  23520835.173   123602792.791       -2998.436          32.000  
  24315675.769   127779736.746        1240.145          32.000  
 23  8 31 12 44 51.9970000  0 10G 3G 4G 6G 7G 9G11G17G19G31G26
  21750232.549   114298236.575       -2997.853          42.000  
  19758262.291   103830375.601       -1515.644          44.000  
  19730929.090   103686727.442         638.597          46.000  
  23303639.711   122461463.008        3121.684          43.000  
  19378837.722   101836475.605         473.029          48.000  
  22412572.559   117778885.902        2927.713          41.000  
  23346406.164   122686195.947       -3364.767          41.000  
  22191401.642   116616609.829       -3239.225          42.000  
  23521405.882   123605790.844       -2997.921          32.000  
  24315439.650   127778496.703        1239.513          32.000  
 23  8 31 12 44 52.9970000  0 10G 3G 4G 6G 7G 9G11G17G19G31G26
  21750803.188   114301234.402       -2998.198          42.000  
  19758550.987   103831891.575       -1516.544          44.000  
  19730807.427   103686089.167         637.810          46.000  
  23303045.636   122458341.458        3121.258          43.000  
  19378747.993   101836002.998         472.052          48.000  
  22412015.252   117775958.359        2927.057          41.000  
  23347046.674   122689560.958       -3365.368          41.000  
  22192017.966   116619849.125       -3239.691          42.000  
  23521976.644   123608789.499       -2999.156          32.000  
  24315203.426   127777257.265        1238.808          33.000  
 23  8 31 12 44 53.9970000  0 10G 3G 4G 6G 7G 9G11G17G19G31G26
  21751373.618   114304232.457       -2998.040          42.000  
  19758839.561   103833408.048       -1516.750          44.000  
  19730686.008   103685451.536         637.130          46.000  
  23302451.386   122455220.006        3121.574          43.000  
  19378657.967   101835530.960         471.801          48.000  
  22411458.136   117773031.122        2926.992          41.000  
  23347687.010   122692926.052       -3365.059          41.000  
  22192634.290   116623088.776       -3239.961          42.000  
  23522547.248   123611788.602       -2999.378          32.000  
  24314967.866   127776018.316        1238.573          33.000  
 23  8 31 12 44 54.9970000  0 10G 3G 4G 6G 7G 9G11G17G19G31G26
  21751944.136   114307230.661       -2998.376          43.000  
  19759128.380   103834924.929       -1517.152          44.000  
  19730564.921   103684814.435         636.661          46.000  
  23301857.625   122452098.572        3121.613          43.000  
  19378568.186   101835059.392         471.216          48.000  
  22410901.213   117770104.103        2926.917          42.000  
  23348327.607   122696291.182       -3365.341          41.000  
  22193250.772   116626328.702       -3240.228          42.000  
  23523117.958   123614788.048       -2999.266          32.000  
  24314732.340   127774779.776        1237.897          33.000  
 23  8 31 12 44 55.9970000  0 10G 3G 4G 6G 7G 9G11G17G19G31G26
  21752515.055   114310229.061       -2998.473          42.000  
  19759417.286   103836442.304       -1517.740          44.000  
  19730443.852   103684177.941         636.198          46.000  
  23301263.585   122448977.237        3121.346          43.000  
  19378478.335   101834588.371         470.861          48.000  
  22410344.376   117767177.374        2926.564          42.000  
  23348968.100   122699656.365       -3365.167          41.000  
  22193867.480   116629568.969       -3240.427          42.000  
  23523688.772   123617788.011       -3000.108          32.000  
  24314497.094   127773541.739        1237.662          33.000  
 23  8 31 12 44 56.9970000  0 10G 3G 4G 6G 7G 9G11G17G19G31G26
  21753085.851   114313227.461       -2998.698          43.000  
  19759706.244   103837959.915       -1517.948          44.000  
  19730322.433   103683541.836         635.758          46.000  
  23300669.510   122445855.749        3121.624          43.000  
  19378388.902   101834117.670         470.425          48.000  
  22409787.505   117764250.702        2926.560          42.000  
  23349608.698   122703021.406       -3364.999          41.000  
  22194484.118   116632809.355       -3240.569          42.000  
  23524259.935   123620788.136       -2999.817          32.000  
  24314261.620   127772303.928        1236.997          33.000  
 23  8 31 12 44 57.9970000  0 10G 3G 4G 6G 7G 9G11G17G19G31G26
  21753656.770   114316226.346       -2999.226          43.000  
  19759995.551   103839478.320       -1518.874          44.000  
  19730201.329   103682906.639         634.586          46.000  
  23300075.696   122442734.663        3120.817          44.000  
  19378299.365   101833647.818         469.420          48.000  
  22409230.686   117761324.622        2925.761          42.000  
  23350249.348   122706386.864       -3365.875          41.000  
  22195101.036   116636050.398       -3241.565          42.000  
  23524830.662   123623789.040       -3001.320          32.000  
  24314026.147   127771066.883        1237.163          33.000  
 23  8 31 12 44 58.9970000  0 10G 3G 4G 6G 7G 9G11G17G19G31G26
  21754227.863   114319225.755       -2999.551          43.000  
  19760284.754   103840997.525       -1519.643          44.000  
  19730080.433   103682272.369         633.788          46.000  
  23299481.865   122439613.955        3120.494          44.000  
  19378210.107   101833178.824         468.621          48.000  
  22408674.041   117758399.154        2925.017          42.000  
  23350889.718   122709752.690       -3365.845          40.000  
  22195717.988   116639292.082       -3241.968          42.000  
  23525402.087   123626790.713       -3002.295          32.000  
  24313790.587   127769830.694        1235.457          33.000  
 23  8 31 12 44 59.9970000  0 10G 3G 4G 6G 7G 9G11G17G19G31G26
  21754798.730   114322225.301       -2999.294          43.000  
  19760573.886   103842517.119       -1519.678          44.000  
  19729960.062   103681638.612         633.914          46.000  
  23298887.965   122436493.254        3121.012          44.000  
  19378121.041   101832710.290         468.501          48.000  
  22408117.309   117755473.877        2925.479          42.000  
  23351530.106   122713118.512       -3365.483          40.000  
  22196335.133   116642534.039       -3241.892          42.000  
  23525973.389   123629792.697       -3001.500          32.000  
  24313555.096   127768594.840        1235.444          33.000  
 23  8 31 12 45  0.9970000  0 10G 3G 4G 6G 7G 9G11G17G19G31G26
  21755369.701   114325225.264       -3000.444          43.000  
  19760863.124   103844037.403       -1520.926          44.000  
  19729839.463   103681005.702         632.113          46.000  
  23298294.413   122433372.849        3120.028          44.000  
  19378032.132   101832242.491         467.282          48.000  
  22407560.787   117752549.118        2924.151          42.000  
  23352170.617   122716484.631       -3366.238          40.000  
  22196952.242   116645776.532       -3242.884          42.000  
  23526544.989   123632795.375       -3003.002          32.000  
  24313320.199   127767359.720        1234.247          33.000  
 23  8 31 12 45  1.9970000  0 10G 3G 4G 6G 7G 9G11G17G19G31G26
  21755940.445   114328225.503       -3000.066          43.000  
  19761152.832   103845558.257       -1520.978          44.000  
  19729719.266   103680373.470         632.061          46.000  
  23297700.582   122430252.609        3120.377          44.000  
  19377943.346   101831775.331         467.279          48.000  
  22407004.352   117749624.704        2924.615          42.000  
  23352811.266   122719850.904       -3366.217          40.000  
  22197569.421   116649019.451       -3242.808          43.000  
  23527115.942   123635798.595       -3003.683          32.000  
  24313085.458   127766125.118        1234.865          34.000  
 23  8 31 12 45  2.9970000  0 10G 3G 4G 6G 7G 9G11G17G19G31G26
  21756511.521   114331225.843       -3000.726          43.000  
  19761442.209   103847079.464       -1521.830          44.000  
  19729599.331   103679741.740         631.101          46.000  
  23297106.804   122427132.349        3119.762          44.000  
  19377854.367   101831308.600         466.165          48.000  
  22406447.865   117746700.477        2924.123          42.000  
  23353451.846   122723217.142       -3366.517          40.000  
  22198186.915   116652262.614       -3243.533          43.000  
  23527687.280   123638802.117       -3003.777          32.000  
  24312850.840   127764890.937        1233.214          33.000  
 23  8 31 12 45  3.9970000  0 10G 3G 4G 6G 7G 9G11G17G19G31G26
  21757082.562   114334226.368       -3000.815          43.000  
  19761731.691   103848601.149       -1522.208          44.000  
  19729479.291   103679110.583         630.680          46.000  
  23296512.955   122424012.139        3120.027          44.000  
  19377765.650   101830842.383         465.728          48.000  
  22405891.674   117743776.539        2923.634          42.000  
  23354092.200   122726583.481       -3366.575          40.000  
  22198804.461   116655506.094       -3243.889          43.000  
  23528258.897   123641806.079       -3003.931          31.000  
  24312616.117   127763657.194        1232.362          33.000  
 23  8 31 12 45  4.9970000  0 10G 3G 4G 6G 7G 9G11G17G19G31G26
  21757653.847   114337227.172       -3000.769          43.000  
  19762021.277   103850123.357       -1522.252          44.000  
  19729359.425   103678480.121         630.268          46.000  
  23295919.281   122420892.078        3120.242          44.000  
  19377677.143   101830376.783         465.535          48.000  
  22405335.326   117740852.943        2923.672          42.000  
  23354732.902   122729949.917       -3366.195          40.000  
  22199422.041   116658749.975       -3243.851          43.000  
  23528830.287   123644810.562       -3004.825          31.000  
  24312381.394   127762423.916        1233.481          33.000  
 23  8 31 12 45  5.9970000  0 10G 3G 4G 6G 7G 9G11G17G19G31G26
  21758224.731   114340228.049       -3001.323          43.000  
  19762311.090   103851645.937       -1523.327          44.000  
  19729239.664   103677850.126         629.348          46.000  
  23295325.189   122417771.998        3119.698          44.000  
  19377588.147   101829911.594         464.800          48.000  
  22404779.118   117737929.502        2923.020          42.000  
  23355373.569   122733316.337       -3366.777          40.000  
  22200039.569   116661994.066       -3244.534          43.000  
  23529402.392   123647815.329       -3005.128          31.000  
  24312146.829   127761191.056        1232.537          33.000  
 23  8 31 12 45  6.9970000  0 10G 3G 4G 6G 7G 9G11G17G19G31G26
  21758795.946   114343229.023       -3000.782          43.000  
  19762600.886   103853168.874       -1522.867          44.000  
  19729120.200   103677220.630         629.630          46.000  
  23294731.637   122414651.872        3120.366          44.000  
  19377499.569   101829446.839         464.919          48.000  
  22404223.154   117735006.244        2923.350          42.000  
  23356014.359   122736682.689       -3366.049          40.000  
  22200657.115   116665238.377       -3244.073          43.000  
  23529974.236   123650820.472       -3005.571          31.000  
  24311912.437   127759958.552        1233.008          33.000  
 23  8 31 12 45  7.9970000  0 10G 3G 4G 6G 7G 9G11G17G19G31G26
  21759367.389   114346230.277       -3001.428          43.000  
  19762891.013   103854692.370       -1523.883          44.000  
  19729001.050   103676591.832         628.357          46.000  
  23294137.771   122411531.912        3119.646          44.000  
  19377411.027   101828982.712         463.558          48.000  
  22403667.015   117732083.346        2922.415          43.000  
  23356655.026   122740049.235       -3366.419          40.000  
  22201274.504   116668483.130       -3245.243          43.000  
  23530546.132   123653826.118       -3006.316          31.000  
  24311677.994   127758726.655        1231.183          33.000  
 23  8 31 12 45  8.9970000  0 10G 3G 4G 6G 7G 9G11G17G19G31G26
  21759938.674   114349232.099       -3002.321          43.000  
  19763181.088   103856216.700       -1524.751          44.000  
  19728881.795   103675963.994         627.287          47.000  
  23293544.342   122408412.376        3119.325          44.000  
  19377322.886   101828519.461         462.665          48.000  
  22403110.842   117729161.083        2921.888          43.000  
  23357295.658   122743416.210       -3367.146          40.000  
  22201891.840   116671728.548       -3245.755          43.000  
  23531118.132   123656832.526       -3006.779          31.000  
  24311443.550   127757495.525        1230.267          34.000  
 23  8 31 12 45  9.9970000  0 10G 3G 4G 6G 7G 9G11G17G19G31G26
  21760510.186   114352234.321       -3001.919          43.000  
  19763471.303   103857741.712       -1524.993          44.000  
  19728762.645   103675336.960         626.885          47.000  
  23292950.825   122405293.145        3119.397          44.000  
  19377234.657   101828056.958         462.433          48.000  
  22402554.826   117726239.317        2922.031          43.000  
  23357936.308   122746783.455       -3366.766          39.000  
  22202509.543   116674974.506       -3245.717          43.000  
  23531690.587   123659839.626       -3007.231          31.000  
  24311209.316   127756265.085        1230.391          34.000  
 23  8 31 12 45 10.9970000  0 10G 3G 4G 6G 7G 9G11G17G19G31G26
  21761081.349   114355236.655       -3002.450          43.000  
  19763761.570   103859267.097       -1525.635          44.000  
  19728643.495   103674710.434         626.196          47.000  
  23292357.325   122402173.899        3119.070          44.000  
  19377146.639   101827594.902         461.711          47.000  
  22401998.966   117723317.748        2921.409          43.000  
  23358576.993   122750150.682       -3367.056          39.000  
  22203126.914   116678220.724       -3246.631          43.000  
  23532262.989   123662847.044       -3007.660          31.000  
  24310975.186   127755035.057        1229.691          34.000  
 23  8 31 12 45 11.9970000  0 10G 3G 4G 6G 7G 9G11G17G19G31G26
  21761652.896   114358239.304       -3002.812          43.000  
  19764051.872   103860793.086       -1526.198          44.000  
  19728524.642   103674084.638         625.671          47.000  
  23291763.617   122399054.833        3119.252          44.000  
  19377058.655   101827133.499         461.284          47.000  
  22401443.334   117720396.571        2921.186          43.000  
  23359218.079   122753518.138       -3367.512          40.000  
  22203744.565   116681467.382       -3246.786          43.000  
  23532835.112   123665855.068       -3008.844          31.000  
  24310741.353   127753805.589        1229.602          34.000  
 23  8 31 12 45 12.9970000  0 10G 3G 4G 6G 7G 9G11G17G19G31G26
  21762224.687   114361242.137       -3003.076          43.000  
  19764342.034   103862319.522       -1526.741          44.000  
  19728405.666   103673459.432         624.765          47.000  
  23291170.117   122395935.861        3118.780          44.000  
  19376970.775   101826672.621         460.482          47.000  
  22400887.440   117717475.650        2920.568          43.000  
  23359858.676   122756885.611       -3367.656          39.000  
  22204362.145   116684714.350       -3247.395          43.000  
  23533407.514   123668863.442       -3008.770          31.000  
  24310507.782   127752576.616        1228.239          34.000  
 23  8 31 12 45 13.9970000  0 10G 3G 4G 6G 7G 9G11G17G19G31G26
  21762796.077   114364244.869       -3002.992          43.000  
  19764632.650   103863846.150       -1527.245          44.000  
  19728286.813   103672834.530         624.486          47.000  
  23290576.618   122392816.662        3118.906          44.000  
  19376883.402   101826211.993         460.027          47.000  
  22400331.441   117714554.747        2920.708          43.000  
  23360499.989   122760252.880       -3367.481          40.000  
  22204979.796   116687961.365       -3247.174          43.000  
  23533981.364   123671872.030       -3009.147          30.000  
  24310274.106   127751347.763        1228.925          34.000  
 23  8 31 12 45 14.9970000  0 10G 3G 4G 6G 7G 9G11G17G19G31G26
  21763367.485   114367247.864       -3003.021          43.000  
  19764923.039   103865373.285       -1527.093          44.000  
  19728168.064   103672210.300         623.898          47.000  
  23289983.066   122389697.589        3119.222          44.000  
  19376795.994   101825751.940         460.034          47.000  
  22399775.704   117711634.177        2920.417          43.000  
  23361140.849   122763620.288       -3367.341          40.000  
  22205597.638   116691208.791       -3247.519          43.000  
  23534551.794   123674881.070       -3009.741          30.000  
  24310040.448   127750119.513        1228.232          34.000  
 23  8 31 12 45 15.9970000  0 10G 3G 4G 6G 7G 9G11G17G19G31G26
  21763939.084   114370251.149       -3003.732          44.000  
  19765213.480   103866901.014       -1528.165          44.000  
  19728049.595   103671586.762         622.984          47.000  
  23289389.480   122386578.707        3118.666          44.000  
  19376708.289   101825292.536         458.899          48.000  
  22399220.456   117708713.982        2919.921          43.000  
  23361781.900   122766987.869       -3368.038          40.000  
  22206215.428   116694456.633       -3248.096          42.000  
  23535123.411   123677890.672       -3010.167          30.000  
  24309806.859   127748891.804        1227.105          34.000  
 23  8 31 12 45 16.9970000  0 10G 3G 4G 6G 7G 9G11G17G19G31G26
  21764510.509   114373254.343       -3003.239          44.000  
  19765504.026   103868428.911       -1527.948          44.000  
  19727930.950   103670963.533         622.996          47.000  
  23288796.434   122383459.607        3119.061          44.000  
  19376621.021   101824833.362         458.963          48.000  
  22398664.736   117705793.775        2920.128          43.000  
  23362422.532   122770355.199       -3366.875          39.000  
  22206833.026   116697704.517       -3247.882          42.000  
  23535701.589   123680900.353       -3010.030          30.000  
  24309573.445   127747664.257        1227.301          34.000  
 23  8 31 12 45 17.9970000  0 10G 3G 4G 6G 7G 9G11G17G19G31G26
  21765081.934   114376258.071       -3004.128          44.000  
  19765794.730   103869957.594       -1529.004          44.000  
  19727812.516   103670341.229         621.837          47.000  
  23288203.231   122380340.884        3118.506          44.000  
  19376533.839   101824375.035         458.000          48.000  
  22398109.156   117702874.166        2919.366          43.000  
  23363062.990   122773722.946       -3367.967          39.000  
  22207451.009   116700953.039       -3248.844          42.000  
  23536274.776   123683910.814       -3010.768          30.000  
  24309340.066   127746437.498        1226.228          34.000  
 23  8 31 12 45 18.9970000  0 10G 3G 4G 6G 7G 9G11G17G19G31G26
  21765653.812   114379262.098       -3004.076          44.000  
  19766085.485   103871486.886       -1529.622          44.000  
  19727694.570   103669719.652         621.134          47.000  
  23287609.889   122377222.391        3118.401          44.000  
  19376446.850   101823917.405         457.165          48.000  
  22397553.611   117699954.971        2918.880          43.000  
  23363704.094   122777090.882       -3368.325          40.000  
  22208069.008   116704202.040       -3249.284          42.000  
  23536842.781   123686921.904       -3011.599          29.000  
  24309106.913   127745211.383        1225.216          34.000  
 23  8 31 12 45 19.9970000  0 10G 3G 4G 6G 7G 9G11G17G19G31G26
  21766225.795   114382266.427       -3004.625          44.000  
  19766376.380   103873016.726       -1530.227          44.000  
  19727576.467   103669098.758         620.401          47.000  
  23287016.267   122374104.041        3117.982          44.000  
  19376360.157   101823460.366         456.474          48.000  
  22396998.292   117697036.138        2918.606          43.000  
  23364345.250   122780458.971       -3368.371          40.000  
  22208687.182   116707451.445       -3249.723          42.000  
  23537416.544   123689933.441       -3012.081          30.000  
  24308873.761   127743985.769        1225.171          34.000  
 23  8 31 12 45 20.9970000  0 10G 3G 4G 6G 7G 9G11G17G19G31G26
  21766797.342   114385271.272       -3005.269          44.000  
  19766668.008   103874547.362       -1531.215          44.000  
  19727458.207   103668478.782         619.438          47.000  
  23286422.855   122370986.091        3117.547          44.000  
  19376273.325   101823004.180         455.729          48.000  
  22396443.027   117694117.918        2917.682          43.000  
  23364986.563   122783827.445       -3368.724          40.000  
  22209305.321   116710701.497       -3250.516          42.000  
  23537989.522   123692945.724       -3012.618          30.000  
  24308640.836   127742760.978        1224.158          35.000  
 23  8 31 12 45 21.9970000  0 10G 3G 4G 6G 7G 9G11G17G19G31G26
  21767369.151   114388276.225       -3005.022          44.000  
  19766958.956   103876078.379       -1531.294          43.000  
  19727340.191   103667859.348         619.047          47.000  
  23285829.565   122367868.152        3117.845          44.000  
  19376186.667   101822548.454         455.404          48.000  
  22395887.778   117691199.886        2917.993          43.000  
  23365627.788   122787195.921       -3368.784          40.000  
  22209923.844   116713951.803       -3250.582          42.000  
  23538559.132   123695958.439       -3013.177          29.000  
  24308408.085   127741536.577        1224.326          35.000  
 23  8 31 12 45 22.9970000  0 10G 3G 4G 6G 7G 9G11G17G19G31G26
  21767940.942   114391281.439       -3005.204          43.000  
  19767250.148   103877609.924       -1531.681          43.000  
  19727222.559   103667240.550         618.477          47.000  
  23285236.310   122364750.345        3117.772          44.000  
  19376100.254   101822093.315         454.997          48.000  
  22395332.582   117688282.202        2917.545          43.000  
  23366269.154   122790564.500       -3368.530          40.000  
  22210542.332   116717202.490       -3250.894          42.000  
  23539131.813   123698971.577       -3013.687          29.000  
  24308175.334   127740312.704        1223.690          35.000  
 23  8 31 12 45 23.9970000  0 10G 3G 4G 6G 7G 9G11G17G19G31G26
  21768512.838   114394287.040       -3005.496          43.000  
  19767541.374   103879142.137       -1532.133          43.000  
  19727104.648   103666622.550         617.907          47.000  
  23284642.968   122361632.813        3117.601          44.000  
  19376013.928   101821638.913         454.260          48.000  
  22394777.368   117685364.998        2917.243          43.000  
  23366910.240   122793933.358       -3368.621          40.000  
  22211161.082   116720453.696       -3251.209          42.000  
  23539709.276   123701985.405       -3013.948          29.000  
  24307942.652   127739089.513        1223.016          34.000  
 23  8 31 12 45 24.9970000  0 10G 3G 4G 6G 7G 9G11G17G19G31G26
  21769084.385   114397292.613       -3005.661          43.000  
  19767832.932   103880674.596       -1532.854          43.000  
  19726986.964   103666004.926         617.367          47.000  
  23284049.207   122358515.122        3117.683          44.000  
  19375927.566   101821184.809         453.863          48.000  
  22394222.015   117682447.831        2917.028          43.000  
  23367551.430   122797302.055       -3368.696          40.000  
  22211779.727   116723704.988       -3251.429          42.000  
  23540280.631   123704999.359       -3014.097          29.000  
  24307709.779   127737866.530        1222.821          34.000  
 23  8 31 12 45 25.9970000  0 10G 3G 4G 6G 7G 9G11G17G19G31G26
  21769656.212   114400298.481       -3005.811          43.000  
  19768124.752   103882207.621       -1533.108          43.000  
  19726869.384   103665388.020         616.763          46.000  
  23283455.952   122355397.626        3117.491          44.000  
  19375841.293   101820731.348         453.251          48.000  
  22393667.186   117679531.067        2916.816          43.000  
  23368192.586   122800670.938       -3368.835          40.000  
  22212398.442   116726956.734       -3251.640          42.000  
  23540853.399   123708013.911       -3015.000          29.000  
  24307477.290   127736644.111        1222.750          34.000  
 23  8 31 12 45 26.9970000  0 10G 3G 4G 6G 7G 9G11G17G19G31G26
  21770227.881   114403304.476       -3005.775          43.000  
  19768417.009   103883741.041       -1533.226          43.000  
  19726751.944   103664771.619         616.543          46.000  
  23282863.011   122352280.109        3117.925          44.000  
  19375755.211   101820278.347         453.035          48.000  
  22393111.972   117676614.494        2916.876          43.000  
  23368834.004   122804039.778       -3368.182          41.000  
  22213017.419   116730208.746       -3251.723          42.000  
  23541427.808   123711028.753       -3014.562          28.000  
  24307244.556   127735422.135        1222.675          33.000  
 23  8 31 12 45 27.9970000  0 10G 3G 4G 6G 7G 9G11G17G19G31G26
  21770800.126   114406310.482       -3006.386          43.000  
  19768708.724   103885274.749       -1533.903          43.000  
  19726634.207   103664155.649         615.434          46.000  
  23282269.389   122349162.498        3117.488          44.000  
  19375669.233   101819825.674         452.419          48.000  
  22392557.055   117673698.023        2916.328          43.000  
  23369475.317   122807408.530       -3368.699          41.000  
  22213636.360   116733460.885       -3252.461          42.000  
  23542001.275   123714043.911       -3015.664          28.000  
  24307012.277   127734200.449        1220.806          33.000  
 23  8 31 12 45 28.9970000  0 10G 3G 4G 6G 7G 9G11G17G19G31G26
  21771372.091   114409317.056       -3006.794          43.000  
  19769000.614   103886809.298       -1535.042          43.000  
  19726516.890   103663540.655         614.396          46.000  
  23281675.977   122346045.339        3117.011          44.000  
  19375583.291   101819373.921         451.502          48.000  
  22392002.313   117670782.216        2915.652          43.000  
  23370116.578   122810777.755       -3369.743          41.000  
  22214255.756   116736713.733       -3253.105          42.000  
  23542574.776   123717059.876       -3016.343          28.000  
  24306780.066   127732979.563        1220.642          34.000  
 23  8 31 12 45 29.9970000  0 10G 3G 4G 6G 7G 9G11G17G19G31G26
  21771944.232   114412323.892       -3007.136          43.000  
  19769292.922   103888344.384       -1535.675          44.000  
  19726399.729   103662926.317         613.900          46.000  
  23281082.792   122342928.306        3117.053          44.000  
  19375497.401   101818922.761         450.750          48.000  
  22391447.518   117667866.750        2915.218          43.000  
  23370757.629   122814147.065       -3369.536          41.000  
  22214875.361   116739966.970       -3253.496          42.000  
  23543147.073   123720076.265       -3016.430          27.000  
  24306547.647   127731759.232        1220.090          33.000  
 23  8 31 12 45 30.9970000  0 10G 3G 4G 6G 7G 9G11G17G19G31G26
  21772516.407   114415330.867       -3007.245          43.000  
  19769585.056   103889879.876       -1535.915          44.000  
  19726282.551   103662312.518         613.661          46.000  
  23280489.485   122339811.296        3117.132          44.000  
  19375411.668   101818472.079         450.490          48.000  
  22390892.863   117664951.503        2915.124          43.000  
  23371398.802   122817516.398       -3369.258          41.000  
  22215494.494   116743220.473       -3253.419          42.000  
  23543719.510   123723093.146       -3017.234          27.000  
  24306315.018   127730539.299        1219.696          33.000  
 23  8 31 12 45 31.9970000  0 10G 3G 4G 6G 7G 9G11G17G19G31G26
  21773088.704   114418338.208       -3007.584          43.000  
  19769877.522   103891416.004       -1536.459          44.000  
  19726165.686   103661699.518         612.571          46.000  
  23279896.491   122336694.550        3116.664          44.000  
  19375326.022   101818022.113         449.681          48.000  
  22390338.173   117662036.719        2914.652          43.000  
  23372039.941   122820885.985       -3369.758          41.000  
  22216113.768   116746474.488       -3254.046          42.000  
  23544291.720   123726110.556       -3017.963          27.000  
  24306083.018   127729320.062        1218.704          33.000  
 23  8 31 12 45 32.9970000  0 10G 3G 4G 6G 7G 9G11G17G19G31G26
  21773660.845   114421345.705       -3007.358          43.000  
  19770169.988   103892952.578       -1536.605          44.000  
  19726048.700   103661087.061         612.493          46.000  
  23279303.428   122333577.845        3116.930          44.000  
  19375240.377   101817572.621         449.572          48.000  
  22389783.430   117659122.194        2914.365          42.000  
  23372681.358   122824255.588       -3369.492          41.000  
  22216733.059   116749728.810       -3254.205          42.000  
  23544864.018   123729128.386       -3018.058          26.000  
  24305851.261   127728101.234        1218.368          33.000  
