     2.11           OBSERVATION DATA    G (GPS)             RINEX VERSION / TYPE
teqc  2019Feb25                         20231112 14:24:50UTCPGM / RUN BY / DATE
Linux 2.6.32-573.12.1.x86_64|x86_64|gcc|Linux 64|=+         COMMENT
teqc  2019Feb25                         20231112 14:24:49UTCCOMMENT
     2.11           OBSERVATION DATA    M (MIXED)           COMMENT
teqc  2019Feb25     IGN-RGP             20231109 09:16:06UTCCOMMENT
teqc  2019Feb25     Administrateur RGP  20231109 09:16:06UTCCOMMENT
teqc  2019Feb25     IGN-RGP             20231109 09:16:04UTCCOMMENT
teqc  2019Feb25     IGN-RGP             20231109 09:16:03UTCCOMMENT
   0.000      (antenna height)                              COMMENT
 +48.71215112 (latitude)                                    COMMENT
  +2.20856274 (longitude)                                   COMMENT
0217.826      (elevation)                                   COMMENT
BIT 2 OF LLI FLAGS DATA COLLECTED UNDER A/S CONDITION       COMMENT
SIRT (COGO code)                                            COMMENT
SIRT                                                        MARKER NAME
19988M001                                                   MARKER NUMBER
Automatic           SIRTA                                   OBSERVER / AGENCY
5103K73227          TRIMBLE NETR9       4.43                REC # / TYPE / VERS
14411112166         TRM57971.00     NONE                    ANT # / TYPE
  4213551.1580   162494.2670  4769661.5500                  APPROX POSITION XYZ
        0.0000        0.0000        0.0000                  ANTENNA: DELTA H/E/N
     1     1                                                WAVELENGTH FACT L1/2
    21    L1    L2    C1    P1    P2    D1    D2    S1    S2# / TYPES OF OBSERV
          L5    C5    D5    S5    L7    C7    D7    S7    L8# / TYPES OF OBSERV
          C8    D8    S8                                    # / TYPES OF OBSERV
    30.0000                                                 INTERVAL
    18                                                      LEAP SECONDS
 SNR is mapped to RINEX snr flag value [0-9]                COMMENT
  L1 & L2: min(max(int(snr_dBHz/6), 0), 9)                  COMMENT
Forced Modulo Decimation to 30 seconds                      COMMENT
teqc_2019 edited: all GLONASS satellites excluded           COMMENT
teqc_2019 edited: all SBAS satellites excluded              COMMENT
teqc_2019 edited: all Galileo satellites excluded           COMMENT
  2023    11     9     8     0    0.0000000     GPS         TIME OF FIRST OBS
                                                            END OF HEADER
 23 11  9  8  0  0.0000000  0 10G20G17G09G03G19G11G04G06G07G31
 131085373.332 6 102144483.07342  24944723.367                    24944727.508
                                        36.600          17.400



 128127803.380 6  99839892.204 6  24381934.102                    24381943.555
                                        39.000          37.900



 106410931.824 8  82917676.473 8  20249334.148                    20249340.664
                                        51.300          51.200



 120112467.402 7  93594218.771 7  22856661.211                    22856670.574
                                        42.400          44.300



 121451614.925 6  94637716.90044  23111499.203                    23111505.629
                                        41.600          29.000



 121400561.421 7  94597879.332 7  23101768.070                    23101774.219
                                        43.700          44.600



 108826398.853 7  84799849.956 8  20708983.516                    20708990.527
                                        47.500          49.700



 108780265.446 8  84763882.305 8  20700202.867                    20700210.203
                                        49.300          49.700



 127177214.418 6  99099214.368 6  24201021.266                    24201030.578
                                        41.100          37.600



 128958901.916 6 100487513.455 5  24540079.984                    24540086.836
                                        38.500          35.200



 23 11  9  8  0 30.0000000  0 10G20G17G09G03G19G11G04G06G07G31
 130986354.929 6 102067325.71242  24925880.820                    24925885.711
      3300.677        2571.951          37.500          17.800



 128224015.319 6  99914862.292 6  24400242.641                    24400252.270
     -3207.824       -2499.595          38.100          37.500



 106388225.822 8  82899983.479 8  20245013.344                    20245020.117
       749.002         583.635          50.600          50.900



 120199681.255 7  93662177.508 7  22873257.297                    22873266.875
     -2909.885       -2267.444          42.500          44.600



 121544319.485 6  94709954.08544  23129141.117                    23129146.883
     -3094.926       -2411.625          41.300          28.900



 121310261.776 7  94527515.932 7  23084584.602                    23084590.652
      3005.374        2341.852          43.700          45.100



 108871501.674 7  84834994.984 8  20717566.414                    20717573.020
     -1510.194       -1176.780          47.600          49.000



 108750718.936 8  84740859.027 8  20694580.320                    20694587.633
       976.126         760.617          49.400          49.700



 127077835.239 6  99021776.184 6  24182110.133                    24182119.504
      3311.380        2580.294          40.400          38.300



 129046344.281 6 100555650.233 6  24556719.367                    24556727.004
     -2920.947       -2276.069          38.800          36.300



 23 11  9  8  1  0.0000000  0 10G20G17G09G03G19G11G04G06G07G31
 130887333.907 5 101990166.30442  24907037.641                    24907042.574
      3300.715        2571.992          35.700          16.900



 128320273.449 6  99989868.365 6  24418560.133                    24418568.703
     -3209.322       -2500.761          36.600          36.500



 106366009.075 8  82882671.722 8  20240785.602                    20240792.355
       732.662         570.907          51.700          51.500



 120287067.872 7  93730270.881 7  22889886.641                    22889896.113
     -2915.674       -2271.948          42.500          43.800



 121637320.252 6  94782422.07744  23146838.125                    23146843.805
     -3104.779       -2419.305          41.400          28.000



 121220251.517 7  94457378.060 7  23067456.781                    23067462.266
      2995.629        2334.256          42.800          44.500



 108917025.031 7  84870467.700 8  20726228.922                    20726236.047
     -1524.230       -1187.713          47.500          49.700



 108721717.326 8  84718260.353 8  20689061.164                    20689068.461
       957.895         746.414          49.300          49.500



 126978537.087 6  98944401.111 6  24163214.438                    24163223.305
      3308.595        2578.128          40.800          39.100



 129134172.168 6 100624087.398 6  24573433.109                    24573441.023
     -2933.799       -2286.071          38.900          36.300



 23 11  9  8  1 30.0000000  0 10G20G17G09G03G19G11G04G06G07G31
 130788310.724 6 101913005.24642  24888194.125                    24888198.523
      3300.763        2572.004          36.200          17.800



 128416574.208 5 100064907.667 6  24436884.492                    24436893.613
     -3210.671       -2501.812          34.000          36.200



 106344281.302 8  82865740.999 8  20236650.891                    20236657.938
       716.371         558.206          50.900          51.600



 120374626.213 7  93798498.034 7  22906548.383                    22906557.793
     -2921.384       -2276.400          42.600          44.000



 121730613.644 7  94855118.09444  23164592.289                    23164596.820
     -3114.476       -2426.863          42.100          28.600



 121130532.956 7  94387467.469 7  23050384.242                    23050389.426
      2985.878        2326.660          43.600          44.400



 108962966.977 7  84906266.583 8  20734972.102                    20734978.055
     -1538.137       -1198.544          47.400          50.000



 108693261.816 8  84696087.202 8  20683646.383                    20683654.070
       939.696         732.230          49.000          50.100



 126879322.487 6  98867091.127 6  24144334.156                    24144343.844
      3305.757        2575.911          41.300          39.400



 129222382.813 6 100692822.830 6  24590218.602                    24590227.141
     -2946.501       -2295.967          38.800          37.200



 23 11  9  8  2  0.0000000  0 10G20G17G09G03G19G11G04G06G07G31
 130689286.690 6 101835843.55243  24869351.859                    24869355.895
      3300.799        2572.062          37.200          19.000



 128512915.103 5 100139978.215 6  24455218.523                    24455227.117
     -3211.987       -2502.833          35.600          36.600



 106323042.831 8  82849191.529 8  20232609.617                    20232615.883
       700.054         545.496          51.300          51.600



 120462355.862 6  93866858.694 7  22923242.781                    22923252.703
     -2927.068       -2280.829          41.900          44.100



 121824196.314 7  94928039.52744  23182400.328                    23182405.035
     -3124.052       -2434.325          43.200          28.700



 121041109.045 7  94317786.462 7  23033366.234                    23033372.688
      2976.025        2318.976          42.100          44.500



 109009326.142 7  84942390.579 8  20743793.609                    20743800.012
     -1552.011       -1209.354          47.200          49.200



 108665354.298 8  84674341.057 8  20678335.555                    20678343.340
       921.389         717.963          48.800          50.300



 126780193.752 7  98789848.006 6  24125471.219                    24125480.066
      3302.861        2573.661          43.600          38.500



 129310973.536 6 100761854.421 6  24607076.961                    24607085.539
     -2959.139       -2305.818          38.600          37.000



 23 11  9  8  2 30.0000000  0 10G20G17G09G03G19G11G04G06G07G31
 130590262.819 6 101758682.01043  24850508.422                    24850512.867
      3300.791        2571.989          37.700          19.300



 128609293.085 5 100215077.691 6  24473560.063                    24473568.504
     -3213.180       -2503.768          35.900          38.600



 106302293.345 8  82833023.095 8  20228661.016                    20228667.406
       683.766         532.810          50.700          51.300



 120550255.869 7  93935352.084 7  22939969.969                    22939979.340
     -2932.750       -2285.252          42.000          43.900



 121918064.415 7  95001183.36044  23200263.344                    23200267.809
     -3133.507       -2441.685          42.700          29.700



 120951982.125 7  94248336.885 7  23016405.977                    23016411.988
      2966.087        2311.234          42.400          44.000



 109056100.633 7  84978838.210 8  20752694.508                    20752701.082
     -1565.826       -1220.124          46.900          48.900



 108637995.971 8  84653022.865 8  20673129.805                    20673137.496
       903.067         703.683          49.000          49.800



 126681153.459 7  98712673.743 6  24106624.188                    24106633.512
      3299.882        2571.336          43.900          37.300



 129399941.077 6 100831179.619 6  24624007.727                    24624015.055
     -2971.656       -2315.572          38.300          36.400



 23 11  9  8  3  0.0000000  0 10G20G17G09G03G19G11G04G06G07G31
 130491239.660 5 101681520.99842  24831663.117                    24831669.383
      3300.715        2571.994          35.800          17.800



 128705705.609 5 100290204.061 6  24491906.742                    24491916.195
     -3214.327       -2504.658          35.900          39.800



 106282032.503 8  82817235.420 8  20224805.211                    20224812.016
       667.460         520.100          50.700          51.100



 120638325.210 7  94003977.433 7  22956729.148                    22956738.344
     -2938.372       -2289.638          42.900          43.400



 122012214.707 7  95074547.11344  23218179.055                    23218184.145
     -3142.871       -2448.986          42.700          29.300



 120863154.481 7  94179120.497 7  22999503.539                    22999509.148
      2956.060        2303.423          43.300          44.600



 109103288.487 7  85015607.928 8  20761673.688                    20761680.688
     -1579.569       -1230.831          47.200          49.700



 108611188.046 8  84632133.549 8  20668028.367                    20668036.172
       884.698         689.371          48.800          50.300



 126582203.894 7  98635570.169 6  24087794.578                    24087803.906
      3296.817        2568.952          44.300          36.300



 129489282.684 6 100900796.338 6  24641009.594                    24641015.891
     -2984.061       -2325.240          40.200          36.100



 23 11  9  8  3 30.0000000  0 10G20G17G09G03G19G11G04G06G07G31
 130392218.183 6 101604361.40243  24812821.023                    24812825.691
      3300.674        2571.941          36.900          18.300



 128802149.668 5 100365354.988 6  24510258.133                    24510268.188
     -3215.320       -2505.434          34.300          39.300



 106262260.088 8  82801828.337 8  20221043.000                    20221049.539
       651.187         507.423          51.500          51.000



 120726562.970 7  94072734.003 7  22973520.516                    22973529.449
     -2943.971       -2293.998          43.800          43.000



 122106643.964 7  95148128.21144  23236148.180                    23236154.395
     -3152.141       -2456.210          42.100          28.900



 120774628.567 7  94110139.242 7  22982657.859                    22982663.246
      2945.960        2295.553          42.900          43.800



 109150887.840 7  85052698.298 8  20770732.180                    20770738.305
     -1593.277       -1241.511          47.900          49.200



 108584931.833 8  84611674.133 8  20663032.258                    20663039.898
       866.272         675.017          49.100          49.900



 126483347.728 7  98558539.370 5  24068982.961                    24068992.051
      3293.642        2566.479          44.000          35.700



 129578995.499 6 100970702.320 6  24658082.313                    24658088.109
     -2996.405       -2334.855          39.500          36.500



 23 11  9  8  4  0.0000000  0 10G20G17G09G03G19G11G04G06G07G31
 130293199.682 6 101527204.10243  24793978.438                    24793983.734
      3300.584        2571.873          38.200          19.000



 128898622.516 5 100440528.294 6  24528616.070                    24528627.617
     -3216.136       -2506.068          31.500          38.600



 106242976.382 8  82786802.066 8  20217373.094                    20217379.852
       634.935         494.759          50.900          51.000



 120814968.806 7  94141621.568 7  22990343.852                    22990353.000
     -2949.525       -2298.326          43.100          43.000



 122201348.992 6  95221924.18144  23254170.070                    23254176.191
     -3161.212       -2463.275          41.900          28.900



 120686407.408 7  94041395.429 7  22965869.445                    22965875.457
      2935.780        2287.623          42.500          43.900



 109198897.364 7  85090108.286 8  20779867.758                    20779874.656
     -1606.892       -1252.127          47.300          49.000



 108559229.121 8  84591646.021 8  20658140.992                    20658149.008
       847.829         660.645          48.400          48.700



 126384587.501 7  98481583.316 5  24050189.438                    24050198.250
      3290.465        2563.987          42.200          35.200



 129669077.256 6 101040895.798 6  24675222.359                    24675230.223
     -3008.583       -2344.350          38.300          36.900



 23 11  9  8  4 30.0000000  0 10G20G17G09G03G19G11G04G06G07G31
 130194185.190 6 101450049.87943  24775136.609                    24775141.176
      3300.403        2571.745          38.400          19.000



 128995121.593 5 100515722.056 6  24546980.984                    24546990.750
     -3216.995       -2506.730          34.800          38.800



 106224181.403 8  82772156.623 8  20213796.938                    20213803.539
       618.655         482.064          51.500          51.400



 120903542.127 7  94210639.640 7  23007198.594                    23007207.691
     -2955.121       -2302.688          43.900          42.700



 122296325.597 7  95295931.76644  23272243.672                    23272250.184
     -3170.208       -2470.291          43.300          28.700



 120598493.604 7  93972891.126 7  22949139.281                    22949146.332
      2925.512        2279.615          42.100          45.400



 109247315.477 7  85127836.643 8  20789081.461                    20789088.051
     -1620.484       -1262.720          46.600          49.500



 108534081.422 8  84572050.398 8  20653355.875                    20653363.266
       829.321         646.224          49.700          49.500



 126285925.692 6  98404704.042 5  24031414.438                    24031423.770
      3287.110        2561.385          41.400          35.500



 129759525.331 6 101111374.696 6  24692434.563                    24692442.371
     -3020.773       -2353.846          39.500          36.800



 23 11  9  8  5  0.0000000  0 10G20G17G09G03G19G11G04G06G07G31
 130095175.173 6 101372899.12743  24756296.508                    24756302.039
      3300.313        2571.700          39.000          19.300



 129091643.890 6 100590933.949 6  24565349.258                    24565357.996
     -3217.706       -2507.290          37.600          38.700



 106205874.450 8  82757891.454 8  20210312.891                    20210319.598
       602.410         469.412          51.200          51.400



 120992281.565 7  94279787.135 7  23024085.094                    23024094.191
     -2960.611       -2306.964          44.000          42.800



 122391570.995 7  95370148.78444  23290368.367                    23290374.316
     -3179.118       -2477.226          43.300          29.800



 120510889.225 7  93904627.931 7  22932469.977                    22932475.906
      2915.177        2271.568          43.000          45.000



 109296139.874 7  85165881.585 8  20798372.695                    20798378.816
     -1633.978       -1273.225          47.200          49.500



 108509489.610 8  84552887.918 8  20648675.984                    20648684.082
       810.790         631.784          49.500          50.100



 126187364.672 6  98327903.362 6  24012659.141                    24012668.125
      3283.736        2558.752          40.800          37.200



 129850336.176 6 101182136.268 6  24709714.938                    24709723.703
     -3032.787       -2363.209          38.900          37.100



 23 11  9  8  5 30.0000000  0 10G20G17G09G03G19G11G04G06G07G31
 129996170.731 6 101295752.74543  24737456.641                    24737461.922
      3300.080        2571.512          38.300          18.600



 129188186.643 6 100666161.760 6  24583720.070                    24583729.199
     -3218.392       -2507.826          37.800          38.400



 106188055.389 8  82744006.461 8  20206922.031                    20206928.680
       586.106         456.705          50.900          51.200



 121081186.357 7  94349063.481 7  23041003.367                    23041012.891
     -2966.168       -2311.294          43.700          42.600



 122487081.847 7  95444572.67544  23308545.070                    23308549.434
     -3187.942       -2484.111          44.600          29.700



 120423596.880 7  93836607.889 7  22915858.461                    22915864.305
      2904.701        2263.405          43.400          44.200



 109345368.821 7  85204241.766 8  20807740.602                    20807747.031
     -1647.452       -1283.727          47.800          49.500



 108485454.966 8  84534159.597 8  20644102.383                    20644110.230
       792.160         617.266          49.900          50.000



 126088906.767 6  98251183.066 6  23993922.711                    23993933.000
      3280.208        2555.997          39.700          39.200



 129941507.142 6 101253178.447 6  24727064.172                    24727073.207
     -3044.829       -2372.591          39.400          37.600



 23 11  9  8  6  0.0000000  0 10G20G17G09G03G19G11G04G06G07G31
 129897172.821 6 101218611.49943  24718617.500                    24718623.063
      3299.821        2571.276          37.700          18.600



 129284747.264 6 100741403.486 6  24602095.023                    24602104.680
     -3218.895       -2508.224          38.300          37.600



 106170724.105 8  82730501.548 8  20203624.133                    20203630.570
       569.844         444.039          51.400          51.100



 121170255.819 7  94418468.137 7  23057952.695                    23057961.824
     -2971.634       -2315.553          43.100          42.200



 122582854.424 7  95519200.52645  23326769.078                    23326774.465
     -3196.608       -2490.869          42.900          30.200



 120336619.152 7  93768833.009 7  22899307.461                    22899313.527
      2894.146        2255.180          44.100          45.300



 109395000.667 7  85242915.887 8  20817185.414                    20817191.684
     -1660.881       -1294.197          47.300          49.200



 108461978.977 8  84515866.601 8  20639635.125                    20639642.594
       773.514         602.737          50.100          49.800



 125990554.412 6  98174545.038 6  23975206.781                    23975216.285
      3276.689        2553.258          40.900          39.900



 130033035.714 6 101324499.299 6  24744482.453                    24744490.613
     -3056.657       -2381.808          39.400          37.900



 23 11  9  8  6 30.0000000  0 10G20G17G09G03G19G11G04G06G07G31
 129798182.633 6 101141476.20543  24699780.547                    24699786.469
      3299.496        2571.064          38.600          19.000



 129381322.827 6 100816656.878 6  24620473.094                    24620482.836
     -3219.448       -2508.660          39.000          37.000



 106153880.505 8  82717376.651 8  20200418.836                    20200425.734
       553.570         431.355          50.000          51.600



 121259489.326 7  94488000.622 7  23074933.125                    23074942.328
     -2977.123       -2319.837          42.700          42.200



 122678885.523 7  95594029.80344  23345043.539                    23345049.316
     -3205.198       -2497.555          43.100          28.600



 120249958.755 7  93701305.398 7  22882816.391                    22882822.340
      2883.514        2246.898          43.800          45.000



 109445033.718 7  85281902.648 8  20826706.609                    20826712.797
     -1674.257       -1304.615          47.000          49.000



 108439063.038 8  84498009.998 8  20635274.086                    20635282.344
       754.798         588.153          49.500          49.500



 125892310.210 6  98097991.307 6  23956511.578                    23956520.781
      3273.024        2550.403          41.900          40.800



 130124918.765 6 101396096.372 6  24761967.070                    24761975.223
     -3068.454       -2391.001          38.700          37.000



 23 11  9  8  7  0.0000000  0 10G20G17G09G03G19G11G04G06G07G31
 129699201.011 6 101064347.61143  24680945.039                    24680950.785
      3299.227        2570.850          38.900          20.400



 129477910.304 6 100891919.587 6  24638853.852                    24638862.672
     -3219.754       -2508.895          39.400          36.200



 106137524.461 8  82704631.672 8  20197306.086                    20197312.980
       537.362         418.724          50.800          50.900



 121348886.099 7  94557660.307 7  23091944.844                    23091954.313
     -2982.506       -2324.026          42.500          42.200



 122775171.477 6  95669057.63944  23363365.492                    23363371.883
     -3213.616       -2504.106          41.600          28.900



 120163618.250 7  93634027.061 7  22866385.750                    22866391.547
      2872.833        2238.573          43.700          45.100



 109495466.244 7  85321200.686 8  20836303.344                    20836310.262
     -1687.493       -1314.937          47.400          49.500



 108416708.418 8  84480590.789 8  20631020.141                    20631028.289
       736.106         573.592          49.000          50.500



 125794176.872 6  98021523.980 6  23937836.477                    23937846.566
      3269.302        2547.502          41.400          40.900



 130217153.890 6 101467967.799 6  24779518.859                    24779527.523
     -3080.139       -2400.099          38.600          37.600



 23 11  9  8  7 30.0000000  0 10G20G17G09G03G19G11G04G06G07G31
 129600228.836 6 100987226.31043  24662110.891                    24662116.840
      3298.887        2570.560          38.400          19.600



 129574507.215 6 100967189.644 6  24657236.016                    24657245.977
     -3220.058       -2509.124          40.000          36.200



 106121655.547 8  82692266.259 8  20194286.852                    20194293.277
       521.088         406.041          51.500          50.900



 121438445.212 6  94627446.493 7  23108987.398                    23108996.879
     -2987.945       -2328.263          41.800          42.600



 122871709.275 7  95744281.73344  23381736.398                    23381741.969
     -3221.936       -2510.597          42.700          28.500



 120077600.063 7  93566999.880 7  22850017.758                    22850023.609
      2862.035        2230.155          44.600          45.400



 109546296.380 7  85360808.534 8  20845976.039                    20845982.805
     -1700.756       -1325.265          47.500          49.300



 108394916.267 8  84463609.871 8  20626873.008                    20626881.355
       717.307         558.942          48.200          50.400



 125696156.453 6  97945144.646 6  23919184.203                    23919193.852
      3265.493        2544.527          41.800          40.500



 130309738.068 6 101540111.190 6  24797137.500                    24797145.566
     -3091.768       -2409.166          38.100          37.400



 23 11  9  8  8  0.0000000  0 10G20G17G09G03G19G11G04G06G07G31
 129501267.091 6 100910113.13043  24643280.438                    24643285.855
      3298.553        2570.296          39.900          20.400



 129671110.974 6 101042465.065 5  24675619.359                    24675629.063
     -3220.161       -2509.208          40.000          35.700



 106106273.412 8  82680280.165 8  20191359.656                    20191366.477
       504.950         393.466          51.200          51.000



 121528165.756 6  94697358.471 7  23126060.977                    23126070.359
     -2993.244       -2332.393          41.800          42.800



 122968495.285 7  95819699.25844  23400154.289                    23400160.125
     -3230.122       -2516.973          42.600          29.400



 119991906.596 7  93500225.736 7  22833710.414                    22833716.457
      2851.219        2221.733          44.200          45.100



 109597522.129 7  85400724.655 8  20855723.898                    20855730.949
     -1713.854       -1335.471          47.600          49.600



 108373687.703 8  84447068.100 8  20622833.914                    20622841.895
       698.554         544.333          48.800          49.900



 125598251.622 7  97868855.357 6  23900553.453                    23900562.527
      3261.635        2541.530          42.600          39.700



 130402668.197 6 101612524.168 6  24814820.898                    24814829.531
     -3103.183       -2418.067          39.300          36.800



 23 11  9  8  8 30.0000000  0 10G20G17G09G03G19G11G04G06G07G31
 129402316.907 6 100833008.98643  24624451.328                    24624456.230
      3298.166        2570.006          40.700          21.800



 129767718.410 6 101117743.345 5  24694002.102                    24694012.746
     -3220.286       -2509.309          38.800          35.100



 106091377.936 8  82668673.287 8  20188525.258                    20188531.738
       488.664         380.781          50.400          51.300



 121618047.115 7  94767395.747 7  23143165.648                    23143174.770
     -2998.612       -2336.577          42.100          43.200



 123065526.010 7  95895307.46444  23418619.602                    23418625.102
     -3238.267       -2523.318          43.500          29.700



 119906540.563 7  93433706.739 7  22817466.047                    22817471.418
      2840.225        2213.161          44.500          44.500



 109649141.881 7  85440947.799 8  20865546.836                    20865553.902
     -1726.997       -1345.711          47.800          49.500



 108353024.066 8  84430966.558 8  20618901.727                    20618909.637
       679.676         529.615          49.100          49.900



 125500464.945 7  97792658.129 6  23881944.797                    23881954.371
      3257.637        2538.411          42.500          38.900



 130495941.625 6 101685204.659 6  24832571.047                    24832579.227
     -3114.626       -2426.980          40.100          36.100



 23 11  9  8  9  0.0000000  0 10G20G17G09G03G19G11G04G06G07G31
 129303379.393 6 100755914.71443  24605623.375                    24605628.789
      3297.727        2569.637          39.400          21.500



 129864327.083 6 101193022.624 5  24712386.344                    24712396.559
     -3220.299       -2509.313          38.400          33.700



 106076968.916 8  82657445.462 8  20185783.102                    20185790.160
       472.447         368.141          50.200          51.900



 121708088.481 6  94837557.706 7  23160298.914                    23160309.125
     -3003.963       -2340.746          41.700          42.900



 123162798.146 7  95971103.76544  23437129.734                    23437134.957
     -3246.252       -2529.539          43.600          28.800



 119821504.536 7  93367444.881 7  22801284.125                    22801289.820
      2829.166        2204.542          45.200          44.600



 109701153.893 7  85481476.596 8  20875444.063                    20875451.430
     -1740.078       -1355.908          46.700          49.900



 108332926.638 8  84415306.199 8  20615077.461                    20615085.188
       660.760         514.881          49.600          50.300



 125402798.339 7  97716554.438 6  23863359.992                    23863368.117
      3253.593        2535.260          42.800          38.400



 130589555.707 6 101758150.597 6  24850384.703                    24850393.809
     -3125.947       -2435.803          40.000          37.000



 23 11  9  8  9 30.0000000  0 10G20G17G09G03G19G11G04G06G07G31
 129204455.498 6 100678831.01143  24586799.125                    24586803.441
      3297.241        2569.292          39.200          20.400



 129960934.279 6 101268300.748 5  24730770.258                    24730780.234
     -3220.165       -2509.215          39.100          32.900



 106063045.897 8  82646596.348 8  20183133.789                    20183140.688
       456.288         355.551          51.300          51.800



 121798288.982 7  94907843.636 7  23177463.883                    23177473.832
     -3009.219       -2344.842          42.700          43.500



 123260308.409 7  96047085.64844  23455685.141                    23455690.457
     -3254.121       -2535.680          42.300          28.400



 119736800.912 7  93301442.033 7  22785165.242                    22785171.363
      2818.104        2195.927          45.000          44.900



 109753556.206 7  85522309.520 8  20885416.484                    20885423.055
     -1753.002       -1365.972          47.800          49.600



 108313396.413 8  84400087.828 8  20611360.875                    20611368.684
       641.898         500.182          49.600          50.200



 125305254.664 7  97640546.546 6  23844797.742                    23844806.594
      3249.468        2532.046          42.800          38.800



 130683507.386 6 101831359.579 6  24868263.023                    24868271.457
     -3137.087       -2444.476          39.200          36.500



 23 11  9  8 10  0.0000000  0 10G20G17G09G03G19G11G04G06G07G31
 129105546.017 6 100601758.59943  24567976.844                    24567981.891
      3296.724        2568.868          37.900          20.400



 130057536.719 6 101343575.234 5  24749153.883                    24749163.992
     -3220.013       -2509.094          41.200          34.000



 106049608.533 8  82636125.663 8  20180576.406                    20180582.984
       440.075         342.912          51.300          51.500



 121888647.751 7  94978252.917 7  23194659.055                    23194668.852
     -3014.511       -2348.962          43.000          43.300



 123358053.563 7  96123250.53644  23474285.109                    23474290.570
     -3261.936       -2541.774          42.300          27.500



 119652432.198 7  93235700.169 7  22769109.938                    22769116.059
      2806.868        2187.169          45.200          45.300



 109806346.984 7  85563445.148 8  20895462.039                    20895468.754
     -1765.945       -1376.056          46.700          49.000



 108294434.554 8  84385312.343 8  20607752.484                    20607760.297
       622.891         485.367          50.200          50.100



 125207836.362 7  97564636.317 6  23826259.844                    23826268.949
      3245.221        2528.742          43.500          39.700



 130777794.222 6 101904829.734 5  24886206.141                    24886213.367
     -3148.277       -2453.202          39.600          35.700



 23 11  9  8 10 30.0000000  0 10G20G17G09G03G19G11G04G06G07G31
 129006652.334 6 100524698.45743  24549157.828                    24549162.836
      3296.164        2568.442          38.600          18.600



 130154132.304 6 101418844.341 5  24767535.805                    24767546.332
     -3219.687       -2508.836          40.900          34.000



 106036656.707 8  82626033.321 8  20178112.102                    20178118.789
       423.913         330.321          50.800          51.300



 121979164.199 7  95048785.071 7  23211883.523                    23211894.141
     -3019.749       -2353.047          43.000          43.300



 123456029.790 7  96199595.48544  23492929.773                    23492935.594
     -3269.561       -2547.705          42.900          27.700



 119568401.102 7  93170221.374 7  22753119.555                    22753125.586
      2795.572        2178.367          44.500          44.300



 109859524.556 7  85604882.183 8  20905581.625                    20905588.516
     -1778.798       -1386.077          47.300          49.600



 108276042.364 8  84370980.759 8  20604252.492                    20604260.125
       603.898         470.571          50.100          50.200



 125110545.741 7  97488825.601 6  23807745.148                    23807754.715
      3240.954        2525.417          42.800          39.800



 130872412.671 6 101978558.286 5  24904211.023                    24904218.836
     -3159.309       -2461.789          40.600          34.300



 23 11  9  8 11  0.0000000  0 10G20G17G09G03G19G11G04G06G07G31
 128907775.444 6 100447651.38243  24530342.898                    24530347.070
      3295.620        2568.027          39.300          20.400



 130250718.327 6 101494105.997 5  24785916.406                    24785926.359
     -3219.349       -2508.583          41.600          33.800



 106024190.193 8  82616319.140 8  20175739.664                    20175746.305
       407.756         317.732          51.000          51.500



 122069837.620 7  95119439.532 7  23229138.484                    23229148.496
     -3024.962       -2357.113          42.700          43.400



 123554233.907 7  96276118.01544  23511617.305                    23511622.918
     -3277.086       -2553.570          42.500          28.200



 119484710.301 7  93105007.736 7  22737194.148                    22737199.945
      2784.178        2169.490          45.800          45.200



 109913087.274 7  85646619.325 8  20915774.695                    20915780.617
     -1791.604       -1396.052          47.300          48.900



 108258221.056 8  84357094.017 8  20600861.414                    20600868.750
       584.842         455.717          50.700          49.900



 125013385.644 7  97413116.564 6  23789256.555                    23789265.160
      3236.547        2521.979          42.500          38.600



 130967360.250 6 102052543.309 5  24922278.859                    24922286.789
     -3170.159       -2470.244          39.200          35.000



 23 11  9  8 11 30.0000000  0 10G20G17G09G03G19G11G04G06G07G31
 128808916.367 6 100370618.27543  24511530.195                    24511534.324
      3294.984        2567.528          39.600          20.600



 130347291.522 6 101569357.642 5  24804292.227                    24804303.520
     -3218.886       -2508.222          39.200          33.500



 106012208.209 8  82606982.517 8  20173459.711                    20173466.199
       391.605         305.143          51.000          51.900



 122160666.794 7  95190215.371 7  23246422.453                    23246432.922
     -3030.164       -2361.164          42.600          44.100



 123652662.207 7  96352815.21344  23530348.344                    23530353.660
     -3284.521       -2559.360          42.400          28.200



 119401361.859 7  93040060.876 7  22721333.617                    22721339.715
      2772.712        2160.560          45.600          45.100



 109967032.842 7  85688654.796 8  20926039.805                    20926045.867
     -1804.336       -1405.973          47.000          49.100



 108240971.315 8  84343652.642 8  20597578.875                    20597586.445
       565.771         440.863          50.100          50.200



 124916358.032 7  97337510.761 6  23770793.563                    23770801.305
      3232.085        2518.506          43.600          38.600



 131062634.021 6 102126782.505 5  24940409.281                    24940417.078
     -3181.006       -2478.703          39.200          35.000



 23 11  9  8 12  0.0000000  0 10G20G17G09G03G19G11G04G06G07G31
 128710076.071 6 100293599.70843  24492721.227                    24492724.965
      3294.326        2567.010          39.900          19.900



 130443849.223 6 101644597.233 5  24822666.875                    24822677.395
     -3218.347       -2507.799          38.300          31.800



 106000710.704 8  82598023.404 8  20171271.836                    20171278.355
       375.414         292.533          51.200          51.800



 122251651.218 7  95261112.152 7  23263736.648                    23263746.590
     -3035.299       -2365.162          42.800          42.900



 123751311.456 7  96429684.60544  23549120.594                    23549126.613
     -3291.864       -2565.083          42.800          28.400



 119318358.623 7  92975383.030 7  22705538.578                    22705544.707
      2761.146        2151.542          45.600          45.400



 110021359.766 7  85730987.415 8  20936377.656                    20936384.477
     -1817.062       -1415.887          46.800          48.400



 108224294.509 8  84330657.718 8  20594405.000                    20594413.047
       546.628         425.942          50.200          49.900



 124819465.529 6  97262010.192 6  23752354.625                    23752362.813
      3227.512        2514.945          41.600          38.400



 131158231.405 6 102201273.870 5  24958600.773                    24958608.605
     -3191.784       -2487.102          39.700          35.600



 23 11  9  8 12 30.0000000  0 10G20G17G09G03G19G11G04G06G07G31
 128611255.617 6 100216596.61843  24473916.203                    24473920.613
      3293.688        2566.531          38.200          18.600



 130540388.916 6 101719822.774 5  24841037.461                    24841049.047
     -3217.662       -2507.263          38.400          31.900



 105989697.301 8  82589441.518 8  20169175.969                    20169182.652
       359.324         279.991          50.400          51.800



 122342790.166 7  95332129.359 7  23281079.875                    23281090.234
     -3040.480       -2369.201          42.300          43.000



 123850178.174 7  96506723.44144  23567934.109                    23567940.484
     -3299.035       -2570.665          43.500          28.600



 119235703.117 7  92910976.124 7  22689809.328                    22689816.215
      2749.559        2142.514          45.900          45.900



 110076066.154 7  85773615.735 8  20946787.828                    20946794.613
     -1829.642       -1425.692          46.800          48.800



 108208191.671 8  84318110.055 8  20591341.039                    20591348.855
       527.514         411.047          50.100          49.800



 124722710.671 6  97186616.864 6  23733942.188                    23733950.797
      3222.937        2511.386          41.600          37.200



 131254149.402 6 102276015.054 5  24976852.664                    24976861.461
     -3202.396       -2495.372          40.000          34.000



 23 11  9  8 13  0.0000000  0 11G20G17G09G03G19G11G04G06G07G31G26
 128512456.313 6 100139610.01243  24455115.633                    24455120.117
      3292.958        2565.959          39.400          20.900



 130636908.114 6 101795032.346 5  24859404.656                    24859415.609
     -3216.953       -2506.714          37.600          31.900



 105979167.648 8  82581236.586 8  20167172.281                    20167179.145
       343.184         267.419          50.800          51.900



 122434082.762 7  95403266.292 7  23298452.320                    23298462.527
     -3045.579       -2373.176          42.600          42.900



 123949259.145 7  96583929.21544  23586789.219                    23586795.156
     -3306.115       -2576.181          42.800          29.600



 119153397.938 7  92846842.192 7  22674147.727                    22674153.750
      2737.820        2133.368          45.400          45.900



 110131150.279 7  85816538.376 8  20957270.516                    20957277.211
     -1842.212       -1435.486          47.200          48.800



 108192663.922 8  84306010.486 8  20588386.453                    20588393.867
       508.297         396.075          50.600          50.000



 124626095.904 6  97111332.698 6  23715557.289                    23715565.852
      3218.183        2507.668          41.300          37.500



 131350385.286 6 102351003.959 5  24995167.055                    24995175.008
     -3212.961       -2503.606          39.200          33.600



 131182685.230 5 102220366.362 6  24963244.391                    24963257.285
      1087.408         847.338          33.100          37.500



 23 11  9  8 13 30.0000000  0 11G20G17G09G03G19G11G04G06G07G31G26
 128413678.738 6 100062640.34343  24436318.625                    24436322.195
      3292.232        2565.379          39.700          19.300



 130733403.719 5 101870223.465 5  24877767.453                    24877779.133
     -3216.115       -2506.063          34.300          32.800



 105969121.159 8  82573408.140 8  20165260.469                    20165267.141
       327.134         254.912          50.100          51.400



 122525528.141 6  95474522.266 7  23315854.141                    23315864.297
     -3050.606       -2377.087          41.700          42.900



 124048550.735 7  96661299.13844  23605682.992                    23605689.969
     -3313.065       -2581.602          42.100          29.200



 119071445.406 7  92782983.048 7  22658553.023                    22658558.477
      2726.059        2124.201          46.100          46.300



 110186610.108 7  85859753.793 8  20967824.258                    20967831.094
     -1854.672       -1445.197          46.700          48.800



 108177712.052 8  84294359.663 8  20585541.063                    20585548.492
       489.133         381.142          50.100          50.200



 124529623.502 7  97036159.414 6  23697199.125                    23697207.516
      3213.432        2503.973          42.800          37.400



 131446935.751 6 102426238.009 5  25013539.445                    25013548.680
     -3223.352       -2511.702          40.200          35.100



 131150311.285 5 102195139.851 6  24957082.234                    24957097.430
      1071.420         834.877          33.900          37.800



 23 11  9  8 14  0.0000000  0 11G20G17G09G03G19G11G04G06G07G31G26
 128314924.253 6  99985688.64743  24417526.563                    24417529.754
      3291.437        2564.747          40.000          18.300



 130829873.077 6 101945394.180 5  24896125.664                    24896136.762
     -3215.236       -2505.377          36.400          33.800



 105959557.373 8  82565955.830 8  20163440.430                    20163447.434
       310.996         242.337          50.400          51.700



 122617125.360 7  95545896.580 7  23333285.086                    23333294.816
     -3055.668       -2381.035          43.000          42.500



 124148049.539 7  96738830.49244  23624617.391                    23624624.305
     -3319.955       -2586.970          42.600          29.300



 118989847.996 7  92719400.613 7  22643025.070                    22643031.191
      2714.176        2114.942          45.900          46.300



 110242443.703 7  85903260.449 8  20978449.250                    20978455.535
     -1867.129       -1454.905          46.300          49.100



 108163337.022 8  84283158.330 8  20582805.898                    20582812.961
       469.851         366.115          50.300          49.900



 124433295.937 7  96961098.988 6  23678868.992                    23678877.516
      3208.536        2500.158          42.600          38.800



 131543798.003 6 102501714.977 5  25031972.133                    25031980.922
     -3233.726       -2519.784          40.200          34.900



 131118420.322 5 102170289.680 6  24951014.320                    24951028.836
      1055.181         822.217          35.200          37.300



 23 11  9  8 14 30.0000000  0 11G20G17G09G03G19G11G04G06G07G31G26
 128216193.998 6  99908755.84643  24398738.469                    24398742.359
      3290.609        2564.123          39.400          18.300



 130926313.534 6 102020542.359 5  24914477.922                    24914489.301
     -3214.248       -2504.596          36.900          34.200



 105950475.990 8  82558879.415 8  20161712.359                    20161719.137
       294.960         229.834          50.100          51.800



 122708873.882 6  95617388.779 7  23350743.734                    23350754.855
     -3060.720       -2384.970          41.800          43.000



 124247752.285 7  96816520.76044  23643590.789                    23643596.738
     -3326.670       -2592.194          42.600          29.200



 118908608.387 7  92656097.002 7  22627565.836                    22627571.410
      2702.216        2105.622          46.000          46.500



 110298649.427 7  85947057.086 8  20989145.031                    20989150.855
     -1879.499       -1464.547          46.800          48.000



 108149539.921 8  84272407.324 8  20580179.922                    20580187.777
       450.590         351.115          50.200          50.100



 124337115.541 7  96886153.227 6  23660565.789                    23660574.922
      3203.603        2496.306          42.400          39.200



 131640969.424 6 102577432.886 5  25050462.422                    25050471.734
     -3244.013       -2527.805          38.300          34.700



 131087014.191 6 102145817.316 6  24945038.656                    24945051.512
      1039.012         809.629          36.700          36.300



 23 11  9  8 15  0.0000000  0 11G20G17G09G03G19G11G04G06G07G31G26
 128117488.979 6  99831842.77543  24379955.984                    24379959.070
      3289.754        2563.455          39.900          18.600



 131022721.751 6 102095665.436 5  24932823.867                    24932836.426
     -3213.075       -2503.687          37.700          34.200



 105941876.568 8  82552178.557 8  20160075.930                    20160082.805
       278.871         217.302          50.000          51.100



 122800772.754 7  95688998.131 7  23368232.117                    23368242.730
     -3065.743       -2388.888          42.200          43.100



 124347655.400 6  96894367.17544  23662601.023                    23662607.887
     -3333.330       -2597.397          40.800          27.500



 118827729.064 7  92593074.120 7  22612175.000                    22612180.879
      2690.122        2096.202          46.300          46.600



 110355225.351 7  85991142.188 7  20999910.516                    20999917.426
     -1891.824       -1474.149          46.300          47.900



 108136321.712 8  84262107.407 8  20577665.000                    20577672.688
       431.244         336.036          49.700          49.800



 124241085.134 7  96811324.338 6  23642292.063                    23642300.742
      3198.559        2492.385          42.200          40.200



 131738447.010 6 102653389.347 5  25069012.336                    25069021.434
     -3254.196       -2535.732          37.500          35.700



 131056094.687 5 102121724.099 6  24939155.414                    24939168.531
      1022.760         796.968          35.700          37.000



 23 11  9  8 15 30.0000000  0 10G20G09G03G19G11G04G06G07G31G26
 128018810.541 6  99754950.42443  24361177.859                    24361181.313
      3288.830        2562.725          39.400          19.300



 105933758.884 8  82545853.081 8  20158531.047                    20158537.688
       262.837         204.805          49.000          51.400



 122892821.466 6  95760724.251 7  23385747.086                    23385758.887
     -3070.679       -2392.732          40.600          42.400



 124447755.830 6  96972367.33844  23681650.953                    23681656.461
     -3339.828       -2602.460          41.700          28.100



 118747212.771 7  92530334.116 7  22596853.242                    22596859.559
      2677.994        2086.750          45.600          46.400



 110412169.898 7  86035514.520 7  21010747.000                    21010753.078
     -1904.074       -1483.690          46.400          47.800



 108123683.551 8  84252259.466 8  20575260.188                    20575267.781
       411.910         320.974          48.800          50.200



 124145207.327 7  96736614.388 6  23624047.586                    23624055.883
      3193.454        2488.405          42.500          39.900



 131836228.363 5 102729582.503 5  25087620.070                    25087628.355
     -3264.240       -2543.553          35.900          34.800



 131025663.812 5 102098011.643 6  24933362.820                    24933377.863
      1006.449         784.257          35.500          38.300



 23 11  9  8 16  0.0000000  0 10G20G09G03G19G11G04G06G07G31G26
 127920159.415 6  99678079.35043  24342405.070                    24342409.422
      3287.912        2562.039          39.800          18.300



 105926122.365 8  82539902.536 8  20157077.711                    20157084.324
       246.788         192.304          49.500          51.100



 122985019.092 6  95832566.408 7  23403292.234                    23403303.930
     -3075.648       -2396.604          41.800          42.500



 124548050.099 6  97050518.52044  23700736.305                    23700741.680
     -3346.222       -2607.436          41.300          25.600



 118667061.867 7  92467878.837 7  22581601.172                    22581607.195
      2665.769        2077.219          46.000          46.700



 110469481.080 7  86080172.567 7  21021652.805                    21021659.207
     -1916.272       -1493.204          46.100          47.600



 108111626.223 8  84242864.128 8  20572965.047                    20572972.820
       392.536         305.871          49.300          50.300



 124049484.392 6  96662025.158 6  23605831.031                    23605840.242
      3188.241        2484.340          41.100          40.000



 131934310.306 6 102806009.897 5  25106284.031                    25106292.203
     -3274.207       -2551.325          36.700          34.000



 130995722.946 5 102074681.020 6  24927664.945                    24927680.969
       990.114         771.517          34.200          37.400



 23 11  9  8 16 30.0000000  0 10G20G09G03G19G11G04G06G07G31G26
 127821536.810 6  99601230.48842  24323638.781                    24323640.676
      3286.961        2561.269          39.600          16.900



 105918966.152 8  82534326.252 8  20155716.258                    20155723.027
       230.817         179.857          50.500          51.500



 123077364.487 6  95904523.710 7  23420866.523                    23420876.602
     -3080.546       -2400.420          41.300          42.700



 124648534.340 6  97128817.73844  23719857.297                    23719863.957
     -3352.503       -2612.333          40.300          26.100



 118587278.601 7  92405710.027 7  22566419.375                    22566425.398
      2653.497        2067.660          46.000          47.100



 110527156.680 7  86125114.558 8  21032628.281                    21032634.406
     -1928.382       -1502.632          45.800          48.100



 108100150.274 8  84233921.802 8  20570781.859                    20570789.355
       373.162         290.775          49.400          50.300



 123953918.384 7  96587558.261 6  23587646.273                    23587655.133
      3182.967        2480.227          42.200          39.500



 132032689.579 6 102882668.990 5  25125005.172                    25125013.629
     -3284.039       -2558.983          37.900          34.800



 130966273.633 6 102051733.461 6  24922062.227                    24922076.699
       973.735         758.752          36.200          36.700



 23 11  9  8 17  0.0000000  0 10G20G09G03G19G11G04G06G07G31G26
 127722943.987 6  99524404.90043  24304876.539                    24304880.438
      3285.954        2560.462          38.400          18.600



 105912290.092 8  82529124.127 8  20154446.023                    20154452.641
       214.828         167.398          49.300          52.100



 123169857.119 6  95976595.728 7  23438466.992                    23438477.645
     -3085.433       -2404.225          41.300          42.400



 124749205.245 6  97207262.40844  23739014.164                    23739020.820
     -3358.679       -2617.148          40.600          25.300



 118507865.764 7  92343829.875 7  22551307.820                    22551313.723
      2641.123        2058.020          46.700          47.400



 110585195.162 7  86170339.312 7  21043672.969                    21043678.750
     -1940.430       -1512.021          46.600          47.900



 108089256.859 8  84225433.410 8  20568708.578                    20568716.434
       353.730         275.634          48.100          49.500



 123858512.158 7  96513215.904 6  23569491.359                    23569499.984
      3177.635        2476.071          43.200          39.900



 132131363.545 6 102959557.735 5  25143782.742                    25143790.535
     -3293.781       -2566.582          38.000          35.100



 130937317.681 5 102029170.346 6  24916552.258                    24916565.648
       957.260         745.910          35.700          36.300



 23 11  9  8 17 30.0000000  0 10G20G09G03G19G11G04G06G07G31G26
 127624381.900 6  99447603.20943  24286121.648                    24286125.586
      3284.897        2559.661          38.400          19.300



 105906093.472 8  82524295.580 8  20153266.852                    20153273.637
       198.858         154.951          49.100          51.400



 123262495.962 6  96048781.684 7  23456095.617                    23456106.297
     -3090.306       -2408.027          41.800          42.700



 124850059.453 6  97285849.91543  23758206.734                    23758213.723
     -3364.737       -2621.855          40.000          23.200



 118428825.667 7  92282240.176 7  22536266.000                    22536273.070
      2628.660        2048.311          45.700          46.900



 110643594.453 7  86215845.221 8  21054785.750                    21054792.105
     -1952.437       -1521.377          46.400          48.100



 108078946.639 7  84217399.442 8  20566746.367                    20566754.660
       334.281         260.474          47.700          50.000



 123763267.869 7  96438999.763 6  23551366.359                    23551374.793
      3172.200        2471.837          42.600          39.600



 132230329.751 6 103036674.184 5  25162615.133                    25162623.207
     -3303.519       -2574.164          37.300          34.500



 130908856.513 5 102006992.840 6  24911136.102                    24911149.730
       940.759         733.058          35.700          36.600



 23 11  9  8 18  0.0000000  0 10G20G09G03G19G11G04G06G07G31G26
 127525851.549 6  99370826.28243  24267371.547                    24267375.887
      3283.870        2558.846          40.100          21.100



 105900376.048 8  82519840.432 8  20152178.945                    20152186.023
       182.890         142.515          49.800          51.600



 123355280.546 7  96121081.185 7  23473751.617                    23473761.945
     -3095.143       -2411.789          42.400          42.000



 124951093.844 6  97364577.84343  23777433.336                    23777439.586
     -3370.654       -2626.482          40.000          22.800



 118350161.039 7  92220943.071 7  22521296.648                    22521303.582
      2616.110        2038.526          46.600          47.500



 110702352.935 7  86261631.013 8  21065967.148                    21065973.672
     -1964.345       -1530.662          46.500          48.700



 108069220.848 8  84209820.872 8  20564895.828                    20564903.676
       314.809         245.312          49.600          49.900



 123668188.244 7  96364911.992 6  23533273.703                    23533281.871
      3166.678        2467.534          43.400          39.400



 132329584.841 6 103114015.719 5  25181502.242                    25181510.121
     -3313.103       -2581.639          37.000          34.400



 130880892.108 5 101985202.412 5  24905813.883                    24905827.934
       924.102         720.075          34.300          35.000



 23 11  9  8 18 30.0000000  0 10G20G09G03G19G11G04G06G07G31G26
 127427354.074 6  99294074.96743  24248628.484                    24248633.086
      3282.732        2557.965          39.800          21.300



 105895136.877 8  82515757.950 8  20151181.813                    20151188.688
       166.934         130.076          50.200          52.200



 123448209.606 6  96193493.285 7  23491435.188                    23491446.184
     -3099.938       -2415.528          41.800          42.400



 125052304.788 6  97443443.31444  23796694.695                    23796699.559
     -3376.481       -2631.017          40.900          24.700



 118271874.024 7  92159940.189 7  22506399.391                    22506405.969
      2603.471        2028.675          46.000          47.500



 110761468.411 7  86307694.978 8  21077216.195                    21077222.465
     -1976.233       -1539.920          46.100          48.500



 108060079.607 8  84202697.792 8  20563156.391                    20563164.406
       295.301         230.107          49.700          50.100



 123573275.328 7  96290954.102 6  23515211.313                    23515219.289
      3161.067        2463.163          43.200          38.500



 132429125.816 6 103191579.981 5  25200444.180                    25200452.957
     -3322.596       -2589.034          37.000          35.500



 130853425.520 6 101963799.916 6  24900587.477                    24900602.000
       907.525         707.166          36.600          36.000



 23 11  9  8 19  0.0000000  0 10G20G09G03G19G11G04G06G07G31G26
 127328890.699 6  99217350.20343  24229892.016                    24229897.109
      3281.542        2557.049          40.000          20.400



 105890375.712 8  82512047.938 8  20150275.789                    20150282.566
       151.007         117.665          50.100          51.900



 123541282.651 7  96266017.570 7  23509146.844                    23509157.574
     -3104.764       -2419.294          42.500          42.500



 125153689.025 6  97522443.85543  23815986.172                    23815991.766
     -3382.246       -2635.511          40.200          22.600



 118193967.368 7  92099233.682 8  22491574.172                    22491581.230
      2590.739        2018.760          46.300          48.100



 110820939.254 7  86354035.842 8  21088533.445                    21088539.930
     -1988.059       -1549.132          46.400          48.000



 108051524.159 8  84196031.180 8  20561528.195                    20561535.930
       275.740         214.867          50.000          50.000



 123478531.803 7  96217128.215 6  23497182.516                    23497190.863
      3155.369        2458.726          43.600          38.700



 132528949.908 6 103269364.887 6  25219441.070                    25219449.820
     -3332.004       -2596.361          37.500          36.500



 130826458.625 6 101942786.855 6  24895456.375                    24895470.691
       890.866         694.178          36.100          36.800



 23 11  9  8 19 30.0000000  0  9G20G09G03G19G11G04G06G07G26
 127230462.741 6  99140653.06943  24211160.602                    24211166.441
      3280.358        2556.117          37.700          19.900



 105886092.349 8  82508710.239 8  20149460.367                    20149467.297
       135.114         105.287          51.200          51.300



 123634499.174 7  96338653.660 7  23526885.602                    23526895.973
     -3109.495       -2422.978          42.800          42.200



 125255243.461 6  97601577.00243  23835310.781                    23835317.094
     -3387.818       -2639.846          40.500          23.000



 118116443.896 7  92038825.776 7  22476821.438                    22476828.336
      2577.950        2008.795          45.700          47.600



 110880763.931 7  86400652.424 8  21099917.172                    21099924.059
     -1999.812       -1558.292          46.700          48.400



 108043555.591 8  84189821.876 8  20560011.727                    20560019.691
       256.180         199.626          49.900          49.900



 123383960.246 7  96143436.366 6  23479185.586                    23479194.027
      3149.625        2454.244          43.100          40.000



 130799993.386 5 101922164.743 6  24890418.719                    24890434.980
       874.122         681.128          34.800          37.800



 23 11  9  8 20  0.0000000  0  9G20G09G03G19G11G04G06G07G26
 127132071.521 6  99063984.52243  24192437.984                    24192444.051
      3279.058        2555.118          38.400          21.500



 105882285.923 8  82505744.182 8  20148736.195                    20148743.410
       119.174          92.865          50.000          51.700



 123727858.139 7  96411400.747 7  23544651.664                    23544662.434
     -3114.274       -2426.702          42.500          42.400



 125356964.367 6  97680839.85444  23854667.891                    23854674.480
     -3393.381       -2644.176          40.700          24.100



 118039305.832 7  91978718.186 7  22462142.961                    22462149.570
      2565.010        1998.714          45.100          47.500



 110940940.315 7  86447543.058 7  21111368.492                    21111375.641
     -2011.551       -1567.437          45.400          47.800



 108036174.302 8  84184070.201 8  20558607.602                    20558615.504
       236.543         184.321          49.400          50.000



 123289563.263 7  96069880.564 6  23461222.422                    23461231.023
      3143.703        2449.627          42.800          39.800



 130774030.949 6 101901934.443 6  24885478.555                    24885493.238
       857.254         667.982          36.200          36.300



 23 11  9  8 20 30.0000000  0  9G20G09G03G19G11G04G06G07G26
 127033717.945 6  98987345.38243  24173722.914                    24173727.930
      3277.795        2554.125          39.200          21.800



 105878955.832 8  82503149.294 8  20148102.820                    20148109.602
       103.332          80.513          49.300          51.200



 123821358.685 6  96484258.152 7  23562444.391                    23562455.664
     -3118.978       -2430.364          41.800          42.800



 125458848.435 6  97760229.88644  23874056.063                    23874063.359
     -3398.763       -2648.384          40.500          24.600



 117962555.646 7  91918912.836 7  22447538.039                    22447544.281
      2552.061        1988.624          45.000          46.600



 111001466.478 7  86494706.254 8  21122886.375                    21122893.324
     -2023.162       -1576.490          45.900          48.500



 108029381.064 8  84178776.742 8  20557314.797                    20557322.723
       216.953         169.055          48.800          50.500



 123195342.556 7  95996462.100 6  23443292.828                    23443300.883
      3137.809        2445.036          43.600          39.300



 130748572.767 6 101882097.066 6  24880633.242                    24880648.266
       840.439         654.884          36.600          36.200



 23 11  9  8 21  0.0000000  0  9G20G09G03G19G11G04G06G07G26
 126935402.952 6  98910736.25743  24155014.117                    24155018.949
      3276.530        2553.147          37.600          19.900



 105876101.628 8  82500925.214 8  20147559.586                    20147566.445
        87.498          68.180          50.200          51.900



 123915000.174 7  96557225.364 7  23580263.797                    23580274.734
     -3123.622       -2433.983          42.600          42.400



 125560892.064 6  97839744.20144  23893475.055                    23893482.141
     -3403.987       -2652.464          40.900          26.500



 117886195.931 7  91859411.754 7  22433007.781                    22433013.258
      2539.030        1978.465          45.300          46.600



 111062340.710 7  86542140.670 8  21134470.391                    21134477.680
     -2034.719       -1585.499          45.800          48.600



 108023176.684 8  84173942.132 8  20556134.133                    20556141.797
       197.327         153.764          48.900          50.800



 123101300.822 7  95923183.060 6  23425396.914                    23425404.469
      3131.825        2440.374          42.500          39.500



 130723620.352 6 101862653.854 6  24875886.383                    24875899.441
       823.564         641.726          37.900          37.000



 23 11  9  8 21 30.0000000  0  9G20G09G03G19G11G04G06G07G26
 126837127.893 6  98834158.28643  24136312.688                    24136318.320
      3275.198        2552.107          37.400          20.400



 105873722.370 8  82499071.232 8  20147107.023                    20147113.953
        71.687          55.864          48.600          51.500



 124008781.354 7  96630301.446 7  23598110.102                    23598120.910
     -3128.255       -2437.597          42.600          42.400



 125663092.082 7  97919380.37244  23912923.563                    23912930.168
     -3409.101       -2656.428          42.000          26.100



 117810228.845 7  91800216.605 7  22418551.375                    22418556.855
      2525.906        1968.241          45.700          46.400



 111123560.802 7  86589844.581 8  21146120.313                    21146126.953
     -2046.213       -1594.451          46.100          48.300



 108017561.462 8  84169566.602 8  20555065.617                    20555073.332
       177.710         138.480          49.100          49.900



 123007440.350 7  95850045.251 6  23407535.219                    23407543.266
      3125.771        2435.657          42.500          39.500



 130699174.839 5 101843605.603 6  24871233.164                    24871248.277
       806.662         628.559          35.800          36.400



 23 11  9  8 22  0.0000000  0  9G20G09G03G19G11G04G06G07G26
 126738894.044 6  98757612.40643  24117619.398                    24117624.707
      3273.808        2551.027          37.800          20.900



 105871817.634 8  82497587.001 8  20146744.281                    20146751.266
        55.869          43.537          49.900          51.500



 124102701.743 7  96703486.000 7  23615982.328                    23615993.813
     -3132.904       -2441.221          42.200          42.200



 125765445.009 6  97999135.72144  23932400.352                    23932407.148
     -3414.190       -2660.402          41.100          25.800



 117734657.024 7  91741329.468 7  22404170.570                    22404175.898
      2512.703        1957.950          45.600          46.400



 111185125.058 7  86637816.676 7  21157835.805                    21157842.418
     -2057.657       -1603.369          45.400          47.800



 108012536.274 8  84165650.851 8  20554109.672                    20554117.207
       158.011         123.124          49.400          50.100



 122913763.857 7  95777050.822 6  23389709.172                    23389717.449
      3119.598        2430.840          42.300          40.700



 130675237.943 6 101824953.673 6  24866678.664                    24866693.344
       789.682         615.330          37.100          37.400



 23 11  9  8 22 30.0000000  0  9G20G09G03G19G11G04G06G07G26
 126640702.710 6  98681099.67843  24098933.328                    24098938.852
      3272.343        2549.875          38.300          20.400



 105870386.976 8  82496472.183 8  20146471.789                    20146479.117
        40.046          31.203          49.100          52.000



 124196760.638 7  96776778.461 6  23633880.789                    23633892.078
     -3137.528       -2444.823          42.200          41.500



 125867947.444 6  98079007.56243  23951904.422                    23951912.199
     -3419.113       -2664.238          39.900          22.900



 117659483.120 7  91682752.396 7  22389865.563                    22389871.418
      2499.374        1947.564          46.300          46.800



 111247031.750 7  86686055.605 8  21169616.453                    21169622.973
     -2069.042       -1612.246          45.000          48.600



 108008101.901 8  84162195.469 8  20553265.547                    20553273.328
       138.292         107.759          50.100          49.800



 122820273.643 7  95704201.486 6  23371918.555                    23371926.918
      3113.292        2425.932          42.400          40.800



 130651811.160 6 101806699.204 6  24862221.156                    24862234.758
       772.649         602.063          36.900          36.800



 23 11  9  8 23  0.0000000  0  9G20G09G03G19G11G04G06G07G26
 126542554.989 6  98604620.90443  24080257.063                    24080263.254
      3270.914        2548.758          37.700          22.300



 105869429.742 8  82495726.269 8  20146290.188                    20146297.293
        24.319          18.948          49.000          51.900



 124290957.206 6  96850178.194 6  23651806.273                    23651817.570
     -3142.079       -2448.364          41.600          41.600



 125970596.198 6  98158993.37944  23971438.398                    23971445.066
     -3423.923       -2667.987          39.900          24.300



 117584709.641 7  91624487.340 7  22375637.094                    22375642.223
      2486.002        1937.146          46.200          46.700



 111309279.063 7  86734559.940 8  21181461.453                    21181468.258
     -2080.356       -1621.051          45.700          48.000



 108004258.976 8  84159200.946 8  20552534.102                    20552542.320
       118.579          92.397          49.200          49.800



 122726972.071 7  95631499.114 6  23354163.789                    23354171.918
      3107.011        2421.041          43.600          40.900



 130628895.885 6 101788843.337 6  24857860.211                    24857873.641
       755.607         588.775          36.600          37.300



 23 11  9  8 23 30.0000000  0  9G20G09G03G19G11G04G06G07G26
 126444452.093 6  98528177.05843  24061589.000                    24061594.824
      3269.344        2547.557          39.000          22.000



 105868945.144 8  82495348.642 8  20146197.828                    20146204.566
         8.523           6.641          50.300          52.100



 124385290.469 6  96923684.459 6  23669757.875                    23669768.477
     -3146.665       -2451.944          40.200          41.800



 126073387.831 6  98239090.54344  23991000.773                    23991006.535
     -3428.673       -2671.685          41.600          24.200



 117510338.829 7  91566536.061 7  22361484.563                    22361490.359
      2472.484        1926.613          46.400          46.800



 111371864.876 7  86783328.055 8  21193370.820                    21193378.305
     -2091.626       -1629.843          46.300          48.100



 108001007.898 8  84156667.598 8  20551915.867                    20551923.414
        98.809          76.996          49.000          50.500



 122633861.672 7  95558945.670 6  23336445.836                    23336453.680
      3100.553        2416.011          43.700          41.100



 130606493.337 5 101771386.959 5  24853595.773                    24853609.633
       738.444         575.406          35.600          35.700



 23 11  9  8 24  0.0000000  0  9G20G09G03G19G11G04G06G07G26
 126346394.997 6  98451768.89643  24042928.516                    24042935.418
      3267.870        2546.396          39.900          21.800



 105868932.470 8  82495338.742 8  20146195.133                    20146201.758
        -7.142          -5.567          49.400          51.300



 124479759.566 6  96997296.573 6  23687734.055                    23687746.227
     -3151.113       -2455.408          40.600          41.500



 126176318.801 7  98319296.31844  24010588.336                    24010594.949
     -3433.203       -2675.219          43.000          25.800



 117436373.027 7  91508900.381 7  22347409.047                    22347414.809
      2459.018        1916.114          45.800          46.500



 111434787.322 7  86832358.469 7  21205344.750                    21205351.621
     -2102.759       -1638.510          45.200          47.600



 107998349.176 8  84154595.838 8  20551410.023                    20551417.449
        79.106          61.645          49.700          49.900



 122540944.484 7  95486542.756 6  23318763.930                    23318772.125
      3094.148        2411.022          42.700          41.500



 130584604.771 6 101754331.085 5  24849430.805                    24849444.457
       721.388         562.106          36.800          35.400



 23 11  9  8 24 30.0000000  0  9G20G09G03G19G11G04G06G07G26
 126248385.068 6  98375397.44343  24024278.867                    24024284.359
      3266.217        2545.100          39.600          22.300



 105869391.007 8  82495696.014 8  20146282.773                    20146289.676
       -22.899         -17.845          49.100          51.500



 124574363.687 6  97071013.884 6  23705737.648                    23705748.113
     -3155.646       -2458.939          41.000          41.300



 126279386.006 6  98399608.21244  24030200.398                    24030207.773
     -3437.766       -2678.772          41.900          25.800



 117362814.720 7  91451582.214 7  22333411.711                    22333417.598
      2445.324        1905.443          46.400          47.200



 111498044.476 7  86881649.698 7  21217382.266                    21217389.273
     -2113.979       -1647.257          45.100          47.800



 107996283.338 8  84152986.067 8  20551016.594                    20551024.383
        59.280          46.192          49.200          50.100



 122448222.951 7  95414292.284 6  23301119.875                    23301127.375
      3087.492        2405.838          42.600          40.500



 130563231.525 6 101737676.772 6  24845362.992                    24845378.367
       704.081         548.623          36.800          37.400



 23 11  9  8 25  0.0000000  0  9G20G09G03G19G11G04G06G07G26
 126150423.548 6  98299063.78743  24005637.352                    24005643.246
      3264.555        2543.808          40.400          22.200



 105870320.334 8  82496420.146 8  20146459.430                    20146466.293
       -38.585         -30.064          49.400          51.700



 124669102.253 6  97144835.962 6  23723765.961                    23723777.059
     -3160.139       -2462.440          40.900          41.200



 126382585.882 7  98480023.49244  24049838.578                    24049846.648
     -3442.117       -2682.168          42.200          25.100



 117289666.638 7  91394583.688 7  22319491.602                    22319497.730
      2431.598        1894.751          46.000          47.100



 111561634.674 7  86931200.446 7  21229483.703                    21229490.176
     -2125.029       -1655.869          46.300          47.800



 107994811.151 8  84151838.879 8  20550736.508                    20550744.598
        39.460          30.749          49.300          50.000



 122355700.067 7  95342196.584 6  23283512.883                    23283520.207
      3080.844        2400.656          42.600          39.300



 130542375.062 6 101721425.106 5  24841395.102                    24841409.738
       686.845         535.205          38.100          35.500



 23 11  9  8 25 30.0000000  0  9G20G09G03G19G11G04G06G07G26
 126052511.771 6  98222768.84144  23987005.109                    23987011.316
      3262.904        2542.528          40.400          24.200



 105871719.741 8  82497510.574 8  20146726.008                    20146732.758
       -54.216         -42.244          49.400          51.500



 124763974.410 6  97218762.142 6  23741819.086                    23741829.953
     -3164.569       -2465.892          41.300          40.400



 126485915.296 6  98560539.68944  24069500.883                    24069509.840
     -3446.355       -2685.460          40.800          24.200



 117216931.128 7  91337906.660 7  22305650.594                    22305656.176
      2417.811        1884.010          46.200          46.500



 111625556.067 7  86981009.270 7  21241647.836                    21241654.055
     -2136.034       -1664.443          46.000          46.900



 107993933.090 8  84151154.645 8  20550569.641                    20550577.492
        19.658          15.321          49.100          50.300



 122263377.784 7  95270257.191 6  23265944.555                    23265952.000
      3074.127        2395.420          43.400          38.800



 130522036.725 6 101705577.185 6  24837524.477                    24837539.121
       669.547         521.717          37.600          36.800



 23 11  9  8 26  0.0000000  0  9G20G09G03G19G11G04G06G07G26
 125954651.089 6  98146513.74043  23968382.898                    23968388.934
      3261.206        2541.185          41.100          23.000



 105873588.620 8  82498966.829 8  20147081.664                    20147088.383
       -69.842         -54.424          49.200          51.900



 124858979.465 7  97292791.864 6  23759898.523                    23759909.387
     -3168.946       -2469.307          42.200          40.600



 126589370.575 6  98641153.95044  24089188.750                    24089196.801
     -3450.492       -2688.696          41.400          24.600



 117144610.717 7  91281553.075 7  22291889.211                    22291894.602
      2403.955        1873.213          46.700          46.900



 111689806.869 7  87031074.779 7  21253874.172                    21253880.691
     -2146.969       -1672.959          45.700          47.200



 107993649.707 8  84150933.797 8  20550515.711                    20550523.195
        -0.119          -0.094          49.100          50.200



 122171258.675 7  95198476.104 6  23248415.008                    23248422.055
      3067.375        2390.165          43.900          38.600



 130502217.845 6 101690134.012 6  24833754.031                    24833767.629
       652.289         508.280          37.100          36.600



 23 11  9  8 26 30.0000000  0  9G20G09G03G19G11G04G06G07G26
 125856842.511 6  98070299.19043  23949770.688                    23949776.730
      3259.462        2539.837          41.100          22.300



 105875926.132 8  82500788.253 8  20147526.227                    20147532.906
       -85.457         -66.594          50.000          52.300



 124954116.408 6  97366924.362 6  23778001.977                    23778013.488
     -3173.358       -2472.740          41.100          40.300



 126692948.611 7  98721863.87244  24108899.445                    24108905.691
     -3454.523       -2691.832          42.900          25.200



 117072707.730 7  91225524.764 7  22278206.180                    22278212.102
      2390.033        1862.364          46.700          46.900



 111754385.066 7  87081395.395 7  21266162.695                    21266169.625
     -2157.865       -1681.448          46.100          47.900



 107993961.364 8  84151176.613 8  20550575.086                    20550582.887
       -19.981         -15.564          48.900          50.000



 122079345.191 7  95126855.220 6  23230924.398                    23230932.172
      3060.453        2384.763          44.900          40.300



 130482919.585 6 101675096.476 6  24830079.883                    24830094.363
       634.882         494.704          37.500          36.700



 23 11  9  8 27  0.0000000  0  9G20G09G03G19G11G04G06G07G26
 125759087.264 6  97994126.19843  23931168.531                    23931174.387
      3257.652        2538.420          41.600          22.900



 105878731.330 8  82502974.106 8  20148060.227                    20148066.957
      -101.051         -78.744          49.600          52.400



 125049384.283 6  97441158.903 6  23796131.133                    23796143.004
     -3177.713       -2476.135          40.600          40.400



 126796646.087 7  98802666.90044  24128633.602                    24128639.156
     -3458.473       -2694.914          43.500          25.500



 117001224.407 7  91169823.459 7  22264602.859                    22264608.871
      2375.988        1851.416          46.600          46.300



 111819288.550 7  87131969.478 7  21278513.766                    21278520.219
     -2168.677       -1689.879          46.000          47.600



 107994868.284 8  84151883.280 8  20550747.656                    20550755.465
       -39.823         -31.030          49.300          50.200



 121987639.368 7  95055396.155 6  23213472.883                    23213480.730
      3053.489        2379.343          44.500          39.000



 130464142.807 6 101660465.288 6  24826508.570                    24826521.188
       617.503         481.173          38.100          37.000



 23 11  9  8 27 30.0000000  0  9G20G09G03G19G11G04G06G07G26
 125661386.589 6  97917995.76743  23912577.164                    23912582.305
      3255.805        2537.005          41.600          22.200



 105882003.583 8  82505523.886 8  20148682.641                    20148689.965
      -116.587         -90.842          48.600          51.200



 125144782.329 6  97515494.834 6  23814284.656                    23814296.473
     -3181.969       -2479.446          40.500          40.400



 126900459.470 7  98883560.22044  24148388.688                    24148394.430
     -3462.264       -2697.867          43.700          24.700



 116930163.248 7  91114451.110 7  22251080.703                    22251086.785
      2361.880        1840.422          46.800          46.300



 111884515.617 7  87182795.699 7  21290925.781                    21290933.289
     -2179.436       -1698.267          45.400          47.800



 107996370.944 8  84153054.158 8  20551033.461                    20551041.047
       -59.678         -46.502          48.000          50.100



 121896143.796 7  94984100.939 6  23196061.883                    23196069.195
      3046.454        2373.867          43.200          39.200



 130445888.992 6 101646241.598 6  24823034.148                    24823047.844
       600.014         467.540          38.300          37.100



 23 11  9  8 28  0.0000000  0  9G20G09G03G19G11G04G06G07G26
 125563741.940 6  97841908.96343  23893995.078                    23894001.246
      3253.863        2535.478          40.800          22.600



 105885742.323 8  82508437.168 8  20149394.547                    20149401.113
      -132.143        -102.968          49.800          51.400



 125240309.982 6  97589931.779 6  23832462.914                    23832475.055
     -3186.392       -2482.895          39.700          40.300



 127004385.758 7  98964541.53244  24168165.203                    24168172.004
     -3466.009       -2700.773          44.200          25.800



 116859526.824 7  91059409.725 7  22237638.625                    22237644.918
      2347.633        1829.323          46.400          46.400



 111950064.444 7  87233872.650 7  21303399.258                    21303406.480
     -2190.148       -1706.607          45.400          47.600



 107998469.896 8  84154689.681 8  20551432.633                    20551440.750
       -79.599         -62.019          48.800          49.600



 121804860.862 7  94912971.434 6  23178691.211                    23178699.117
      3039.275        2368.262          43.600          40.500



 130428159.342 6 101632426.335 6  24819659.875                    24819674.129
       582.465         453.865          37.500          36.900



 23 11  9  8 28 30.0000000  0  9G20G09G03G19G11G04G06G07G26
 125466154.412 6  97765866.71044  23875425.500                    23875431.098
      3251.951        2533.994          41.800          25.200



 105889946.762 8  82511713.331 8  20150194.406                    20150201.387
      -147.662        -115.058          48.700          51.300



 125335966.265 6  97664468.988 6  23850666.359                    23850677.625
     -3190.640       -2486.216          40.200          40.200



 127108421.423 7  99045608.07444  24187961.141                    24187970.379
     -3469.608       -2703.579          42.600          24.900



 116789317.464 7  91004701.116 7  22224278.406                    22224284.953
      2333.393        1818.230          46.000          46.300



 112015933.216 7  87285198.893 7  21315933.414                    21315940.539
     -2200.795       -1714.898          44.900          47.300



 108001165.507 7  84156790.135 8  20551945.750                    20551953.648
       -99.487         -77.522          47.700          49.700



 121713792.689 7  94842009.310 6  23161361.859                    23161369.648
      3032.094        2362.660          44.300          40.500



 130410955.031 6 101619020.370 6  24816386.305                    24816399.395
       564.974         440.246          37.800          37.000



 23 11  9  8 29  0.0000000  0 10G20G30G09G03G19G11G04G06G07G26
 125368625.611 7  97689870.18644  23856866.047                    23856871.539
      3250.017        2532.485          42.500          24.500



 133573659.223 5 104083460.397 6  25418229.250                    25418245.359
      3652.395        2845.994          32.000          37.300



 105894616.058 8  82515351.715 8  20151082.844                    20151089.781
      -163.109        -127.095          50.400          51.800



 125431750.362 6  97739105.734 6  23868893.750                    23868904.922
     -3194.839       -2489.473          40.400          41.100



 127212563.104 7  99126757.15844  24207778.516                    24207787.844
     -3473.049       -2706.267          42.100          26.200



 116719537.544 7  90950327.137 7  22211000.086                    22211005.832
      2319.071        1807.070          46.000          47.200



 112082119.925 7  87336772.891 7  21328528.711                    21328535.633
     -2211.318       -1723.100          45.000          47.500



 108004457.990 8  84159355.685 8  20552572.195                    20552580.223
      -119.367         -93.015          48.000          50.500



 121622942.302 7  94771216.848 6  23144073.508                    23144081.617
      3024.825        2357.007          44.700          41.400



 130394277.074 6 101606024.522 5  24813212.414                    24813225.363
       547.449         426.595          37.300          35.500



 23 11  9  8 29 30.0000000  0 10G20G30G09G03G19G11G04G06G07G26
 125271156.557 7  97613920.23744  23838318.125                    23838323.793
      3247.976        2530.896          42.100          25.300



 133464066.695 5 103998064.107 6  25397376.961                    25397390.457
      3653.692        2847.018          33.700          37.100



 105899749.679 8  82519351.924 8  20152059.781                    20152066.617
      -178.587        -139.165          50.300          51.700



 125527661.679 6  97813841.643 6  23887145.070                    23887156.836
     -3199.076       -2492.776          40.800          41.100



 127316807.549 6  99207986.36044  24227616.508                    24227625.004
     -3476.436       -2708.903          41.800          25.300



 116650189.690 7  90896289.843 7  22197803.352                    22197809.887
      2304.600        1795.791          46.900          47.200



 112148622.992 7  87388593.401 7  21341183.406                    21341190.887
     -2221.832       -1731.299          45.600          47.300



 108008347.925 8  84162386.776 8  20553312.633                    20553320.566
      -139.290        -108.534          48.700          50.100



 121532311.734 7  94700595.708 6  23126827.148                    23126835.195
      3017.469        2351.269          44.600          41.800



 130378126.813 6 101593439.869 6  24810139.008                    24810152.352
       529.867         412.888          37.600          36.900



 23 11  9  8 30  0.0000000  0 10G20G30G09G03G19G11G04G06G07G26
 125173748.666 6  97538017.97143  23819782.016                    23819787.719
      3245.905        2529.273          41.600          22.300



 133354433.254 5 103912635.946 5  25376511.109                    25376527.246
      3655.040        2848.071          32.400          35.700



 105905346.544 8  82523713.090 8  20153125.063                    20153131.508
      -194.035        -151.198          50.400          51.800



 125623699.116 6  97888675.825 6  23905420.320                    23905432.047
     -3203.308       -2496.083          40.700          40.400



 127421151.426 6  99289293.00943  24247473.156                    24247480.801
     -3479.714       -2711.460          41.700          23.800



 116581275.940 7  90842590.799 7  22184689.406                    22184695.770
      2290.091        1784.489          46.100          47.300



 112215440.229 7  87440658.721 7  21353898.898                    21353905.688
     -2232.296       -1739.445          44.800          46.900



 108012835.320 8  84165883.428 8  20554166.828                    20554174.473
      -159.224        -124.070          49.900          49.900



 121441903.242 7  94630147.634 7  23109623.031                    23109631.059
      3009.990        2345.445          45.000          42.300



 130362505.066 6 101581267.005 6  24807166.070                    24807180.559
       512.227         399.143          36.900          37.100



 23 11  9  8 30 30.0000000  0 10G20G30G09G03G19G11G04G06G07G26
 125076403.173 7  97462164.29744  23801258.672                    23801263.754
      3243.800        2527.627          43.600          24.700



 133244761.357 5 103827177.786 5  25355640.805                    25355656.859
      3656.303        2849.055          34.300          34.900



 105911405.897 8  82528434.641 8  20154278.047                    20154285.000
      -209.427        -163.194          50.300          51.700



 125719861.872 6  97963607.663 6  23923719.914                    23923731.223
     -3207.407       -2499.277          41.100          40.600



 127525591.138 7  99370674.38144  24267348.648                    24267355.230
     -3482.826       -2713.894          43.400          24.400



 116512798.820 7  90789231.993 7  22171658.500                    22171665.379
      2275.492        1773.112          46.900          47.000



 112282569.803 7  87492967.421 7  21366672.984                    21366680.172
     -2242.682       -1747.536          45.200          47.100



 108017920.522 8  84169845.884 8  20555134.570                    20555142.535
      -179.147        -139.597          49.300          50.300



 121351719.382 7  94559874.608 7  23092460.852                    23092469.297
      3002.483        2339.593          45.100          42.000



 130347413.113 6 101569506.932 6  24804294.094                    24804308.020
       494.505         385.329          36.900          36.500



 23 11  9  8 31  0.0000000  0 10G20G30G09G03G19G11G04G06G07G26
 124979121.409 7  97386360.26944  23782745.633                    23782751.270
      3241.652        2525.948          42.600          25.000



 133135053.213 5 103741691.348 5  25334763.953                    25334779.500
      3657.480        2849.976          33.400          34.400



 105917927.032 8  82533516.015 8  20155519.156                    20155526.094
      -224.788        -175.154          49.800          51.600



 125816149.304 7  98038636.652 6  23942043.953                    23942055.305
     -3211.593       -2502.536          42.000          41.100



 127630123.799 7  99452128.19043  24287240.039                    24287246.871
     -3485.867       -2716.256          42.100          23.200



 116444760.670 7  90736215.245 7  22158711.195                    22158717.957
      2260.849        1761.695          46.700          46.900



 112350009.889 7  87545518.075 7  21379506.711                    21379513.797
     -2252.970       -1755.563          45.100          46.900



 108023603.781 7  84174274.371 8  20556215.781                    20556223.715
      -199.075        -155.126          47.900          50.300



 121261762.225 7  94489778.252 7  23075343.000                    23075350.453
      2994.899        2333.686          45.600          42.000



 130332851.851 6 101558160.444 5  24801523.242                    24801536.148
       476.809         371.544          37.400          35.800



 23 11  9  8 31 30.0000000  0 10G20G30G09G03G19G11G04G06G07G26
 124881904.550 7  97310606.84044  23764245.961                    23764251.438
      3239.515        2524.305          42.600          25.400



 133025310.939 5 103656178.233 5  25313881.320                    25313895.957
      3658.602        2850.847          35.400          31.200



 105924909.089 8  82538956.562 8  20156847.469                    20156854.969
      -240.132        -187.119          49.900          51.800



 125912560.456 6  98113762.025 6  23960389.398                    23960401.438
     -3215.680       -2505.714          40.100          41.000



 127734745.919 6  99533651.72743  24307148.656                    24307156.484
     -3488.779       -2718.515          41.200          22.900



 116377163.898 7  90683542.418 7  22145848.523                    22145854.953
      2246.116        1750.221          46.800          46.700



 112417758.697 7  87598309.292 7  21392399.078                    21392405.434
     -2263.239       -1763.558          45.300          47.500



 108029885.383 8  84179169.089 8  20557411.250                    20557419.324
      -219.002        -170.646          48.900          50.100



 121172034.386 7  94419860.595 7  23058267.578                    23058275.555
      2987.218        2327.698          45.000          42.600



 130318822.430 6 101547228.385 6  24798854.477                    24798867.434
       459.125         357.760          36.800          37.100



 23 11  9  8 32  0.0000000  0 10G20G30G09G03G19G11G04G06G07G26
 124784753.898 7  97234904.99544  23745758.531                    23745764.695
      3237.288        2522.564          42.400          24.700



 132915536.844 6 103570640.183 4  25292991.109                    25293005.938
      3659.639        2851.658          37.400          29.800



 105932351.197 8  82544755.577 8  20158263.906                    20158270.715
      -255.450        -199.050          51.000          51.300



 126009094.490 6  98188983.167 6  23978759.805                    23978771.195
     -3219.790       -2508.923          40.000          40.400



 127839454.495 6  99615242.57443  24327073.883                    24327081.977
     -3491.611       -2720.722          39.700          21.700



 116310010.814 7  90631215.315 7  22133069.867                    22133075.711
      2231.262        1738.643          46.900          46.100



 112485814.244 7  87651339.525 7  21405349.430                    21405356.340
     -2273.467       -1771.529          45.200          46.900



 108036765.430 8  84184530.129 8  20558720.453                    20558728.645
      -238.969        -186.204          49.500          50.400



 121082538.009 7  94350123.308 7  23041237.109                    23041245.449
      2979.451        2321.648          45.100          42.300



 130305325.817 6 101536711.462 6  24796285.273                    24796300.121
       441.313         343.883          36.600          37.900



 23 11  9  8 32 30.0000000  0 10G20G30G09G03G19G11G04G06G07G26
 124687671.202 7  97159256.10444  23727284.664                    23727290.383
      3234.985        2520.767          42.200          24.300



 132805733.274 6 103485079.094 5  25272095.875                    25272110.625
      3660.597        2852.413          37.300          32.100



 105940252.807 8  82550912.645 8  20159767.453                    20159774.547
      -270.784        -210.998          50.300          51.600



 126105750.778 6  98264299.545 6  23997152.297                    23997164.723
     -3223.801       -2512.039          39.800          40.500



 127944246.290 6  99696898.27843  24347014.461                    24347024.195
     -3494.355       -2722.875          37.900          21.100



 116243303.932 7  90579235.910 7  22120376.313                    22120381.832
      2216.374        1727.043          47.300          46.300



 112554174.838 7  87704607.457 7  21418358.266                    21418365.402
     -2283.551       -1779.389          46.300          47.600



 108044244.350 8  84190357.822 8  20560143.531                    20560151.965
      -258.922        -201.759          49.000          50.300



 120993275.557 7  94280568.301 7  23024251.320                    23024259.113
      2971.638        2315.553          44.100          42.000



 130292363.185 5 101526610.584 6  24793818.852                    24793834.156
       423.483         329.990          35.600          38.800



 23 11  9  8 33  0.0000000  0 10G20G30G09G03G19G11G04G06G07G26
 124590657.776 6  97083661.19443  23708823.461                    23708828.754
      3232.650        2518.948          41.600          23.600



 132695902.579 6 103399496.788 5  25251194.867                    25251209.641
      3661.429        2853.067          38.100          30.700



 105948613.070 8  82557427.101 8  20161358.414                    20161365.164
      -286.051        -222.895          49.600          51.100



 126202528.611 6  98339710.645 6  24015568.789                    24015581.164
     -3227.860       -2515.204          38.600          40.600



 128049117.970 6  99778616.17743  24366971.266                    24366980.793
     -3496.931       -2724.872          38.500          22.300



 116177045.722 7  90527606.110 7  22107767.484                    22107773.078
      2201.346        1715.339          47.000          46.900



 112622838.790 7  87758111.766 7  21431424.727                    21431431.293
     -2293.661       -1787.264          46.000          47.200



 108052322.411 8  84196652.375 8  20561680.906                    20561689.039
      -278.919        -217.335          49.600          49.600



 120904249.516 7  94211197.503 6  23007309.945                    23007317.332
      2963.699        2309.363          44.300          41.100



 130279935.498 6 101516926.537 6  24791453.695                    24791468.375
       405.630         316.080          36.200          37.000



 23 11  9  8 33 30.0000000  0 10G20G30G09G03G19G11G04G06G07G26
 124493714.855 6  97008121.21744  23690376.219                    23690382.098
      3230.249        2517.081          41.600          24.100



 132586046.758 6 103313894.765 5  25230290.109                    25230305.289
      3662.234        2853.688          38.200          32.700



 105957430.995 8  82564298.178 8  20163036.172                    20163043.164
      -301.291        -234.770          50.400          51.200



 126299427.013 6  98415215.683 6  24034008.680                    24034020.348
     -3231.878       -2518.333          38.400          40.300



 128154065.776 6  99860393.44344  24386945.023                    24386952.613
     -3499.480       -2726.860          40.800          24.500



 116111238.320 7  90476327.586 7  22095245.078                    22095250.508
      2186.300        1703.608          47.000          46.500



 112691804.002 7  87811850.825 7  21444548.031                    21444555.117
     -2303.678       -1795.071          45.700          47.300



 108060999.532 8  84203413.729 8  20563332.195                    20563340.703
      -298.906        -232.915          49.200          50.000



 120815462.079 7  94142012.638 6  22990413.836                    22990421.840
      2955.723        2303.159          44.600          41.100



 130268043.586 6 101507660.010 6  24789192.820                    24789205.125
       387.765         302.159          38.700          37.200



 23 11  9  8 34  0.0000000  0 10G20G30G09G03G19G11G04G06G07G26
 124396843.469 6  96932636.98043  23671941.953                    23671947.344
      3227.898        2515.257          41.500          22.800



 132476168.194 6 103228274.912 5  25209381.414                    25209395.855
      3662.967        2854.273          38.600          33.700



 105966705.658 8  82571525.155 8  20164801.680                    20164808.688
      -316.521        -246.636          50.700          51.900



 126396445.011 6  98490813.911 6  24052470.125                    24052482.539
     -3235.866       -2521.446          38.300          41.000



 128259086.764 6  99942227.76843  24406928.680                    24406936.809
     -3501.823       -2728.703          40.300          23.600



 116045884.025 7  90425402.128 7  22082808.227                    22082814.227
      2171.137        1691.796          47.800          47.100



 112761068.573 7  87865823.146 7  21457728.711                    21457736.043
     -2313.626       -1802.830          46.300          47.200



 108070275.741 8  84210641.905 8  20565096.984                    20565105.359
      -318.852        -248.460          49.400          50.300



 120726915.598 7  94073015.529 6  22973564.391                    22973571.465
      2947.643        2296.854          44.700          40.900



 130256688.330 6 101498811.645 6  24787030.430                    24787044.035
       369.883         288.227          37.400          36.300



 23 11  9  8 34 30.0000000  0 10G20G30G09G03G19G11G04G06G07G26
 124300045.209 6  96857209.73543  23653521.656                    23653527.500
      3225.441        2513.335          40.500          22.300



 132366269.090 6 103142639.004 6  25188468.602                    25188483.621
      3663.560        2854.721          39.500          36.300



 105976436.175 8  82579107.346 8  20166653.156                    20166660.297
      -331.681        -258.454          49.600          51.100



 126493581.832 6  98566504.712 6  24070955.367                    24070967.027
     -3239.800       -2524.510          39.600          41.000



 128364177.592 6 100024116.48343  24426927.836                    24426935.238
     -3504.110       -2730.462          39.700          22.500



 115980985.077 7  90374831.506 7  22070458.977                    22070464.598
      2155.949        1679.958          47.100          46.700



 112830630.598 7  87920027.255 7  21470966.297                    21470973.453
     -2323.488       -1810.505          46.300          47.000



 108080151.125 8  84218336.973 8  20566976.773                    20566984.793
      -338.826        -264.018          48.400          50.200



 120638612.189 7  94004207.846 6  22956760.875                    22956767.422
      2939.498        2290.518          44.700          40.300



 130245870.559 6 101490382.059 6  24784972.148                    24784986.430
       351.920         274.234          37.500          36.500



 23 11  9  8 35  0.0000000  0 10G20G30G09G03G19G11G04G06G07G26
 124203321.569 6  96781840.63843  23635115.984                    23635121.477
      3222.900        2511.357          40.800          22.200



 132256351.883 6 103056989.003 6  25167552.719                    25167567.492
      3664.166        2855.199          39.700          36.800



 105986621.785 8  82587044.149 8  20168591.477                    20168598.430
      -346.837        -270.256          50.800          51.500



 126590836.752 6  98642287.564 6  24089461.945                    24089475.137
     -3243.710       -2527.557          37.900          40.900



 128469334.973 6 100106057.03843  24446937.203                    24446945.004
     -3506.259       -2732.131          38.300          21.500



 115916543.970 7  90324617.634 7  22058195.531                    22058201.012
      2140.635        1668.025          47.500          47.000



 112900488.400 7  87974461.842 7  21484260.188                    21484266.770
     -2333.330       -1818.179          46.100          47.600



 108090625.948 8  84226499.127 8  20568970.109                    20568978.133
      -358.824        -279.598          49.500          50.300



 120550554.400 7  93935591.535 6  22940003.555                    22940010.332
      2931.297        2284.121          45.100          40.500



 130235591.367 6 101482372.246 6  24783017.109                    24783030.309
       333.969         260.234          38.100          37.600



 23 11  9  8 35 30.0000000  0 10G20G30G09G03G19G11G04G06G07G26
 124106673.647 6  96706530.56743  23616725.320                    23616729.949
      3220.379        2509.393          41.400          22.500



 132146418.949 6 102971326.769 6  25146632.594                    25146647.703
      3664.649        2855.581          38.000          37.100



 105997261.407 8  82595334.728 8  20170615.977                    20170622.715
      -361.952        -282.039          50.900          51.400



 126688208.784 6  98718161.632 6  24107991.773                    24108003.816
     -3247.624       -2530.607          38.600          39.800



 128574555.743 6 100188046.99843  24466960.094                    24466968.676
     -3508.340       -2733.779          36.700          21.300



 115852562.745 7  90274762.109 7  22046020.445                    22046026.395
      2125.272        1656.055          47.100          46.500



 112970639.894 7  88029125.261 7  21497608.695                    21497616.426
     -2343.105       -1825.791          45.400          46.800



 108101699.973 8  84235128.202 8  20571077.086                    20571085.719
      -378.797        -295.167          50.000          50.600



 120462744.349 7  93867168.258 6  22923294.273                    22923300.566
      2922.979        2277.637          45.400          39.900



 130225851.408 6 101474782.633 6  24781164.656                    24781177.113
       315.978         246.215          39.000          37.000



 23 11  9  8 36  0.0000000  0 10G20G30G09G03G19G11G04G06G07G26
 124010102.826 6  96631280.55143  23598348.195                    23598353.160
      3217.765        2507.354          40.200          22.500



 132036472.725 6 102885654.320 6  25125710.484                    25125726.246
      3665.015        2855.854          36.800          37.900



 106008354.251 8  82603978.473 8  20172727.008                    20172734.223
      -377.049        -293.801          49.800          51.700



 126785697.161 6  98794126.408 6  24126543.047                    24126555.688
     -3251.471       -2533.614          38.600          40.300



 128679836.787 5 100270083.86943  24486994.508                    24487003.914
     -3510.283       -2735.281          35.400          20.600



 115789043.882 7  90225266.865 7  22033933.672                    22033939.250
      2109.817        1644.014          47.800          46.600



 113041083.317 7  88084016.175 7  21511014.000                    21511020.820
     -2352.802       -1833.347          45.800          46.400



 108113373.369 8  84244224.317 8  20573298.375                    20573306.707
      -398.774        -310.737          48.300          50.500



 120375184.347 7  93798939.802 6  22906631.648                    22906638.723
      2914.623        2271.131          43.900          40.200



 130216651.609 6 101467614.012 5  24779412.492                    24779424.949
       297.946         232.155          37.100          35.800



 23 11  9  8 36 30.0000000  0 10G20G30G09G03G19G11G04G06G07G26
 123913610.773 6  96556091.94043  23579986.063                    23579991.344
      3215.090        2505.275          40.900          22.000



 131926515.478 5 102799973.421 6  25104786.273                    25104801.648
      3665.411        2856.156          35.800          38.100



 106019899.348 8  82612974.624 8  20174924.047                    20174931.133
      -392.115        -305.548          49.600          51.500



 126883301.031 6  98870181.143 6  24145117.188                    24145129.863
     -3255.345       -2536.626          39.600          40.600



 128785174.683 6 100352165.01943  24507041.328                    24507048.625
     -3512.169       -2736.744          37.200          20.600



 115725989.546 7  90176133.594 7  22021934.625                    22021940.355
      2094.295        1631.919          46.900          47.000



 113111816.759 7  88139133.051 7  21524474.266                    21524481.711
     -2362.428       -1840.846          45.500          47.200



 108125646.043 8  84253787.399 8  20575634.195                    20575642.191
      -418.743        -326.297          48.900          50.100



 120287877.104 7  93730908.313 6  22890017.258                    22890024.770
      2906.130        2264.514          44.300          41.900



 130207992.748 6 101460866.914 6  24777764.586                    24777777.414
       279.924         218.121          37.700          36.100



 23 11  9  8 37  0.0000000  0 10G20G30G09G03G19G11G04G06G07G26
 123817198.633 6  96480965.59943  23561639.852                    23561645.391
      3212.450        2503.218          41.900          22.500



 131816549.609 6 102714285.987 6  25083861.469                    25083875.598
      3665.652        2856.346          37.100          39.800



 106031895.794 8  82622322.471 8  20177207.008                    20177213.586
      -407.131        -317.246          49.900          51.600



 126981019.573 6  98946325.243 6  24163712.477                    24163724.695
     -3259.080       -2539.535          40.200          40.100



 128890565.994 6 100434287.84643  24527095.641                    24527104.738
     -3513.850       -2738.070          37.000          21.700



 115663402.032 7  90127364.089 7  22010024.250                    22010030.059
      2078.729        1619.789          47.000          46.800



 113182838.440 7  88194474.528 7  21537989.875                    21537996.402
     -2371.998       -1848.303          45.600          46.800



 108138518.019 8  84263817.474 8  20578083.578                    20578092.027
      -438.706        -341.847          50.000          49.900



 120200824.314 7  93663075.106 7  22873451.984                    22873459.414
      2897.649        2257.906          45.900          42.400



 130199875.584 6 101454541.996 6  24776220.938                    24776232.980
       261.811         204.003          38.500          36.900



 23 11  9  8 37 30.0000000  0 10G20G30G09G03G19G11G04G06G07G26
 123720867.930 6  96405902.70343  23543308.555                    23543314.594
      3209.739        2501.108          41.200          22.000



 131706577.391 6 102628593.694 6  25062933.352                    25062948.758
      3665.828        2856.479          36.900          39.700



 106044342.754 8  82632021.368 8  20179575.398                    20179582.152
      -422.127        -328.932          50.500          51.300



 127078852.013 6  99022558.095 6  24182329.563                    24182341.762
     -3262.884       -2542.500          39.200          39.300



 128996007.740 6 100516449.97343  24547162.000                    24547169.879
     -3515.472       -2739.316          37.300          22.300



 115601283.660 7  90078960.135 7  21998203.688                    21998209.129
      2063.055        1607.580          47.400          46.400



 113254146.544 7  88250039.201 7  21551559.352                    21551566.195
     -2381.496       -1855.706          45.300          46.600



 108151989.295 8  84274314.531 8  20580646.891                    20580655.434
      -458.693        -357.416          49.600          50.000



 120114028.471 7  93595442.101 7  22856935.234                    22856942.566
      2889.040        2251.198          45.600          42.600



 130192300.846 6 101448639.780 6  24774778.508                    24774791.621
       243.760         189.935          37.600          36.800



 23 11  9  8 38  0.0000000  0 10G20G30G09G03G19G11G04G06G07G26
 123624619.903 6  96330904.25943  23524992.422                    23524998.965
      3206.882        2498.857          41.200          22.900



 131596601.024 6 102542898.271 6  25042006.008                    25042020.027
      3665.898        2856.527          37.000          39.500



 106057239.387 8  82642070.671 8  20182029.633                    20182036.941
      -437.128        -340.620          50.300          51.100



 127176797.554 6  99098879.058 6  24200967.281                    24200981.063
     -3266.675       -2545.455          39.000          39.400



 129101496.773 6 100598648.97243  24567235.164                    24567243.309
     -3517.041       -2740.541          38.300          20.900



 115539636.691 7  90030923.512 7  21986472.477                    21986478.094
      2047.260        1595.269          46.700          46.500



 113325739.215 7  88305825.619 7  21565182.719                    21565189.863
     -2391.005       -1863.116          44.800          46.900



 108166059.772 8  84285278.505 8  20583324.734                    20583332.707
      -478.701        -373.007          49.200          50.400



 120027492.059 7  93528011.235 7  22840467.820                    22840475.125
      2880.320        2244.406          46.100          42.700



 130185269.389 6 101443160.933 6  24773439.336                    24773454.059
       225.571         175.759          37.400          38.300



 23 11  9  8 38 30.0000000  0 10G20G30G09G03G19G11G04G06G07G26
 123528456.338 6  96255971.61044  23506693.422                    23506699.785
      3204.068        2496.681          41.800          24.700



 131486622.837 5 102457201.429 6  25021076.227                    25021091.441
      3665.932        2856.558          35.900          40.400



 106070584.652 8  82652469.537 8  20184569.070                    20184576.285
      -452.068        -352.261          50.600          51.800



 127274855.478 6  99175287.614 6  24219627.195                    24219640.891
     -3270.398       -2548.360          39.200          39.600



 129207029.840 6 100680882.29743  24587317.305                    24587326.027
     -3518.474       -2741.669          37.900          21.500



 115478463.500 7  89983256.065 7  21974831.438                    21974837.047
      2031.451        1582.948          46.700          46.900



 113397614.834 7  88361832.512 7  21578859.984                    21578867.297
     -2400.402       -1870.441          45.100          47.200



 108180729.510 8  84296709.434 8  20586116.125                    20586124.309
      -498.627        -388.537          49.500          50.200



 119941217.291 7  93460784.230 7  22824050.063                    22824057.152
      2871.588        2237.604          45.500          42.400



 130178781.979 6 101438106.021 6  24772205.266                    24772218.742
       207.486         161.666          36.900          37.800



 23 11  9  8 39  0.0000000  0 10G20G30G09G03G19G11G04G06G07G26
 123432378.730 6  96181105.94844  23488410.094                    23488416.551
      3201.205        2494.439          40.900          24.900



 131376644.995 6 102371504.860 6  25000148.664                    25000162.828
      3665.903        2856.534          37.200          39.900



 106084377.659 8  82663217.305 8  20187193.805                    20187200.867
      -466.965        -363.866          48.200          51.900



 127373024.905 6  99251783.028 6  24238308.555                    24238321.727
     -3274.104       -2551.244          39.700          39.000



 129312603.677 6 100763147.39243  24607407.445                    24607416.445
     -3519.794       -2742.673          37.000          20.900



 115417766.308 7  89935959.529 7  21963280.781                    21963286.578
      2015.549        1570.560          47.000          46.500



 113469771.405 7  88418058.327 7  21592590.930                    21592598.367
     -2409.733       -1877.714          45.500          46.000



 108195998.369 7  84308607.222 8  20589021.484                    20589030.297
      -518.635        -404.128          47.600          49.600



 119855206.718 7  93393763.072 6  22807682.477                    22807689.609
      2862.739        2230.704          45.600          41.700



 130172839.241 6 101433475.535 6  24771073.555                    24771087.184
       189.269         147.472          37.100          36.500



 23 11  9  8 39 30.0000000  0 10G20G30G09G03G19G11G04G06G07G26
 123336388.486 6  96106308.35644  23470144.086                    23470150.457
      3198.277        2492.156          41.400          25.200



 131266669.676 6 102285810.197 6  24979220.328                    24979234.855
      3665.819        2856.472          37.100          40.200



 106098617.480 8  82674313.236 8  20189903.688                    20189911.152
      -481.825        -375.446          49.500          51.600



 127471304.950 6  99328364.660 6  24257011.555                    24257023.563
     -3277.729       -2554.066          39.800          39.600



 129418215.292 6 100845441.96643  24627505.344                    24627514.184
     -3520.933       -2743.565          37.900          21.800



 115357547.288 7  89889035.601 7  21951821.930                    21951827.855
      1999.616        1558.143          46.800          47.200



 113542207.114 7  88474501.656 7  21606375.359                    21606382.066
     -2418.961       -1884.905          45.200          46.500



 108211866.131 8  84320971.675 8  20592041.359                    20592049.723
      -538.544        -419.644          49.100          50.500



 119769462.459 7  93326949.420 7  22791365.891                    22791373.285
      2853.854        2223.786          46.100          42.300



 130167441.700 6 101429269.894 6  24770047.430                    24770060.902
       171.146         133.354          38.500          37.300



 23 11  9  8 40  0.0000000  0 10G20G30G09G03G19G11G04G06G07G26
 123240486.931 7  96031579.89344  23451894.531                    23451901.563
      3195.289        2489.841          42.100          25.900



 131156699.174 6 102200119.216 6  24958293.773                    24958307.695
      3665.609        2856.307          36.900          39.800



 106113303.095 8  82685756.540 8  20192698.156                    20192705.480
      -496.685        -387.025          48.500          51.500



 127569694.828 6  99405031.867 6  24275734.883                    24275747.215
     -3281.405       -2556.930          39.900          38.700



 129523861.592 6 100927763.54843  24647609.008                    24647618.180
     -3522.070       -2744.455          38.400          21.700



 115297808.635 7  89842485.973 7  21940453.570                    21940459.781
      1983.536        1545.614          46.700          47.000



 113614920.151 7  88531161.078 7  21620212.109                    21620219.023
     -2428.195       -1892.099          44.900          46.300



 108228332.670 8  84333802.711 8  20595174.828                    20595182.926
      -558.508        -435.199          48.000          50.000



 119683986.473 7  93260344.836 7  22775100.500                    22775108.012
      2844.856        2216.768          45.800          42.700



 130162590.015 6 101425489.576 6  24769123.547                    24769137.223
       152.969         119.192          36.700          37.300



 23 11  9  8 40 30.0000000  0 10G20G30G09G03G19G11G04G06G07G26
 123144675.341 6  95956921.49144  23433662.086                    23433668.570
      3192.258        2487.479          41.100          24.200



 131046735.740 6 102114433.636 6  24937368.406                    24937382.719
      3665.294        2856.066          37.200          39.600



 106128433.400 8  82697546.356 8  20195577.328                    20195584.574
      -511.507        -398.578          50.700          51.700



 127668193.544 6  99481783.840 6  24294478.219                    24294491.395
     -3285.064       -2559.779          38.700          39.400



 129629539.169 6 101010109.55543  24667719.023                    24667727.840
     -3523.058       -2745.244          37.900          21.100



 115238552.466 7  89796312.327 7  21929178.164                    21929184.094
      1967.406        1533.044          46.700          47.000



 113687908.499 7  88588035.026 7  21634101.641                    21634108.672
     -2437.362       -1899.236          46.000          46.300



 108245397.636 8  84347100.063 8  20598422.500                    20598430.660
      -578.456        -450.746          50.000          49.800



 119598781.363 7  93193951.303 7  22758886.156                    22758893.672
      2835.781        2209.700          45.100          42.000



 130158284.744 6 101422135.046 6  24768304.016                    24768317.531
       134.683         104.937          37.100          36.900



 23 11  9  8 41  0.0000000  0 10G20G30G09G03G19G11G04G06G07G26
 123048955.218 6  95882334.36843  23415446.930                    23415453.793
      3189.182        2485.090          41.200          22.900



 130936781.678 6 102028755.289 6  24916443.742                    24916458.852
      3664.957        2855.806          37.400          39.400



 106144007.491 8  82709681.975 8  20198541.055                    20198548.340
      -526.272        -410.080          50.200          51.400



 127766800.309 6  99558620.025 6  24313243.016                    24313255.996
     -3288.625       -2562.560          40.000          39.500



 129735244.670 6 101092477.31643  24687834.250                    24687841.914
     -3523.886       -2745.890          37.100          20.900



 115179781.036 7  89750516.395 7  21917993.695                    21918000.234
      1951.215        1520.428          46.900          46.800



 113761170.436 7  88645122.165 7  21648042.672                    21648049.414
     -2446.439       -1906.312          45.400          46.600



 108263060.926 8  84360863.629 8  20601783.211                    20601791.582
      -598.408        -466.287          50.000          49.900



 119513849.056 7  93127770.356 7  22742723.641                    22742731.438
      2826.664        2202.592          45.700          42.000



 130154526.474 6 101419206.672 6  24767589.156                    24767602.035
       116.430          90.728          36.800          37.100



 23 11  9  8 41 30.0000000  0 10G20G30G09G03G19G11G04G06G07G26
 122953328.166 6  95807819.79044  23397250.195                    23397256.629
      3186.032        2482.623          40.500          25.300



 130826839.715 6 101943086.345 6  24895523.344                    24895537.109
      3664.459        2855.425          37.800          38.800



 106160024.684 8  82722162.866 8  20201588.758                    20201596.215
      -541.062        -421.604          50.100          51.100



 127865514.643 6  99635540.028 6  24332027.703                    24332040.789
     -3292.243       -2565.374          40.000          39.000



 129840975.452 6 101174864.80643  24707953.789                    24707963.074
     -3524.728       -2746.537          37.500          20.600



 115121496.765 7  89705100.066 7  21906903.281                    21906909.449
      1934.927        1507.734          46.300          47.500



 113834704.446 7  88702421.308 7  21662035.656                    21662043.477
     -2455.499       -1913.375          44.800          46.900



 108281322.546 8  84375093.425 8  20605258.422                    20605266.715
      -618.392        -481.857          50.200          50.000



 119429192.136 7  93061803.962 6  22726614.773                    22726621.418
      2817.412        2195.388          45.300          41.400



 130151316.011 6 101416705.192 6  24766977.867                    24766990.551
        98.181          76.490          36.200          36.500



 23 11  9  8 42  0.0000000  0 10G20G30G09G03G19G11G04G06G07G26
 122857795.564 6  95733378.78944  23379071.320                    23379077.531
      3182.894        2480.175          40.900          25.700



 130716911.925 6 101857428.435 6  24874604.648                    24874618.234
      3664.031        2855.092          38.700          38.100



 106176483.646 8  82734987.996 8  20204721.047                    20204728.508
      -555.731        -433.038          50.500          51.400



 127964335.379 6  99712542.910 6  24350832.547                    24350845.461
     -3295.713       -2568.076          40.200          38.800



 129946728.050 6 101257269.28643  24728078.266                    24728087.629
     -3525.401       -2747.057          37.700          19.900



 115063701.542 7  89660064.817 7  21895904.859                    21895911.188
      1918.626        1495.027          46.600          47.900



 113908508.406 7  88759930.808 7  21676080.313                    21676087.879
     -2464.442       -1920.338          45.700          47.200



 108300181.925 8  84389789.017 8  20608847.625                    20608855.969
      -638.268        -497.351          50.500          49.700



 119344812.762 7  92996053.813 6  22710557.461                    22710564.238
      2808.153        2188.172          46.400          41.100



 130148653.627 5 101414630.738 6  24766470.602                    24766484.172
        79.883          62.240          34.800          36.400



 23 11  9  8 42 30.0000000  0 10G20G30G09G03G19G11G04G06G07G26
 122762358.936 6  95659012.53544  23360910.148                    23360916.582
      3179.665        2477.662          41.800          25.100



 130607000.798 6 101771783.555 6  24853688.852                    24853703.340
      3663.409        2854.597          39.000          38.700



 106193383.400 8  82748156.599 8  20207937.008                    20207944.266
      -570.404        -444.465          50.400          52.000



 128063261.658 6  99789628.040 6  24369658.836                    24369670.094
     -3299.223       -2570.812          40.800          38.500



 130052499.068 6 101339688.15143  24748206.375                    24748215.410
     -3525.987       -2747.497          37.800          20.600



 115006397.560 7  89615412.353 8  21884999.820                    21885006.684
      1902.202        1482.235          45.900          48.300



 113982580.430 7  88817649.190 7  21690175.523                    21690183.352
     -2473.358       -1927.289          45.400          46.400



 108319638.842 8  84404950.219 8  20612550.430                    20612557.938
      -658.185        -512.876          50.200          49.800



 119260712.906 7  92930521.489 6  22694554.000                    22694560.844
      2798.805        2180.885          45.400          41.500



 130146539.783 5 101412983.621 6  24766069.117                    24766082.945
        61.632          48.016          35.200          38.300



 23 11  9  8 43  0.0000000  0 10G20G30G09G03G19G11G04G06G07G26
 122667019.628 6  95584722.12744  23342767.203                    23342774.141
      3176.387        2475.096          41.700          26.200



 130497108.529 6 101686153.452 6  24832777.320                    24832791.129
      3662.746        2854.077          39.500          38.300



 106210722.822 8  82761667.804 8  20211236.969                    20211244.004
      -585.034        -455.866          48.700          51.400



 128162292.531 6  99866794.688 6  24388502.797                    24388516.039
     -3302.719       -2573.538          39.400          39.600



 130158285.437 6 101422118.98443  24768336.422                    24768346.207
     -3526.428       -2747.854          36.100          19.600



 114949586.853 7  89571144.259 8  21874190.094                    21874196.375
      1885.717        1469.382          45.100          48.200



 114056918.658 7  88875574.999 7  21704321.859                    21704329.477
     -2482.197       -1934.179          45.600          46.400



 108339692.813 8  84420576.661 8  20616366.211                    20616374.285
      -678.068        -528.368          48.200          49.500



 119176895.015 7  92865208.876 6  22678604.008                    22678610.914
      2789.374        2173.534          45.300          41.600



 130144975.035 5 101411764.379 6  24765770.203                    24765784.539
        43.279          33.718          34.400          37.600



 23 11  9  8 43 30.0000000  0 10G20G30G09G03G19G11G04G06G07G26
 122571779.087 6  95510508.68644  23324644.445                    23324650.691
      3173.050        2472.503          41.600          24.900



 130387237.462 6 101600539.883 6  24811869.406                    24811883.117
      3661.977        2853.484          38.900          38.500



 106228500.953 8  82775520.867 8  20214619.945                    20214626.836
      -599.673        -467.278          50.500          51.900



 128261427.270 6  99944042.244 6  24407368.203                    24407381.375
     -3306.170       -2576.229          39.600          40.300



 130264083.994 6 101504559.33643  24788469.633                    24788477.438
     -3526.829       -2748.186          37.500          19.300



 114893271.584 7  89527262.227 8  21863473.258                    21863480.172
      1869.148        1456.480          45.600          48.300



 114131521.341 7  88933706.877 7  21718518.500                    21718525.641
     -2491.034       -1941.063          46.000          46.000



 108360343.610 8  84436668.155 8  20620295.711                    20620304.066
      -697.998        -543.891          49.700          49.900



 119093361.304 7  92800117.726 7  22662707.852                    22662715.527
      2779.827        2166.095          45.700          42.400



 130143959.813 6 101410973.328 5  24765578.453                    24765590.297
        24.949          19.448          36.100          35.200



 23 11  9  8 44  0.0000000  0 10G20G30G09G03G19G11G04G06G07G26
 122476638.826 7  95436373.36344  23306539.672                    23306545.348
      3169.722        2469.917          42.000          26.400



 130277389.716 6 101514944.470 6  24790966.328                    24790979.570
      3661.212        2852.881          38.600          37.700



 106246716.648 8  82789714.882 8  20218086.344                    20218093.371
      -614.218        -478.611          51.000          51.500



 128360664.975 6 100021370.056 6  24426253.258                    24426265.270
     -3309.556       -2578.865          39.900          39.600



 130369891.854 6 101587006.94143  24808604.672                    24808613.059
     -3527.009       -2748.325          39.000          20.600



 114837453.852 7  89483767.879 7  21852851.328                    21852858.148
      1852.570        1443.566          46.000          47.800



 114206386.532 7  88992043.293 7  21732764.523                    21732772.098
     -2499.691       -1947.807          45.500          45.700



 108381590.802 8  84453224.370 8  20624339.352                    20624347.078
      -717.832        -559.345          49.800          50.500



 119010113.717 7  92735249.499 7  22646866.648                    22646873.531
      2770.315        2158.688          45.800          42.400



 130143494.540 6 101410610.809 5  24765488.617                    24765501.887
         6.681           5.203          36.000          35.100



 23 11  9  8 44 30.0000000  0 11G20G30G16G09G03G19G11G04G06G07G26
 122381600.536 6  95362317.49444  23288454.211                    23288460.402
      3166.299        2467.246          40.800          25.200



 130167567.812 6 101429369.214 6  24770066.836                    24770080.898
      3660.296        2852.168          36.800          37.300



 131377781.199 5 102372396.86642  25000367.570                    25000384.113
      1930.511        1504.313          34.800          16.900



 106265369.011 8  82804249.161 8  20221635.602                    20221643.156
      -628.762        -489.946          50.800          51.900



 128460004.857 6 100098777.467 6  24445157.688                    24445169.320
     -3312.959       -2581.517          38.400          39.200



 130475705.389 6 101669458.93543  24828740.039                    24828747.809
     -3527.178       -2748.445          39.200          18.600



 114782135.824 7  89440662.920 7  21842324.695                    21842331.266
      1835.887        1430.564          45.700          47.900



 114281512.631 7  89050583.028 7  21747060.789                    21747068.008
     -2508.386       -1954.579          45.400          45.100



 108403434.060 8  84470245.058 8  20628495.867                    20628503.762
      -737.690        -574.822          50.200          49.700



 118927154.885 7  92670606.272 6  22631080.313                    22631086.746
      2760.630        2151.141          46.300          41.800



 130143579.808 6 101410677.225 6  24765506.164                    24765518.129
       -11.697          -9.114          36.800          36.000



 23 11  9  8 45  0.0000000  0 11G20G30G16G09G03G19G11G04G06G07G26
 122286665.582 6  95288342.17844  23270388.930                    23270394.738
      3162.816        2464.527          41.600          26.100



 130057774.087 6 101343815.974 6  24749173.438                    24749187.414
      3659.275        2851.370          37.600          38.400



 131320087.897 5 102327441.13642  24989388.516                    24989401.637
      1916.257        1493.193          34.100          15.600



 106284456.896 8  82819122.802 8  20225267.711                    20225275.008
      -643.292        -501.265          50.200          51.600



 128559445.949 6 100176263.742 6  24464079.617                    24464093.188
     -3316.343       -2584.147          38.800          39.800



 130581521.716 6 101751913.13643  24848876.141                    24848885.457
     -3527.227       -2748.467          38.400          18.600



 114727319.506 7  89397948.894 8  21831893.438                    21831900.227
      1819.090        1417.477          45.700          48.200



 114356897.630 7  89109324.501 7  21761406.641                    21761413.758
     -2516.984       -1961.286          45.400          45.900



 108425872.953 8  84487729.876 8  20632765.938                    20632773.871
      -757.554        -590.307          49.800          49.800



 118844486.796 7  92606189.584 6  22615349.047                    22615355.406
      2750.890        2143.554          46.300          41.800



 130144215.776 6 101411172.756 6  24765626.445                    24765640.527
       -30.094         -23.448          36.900          37.300



 23 11  9  8 45 30.0000000  0 11G20G30G16G09G03G19G11G04G06G07G26
 122191835.484 6  95214448.56644  23252343.086                    23252349.254
      3159.271        2461.765          40.500          27.700



 129948010.809 6 101258286.529 6  24728287.242                    24728299.406
      3658.203        2850.536          37.400          37.900



 131262826.049 5 102282821.68942  24978491.906                    24978503.688
      1901.754        1481.896          34.800          16.900



 106303979.152 8  82834334.928 8  20228982.789                    20228990.180
      -657.771        -512.553          50.000          51.700



 128658987.360 6 100253828.203 6  24483022.453                    24483035.023
     -3319.723       -2586.792          38.400          39.700



 130687337.587 6 101834366.95543  24869011.172                    24869022.336
     -3527.206       -2748.448          38.700          19.300



 114673006.894 7  89355627.377 7  21821558.461                    21821565.008
      1802.256        1404.356          47.100          47.900



 114432539.700 7  89168266.289 7  21775800.820                    21775808.234
     -2525.550       -1967.964          45.700          46.000



 108448906.919 8  84505678.386 8  20637148.930                    20637157.246
      -777.413        -605.775          50.300          50.000



 118762111.284 7  92542000.910 7  22599672.953                    22599679.934
      2741.081        2135.906          46.700          42.800



 130145402.815 5 101412097.710 6  24765852.742                    24765866.391
       -48.479         -37.780          35.900          37.900



 23 11  9  8 46  0.0000000  0 11G20G30G16G09G03G19G11G04G06G07G26
 122097111.793 7  95140637.87244  23234318.313                    23234324.031
      3155.753        2459.031          42.400          27.300



 129838280.497 6 101172782.864 6  24707404.391                    24707418.141
      3657.134        2849.701          37.800          39.200



 131205998.539 5 102238540.61842  24967678.523                    24967689.492
      1887.264        1470.627          35.100          16.300



 106323934.836 8  82849884.784 8  20232780.266                    20232787.219
      -672.168        -523.767          50.800          51.000



 128758628.379 6 100331470.279 6  24501984.094                    24501996.500
     -3322.992       -2589.334          39.300          39.500



 130793150.253 6 101916818.27143  24889147.805                    24889157.852
     -3526.983       -2748.294          38.400          19.300



 114619200.216 7  89313700.087 8  21811319.195                    21811326.266
      1785.382        1391.207          46.400          48.300



 114508437.142 7  89227407.052 7  21790243.438                    21790251.047
     -2534.003       -1974.541          45.400          47.100



 108472535.669 8  84524090.360 8  20641645.523                    20641653.996
      -797.194        -621.191          49.700          49.900



 118680031.074 7  92478042.340 7  22584054.219                    22584061.512
      2731.255        2128.249          46.200          43.100



 130147141.490 6 101413452.483 6  24766182.625                    24766197.262
       -66.848         -52.085          36.400          36.900



 23 11  9  8 46 30.0000000  0 11G20G30G16G09G03G19G11G04G06G07G26
 122002496.157 6  95066911.41744  23216313.641                    23216319.961
      3152.116        2456.193          41.600          28.100



 129728585.538 6 101087306.804 6  24686530.023                    24686543.355
      3655.975        2848.794          38.300          38.600



 131149608.329 5 102194600.34142  24956948.984                    24956958.992
      1872.647        1459.191          35.900          15.600



 106344322.939 8  82865771.592 8  20236659.992                    20236666.918
      -686.551        -534.969          51.100          51.200



 128858368.155 6 100409189.297 6  24520963.320                    24520976.582
     -3326.230       -2591.853          39.000          39.200



 130898956.493 6 101999264.57343  24909282.648                    24909291.664
     -3526.754       -2748.124          39.400          18.600



 114565901.576 7  89272168.661 8  21801177.430                    21801183.582
      1768.410        1377.984          47.100          48.100



 114584588.244 7  89286745.468 7  21804734.320                    21804742.344
     -2542.423       -1981.104          45.600          46.800



 108496758.747 8  84542965.434 8  20646255.039                    20646263.227
      -816.981        -636.609          50.000          49.700



 118598248.086 7  92414315.381 7  22568490.727                    22568498.734
      2721.312        2120.502          46.500          44.100



 130149432.089 6 101415237.296 6  24766619.008                    24766632.867
       -85.267         -66.439          36.100          36.600



 23 11  9  8 47  0.0000000  0 11G20G30G16G09G03G19G11G04G06G07G26
 121907990.057 7  94993270.28244  23198329.477                    23198335.836
      3148.420        2453.317          42.400          27.600



 129618928.257 6 101001860.154 6  24665662.000                    24665675.953
      3654.623        2847.742          38.200          39.600



 131093658.360 5 102151003.09242  24946301.148                    24946312.672
      1857.859        1447.695          35.900          16.300



 106365142.481 8  82881994.582 8  20240622.172                    20240629.039
      -700.950        -546.192          51.300          51.500



 128958205.952 6 100486984.697 6  24539962.172                    24539976.309
     -3329.507       -2594.407          38.300          39.800



 131004752.943 6 102081703.25743  24929415.695                    24929423.609
     -3526.407       -2747.825          39.800          18.300



 114513113.061 7  89231034.727 8  21791131.977                    21791138.602
      1751.362        1364.694          47.300          48.700



 114660991.284 7  89346280.208 7  21819273.641                    21819281.648
     -2550.824       -1987.648          45.100          46.800



 108521575.739 8  84562303.304 8  20650977.797                    20650985.773
      -836.810        -652.063          49.600          50.000



 118516764.538 7  92350821.770 7  22552984.898                    22552993.133
      2711.250        2112.658          45.700          45.100



 130152274.995 6 101417452.509 6  24767160.250                    24767173.031
      -103.625         -80.749          36.800          36.700



 23 11  9  8 47 30.0000000  0 11G20G30G16G09G03G19G11G04G06G07G26
 121813595.121 7  94919715.82044  23180366.570                    23180372.328
      3144.697        2450.413          42.600          27.200



 129509310.918 6 100916444.615 6  24644802.305                    24644815.949
      3653.226        2846.654          38.800          39.200



 131038151.251 5 102107750.96442  24935737.805                    24935749.578
      1843.104        1436.196          35.800          17.400



 106386392.307 8  82898552.863 8  20244666.016                    20244672.500
      -715.232        -557.324          51.000          51.100



 129058140.879 6 100564855.782 6  24558979.313                    24558992.863
     -3332.730       -2596.916          38.200          38.600



 131110536.695 6 102164132.03543  24949545.000                    24949552.211
     -3525.860       -2747.416          39.500          18.300



 114460836.698 7  89190299.873 8  21781183.852                    21781190.352
      1734.293        1351.403          47.400          48.400



 114737644.430 7  89406009.832 7  21833860.922                    21833868.375
     -2559.101       -1994.100          46.400          46.300



 108546986.101 8  84582103.537 8  20655812.969                    20655821.402
      -856.553        -667.444          49.700          50.300



 118435582.864 7  92287563.364 7  22537536.344                    22537544.043
      2701.152        2104.792          45.900          44.100



 130155670.514 6 101420098.339 5  24767805.750                    24767818.855
      -122.112         -95.150          36.100          35.900



 23 11  9  8 48  0.0000000  0 10G20G30G16G09G03G11G04G06G07G26
 121719313.297 7  94846249.47544  23162425.094                    23162430.961
      3140.873        2447.435          42.300          28.700



 129399736.145 6 100831062.256 6  24623951.180                    24623964.059
      3651.750        2845.502          39.000          40.200



 130983089.916 6 102064846.17342  24925261.414                    24925272.043
      1828.125        1424.494          37.100          17.400



 106408071.728 8  82915445.887 8  20248791.016                    20248798.547
      -729.575        -568.502          50.800          51.100



 129158172.529 6 100642802.209 6  24578014.781                    24578028.504
     -3335.980       -2599.459          38.400          39.600



 114409074.924 7  89149966.007 7  21771334.078                    21771340.543
      1717.044        1337.955          47.500          47.900



 114814546.317 7  89465933.279 7  21848494.461                    21848502.070
     -2567.410       -2000.578          46.000          46.700



 108572989.665 8  84602366.004 8  20660761.484                    20660769.363
      -876.351        -682.869          49.700          49.100



 118354705.574 7  92224542.152 7  22522145.555                    22522152.941
      2690.973        2096.855          45.400          43.100



 130159619.260 6 101423175.261 5  24768557.516                    24768570.332
      -140.551        -109.521          36.600          34.700



 23 11  9  8 48 30.0000000  0 10G20G30G16G09G03G11G04G06G07G26
 121625145.836 7  94772872.24544  23144506.063                    23144511.828
      3137.043        2444.458          42.500          28.000



 129290206.015 6 100745714.606 6  24603107.688                    24603120.449
      3650.276        2844.351          39.200          39.400



 130928476.616 6 102022290.52642  24914868.750                    24914879.711
      1813.207        1412.876          38.100          16.900



 106430179.297 8  82932672.531 8  20252998.148                    20253005.402
      -743.812        -579.593          50.200          51.300



 129258299.621 6 100720823.024 6  24597068.273                    24597082.656
     -3339.121       -2601.907          38.300          39.100



 114357829.341 7  89110034.364 8  21761582.727                    21761589.422
      1699.841        1324.550          47.500          48.800



 114891694.764 7  89526048.852 7  21863175.164                    21863182.727
     -2575.574       -2006.936          45.800          45.900



 108599585.529 8  84623089.997 8  20665822.547                    20665830.848
      -896.071        -698.235          49.600          49.400



 118274134.105 7  92161759.257 7  22506813.422                    22506821.336
      2680.759        2088.901          45.800          43.500



 130164121.189 6 101426683.195 5  24769414.125                    24769427.852
      -158.972        -123.870          36.200          35.800



 23 11  9  8 49  0.0000000  0 10G20G30G16G09G03G11G04G06G07G26
 121531094.176 7  94699585.27844  23126609.359                    23126614.090
      3133.209        2441.457          42.900          29.500



 129180722.747 6 100660403.430 6  24582273.711                    24582286.363
      3648.715        2843.145          40.500          40.100



 130874313.977 6 101980086.04342  24904560.773                    24904572.730
      1798.151        1401.147          36.300          16.900



 106452713.904 8  82950231.932 8  20257286.523                    20257293.492
      -757.993        -590.641          50.200          51.400



 129358521.310 6 100798917.546 6  24616140.883                    24616155.027
     -3342.214       -2604.308          39.900          39.100



 114307101.965 8  89070506.503 8  21751929.719                    21751935.891
      1682.576        1311.102          48.100          48.100



 114969088.047 7  89586355.200 7  21877902.969                    21877910.473
     -2583.683       -2013.255          46.100          45.900



 108626773.073 8  84644275.053 8  20670995.953                    20671004.125
      -915.750        -713.568          48.000          49.300



 118193871.229 7  92099216.802 7  22491540.539                    22491547.070
      2670.481        2080.891          46.600          43.200



 130169176.499 6 101430622.340 6  24770376.758                    24770390.664
      -177.370        -138.206          36.800          37.600



 23 11  9  8 49 30.0000000  0 10G20G30G16G09G03G11G04G06G07G26
 121437159.857 7  94626389.70644  23108733.359                    23108739.137
      3129.258        2438.375          42.300          27.600



 129071288.678 6 100575130.531 6  24561447.680                    24561461.461
      3646.967        2841.780          40.800          39.000



 130820604.527 5 101938234.75342  24894339.797                    24894352.094
      1782.959        1389.307          35.200          16.900



 106475674.387 8  82968123.173 8  20261656.000                    20261662.711
      -772.220        -601.728          50.700          50.900



 129458836.670 6 100877085.081 6  24635230.930                    24635243.941
     -3345.348       -2606.759          39.900          39.000



 114256894.650 7  89031383.902 8  21742375.555                    21742381.996
      1665.182        1297.547          47.800          48.400



 115046724.250 7  89646850.846 7  21892676.828                    21892684.434
     -2591.762       -2019.558          45.700          45.800



 108654551.606 8  84665920.604 8  20676282.578                    20676290.379
      -935.470        -728.931          49.300          49.600



 118113918.233 7  92036915.822 7  22476325.945                    22476332.617
      2660.058        2072.767          47.300          43.000



 130174785.199 6 101434992.715 6  24771443.188                    24771457.613
      -195.859        -152.616          37.900          37.100



 23 11  9  8 50  0.0000000  0 10G20G30G16G09G03G11G04G06G07G26
 121343344.513 7  94553286.83844  23090880.883                    23090885.922
      3125.226        2435.241          42.500          28.600



 128961906.020 6 100489897.598 6  24540633.828                    24540645.813
      3645.192        2840.405          40.600          39.100



 130767351.044 5 101896738.66742  24884205.172                    24884217.801
      1767.711        1377.433          33.400          15.600



 106499059.474 8  82986345.277 8  20266105.883                    20266113.137
      -786.359        -612.740          50.500          50.900



 129559244.788 6 100955324.856 6  24654338.203                    24654351.965
     -3348.396       -2609.128          40.100          39.800



 114207209.339 7  88992668.040 8  21732920.461                    21732926.836
      1647.711        1283.934          47.600          48.600



 115124601.615 7  89707534.405 7  21907496.195                    21907503.973
     -2599.800       -2025.815          46.900          45.300



 108682920.472 8  84688026.169 8  20681680.727                    20681689.008
      -955.165        -744.280          49.300          49.800



 118034277.508 7  91974858.162 7  22461170.719                    22461177.293
      2649.621        2064.634          47.800          42.800



 130180947.426 5 101439794.412 6  24772616.273                    24772630.020
      -214.344        -167.012          35.700          37.800



 23 11  9  8 50 30.0000000  0 10G20G30G16G09G03G11G04G06G07G26
 121249649.659 7  94480277.88144  23073050.977                    23073058.086
      3121.213        2432.116          42.700          29.500



 128852577.028 6 100404706.385 6  24519828.523                    24519841.883
      3643.414        2839.015          40.400          39.400



 130714556.107 5 101855599.93342  24874159.336                    24874170.531
      1752.397        1365.499          33.300          15.600



 106522868.048 8  83004897.374 8  20270636.281                    20270643.301
      -800.432        -623.711          50.400          51.900



 129659744.770 6 101033636.240 6  24673462.648                    24673476.527
     -3351.484       -2611.538          39.900          38.300



 114158047.899 7  88954360.394 8  21723564.961                    21723571.570
      1630.270        1270.335          47.100          48.000



 115202718.267 7  89768404.433 7  21922361.563                    21922369.203
     -2607.727       -2031.990          46.000          46.500



 108711878.885 8  84710591.119 8  20687191.688                    20687199.473
      -974.783        -759.572          49.800          50.000



 117954951.192 7  91913045.532 7  22446075.680                    22446082.027
      2639.108        2056.446          47.800          42.700



 130187663.289 5 101445027.550 6  24773894.063                    24773907.582
      -232.817        -181.411          35.100          37.200



 23 11  9  8 51  0.0000000  0 10G20G30G16G09G03G11G04G06G07G26
 121156077.128 7  94407364.23244  23055245.188                    23055250.840
      3117.109        2428.914          42.300          29.400



 128743304.213 6 100319558.883 6  24499034.289                    24499047.066
      3641.520        2837.554          40.200          38.100



 130662222.190 5 101814820.34642  24864199.914                    24864210.926
      1737.083        1353.583          33.800          16.300



 106547099.072 8  83023778.650 8  20275247.609                    20275254.867
      -814.479        -634.655          50.500          51.100



 129760335.847 6 101112018.643 6  24692604.648                    24692618.285
     -3354.479       -2613.867          39.200          37.800



 114109412.345 7  88916462.522 8  21714310.492                    21714316.543
      1612.707        1256.655          47.600          48.300



 115281072.534 7  89829459.606 7  21937272.219                    21937279.953
     -2615.590       -2038.119          45.700          46.300



 108741426.268 8  84733615.002 8  20692814.375                    20692822.191
      -994.388        -774.844          50.100          49.500



 117875941.704 7  91851479.750 7  22431040.391                    22431047.426
      2628.548        2048.219          47.800          42.200



 130194932.968 5 101450692.195 6  24775277.734                    24775291.555
      -251.240        -195.766          35.900          37.300



 23 11  9  8 51 30.0000000  0 10G20G30G16G09G03G11G04G06G07G26
 121062628.236 7  94334546.91744  23037462.258                    23037468.129
      3112.943        2425.675          42.400          28.800



 128634089.962 6 100234456.953 6  24478252.023                    24478264.188
      3639.527        2835.997          38.300          38.200



 130610351.870 6 101774402.10642  24854330.078                    24854340.895
      1721.535        1341.439          36.100          16.300



 106571751.432 8  83042988.238 8  20279938.813                    20279946.156
      -828.521        -645.597          50.900          51.200



 129861017.090 6 101190471.267 6  24711763.656                    24711777.945
     -3357.470       -2616.197          39.000          38.300



 114061304.664 7  88878975.978 8  21705155.695                    21705162.051
      1595.063        1242.909          47.600          48.000



 115359662.692 7  89890698.596 7  21952227.148                    21952235.105
     -2623.448       -2044.243          46.700          46.200



 108771561.947 8  84757097.298 8  20698549.008                    20698556.695
     -1013.995        -790.123          50.500          49.100



 117797250.948 7  91790162.332 7  22416066.289                    22416072.879
      2617.862        2039.889          47.300          42.600



 130202756.551 5 101456788.429 6  24776765.469                    24776780.824
      -269.744        -210.182          35.300          37.200



 23 11  9  8 52  0.0000000  0 10G20G30G16G09G03G11G04G06G07G26
 120969304.656 7  94261827.26044  23019703.016                    23019709.332
      3108.756        2422.407          43.400          29.300



 128524936.800 6 100149402.582 6  24457479.805                    24457493.371
      3637.470        2834.391          38.600          38.400



 130558947.947 5 101734347.22842  24844547.828                    24844559.730
      1705.946        1329.312          34.400          14.800



 106596824.068 8  83062525.324 8  20284710.055                    20284717.234
      -842.522        -656.513          50.700          51.300



 129961787.765 6 101268993.598 6  24730939.719                    24730953.742
     -3360.467       -2618.538          36.800          38.100



 114013726.798 7  88841902.290 8  21696102.094                    21696108.078
      1577.370        1229.121          47.000          48.000



 115438487.057 7  89952120.078 7  21967227.195                    21967235.363
     -2631.235       -2050.307          46.800          46.100



 108802285.280 8  84781037.514 8  20704395.156                    20704403.340
     -1033.584        -805.389          49.700          49.600



 117718881.196 7  91729095.060 7  22401152.438                    22401159.422
      2607.115        2031.512          46.900          43.200



 130211134.237 6 101463316.455 6  24778361.164                    24778374.941
      -288.198        -224.564          36.700          37.200



 23 11  9  8 52 30.0000000  0 10G20G30G16G09G03G11G04G06G07G26
 120876108.019 7  94189206.51944  23001968.859                    23001974.969
      3104.531        2419.116          42.400          29.600



 128415846.922 6 100064397.506 6  24436721.609                    24436734.105
      3635.286        2832.683          38.600          38.500



 130508012.850 5 101694657.66542  24834854.383                    24834866.891
      1690.316        1317.099          34.800          15.600



 106622315.603 8  83082388.817 8  20289560.906                    20289568.379
      -856.435        -667.353          50.800          51.200



 130062646.757 6 101347584.730 6  24750132.688                    24750147.418
     -3363.337       -2620.771          37.500          37.300



 113966680.469 7  88805242.759 8  21687148.984                    21687155.238
      1559.643        1215.308          46.200          48.000



 115517543.714 7  90013722.573 7  21982271.281                    21982279.293
     -2638.920       -2056.297          46.600          45.900



 108833595.297 8  84805434.887 8  20710353.578                    20710361.383
     -1053.085        -820.580          49.700          49.800



 117640834.084 7  91668279.203 7  22386300.266                    22386307.586
      2596.366        2023.141          46.300          43.900



 130220065.827 6 101470276.059 5  24780061.492                    24780073.586
      -306.616        -238.927          37.400          35.000



 23 11  9  8 53  0.0000000  0 10G20G30G16G09G03G11G04G06G07G26
 120783039.889 7  94116685.90345  22984258.398                    22984265.398
      3100.194        2415.733          43.200          30.500



 128306822.941 6  99979443.741 6  24415974.938                    24415987.266
      3633.067        2830.967          38.900          38.400



 130457549.087 5 101655335.27742  24825251.117                    24825263.305
      1674.487        1304.792          34.300          14.800



 106648225.146 8  83102578.025 8  20294491.117                    20294498.797
      -870.363        -678.202          50.500          50.800



 130163593.646 6 101426244.343 6  24769341.383                    24769357.066
     -3366.341       -2623.117          36.400          37.600



 113920167.753 7  88768999.048 7  21678298.258                    21678304.359
      1541.803        1201.403          46.400          47.500



 115596831.158 7  90075504.892 7  21997359.063                    21997366.734
     -2646.630       -2062.310          46.100          46.000



 108865491.469 8  84830289.002 8  20716423.234                    20716431.270
     -1072.645        -835.826          49.300          49.500



 117563112.121 7  91607716.732 7  22371510.398                    22371517.801
      2585.489        2014.658          46.700          44.500



 130229551.563 6 101477667.489 6  24781867.492                    24781878.375
      -325.101        -253.322          38.200          36.100



 23 11  9  8 53 30.0000000  0 10G20G30G16G09G03G11G04G06G07G26
 120690101.977 7  94044266.75344  22966573.047                    22966579.223
      3095.793        2412.311          43.300          29.600



 128197867.278 6  99894543.268 6  24395241.250                    24395253.598
      3630.736        2829.143          39.000          39.400



 130407559.410 5 101616382.36042  24815738.539                    24815750.703
      1658.670        1292.485          35.400          14.800



 106674551.469 8  83123092.006 8  20299500.805                    20299508.234
      -884.253        -689.032          50.800          51.100



 130264627.307 6 101504971.599 6  24788568.656                    24788583.090
     -3369.189       -2625.337          37.000          37.700



 113874190.527 7  88733172.597 8  21669549.117                    21669555.359
      1523.934        1187.479          47.500          48.300



 115676347.585 7  90137465.646 7  22012490.797                    22012498.563
     -2654.211       -2068.216          46.300          45.700



 108897972.923 8  84855599.191 8  20722604.328                    20722612.195
     -1092.153        -851.029          50.100          50.000



 117485717.176 7  91547409.061 7  22356782.242                    22356790.059
      2574.540        2006.135          46.800          43.900



 130239591.411 6 101485490.607 6  24783776.766                    24783790.262
      -343.602        -267.737          38.400          36.300



 23 11  9  8 54  0.0000000  0 10G20G30G16G09G03G11G04G06G07G26
 120597295.930 7  93971950.35144  22948912.781                    22948918.918
      3091.414        2408.895          43.400          29.700



 128088981.945 6  99809697.617 6  24374521.234                    24374533.129
      3628.342        2827.277          40.000          39.600



 130358046.102 6 101577800.58742  24806317.016                    24806328.832
      1642.726        1280.051          36.400          17.400



 106701293.052 8  83143929.561 8  20304589.742                    20304597.039
      -898.086        -699.805          50.400          50.300



 130365746.581 6 101583765.619 6  24807810.883                    24807825.754
     -3371.974       -2627.499          37.600          38.000



 113828750.206 7  88697764.527 8  21660902.148                    21660908.125
      1505.997        1173.499          47.200          48.200



 115756090.847 7  90199603.163 7  22027665.000                    22027673.758
     -2661.734       -2074.078          46.400          45.100



 108931038.474 8  84881364.517 8  20728896.211                    20728904.395
     -1111.569        -866.154          49.500          50.500



 117408650.977 7  91487357.547 7  22342117.164                    22342124.672
      2563.561        1997.577          45.200          43.800



 130250184.903 6 101493745.124 6  24785791.961                    24785807.336
      -362.034        -282.097          37.400          37.900



 23 11  9  8 54 30.0000000  0 10G20G30G16G09G03G11G04G06G07G26
 120504623.460 7  93899738.04944  22931277.516                    22931283.152
      3086.949        2405.416          43.700          28.300



 127980169.494 6  99724908.816 6  24353814.859                    24353826.977
      3625.905        2825.373          40.300          39.900



 130309011.195 5 101539591.68442  24796985.664                    24796997.582
      1626.824        1267.636          35.400          15.600



 106728448.889 8  83165089.897 8  20309757.617                    20309764.520
      -911.819        -710.507          50.400          50.700



 130466950.735 6 101662625.746 6  24827070.203                    24827084.762
     -3374.776       -2629.684          37.200          37.800



 113783848.792 7  88662776.373 7  21652357.047                    21652363.633
      1488.059        1159.523          47.300          47.900



 115836059.469 7  90261916.277 7  22042882.492                    22042890.504
     -2669.181       -2079.880          45.600          44.600



 108964687.458 8  84907584.468 8  20735299.516                    20735308.383
     -1130.970        -881.275          50.000          50.000



 117331915.864 7  91427564.034 7  22327515.047                    22327522.297
      2552.528        1988.983          45.800          44.500



 130261332.358 6 101502431.300 6  24787913.930                    24787928.164
      -380.462        -296.458          38.000          38.000



 23 11  9  8 55  0.0000000  0 10G20G30G16G09G03G11G04G06G07G26
 120412086.215 7  93827631.10444  22913668.516                    22913674.754
      3082.364        2401.845          43.200          28.400



 127871432.357 6  99640178.731 6  24333122.070                    24333135.223
      3623.345        2823.382          39.900          41.000



 130260457.607 6 101501757.82242  24787747.023                    24787757.852
      1610.654        1255.022          36.600          17.400



 106756017.930 8  83186572.228 8  20315003.656                    20315010.809
      -925.606        -721.249          50.400          50.200



 130568239.159 6 101741551.521 6  24846344.109                    24846359.105
     -3377.639       -2631.917          37.200          37.100



 113739488.229 7  88628209.666 8  21643915.930                    21643922.570
      1469.974        1145.442          46.300          48.800



 115916251.802 7  90324403.706 7  22058143.570                    22058151.027
     -2676.678       -2085.719          45.400          45.100



 108998919.156 8  84934258.485 8  20741813.648                    20741822.145
     -1150.450        -896.457          50.000          49.400



 117255513.918 7  91368030.122 7  22312975.930                    22312983.180
      2541.332        1980.257          45.300          43.800



 130273033.683 6 101511549.040 6  24790140.313                    24790154.926
      -398.996        -310.898          37.300          38.000



 23 11  9  8 55 30.0000000  0 10G20G30G16G09G03G11G04G06G07G26
 120319685.759 7  93755630.74544  22896085.406                    22896091.402
      3077.794        2398.288          43.300          27.500



 127762772.962 6  99555509.268 6  24312445.313                    24312457.754
      3620.718        2821.332          39.900          39.900



 130212388.237 6 101464301.24542  24778599.547                    24778610.176
      1594.537        1242.462          36.900          17.400



 106783998.941 8  83208375.574 8  20320328.156                    20320335.734
      -939.310        -731.931          50.300          50.700



 130669610.748 6 101820542.168 6  24865635.563                    24865650.141
     -3380.369       -2634.042          38.000          36.900



 113695670.312 7  88594065.812 8  21635577.656                    21635584.051
      1451.846        1131.313          46.600          48.400



 115996666.103 7  90387064.105 7  22073445.727                    22073453.547
     -2684.021       -2091.438          45.300          44.200



 109033732.577 8  84961385.785 8  20748438.734                    20748447.465
     -1169.802        -911.533          49.600          50.200



 117179447.392 7  91308757.557 7  22298501.172                    22298508.500
      2530.131        1971.524          45.900          44.700



 130285288.707 6 101521098.243 6  24792472.359                    24792486.902
      -417.404        -325.247          36.700          36.900



 23 11  9  8 56  0.0000000  0 10G20G30G16G09G03G11G04G06G07G26
 120227423.784 7  93683738.30244  22878527.875                    22878533.953
      3073.180        2394.686          42.000          27.600



 127654193.584 6  99470902.179 6  24291783.172                    24291795.473
      3618.012        2819.220          40.300          39.900



 130164804.953 6 101427223.47142  24769543.109                    24769555.508
      1578.245        1229.789          36.700          16.900



 106812390.724 8  83230499.008 8  20325730.797                    20325738.328
      -952.970        -742.574          50.700          50.800



 130771064.743 6 101899597.014 6  24884941.641                    24884956.465
     -3383.068       -2636.157          36.700          37.200



 113652396.774 7  88560346.141 8  21627343.242                    21627349.609
      1433.679        1117.154          47.000          48.700



 116077300.607 7  90449896.098 7  22088789.625                    22088797.434
     -2691.307       -2097.117          44.900          45.700



 109069126.830 8  84988965.673 8  20755173.797                    20755182.063
     -1189.132        -926.595          49.700          49.800



 117103717.985 7  91249747.691 7  22284090.445                    22284096.855
      2518.865        1962.759          46.800          44.000



 130298097.418 6 101531078.918 6  24794909.797                    24794924.246
      -435.815        -339.587          37.100          36.100



 23 11  9  8 56 30.0000000  0 10G20G30G16G09G03G11G04G06G07G26
 120135302.056 7  93611955.12844  22860997.773                    22861004.227
      3068.438        2390.984          42.100          27.200



 127545696.664 6  99386359.344 6  24271136.859                    24271149.070
      3615.188        2817.018          40.000          40.300



 130117710.246 5 101390526.37842  24760581.453                    24760593.656
      1561.923        1217.104          35.200          17.400



 106841192.153 8  83252941.632 8  20331211.836                    20331219.523
      -966.646        -753.230          50.300          50.800



 130872600.282 6 101978715.382 6  24904263.641                    24904277.391
     -3385.841       -2638.307          39.300          36.600



 113609669.421 7  88527052.079 8  21619212.289                    21619218.570
      1415.420        1102.927          46.600          48.100



 116158153.672 7  90512898.380 7  22104175.719                    22104183.590
     -2698.617       -2102.813          45.800          45.500



 109105101.033 8  85016997.487 8  20762019.586                    20762028.055
     -1208.492        -941.677          50.400          50.200



 117028327.934 7  91191002.254 7  22269743.836                    22269751.160
      2507.501        1953.895          46.200          43.800



 130311459.719 6 101541490.968 5  24797452.195                    24797466.500
      -454.308        -354.004          36.900          35.100



 23 11  9  8 57  0.0000000  0 10G20G30G16G09G03G11G04G06G07G26
 120043322.171 7  93540282.48244  22843494.586                    22843500.715
      3063.674        2387.275          42.000          28.600



 127437284.449 6  99301882.508 6  24250506.484                    24250518.262
      3612.350        2814.811          39.300          40.500



 130071106.714 5 101354212.06342  24751713.508                    24751725.281
      1545.514        1204.282          34.800          15.600



 106870401.997 8  83275702.503 8  20336770.188                    20336777.387
      -980.245        -763.826          50.200          50.000



 130974216.404 6 102057896.602 6  24923600.570                    24923614.109
     -3388.512       -2640.390          38.300          36.300



 113567490.012 7  88494184.984 8  21611185.711                    21611192.664
      1397.120        1088.665          46.500          48.600



 116239223.586 7  90576069.646 7  22119602.594                    22119610.883
     -2705.805       -2108.417          45.000          45.800



 109141654.174 8  85045480.412 8  20768975.336                    20768983.984
     -1227.782        -956.713          50.000          49.900



 116953279.206 7  91132522.782 7  22255462.602                    22255470.133
      2496.088        1945.000          47.000          45.100



 130325375.511 6 101552334.318 6  24800100.586                    24800114.727
      -472.785        -368.406          36.300          36.600



 23 11  9  8 57 30.0000000  0 10G20G30G16G09G03G11G04G06G07G26
 119951485.643 7  93468721.55844  22826018.859                    22826024.969
      3058.889        2383.548          42.400          28.400



 127328959.664 6  99217473.765 6  24229892.133                    24229904.820
      3609.423        2812.540          40.200          40.300



 130024996.864 5 101318282.44942  24742939.109                    24742951.809
      1529.043        1191.453          34.800          16.300



 106900019.360 8  83298780.929 8  20342406.656                    20342413.688
      -993.784        -774.378          49.900          51.000



 131075912.663 6 102137140.194 6  24942953.047                    24942967.082
     -3391.147       -2642.436          37.500          36.500



 113525860.526 7  88461746.403 8  21603264.117                    21603270.520
      1378.781        1074.374          47.200          48.400



 116320508.932 7  90639408.770 7  22135071.250                    22135079.219
     -2712.962       -2113.992          45.900          46.400



 109178785.556 8  85074413.914 8  20776041.234                    20776049.457
     -1247.014        -971.698          49.400          49.800



 116878573.985 7  91074310.979 7  22241246.820                    22241253.863
      2484.627        1936.071          47.000          44.600



 130339844.782 6 101563608.987 6  24802854.516                    24802868.633
      -491.228        -382.774          37.300          36.900



 23 11  9  8 58  0.0000000  0 10G20G30G16G09G03G11G04G06G07G26
 119859794.605 7  93397274.00644  22808570.594                    22808577.313
      3054.034        2379.763          43.200          28.200



 127220724.251 6  99133134.644 6  24209295.633                    24209307.988
      3606.380        2810.159          39.600          40.200



 129979382.671 6 101282738.98442  24734259.266                    24734270.984
      1512.487        1178.557          36.600          14.800



 106930042.579 8  83322175.604 8  20348119.500                    20348126.918
     -1007.297        -784.905          49.600          50.700



 131177687.632 6 102216445.195 6  24962320.281                    24962334.828
     -3393.752       -2644.482          37.500          36.300



 113484782.250 7  88429737.342 8  21595447.250                    21595453.977
      1360.394        1060.046          47.700          48.700



 116402007.555 7  90702914.073 7  22150579.930                    22150587.988
     -2720.036       -2119.503          43.400          46.200



 109216493.770 8  85103796.890 8  20783216.734                    20783225.195
     -1266.189        -986.644          48.800          49.900



 116804213.896 8  91016368.095 7  22227096.969                    22227103.520
      2473.103        1927.087          48.100          43.700



 130354866.902 6 101575314.505 6  24805713.344                    24805727.367
      -509.618        -397.106          39.000          37.700



 23 11  9  8 58 30.0000000  0 10G20G30G16G09G03G11G04G06G07G26
 119768250.653 7  93325941.04844  22791150.938                    22791156.109
      3049.091        2375.916          43.300          28.900



 127112580.636 6  99048867.019 6  24188716.398                    24188728.855
      3603.265        2807.737          40.000          41.700



 129934266.782 6 101247583.77542  24725674.266                    24725684.852
      1495.818        1165.593          36.600          16.300



 106960470.506 8  83345885.639 8  20353909.578                    20353917.176
     -1020.780        -795.407          50.200          50.700



 131279540.514 6 102295810.885 6  24981702.625                    24981716.758
     -3396.310       -2646.461          39.200          36.800



 113444256.998 7  88398159.187 8  21587735.656                    21587741.918
      1341.921        1045.656          47.100          48.400



 116483717.900 7  90766584.357 7  22166128.984                    22166136.664
     -2727.080       -2124.998          45.000          45.500



 109254777.897 8  85133628.627 8  20790502.109                    20790510.871
     -1285.417       -1001.618          49.800          50.100



 116730200.972 7  90958695.722 7  22213012.063                    22213019.070
      2461.493        1918.045          47.600          43.200



 130370441.815 6 101587450.804 6  24808677.242                    24808691.414
      -528.036        -411.456          38.400          36.800



 23 11  9  8 59  0.0000000  0 10G20G30G16G09G03G11G04G06G07G26
 119676855.438 7  93254724.00644  22773758.141                    22773764.785
      3044.110        2372.035          42.400          29.100



 127004531.238 6  98964672.809 6  24168155.211                    24168167.477
      3600.144        2805.298          39.400          41.700



 129889651.032 6 101212818.28642  24717183.719                    24717194.305
      1479.184        1152.600          36.100          15.600



 106991302.038 8  83369910.168 8  20359777.203                    20359784.523
     -1034.190        -805.863          50.200          51.000



 131381470.559 6 102375236.710 5  25001099.000                    25001112.543
     -3398.890       -2648.484          38.100          35.200



 113404286.481 7  88367013.313 8  21580129.367                    21580136.051
      1323.430        1031.245          47.000          48.200



 116565638.311 7  90830418.315 7  22181718.594                    22181726.168
     -2734.030       -2130.408          45.400          45.900



 109293636.861 8  85163908.284 8  20797896.656                    20797905.348
     -1304.535       -1016.520          49.400          49.800



 116656537.320 8  90901295.487 7  22198994.977                    22199000.543
      2449.846        1908.973          48.000          42.800



 130386569.304 6 101600017.711 6  24811745.758                    24811761.027
      -546.443        -425.805          37.600          38.300



 23 11  9  8 59 30.0000000  0 10G20G30G16G09G03G11G04G06G07G26
 119585610.563 7  93183624.10045  22756394.641                    22756401.309
      3039.063        2368.102          42.200          30.000



 126896578.524 6  98880553.954 6  24147612.305                    24147625.074
      3596.823        2802.718          38.900          41.600



 129845538.116 6 101178444.63642  24708789.750                    24708799.621
      1462.320        1139.451          36.900          16.300



 107022535.890 8  83394248.200 8  20365720.398                    20365727.727
     -1047.608        -816.314          49.400          50.800



 131483476.727 5 102454721.857 6  25020510.016                    25020525.363
     -3401.383       -2650.417          35.700          37.900



 113364872.297 7  88336300.941 7  21572629.156                    21572635.387
      1304.842        1016.762          47.800          47.900



 116647767.082 7  90894414.650 7  22197347.414                    22197354.684
     -2740.976       -2135.821          45.600          45.700



 109333069.656 8  85194635.092 8  20805401.031                    20805409.313
     -1323.667       -1031.427          49.100          49.800



 116583224.854 8  90844168.908 7  22185043.852                    22185050.086
      2438.067        1899.791          48.600          42.900



 130403248.993 6 101613014.957 6  24814919.930                    24814934.805
      -564.868        -440.157          38.300          37.900



                            4  1
RINEX FILE SPLICE; other post-header comments skipped       COMMENT
 23 11  9  9  0  0.0000000  0 10G20G30G16G09G03G11G04G06G07G26
 119494517.708 7  93112642.66144  22739060.953                    22739066.598
                                        43.600          28.800



 126788725.095 6  98796512.444 6  24127089.188                    24127101.383
                                        40.500          41.700



 129801930.216 6 101144464.29742  24700490.609                    24700502.563
                                        36.800          15.600



 107054171.091 8  83418898.965 8  20371740.516                    20371748.359
                                        49.500          50.900



 131585558.574 5 102534265.896 6  25039935.094                    25039949.926
                                        35.300          36.600



 113326016.439 7  88306023.613 8  21565235.352                    21565241.547
                                        47.300          48.700



 116730102.766 7  90958572.220 7  22213014.977                    22213022.824
                                        46.300          45.100



 109373075.371 8  85225808.335 8  20813013.445                    20813022.379
                                        50.000          49.700



 116510265.764 8  90787317.699 7  22171159.883                    22171166.461
                                        48.300          43.100



 130420480.907 6 101626442.561 6  24818199.250                    24818213.625
                                        37.200          37.600



 23 11  9  9  0 30.0000000  0 10G20G30G16G09G03G11G04G06G07G26
 119403578.679 7  93041781.07044  22721755.195                    22721761.223
      3028.800        2360.114          42.600          28.600



 126680973.144 6  98712550.023 6  24106583.844                    24106596.359
      3590.093        2797.465          40.900          41.600



 129758829.660 5 101110879.38542  24692288.305                    24692300.547
      1428.468        1113.105          35.900          16.300



 107086206.211 8  83443861.366 8  20377836.492                    20377844.031
     -1074.260        -837.090          49.200          50.900



 131687714.820 6 102613867.943 5  25059375.664                    25059389.883
     -3406.446       -2654.361          36.700          35.800



 113287720.253 7  88276182.417 7  21557947.570                    21557954.141
      1267.493         987.658          47.600          47.900



 116812643.533 7  91022889.592 7  22228721.719                    22228729.547
     -2754.653       -2146.475          45.900          45.100



 109413652.794 8  85257427.054 8  20820735.539                    20820744.109
     -1361.776       -1061.128          49.500          49.900



 116437661.882 7  90730743.257 7  22157344.016                    22157350.148
      2414.386        1881.338          46.600          43.900



 130438264.494 6 101640300.053 6  24821582.359                    24821596.492
      -601.659        -468.832          37.700          36.800



 23 11  9  9  1  0.0000000  0 10G20G30G16G09G03G11G04G06G07G26
 119312795.269 7  92971040.73144  22704479.844                    22704486.043
      3023.587        2356.038          43.600          28.700



 126573324.622 6  98628668.196 6  24086099.406                    24086111.434
      3586.587        2794.739          41.000          41.400



 129716239.043 6 101077691.74142  24684184.695                    24684196.027
      1411.441        1099.819          36.600          15.600



 107118639.557 8  83469134.066 8  20384008.414                    20384015.973
     -1087.556        -847.446          50.000          50.000



 131789944.092 6 102693526.900 6  25078829.555                    25078844.770
     -3408.831       -2656.227          37.200          37.100



 113249984.883 8  88246778.205 8  21550767.313                    21550773.746
      1248.755         973.056          48.300          48.600



 116895387.193 7  91087365.065 7  22244467.883                    22244475.465
     -2761.387       -2151.728          45.800          45.100



 109454800.223 8  85289489.931 8  20828565.430                    20828573.793
     -1380.781       -1075.932          49.800          49.300



 116365414.634 7  90674446.734 7  22143595.594                    22143602.355
      2402.435        1872.027          47.600          44.300



 130456598.864 6 101654586.762 6  24825071.375                    24825085.168
      -620.034        -483.144          38.000          36.900



 23 11  9  9  1 30.0000000  0 10G20G30G16G09G03G11G04G06G07G26
 119222169.369 7  92900423.14844  22687234.938                    22687241.133
      3018.327        2351.938          43.100          28.500



 126465782.340 6  98544869.166 6  24065634.602                    24065645.871
      3583.045        2791.978          40.400          40.600



 129674159.437 6 101044902.23942  24676177.570                    24676189.086
      1394.399        1086.583          37.300          16.900



 107151470.259 8  83494716.396 8  20390256.297                    20390263.988
     -1100.720        -857.699          50.500          51.200



 131892246.154 5 102773242.487 6  25098297.438                    25098313.055
     -3411.233       -2658.093          35.800          37.600



 113212812.354 7  88217812.571 8  21543693.547                    21543700.129
      1229.995         958.433          47.700          49.100



 116978332.580 7  91151997.728 7  22260251.875                    22260259.590
     -2768.075       -2156.938          46.300          45.000



 109496516.961 8  85321996.428 8  20836504.031                    20836512.191
     -1399.719       -1090.694          50.200          49.800



 116293526.349 7  90618429.912 7  22129915.805                    22129922.965
      2390.473        1862.703          47.000          43.900



 130475483.961 6 101669302.631 6  24828666.000                    24828678.875
      -638.325        -497.403          38.700          36.500



 23 11  9  9  2  0.0000000  0 10G20G30G16G09G03G11G04G06G07G26
 119131702.775 7  92829929.71344  22670019.602                    22670025.027
      3012.928        2347.729          44.100          27.800



 126358348.909 6  98461154.968 6  24045190.102                    24045202.141
      3579.310        2789.073          41.500          41.500



 129632594.124 6 101012513.58442  24668267.953                    24668278.547
      1377.192        1073.144          38.100          16.900



 107184697.349 8  83520607.595 8  20396579.133                    20396586.371
     -1113.963        -868.017          50.300          50.500



 131994620.137 6 102853014.136 6  25117778.008                    25117793.699
     -3413.639       -2659.973          36.200          37.500



 113176204.454 8  88189286.905 8  21536727.031                    21536733.793
      1211.129         943.737          48.700          48.500



 117061478.205 7  91216786.419 7  22276073.297                    22276082.230
     -2774.737       -2162.131          44.900          45.100



 109538802.015 8  85354945.777 8  20844550.531                    20844558.816
     -1418.654       -1105.450          49.900          49.100



 116221999.183 7  90562694.473 7  22116304.547                    22116311.070
      2378.396        1853.297          47.000          44.300



 130494919.770 5 101684447.618 6  24832363.367                    24832377.594
      -656.739        -511.754          35.800          37.600



 23 11  9  9  2 30.0000000  0 10G20G30G16G09G03G11G04G06G07G26
 119041396.965 7  92759561.57744  22652834.672                    22652841.008
      3007.609        2343.592          44.000          28.600



 126251026.404 6  98377527.234 6  24024767.648                    24024779.395
      3575.679        2786.242          41.300          41.600



 129591544.954 6 100980527.06342  24660456.789                    24660466.988
      1360.001        1059.743          38.300          16.300



 107218319.289 8  83546806.479 8  20402976.602                    20402984.754
     -1127.054        -878.224          50.000          50.500



 132097064.878 6 102932840.906 6  25137273.242                    25137288.480
     -3415.949       -2661.772          37.100          36.800



 113140162.471 8  88161202.217 8  21529868.391                    21529875.137
      1192.293         929.059          48.000          48.900



 117144822.158 7  91281729.645 7  22291933.156                    22291941.734
     -2781.274       -2167.222          44.500          45.000



 109581653.961 8  85388336.841 8  20852705.008                    20852713.301
     -1437.504       -1120.129          49.800          50.100



 116150834.690 7  90507241.651 7  22102762.117                    22102768.738
      2366.313        1843.880          46.800          43.700



 130514905.392 6 101700020.974 6  24836166.609                    24836179.863
      -675.009        -525.979          36.300          36.100



 23 11  9  9  3  0.0000000  0 10G20G30G16G09G03G11G04G06G07G26
 118951253.539 7  92689319.94744  22635681.445                    22635687.309
      3002.181        2339.354          43.300          28.700



 126143817.152 6  98293987.758 6  24004365.977                    24004377.816
      3571.826        2783.237          41.000          40.700



 129551015.180 6 100948945.36142  24652744.141                    24652755.242
      1342.607        1046.221          38.900          16.900



 107252334.749 8  83573311.999 8  20409449.953                    20409457.438
     -1140.130        -888.418          49.700          50.700



 132199579.510 5 103012722.063 6  25156779.789                    25156796.770
     -3418.252       -2663.560          35.700          36.800



 113104687.885 7  88133559.663 8  21523117.641                    21523124.301
      1173.375         914.318          47.500          49.000



 117228362.736 7  91346826.085 7  22307830.305                    22307839.809
     -2787.801       -2172.308          43.600          45.200



 109625071.461 8  85422168.607 8  20860967.234                    20860975.988
     -1456.316       -1134.786          49.400          49.600



 116080034.714 7  90452072.898 7  22089289.547                    22089296.410
      2354.146        1834.400          47.400          44.700



 130535440.368 6 101716022.405 6  24840074.648                    24840087.734
      -693.307        -540.240          37.100          38.000



 23 11  9  9  3 30.0000000  0 10G20G30G16G09G03G11G04G06G07G26
 118861274.704 7  92619206.56744  22618558.406                    22618565.066
      2996.615        2335.024          45.000          29.900



 126036723.744 6  98210538.572 7  23983986.969                    23983998.836
      3567.912        2780.183          41.000          42.300



 129511005.679 6 100917769.17043  24645131.070                    24645142.117
      1325.317        1032.717          38.700          18.300



 107286742.704 8  83600123.353 8  20415997.734                    20416005.129
     -1153.251        -898.633          50.200          50.200



 132302163.198 6 103092657.010 6  25176303.172                    25176318.414
     -3420.553       -2665.351          37.000          37.500



 113069782.386 8  88106360.555 8  21516475.266                    21516482.422
      1154.324         899.477          48.100          49.000



 117312098.513 7  91412074.619 7  22323764.758                    22323773.574
     -2794.309       -2177.384          42.700          44.300



 109669053.497 8  85456440.280 8  20869336.359                    20869345.012
     -1475.145       -1149.463          48.700          49.100



 116009601.334 7  90397189.771 7  22075886.430                    22075893.434
      2341.838        1824.807          47.800          44.600



 130556524.282 6 101732451.518 6  24844086.930                    24844099.922
      -711.600        -554.497          36.600          37.500



 23 11  9  9  4  0.0000000  0 10G20G30G16G09G03G11G04G06G07G26
 118771461.894 7  92549222.55344  22601467.727                    22601473.793
      2991.039        2330.687          44.600          29.800



 125929748.551 7  98127181.488 6  23963629.961                    23963641.602
      3563.890        2777.049          42.000          41.700



 129471518.746 6 100887000.22842  24637616.578                    24637627.523
      1307.738        1019.034          38.300          17.400



 107321541.819 8  83627239.503 8  20422620.023                    20422627.793
     -1166.285        -908.792          50.800          49.900



 132404815.119 6 103172645.111 6  25195837.172                    25195853.332
     -3422.844       -2667.132          36.000          37.300



 113035447.456 8  88079606.053 8  21509941.875                    21509948.602
      1135.257         884.617          48.000          48.300



 117396027.800 7  91477473.948 7  22339736.023                    22339744.316
     -2800.763       -2182.410          42.900          44.600



 109713598.763 8  85491150.829 8  20877813.281                    20877821.520
     -1493.930       -1164.102          49.100          49.300



 115939536.556 7  90342593.861 7  22062553.602                    22062560.531
      2329.509        1815.203          47.600          44.900



 130578156.777 5 101749308.027 6  24848203.109                    24848217.043
      -729.920        -568.765          35.500          38.600



 23 11  9  9  4 30.0000000  0 10G20G30G16G09G03G11G04G06G07G26
 118681817.118 7  92479369.49645  22584409.055                    22584415.137
      2985.427        2326.300          44.300          31.100



 125822893.703 7  98043918.168 6  23943296.547                    23943308.031
      3559.864        2773.916          42.200          41.900



 129432556.812 6 100856640.46942  24630202.547                    24630212.242
      1290.265        1005.396          38.000          17.400



 107356730.697 8  83654659.370 8  20429316.242                    20429323.652
     -1179.249        -918.891          50.800          50.500



 132507534.175 6 103252685.434 6  25215384.367                    25215400.582
     -3425.050       -2668.855          36.500          37.900



 113001684.370 7  88053297.135 8  21503517.109                    21503524.148
      1116.218         869.779          47.200          49.100



 117480148.771 7  91543022.658 7  22355743.945                    22355752.000
     -2807.097       -2187.346          43.700          43.900



 109758705.813 8  85526299.122 8  20886396.992                    20886405.262
     -1512.602       -1178.648          49.100          49.000



 115869841.858 7  90288286.338 7  22049291.219                    22049298.141
      2317.146        1805.565          47.100          45.500



 130600337.042 6 101766591.351 6  24852424.383                    24852437.414
      -748.129        -582.958          36.300          37.700



 23 11  9  9  5  0.0000000  0 10G20G30G16G09G03G11G04G06G07G26
 118592341.974 7  92409648.61945  22567382.984                    22567388.297
      2979.738        2321.873          45.000          30.800



 125716161.444 7  97960750.368 7  23922985.133                    23922996.969
      3555.720        2770.681          42.000          42.200



 129394121.797 6 100826691.32242  24622887.680                    24622897.375
      1272.598         991.634          38.700          17.800



 107392307.819 8  83682381.762 8  20436086.227                    20436093.281
     -1192.173        -928.966          51.100          49.800



 132610319.316 6 103332777.233 6  25234944.047                    25234959.348
     -3427.272       -2670.584          37.100          36.300



 112968494.413 7  88027434.821 8  21497201.219                    21497208.086
      1097.052         854.849          47.000          49.300



 117564459.607 7  91608719.301 7  22371788.375                    22371796.254
     -2813.420       -2192.274          43.800          44.500



 109804373.094 8  85561883.970 8  20895087.125                    20895095.652
     -1531.270       -1193.200          49.400          49.400



 115800519.212 8  90234268.716 7  22036099.836                    22036106.238
      2304.729        1795.892          48.200          44.600



 130623064.437 6 101784300.938 6  24856749.383                    24856762.563
      -766.385        -597.175          36.600          37.800



 23 11  9  9  5 30.0000000  0 10G20G30G16G09G03G11G04G06G07G26
 118503038.274 7  92340061.32645  22550388.688                    22550395.117
      2974.018        2317.420          44.600          31.200



 125609554.429 7  97877680.152 7  23902698.938                    23902710.516
      3551.529        2767.418          42.100          42.200



 129356216.121 6 100797154.71642  24615674.570                    24615684.902
      1254.937         977.858          37.300          16.300



 107428272.248 8  83710405.948 8  20442930.109                    20442938.031
     -1205.032        -938.986          51.200          50.800



 132713169.844 6 103412919.954 6  25254516.742                    25254532.051
     -3429.402       -2672.236          37.500          37.300



 112935879.298 7  88002020.440 8  21490995.023                    21491001.754
      1077.902         839.923          47.500          49.200



 117648959.029 7  91674562.900 7  22387867.680                    22387875.910
     -2819.643       -2197.128          44.100          43.700



 109850599.606 8  85597904.566 8  20903883.969                    20903892.648
     -1549.860       -1207.684          48.600          49.600



 115731570.382 8  90180542.396 7  22022979.438                    22022985.648
      2292.263        1786.183          48.300          44.300



 130646338.672 5 101802436.626 6  24861178.039                    24861191.391
      -784.576        -611.351          35.500          37.600



 23 11  9  9  6  0.0000000  0 10G20G30G16G09G03G11G04G06G07G26
 118413907.893 7  92270609.08445  22533427.258                    22533433.680
      2968.197        2312.882          43.600          31.700



 125503075.028 7  97794709.404 7  23882436.609                    23882447.633
      3547.231        2764.071          42.100          42.000



 129318841.179 6 100768031.64042  24608562.805                    24608573.324
      1237.285         964.109          38.400          17.400



 107464622.673 8  83738730.923 8  20449847.297                    20449854.262
     -1217.884        -949.005          50.700          49.900



 132816085.008 6 103493112.999 6  25274100.320                    25274116.031
     -3431.524       -2673.895          37.300          36.700



 112903840.441 7  87977055.082 8  21484898.141                    21484904.832
      1058.675         824.943          46.900          48.900



 117733645.365 7  91740552.149 7  22403983.875                    22403991.234
     -2825.866       -2201.976          43.600          43.600



 109897383.944 8  85634359.821 8  20912786.578                    20912796.273
     -1568.448       -1222.166          48.800          48.900



 115662997.352 7  90127108.892 7  22009930.039                    22009936.426
      2279.699        1776.390          47.800          44.700



 130670159.073 6 101820997.863 6  24865710.320                    24865724.176
      -802.788        -625.548          36.500          36.000



 23 11  9  9  6 30.0000000  0 10G20G30G16G09G03G11G04G06G07G26
 118324952.822 7  92201293.45245  22516500.469                    22516506.184
      2962.354        2308.331          44.600          31.400



 125396725.639 6  97711839.920 7  23862197.750                    23862209.711
      3542.920        2760.710          41.300          42.100



 129281999.256 6 100739323.97042  24601550.758                    24601562.641
      1219.463         950.227          37.900          17.800



 107501357.862 8  83767355.709 8  20456837.711                    20456845.449
     -1230.660        -958.956          50.000          49.700



 132919063.828 5 103573355.675 6  25293697.367                    25293713.598
     -3433.608       -2675.518          35.900          37.200



 112872379.261 7  87952539.853 8  21478911.016                    21478917.672
      1039.430         809.948          47.900          48.500



 117818517.069 7  91806685.834 7  22420134.375                    22420141.918
     -2831.993       -2206.743          44.400          43.500



 109944724.793 8  85671248.725 8  20921794.836                    20921804.336
     -1586.925       -1236.558          48.800          49.300



 115594801.864 8  90073969.583 7  21996952.719                    21996959.398
      2267.131        1766.597          48.100          44.100



 130694525.124 5 101839984.221 6  24870347.711                    24870361.547
      -820.930        -639.682          35.800          37.600



 23 11  9  9  7  0.0000000  0  9G20G30G16G09G11G04G06G07G26
 118236175.442 7  92132116.25645  22499606.305                    22499612.148
      2956.381        2303.679          44.100          31.400



 125290509.339 7  97629074.168 6  23841985.648                    23841997.199
      3538.356        2757.154          42.300          41.300



 129245693.088 6 100711033.72443  24594641.688                    24594654.012
      1201.535         936.248          37.500          18.600



 107538477.197 8  83796279.824 8  20463901.469                    20463908.668
     -1243.495        -968.958          50.100          50.200



 112841497.819 8  87928476.377 8  21473035.039                    21473041.758
      1020.039         794.835          48.200          49.200



 117903573.209 7  91872963.227 7  22436319.531                    22436328.176
     -2838.154       -2211.542          44.500          44.300



 109992621.490 7  85708570.760 8  20930909.578                    20930918.379
     -1605.496       -1251.029          47.600          49.100



 115526986.618 8  90021126.555 7  21984047.938                    21984054.605
      2254.361        1756.646          48.500          44.200



 130719436.998 5 101859395.898 6  24875087.578                    24875102.266
      -839.199        -653.915          34.800          37.700



 23 11  9  9  7 30.0000000  0  9G20G30G16G09G11G04G06G07G26
 118147576.747 7  92063078.31345  22482746.750                    22482752.543
      2950.409        2299.021          44.300          31.600



 125184427.660 7  97546413.278 6  23821798.805                    23821810.574
      3533.906        2753.686          42.000          41.700



 129209924.280 6 100683162.19942  24587834.555                    24587847.270
      1183.595         922.267          36.500          17.800



 107575978.554 8  83825501.605 8  20471037.680                    20471045.223
     -1256.182        -978.841          50.700          50.300



 112811196.648 7  87904865.057 8  21467268.695                    21467275.371
      1000.697         779.765          47.200          48.800



 117988811.315 7  91939382.408 7  22452540.320                    22452548.352
     -2844.165       -2216.227          43.700          44.300



 110041071.695 8  85746324.103 8  20940129.664                    20940138.188
     -1623.891       -1265.368          48.500          48.900



 115459552.374 8  89968580.436 7  21971215.781                    21971222.352
      2241.659        1746.746          48.100          44.400



 130744893.135 6 101879231.651 6  24879932.844                    24879946.328
      -857.248        -667.985          37.000          37.300



 23 11  9  9  8  0.0000000  0  9G20G30G16G09G11G04G06G07G26
 118059158.789 7  91994181.20245  22465921.117                    22465926.965
      2944.342        2294.293          45.300          32.000



 125078483.317 7  97463859.392 6  23801639.063                    23801650.117
      3529.280        2750.091          42.300          41.700



 129174694.381 6 100655710.59342  24581131.242                    24581141.301
      1165.659         908.297          38.000          17.400



 107613860.893 8  83855020.269 8  20478246.453                    20478253.621
     -1268.848        -988.713          51.000          50.300



 112781477.310 8  87881707.110 8  21461613.758                    21461619.980
       981.273         764.633          48.100          49.300



 118074230.065 7  92005942.334 7  22468794.789                    22468803.063
     -2850.158       -2220.895          43.200          44.800



 110090074.279 8  85784507.858 8  20949454.766                    20949463.527
     -1642.286       -1279.703          48.300          49.500



 115392501.220 7  89916332.802 7  21958456.281                    21958462.668
      2228.867        1736.786          47.300          44.200



 130770893.131 6 101899491.210 6  24884880.695                    24884894.422
      -875.363        -682.094          36.300          37.100



 23 11  9  9  8 30.0000000  0  9G20G30G16G09G11G04G06G07G26
 117970923.051 7  91925426.07945  22449129.938                    22449136.727
      2938.267        2289.556          44.500          32.300



 124972678.521 6  97381414.261 6  23781504.719                    23781515.582
      3524.555        2746.401          41.600          41.400



 129140005.563 6 100628680.61342  24574530.148                    24574540.383
      1147.561         894.186          38.500          17.400



 107652122.831 8  83884834.718 8  20485527.766                    20485535.258
     -1281.478        -998.553          51.300          50.700



 112752341.024 8  87859003.497 8  21456068.914                    21456075.324
       961.805         749.461          48.600          49.200



 118159827.824 7  92072641.778 7  22485083.656                    22485092.273
     -2856.135       -2225.557          44.000          45.000



 110139627.656 8  85823120.808 8  20958884.438                    20958893.406
     -1660.631       -1293.990          48.800          49.300



 115325834.874 7  89864385.049 7  21945769.930                    21945776.066
      2216.001        1726.748          47.700          44.800



 130797436.264 6 101920174.017 5  24889931.477                    24889944.000
      -893.523        -696.240          36.600          35.800



 23 11  9  9  9  0.0000000  0  9G20G30G16G09G11G04G06G07G26
 117882871.498 7  91856814.47445  22432375.117                    22432381.582
      2932.057        2284.714          45.300          32.400



 124867015.477 7  97299079.564 6  23761396.930                    23761408.582
      3519.764        2742.677          42.400          41.400



 129105859.399 6 100602073.45242  24568031.969                    24568042.242
      1129.440         880.064          37.800          17.400



 107690762.883 8  83914943.795 8  20492880.375                    20492888.250
     -1294.080       -1008.372          51.100          50.000



 112723788.892 8  87836755.073 8  21450635.633                    21450642.266
       942.311         734.269          48.600          49.000



 118245602.758 7  92139479.264 7  22501405.719                    22501414.723
     -2862.015       -2230.133          43.800          44.300



 110189730.122 8  85862161.625 8  20968418.813                    20968427.445
     -1678.908       -1308.242          48.800          48.600



 115259555.122 7  89812738.542 7  21933156.828                    21933163.586
      2203.070        1716.674          46.900          44.200



 130824521.540 5 101941279.263 6  24895085.266                    24895099.238
      -911.576        -710.318          35.900          36.800



 23 11  9  9  9 30.0000000  0  9G20G30G16G09G11G04G06G07G26
 117795006.373 7  91788348.13345  22415654.234                    22415661.008
      2925.806        2279.856          44.300          32.600



 124761496.645 7  97216857.258 6  23741317.602                    23741328.898
      3514.949        2738.918          43.000          41.500



 129072257.922 6 100575890.71942  24561637.172                    24561648.473
      1111.249         865.878          36.100          17.400



 107729779.819 8  83945346.550 8  20500304.961                    20500312.793
     -1306.630       -1018.151          50.300          50.200



 112695822.276 8  87814962.878 8  21445313.820                    21445320.145
       922.758         719.036          48.000          48.800



 118331553.395 7  92206453.681 7  22517762.148                    22517770.254
     -2867.850       -2234.684          43.800          44.700



 110240380.344 8  85901629.262 8  20978057.234                    20978065.473
     -1697.167       -1322.462          48.500          48.800



 115193663.294 7  89761394.303 7  21920618.586                    21920624.563
      2190.119        1706.583          47.000          44.100



 130852148.332 5 101962806.576 6  24900342.492                    24900356.211
      -929.616        -724.374          35.500          36.200



 23 11  9  9 10  0.0000000  0  9G20G30G16G09G11G04G06G07G26
 117707329.183 7  91720028.26145  22398969.680                    22398976.813
      2919.539        2274.955          44.600          33.100



 124656124.529 7  97134749.247 6  23721266.148                    23721277.441
      3510.022        2735.081          42.100          41.700



 129039203.063 6 100550133.90642  24555347.047                    24555358.512
      1092.981         851.648          36.400          17.400



 107769172.451 8  83976042.062 8  20507801.508                    20507809.453
     -1319.099       -1027.866          50.800          50.300



 112668442.542 7  87793628.000 8  21440103.234                    21440110.207
       903.211         703.801          47.800          49.300



 118417678.248 7  92273563.848 7  22534150.766                    22534159.445
     -2873.603       -2239.172          43.600          43.800



 110291576.879 7  85941522.603 8  20987799.523                    20987807.770
     -1715.312       -1336.609          47.900          48.700



 115128161.478 7  89710353.955 7  21908153.930                    21908160.664
      2177.096        1696.435          47.300          44.800



 130880316.124 5 101984755.445 6  24905703.242                    24905717.305
      -947.646        -738.423          35.000          36.900



 23 11  9  9 10 30.0000000  0  9G20G30G16G09G11G04G06G07G26
 117619841.768 7  91651856.26845  22382322.039                    22382328.320
      2913.150        2269.985          44.500          32.300



 124550901.334 6  97052757.289 7  23701242.125                    23701253.660
      3504.997        2731.159          41.500          42.000



 129006697.035 6 100524804.72042  24549161.211                    24549172.977
      1074.636         837.366          36.000          17.800



 107808939.295 8  84007029.157 8  20515368.898                    20515376.555
     -1331.584       -1037.599          51.100          49.900



 112641650.742 7  87772751.248 8  21435005.516                    21435011.957
       883.565         688.495          47.800          48.700



 118503975.598 7  92340808.415 7  22550572.922                    22550581.613
     -2879.349       -2243.643          42.700          44.500



 110343318.029 7  85981840.312 8  20997645.211                    20997654.613
     -1733.491       -1350.768          47.900          49.000



 115063051.143 7  89659618.673 7  21895763.664                    21895770.172
      2164.017        1686.248          46.700          45.000



 130909023.785 5 102007124.995 6  24911165.961                    24911180.281
      -965.630        -752.441          34.800          37.200



 23 11  9  9 11  0.0000000  0  9G20G30G16G09G11G04G06G07G26
 117532545.967 7  91583833.58345  22365709.578                    22365716.227
      2906.741        2264.991          44.400          32.300



 124445829.537 7  96970883.316 7  23681248.234                    23681259.184
      3499.968        2727.238          42.600          42.100



 128974740.924 6 100499904.05342  24543080.086                    24543090.824
      1056.306         823.076          36.700          16.300



 107849079.155 8  84038306.921 8  20523007.469                    20523014.742
     -1343.992       -1047.261          51.000          50.000



 112615448.205 7  87752333.676 8  21430018.977                    21430025.242
       863.932         673.194          47.700          49.400



 118590443.982 7  92408186.267 7  22567027.125                    22567035.918
     -2884.985       -2248.037          42.600          43.900



 110395602.294 7  86022581.221 8  21007595.008                    21007603.633
     -1751.516       -1364.819          47.700          48.900



 114998334.123 7  89609189.872 7  21883447.938                    21883454.887
      2150.891        1676.019          47.000          45.200



 130938270.619 5 102029914.730 6  24916731.344                    24916745.449
      -983.520        -766.376          35.600          37.600



 23 11  9  9 11 30.0000000  0  9G20G30G16G09G11G04G06G07G26
 117445443.679 7  91515961.68345  22349135.000                    22349141.473
      2900.238        2259.923          44.300          33.100



 124340911.698 7  96889129.304 7  23661283.008                    23661293.859
      3494.744        2723.176          42.900          42.400



 128943336.913 6 100475433.55542  24537103.820                    24537114.254
      1037.837         808.675          36.700          17.400



 107889590.841 8  84069874.418 8  20530716.984                    20530724.016
     -1356.394       -1056.923          50.400          49.500



 112589836.228 8  87732376.278 8  21425144.906                    21425152.027
       844.189         657.808          48.100          49.000



 118677082.042 7  92475696.332 7  22583514.305                    22583522.625
     -2890.668       -2252.468          42.900          43.700



 110448428.270 7  86063744.259 8  21017647.172                    21017655.848
     -1769.588       -1378.899          47.900          49.000



 114934012.935 7  89559069.500 7  21871207.992                    21871214.457
      2137.648        1665.701          47.000          44.400



 130968056.040 5 102053124.132 6  24922400.000                    24922413.152
     -1001.522        -780.409          34.800          37.100



 23 11  9  9 12  0.0000000  0  9G20G30G16G09G11G04G06G07G26
 117358536.894 7  91448242.13545  22332596.859                    22332603.477
      2893.725        2254.851          44.300          33.000



 124236149.836 7  96807496.813 7  23641346.750                    23641357.973
      3489.556        2719.128          42.300          42.900



 128912486.651 6 100451394.55042  24531233.250                    24531242.375
      1019.420         794.353          37.100          17.400



 107930472.768 8  84101730.430 8  20538495.898                    20538503.430
     -1368.673       -1066.499          50.800          50.500



 112564815.699 8  87712879.742 8  21420384.188                    21420390.402
       824.497         642.466          48.000          48.800



 118763887.863 7  92543337.116 7  22600032.844                    22600041.461
     -2896.218       -2256.794          42.500          43.500



 110501794.077 8  86105327.949 8  21027802.648                    21027811.672
     -1787.521       -1392.871          48.400          48.800



 114870088.062 7  89509257.938 7  21859043.578                    21859050.012
      2124.424        1655.394          47.400          44.100



 130998378.683 5 102076752.185 6  24928169.617                    24928183.527
     -1019.389        -794.328          35.500          36.700



 23 11  9  9 12 30.0000000  0  9G20G30G16G09G11G04G06G07G26
 117271827.366 7  91380676.28845  22316096.703                    22316102.785
      2887.092        2249.678          43.900          31.900



 124131546.245 7  96725987.651 7  23621441.086                    23621452.324
      3484.167        2714.933          42.000          42.400



 128882192.002 6 100427788.44142  24525467.555                    24525478.875
      1000.810         779.849          36.600          16.900



 107971723.505 8  84133873.813 8  20546345.695                    20546353.332
     -1380.990       -1076.096          50.100          50.000



 112540387.656 8  87693844.868 8  21415735.242                    21415742.156
       804.678         627.028          48.400          49.200



 118850859.782 7  92611107.325 7  22616583.180                    22616592.195
     -2901.789       -2261.128          43.500          44.800



 110555697.958 8  86147330.914 8  21038060.203                    21038069.148
     -1805.493       -1406.872          48.000          48.800



 114806561.336 7  89459756.620 7  21846955.070                    21846961.367
      2111.072        1644.993          47.000          44.500



 131029237.700 5 102100798.159 6  24934041.742                    24934055.477
     -1037.344        -808.319          34.000          36.600



 23 11  9  9 13  0.0000000  0  9G20G30G16G09G11G04G06G07G26
 117185317.084 7  91313265.69845  22299634.227                    22299640.441
      2880.464        2244.521          44.100          32.500



 124027103.545 7  96644603.846 7  23601566.016                    23601577.305
      3478.784        2710.738          42.200          42.900



 128852454.685 6 100404616.60842  24519809.078                    24519819.770
       982.259         765.392          37.900          17.800



 108013341.997 8  84166303.764 8  20554265.281                    20554273.469
     -1393.201       -1085.610          50.800          50.000



 112516553.485 7  87675272.762 8  21411200.352                    21411206.777
       784.883         611.597          47.900          48.900



 118937996.527 7  92679005.961 7  22633165.375                    22633173.797
     -2907.219       -2265.358          42.600          43.900



 110610138.534 7  86189752.084 8  21048419.625                    21048428.996
     -1823.323       -1420.768          47.500          48.800



 114743434.752 7  89410567.091 7  21834942.969                    21834949.020
      2097.727        1634.591          46.600          45.100



 131060632.306 5 102125261.488 6  24940014.969                    24940030.117
     -1055.067        -822.132          33.700          36.200



 23 11  9  9 13 30.0000000  0  9G20G30G16G09G11G04G06G07G26
 117099007.868 7  91246011.79245  22283210.406                    22283216.469
      2873.725        2239.269          44.500          32.600



 123922824.170 6  96563347.303 7  23581722.445                    23581733.324
      3473.339        2706.496          41.400          43.000



 128823276.587 6 100381880.42343  24514256.734                    24514268.430
       963.594         750.888          38.500          18.600



 108055326.977 8  84199019.287 8  20562254.945                    20562262.867
     -1405.352       -1095.082          50.600          50.400



 112493314.336 8  87657164.320 8  21406777.648                    21406784.211
       765.080         596.165          48.000          48.800



 119025296.661 7  92747031.912 7  22649778.000                    22649786.703
     -2912.588       -2269.544          42.500          44.000



 110665114.228 7  86232590.233 8  21058881.398                    21058890.414
     -1841.092       -1434.620          47.600          48.700



 114680709.973 7  89361690.650 7  21823006.336                    21823012.957
      2084.347        1624.166          47.200          45.200



 131092561.837 5 102150141.632 6  24946092.422                    24946105.719
     -1072.893        -836.013          35.600          37.700



 23 11  9  9 14  0.0000000  0  9G20G30G16G09G11G04G06G07G26
 117012901.562 7  91178915.98145  22266824.500                    22266830.785
      2866.899        2233.949          45.200          33.200



 123818710.370 6  96482219.781 7  23561910.445                    23561921.637
      3467.772        2702.155          40.900          42.600



 128794659.773 6 100359581.70042  24508810.867                    24508822.285
       944.811         736.210          38.300          17.800



 108097677.010 8  84232019.273 8  20570314.063                    20570321.875
     -1417.534       -1104.576          50.300          50.200



 112470671.201 8  87639520.286 8  21402468.828                    21402475.578
       745.140         580.629          48.400          48.900



 119112758.560 7  92815183.921 7  22666421.680                    22666430.117
     -2917.993       -2273.758          43.100          44.500



 110720623.238 7  86275843.950 8  21069444.477                    21069452.797
     -1858.891       -1448.486          47.500          48.100



 114618388.567 7  89313128.524 7  21811147.281                    21811153.227
      2070.853        1613.646          46.800          44.800



 131125024.998 6 102175437.593 6  24952270.609                    24952283.563
     -1090.684        -849.882          36.500          37.200



 23 11  9  9 14 30.0000000  0  9G20G30G16G09G11G04G06G07G26
 116927000.225 7  91111979.89645  22250478.883                    22250484.715
      2860.064        2228.620          44.700          32.900



 123714764.496 6  96401223.113 7  23542129.680                    23542141.629
      3462.177        2697.794          40.200          43.700



 128766604.849 6 100337720.75543  24503473.227                    24503482.930
       926.116         721.646          38.700          18.600



 108140390.759 8  84265302.680 8  20578442.258                    20578450.262
     -1429.639       -1114.006          49.900          50.000



 112448625.096 8  87622341.470 8  21398273.828                    21398280.656
       725.289         565.163          48.600          48.500



 119200380.628 7  92883460.742 7  22683095.508                    22683104.234
     -2923.276       -2277.875          43.700          44.600



 110776663.817 7  86319511.876 8  21080109.234                    21080117.406
     -1876.537       -1462.237          47.600          48.400



 114556472.142 7  89264881.963 7  21799364.406                    21799371.406
      2057.351        1603.129          46.700          45.200



 131158020.999 6 102201148.722 6  24958548.258                    24958563.336
     -1108.418        -863.698          36.500          37.100



 23 11  9  9 15  0.0000000  0  9G20G30G16G09G11G04G06G07G26
 116841305.778 7  91045205.00845  22234171.281                    22234177.383
      2853.102        2223.200          45.700          33.300



 123610989.054 6  96320359.247 7  23522381.273                    23522393.453
      3456.385        2693.285          40.700          43.400



 128739114.211 6 100316299.50142  24498241.836                    24498251.258
       907.234         706.935          38.800          17.800



 108183466.982 8  84298868.528 8  20586639.898                    20586647.148
     -1441.729       -1123.426          50.400          50.400



 112427177.164 8  87605628.779 8  21394192.414                    21394198.828
       705.272         549.560          48.100          49.400



 119288161.532 7  92951861.323 7  22699799.734                    22699808.555
     -2928.613       -2282.031          43.400          44.200



 110833234.434 8  86363592.815 8  21090873.789                    21090882.859
     -1894.254       -1476.039          48.100          48.000



 114494962.512 7  89216952.400 7  21787659.773                    21787666.461
      2043.740        1592.525          47.700          45.200



 131191548.869 6 102227274.289 6  24964929.148                    24964942.637
     -1126.224        -877.575          36.400          36.900



 23 11  9  9 15 30.0000000  0  9G20G30G16G09G11G04G06G07G26
 116755820.193 7  90978592.86245  22217903.570                    22217910.188
      2846.144        2217.774          45.200          33.000



 123507386.527 7  96239630.120 7  23502666.688                    23502678.383
      3450.606        2688.774          42.000          43.900



 128712189.382 6 100295319.15042  24493117.859                    24493127.383
       888.357         692.214          39.400          17.800



 108226904.448 8  84332715.863 8  20594905.531                    20594913.145
     -1453.720       -1132.765          50.000          49.800



 112406328.554 8  87589383.075 8  21390224.977                    21390231.676
       685.279         533.984          48.400          48.800



 119376099.811 7  93020384.527 7  22716534.203                    22716542.941
     -2933.795       -2286.068          44.100          44.500



 110890333.359 7  86408085.425 8  21101739.578                    21101748.672
     -1911.787       -1489.698          47.000          48.500



 114433861.160 7  89169340.974 7  21776032.469                    21776039.516
      2030.138        1581.925          47.000          46.000



 131225607.818 6 102253813.691 6  24971409.578                    24971424.473
     -1143.842        -891.305          37.000          37.600



 23 11  9  9 16  0.0000000  0  9G20G30G16G09G11G04G06G07G26
 116670545.248 7  90912144.86145  22201676.227                    22201682.504
      2839.093        2212.278          44.800          32.600



 123403959.003 6  96159037.337 7  23482985.609                    23482996.984
      3444.750        2684.214          41.400          44.100



 128685831.961 6 100274780.88342  24488102.148                    24488111.887
       869.437         677.468          39.300          17.800



 108270701.640 8  84366843.497 8  20603239.656                    20603247.613
     -1465.669       -1142.073          50.200          49.900



 112386079.984 8  87573604.935 8  21386371.953                    21386378.441
       665.273         518.395          48.800          48.800



 119464193.709 7  93089028.995 7  22733297.578                    22733306.934
     -2938.935       -2290.077          42.300          45.000



 110947958.665 7  86452988.192 8  21112705.398                    21112714.656
     -1929.310       -1503.359          47.300          48.100



 114373169.746 7  89122048.964 7  21764482.938                    21764490.324
      2016.437        1571.245          46.600          45.600



 131260196.452 6 102280765.840 6  24977992.047                    24978005.766
     -1161.479        -905.051          37.800          37.500



 23 11  9  9 16 30.0000000  0 10G20G30G16G09G29G11G04G06G07G26
 116585482.597 7  90845862.26445  22185489.633                    22185496.004
      2832.014        2206.764          45.200          32.700



 123300708.968 7  96078582.872 7  23463337.625                    23463348.535
      3438.824        2679.602          42.700          43.900



 128660043.526 6 100254685.98243  24483193.852                    24483205.246
       850.464         662.698          38.200          18.300



 108314857.256 8  84401250.421 8  20611642.266                    20611650.273
     -1477.584       -1151.357          50.300          50.300



 133447546.876 5 103985161.342 5  25394230.836                    25394239.137
      1234.415         961.884          31.600          30.600



 112366432.492 8  87558295.178 8  21382633.289                    21382639.438
       645.250         502.798          48.500          49.200



 119552441.863 7  93157793.643 7  22750090.656                    22750099.859
     -2944.032       -2294.046          42.100          44.300



 111006108.639 7  86498299.787 7  21123770.977                    21123779.855
     -1946.753       -1516.948          47.400          47.900



 114312889.786 7  89075077.570 7  21753012.625                    21753019.258
      2002.697        1560.544          47.300          45.100



 131295313.891 6 102308130.076 6  24984674.672                    24984688.379
     -1179.058        -918.748          37.100          37.700



 23 11  9  9 17  0.0000000  0 10G20G30G16G09G29G11G04G06G07G26
 116500634.636 7  90779746.96045  22169343.266                    22169349.430
      2824.813        2201.154          45.100          32.100



 123197638.725 7  95998268.513 7  23443723.695                    23443735.094
      3432.765        2674.871          42.000          43.900



 128634825.450 6 100235035.51442  24478395.570                    24478406.695
       831.390         647.857          37.500          17.400



 108359369.972 8  84435935.610 8  20620112.695                    20620120.668
     -1489.481       -1160.633          49.900          50.100



 133410791.056 5 103956520.446 5  25387238.805                    25387246.973
      1216.641         948.036          35.600          30.600



 112347387.030 8  87543454.535 8  21379009.133                    21379015.074
       625.139         487.124          48.100          48.900



 119640842.757 6  93226677.311 7  22766912.984                    22766922.555
     -2949.120       -2298.010          41.900          44.300



 111064781.480 7  86544018.831 8  21134935.914                    21134945.434
     -1964.157       -1530.509          47.000          48.200



 114253022.754 7  89028427.933 7  21741620.578                    21741626.508
      1988.907        1549.802          47.800          45.900



 131330959.058 6 102335905.544 6  24991457.492                    24991471.148
     -1196.672        -932.481          36.700          36.600



 23 11  9  9 17 30.0000000  0 10G20G30G16G09G29G11G04G06G07G26
 116416002.819 7  90713800.07845  22153238.922                    22153244.621
      2817.553        2195.500          45.700          32.300



 123094750.440 7  95918095.906 7  23424145.078                    23424155.602
      3426.642        2670.109          42.700          43.300



 128610179.476 6 100215830.85943  24473705.883                    24473716.102
       812.306         632.976          37.600          19.000



 108404238.168 8  84470897.799 8  20628651.164                    20628659.051
     -1501.315       -1169.851          50.000          50.200



 133374567.764 5 103928294.436 4  25380345.609                    25380352.996
      1198.890         934.195          35.400          29.800



 112328944.271 8  87529083.519 8  21375499.461                    21375506.383
       605.042         471.463          48.600          49.400



 119729394.633 7  93295678.642 7  22783763.492                    22783773.391
     -2954.177       -2301.954          42.100          44.300



 111123975.146 7  86590143.692 7  21146200.164                    21146209.027
     -1981.526       -1544.040          47.600          47.800



 114193569.903 7  88982101.051 7  21730306.430                    21730312.719
      1975.054        1539.004          47.200          45.000



 131367130.560 6 102364091.121 6  24998341.328                    24998354.715
     -1214.203        -946.134          36.100          36.800



 23 11  9  9 18  0.0000000  0 10G20G30G16G09G29G11G04G06G07G26
 116331589.284 7  90648023.28445  22137175.367                    22137181.000
      2810.240        2189.802          46.100          32.600



 122992046.633 7  95838067.062 7  23404600.742                    23404611.992
      3420.473        2665.297          42.500          43.500



 128586106.841 6 100197072.95142  24469124.680                    24469134.492
       793.134         618.014          37.600          17.800



 108449460.776 8  84506136.161 8  20637256.547                    20637264.340
     -1513.124       -1179.058          49.700          50.000



 133338878.464 6 103900484.505 5  25373554.438                    25373561.160
      1181.004         920.261          36.200          31.400



 112311105.321 8  87515183.010 8  21372104.445                    21372111.316
       584.903         455.765          48.300          49.400



 119818096.217 7  93364796.617 7  22800643.453                    22800652.777
     -2959.116       -2305.800          42.000          43.600



 111183687.983 7  86636673.100 7  21157563.352                    21157571.430
     -1998.767       -1557.480          47.300          47.700



 114134533.339 7  88936098.532 7  21719072.531                    21719079.023
      1961.174        1528.187          47.100          45.000



 131403827.536 6 102392686.134 6  25005324.516                    25005337.906
     -1231.696        -959.759          37.500          38.400



 23 11  9  9 18 30.0000000  0 10G20G30G16G09G29G11G04G06G07G26
 116247395.766 7  90582417.94845  22121153.359                    22121159.730
      2802.869        2184.056          45.900          32.300



 122889529.617 6  95758183.760 7  23385092.719                    23385103.609
      3414.207        2660.416          41.800          43.500



 128562609.612 6 100178763.48142  24464652.141                    24464663.672
       773.939         603.078          37.600          16.300



 108495036.329 8  84541649.535 8  20645929.383                    20645937.289
     -1524.864       -1188.206          48.400          49.800



 133303724.368 6 103873091.624 4  25366864.234                    25366871.473
      1163.172         906.384          36.500          29.400



 112293871.008 7  87501753.643 8  21368825.047                    21368831.848
       564.715         440.039          47.300          49.100



 119906946.015 7  93434030.077 7  22817551.133                    22817560.270
     -2964.023       -2309.621          42.200          43.700



 111243918.105 7  86683605.611 8  21169024.625                    21169033.488
     -2015.975       -1570.890          46.800          48.100



 114075914.042 7  88890421.161 7  21707917.203                    21707924.094
      1947.236        1517.331          47.200          45.100



 131441048.813 6 102421689.719 6  25012406.945                    25012420.973
     -1249.153        -973.373          37.300          38.300



 23 11  9  9 19  0.0000000  0 10G20G30G16G09G29G11G04G06G07G26
 116163424.736 7  90516985.96945  22105174.461                    22105180.570
      2795.416        2178.247          45.800          32.600



 122787201.902 6  95678447.969 7  23365620.117                    23365631.121
      3407.815        2655.437          41.200          43.200



 128539688.684 6 100160903.04542  24460290.727                    24460302.840
       754.724         588.079          37.200          17.800



 108540963.694 8  84577437.046 8  20654668.953                    20654676.832
     -1536.593       -1197.339          48.800          49.500



 133269106.470 6 103846116.530 5  25360276.695                    25360284.508
      1145.261         892.409          37.900          31.200



 112277242.318 7  87488796.188 8  21365660.781                    21365667.672
       544.506         424.297          47.900          49.400



 119995942.708 7  93503378.036 7  22834486.625                    22834495.996
     -2968.938       -2313.459          43.200          43.900



 111304663.869 7  86730939.915 7  21180584.359                    21180593.234
     -2033.159       -1584.276          47.300          47.900



 114017713.926 7  88845070.431 7  21696842.688                    21696848.668
      1933.211        1506.397          47.600          45.400



 131478793.237 6 102451100.937 6  25019589.727                    25019603.195
     -1266.560        -986.925          37.000          38.300



 23 11  9  9 19 30.0000000  0 10G20G30G16G09G29G11G04G06G07G26
 116079678.186 7  90451728.92945  22089238.297                    22089243.816
      2787.930        2172.412          45.200          33.100



 122685065.794 6  95598861.479 7  23346183.781                    23346194.688
      3401.463        2650.484          41.500          43.500



 128517345.715 6 100143492.94942  24456039.594                    24456051.301
       735.421         573.040          37.400          17.400



 108587241.515 8  84613497.636 8  20663475.609                    20663483.563
     -1548.175       -1206.371          49.400          50.200



 133235026.279 6 103819560.476 5  25353792.445                    25353800.484
      1127.354         878.464          38.400          31.300



 112261220.138 8  87476311.346 8  21362612.383                    21362618.711
       524.318         408.560          48.300          48.900



 120085084.847 7  93572839.302 7  22851450.141                    22851458.801
     -2973.726       -2317.185          43.000          42.700



 111365923.338 7  86778674.495 8  21192242.344                    21192250.656
     -2050.209       -1597.562          46.700          48.000



 113959934.576 7  88800047.549 7  21685847.563                    21685853.945
      1919.202        1495.481          46.900          45.000



 131517059.863 5 102480919.080 6  25026871.445                    25026885.172
     -1283.955       -1000.488          35.700          37.900



 23 11  9  9 20  0.0000000  0 10G20G30G16G09G29G11G04G06G07G26
 115996157.815 7  90386648.12745  22073344.734                    22073350.652
      2780.370        2166.526          44.300          32.300



 122583123.591 7  95519426.082 7  23326784.289                    23326795.895
      3394.959        2645.422          42.000          43.800



 128495582.074 6 100126534.33743  24451898.867                    24451908.648
       716.121         557.993          39.400          18.300



 108633868.368 8  84649830.195 8  20672348.375                    20672355.746
     -1559.812       -1215.435          49.000          49.400



 133201484.570 6 103793424.006 5  25347409.570                    25347416.906
      1109.427         864.484          38.800          30.800



 112245805.117 7  87464299.612 8  21359678.883                    21359685.996
       504.053         392.767          47.700          49.100



 120174370.882 7  93642412.695 7  22868440.984                    22868449.809
     -2978.493       -2320.901          44.100          43.400



 111427694.493 7  86826807.782 8  21203996.508                    21204005.504
     -2067.255       -1610.845          47.300          48.100



 113902577.271 7  88755353.555 7  21674932.508                    21674938.828
      1905.111        1484.500          46.500          44.800



 131555847.232 6 102511143.024 6  25034253.195                    25034266.301
     -1301.262       -1013.965          36.900          38.000



 23 11  9  9 20 30.0000000  0 10G20G30G16G09G29G11G04G06G07G26
 115912865.614 7  90321745.13545  22057494.367                    22057500.992
      2772.712        2160.551          44.800          32.500



 122481377.629 7  95440143.587 7  23307424.133                    23307434.410
      3388.361        2640.279          42.900          43.800



 128474399.527 6 100110028.52543  24447867.711                    24447876.852
       696.721         542.896          38.600          18.300



 108680842.844 8  84686433.630 8  20681287.289                    20681294.992
     -1571.402       -1224.473          49.100          50.000



 133168482.599 6 103767708.133 5  25341129.352                    25341136.566
      1091.357         850.409          37.500          30.900



 112230998.012 8  87452761.573 8  21356860.914                    21356867.648
       483.775         376.964          48.000          49.700



 120263799.261 7  93712097.028 7  22885458.750                    22885467.621
     -2983.214       -2324.581          43.900          42.600



 111489975.389 7  86875338.280 8  21215848.031                    21215857.590
     -2084.204       -1624.055          46.700          48.200



 113845643.328 7  88710989.450 7  21664098.227                    21664104.859
      1890.951        1473.467          46.800          45.200



 131595154.237 6 102541771.873 6  25041732.234                    25041746.309
     -1318.587       -1027.476          36.100          37.900



 23 11  9  9 21  0.0000000  0 10G20G30G16G09G29G11G04G06G07G26
 115829803.440 7  90257021.37445  22041688.359                    22041694.934
      2764.991        2154.542          45.500          33.500



 122379830.244 7  95361015.814 7  23288099.695                    23288110.770
      3381.669        2635.065          43.700          44.900



 128453798.630 6 100093975.88142  24443946.203                    24443956.723
       677.312         527.793          36.300          17.800



 108728163.577 8  84723306.872 8  20690292.211                    20690300.047
     -1582.939       -1233.461          48.900          49.700



 133136021.422 6 103742413.603 5  25334952.617                    25334959.422
      1073.323         836.367          37.600          30.200



 112216799.583 8  87441697.822 8  21354159.578                    21354165.641
       463.446         361.127          48.200          49.900



 120353368.598 7  93781891.171 7  22902503.602                    22902511.961
     -2987.922       -2328.251          43.900          43.000



 111552764.128 7  86924264.486 8  21227796.547                    21227805.535
     -2101.141       -1637.246          46.600          48.400



 113789134.219 7  88666956.376 7  21653344.867                    21653351.609
      1876.756        1462.405          47.700          44.600



 131634979.554 6 102572804.594 6  25049311.367                    25049324.754
     -1335.863       -1040.936          36.200          38.000



 23 11  9  9 21 30.0000000  0 10G20G30G16G09G29G11G04G06G07G26
 115746973.192 7  90192478.33845  22025926.586                    22025932.688
      2757.250        2148.507          45.700          33.200



 122278483.902 7  95282044.706 7  23268814.789                    23268824.941
      3374.963        2629.839          43.500          44.300



 128433781.071 6 100078377.82242  24440138.109                    24440149.555
       657.857         512.624          39.300          17.800



 108775829.417 8  84760449.024 8  20699362.266                    20699370.344
     -1594.389       -1242.382          49.100          49.700



 133104102.053 6 103717541.297 5  25328878.391                    25328885.820
      1055.296         822.325          38.600          32.000



 112203210.659 8  87431109.014 8  21351573.523                    21351580.473
       443.152         345.316          48.400          49.700



 120443077.636 7  93851794.164 7  22919574.523                    22919583.156
     -2992.533       -2331.833          43.600          43.400



 111616058.913 7  86973585.017 8  21239841.227                    21239850.316
     -2117.955       -1650.352          47.300          48.600



 113733051.763 8  88623255.764 7  21642673.266                    21642679.273
      1862.536        1451.327          48.500          45.100



 131675322.077 6 102604240.323 6  25056988.227                    25057002.148
     -1353.039       -1054.318          36.200          38.400



 23 11  9  9 22  0.0000000  0 10G20G30G16G09G29G11G04G06G07G26
 115664377.380 7  90128117.96545  22010209.156                    22010215.309
      2749.416        2142.405          46.000          34.000



 122177341.067 7  95203232.166 7  23249567.047                    23249577.621
      3368.130        2624.512          42.700          43.000



 128414348.193 6 100063235.35943  24436441.125                    24436451.445
       638.350         497.410          39.000          19.000



 108823839.075 8  84797859.088 8  20708498.805                    20708506.379
     -1605.831       -1251.291          49.200          49.900



 133072725.478 6 103693091.926 5  25322907.141                    25322916.656
      1037.115         808.140          38.400          32.000



 112190232.202 8  87420995.899 8  21349103.852                    21349110.473
       422.793         329.455          48.500          49.600



 120532924.979 7  93921804.935 7  22936671.805                    22936680.758
     -2997.105       -2335.402          43.400          43.500



 111679857.804 7  87023298.350 8  21251981.789                    21251990.996
     -2134.725       -1663.420          47.500          48.100



 113677397.430 8  88579888.752 7  21632082.516                    21632088.926
      1848.255        1440.203          48.600          45.800



 131716180.664 5 102636078.199 6  25064763.141                    25064776.684
     -1370.235       -1067.717          35.900          38.300



 23 11  9  9 22 30.0000000  0  9G20G30G16G09G29G11G04G06G07
 115582018.075 7  90063941.88445  21994536.469                    21994543.184
      2741.515        2136.242          44.700          33.600



 122076404.027 7  95124579.991 7  23230359.875                    23230370.090
      3361.244        2619.154          43.700          42.700



 128395501.849 6 100048549.94842  24432853.609                    24432864.031
       618.736         482.127          38.400          16.900



 108872191.209 8  84835536.014 8  20717699.648                    20717707.371
     -1617.233       -1260.183          49.700          49.500



 133041893.097 6 103669066.693 5  25317039.414                    25317048.020
      1018.968         794.008          38.000          31.300



 112177864.764 8  87411358.918 8  21346750.180                    21346756.922
       402.420         313.574          48.800          48.600



 120622909.228 7  93991922.389 7  22953794.984                    22953804.191
     -3001.648       -2338.939          42.700          43.500



 111744158.856 7  87073402.994 8  21264217.852                    21264226.973
     -2151.445       -1676.454          47.600          48.800



 113622172.426 7  88536856.281 7  21621573.609                    21621579.840
      1833.908        1429.023          47.600          45.600



 23 11  9  9 23  0.0000000  0  9G20G30G16G09G29G11G04G06G07
 115499896.722 7  89999951.20845  21978909.672                    21978916.250
      2733.521        2130.021          45.300          33.900



 121975674.950 7  95046089.872 7  23211190.844                    23211201.367
      3354.243        2613.691          44.600          43.100



 128377242.468 6 100034321.90843  24429379.188                    24429387.910
       599.140         466.866          38.400          18.300



 108920884.237 8  84873478.559 8  20726965.500                    20726973.910
     -1628.573       -1269.015          49.900          48.700



 133011605.612 6 103645465.978 5  25311277.563                    25311284.801
      1000.765         779.818          39.600          31.500



 112166108.841 8  87402198.429 8  21344512.906                    21344519.352
       381.999         297.664          49.300          48.900



 120713028.731 7  94062145.222 7  22970944.078                    22970954.344
     -3006.147       -2342.451          42.500          44.500



 111808959.829 7  87123897.177 8  21276549.148                    21276558.098
     -2168.068       -1689.407          47.700          48.000



 113567378.221 8  88494159.509 7  21611146.664                    21611152.859
      1819.508        1417.794          49.100          46.100



 23 11  9  9 23 30.0000000  0  9G20G30G16G09G29G11G04G06G07
 115418015.523 7  89936147.67645  21963328.383                    21963335.020
      2725.503        2123.763          46.000          34.200



 121875156.139 7  94967763.616 7  23192063.445                    23192073.910
      3347.219        2608.218          44.700          43.700



 128359571.398 6 100020552.31242  24426016.133                    24426025.586
       579.527         451.584          37.600          17.800



 108969916.819 8  84911685.700 8  20736296.250                    20736304.406
     -1639.870       -1277.817          49.500          49.200



 132981863.982 6 103622290.549 5  25305617.445                    25305623.695
       982.592         765.667          37.400          31.200



 112154965.013 8  87393514.904 8  21342392.547                    21342399.613
       361.567         281.739          49.200          49.400



 120803282.075 7  94132472.351 7  22988119.367                    22988128.863
     -3010.601       -2345.913          42.500          43.200



 111874258.687 7  87174779.325 7  21288975.633                    21288984.375
     -2184.626       -1702.300          47.600          47.600



 113513016.034 8  88451799.361 7  21600802.094                    21600808.160
      1805.108        1406.575          48.400          46.200



 23 11  9  9 24  0.0000000  0  9G20G30G16G09G29G11G04G06G07
 115336376.151 7  89872532.58245  21947792.977                    21947799.273
      2717.372        2117.436          46.600          34.600



 121774849.842 7  94889602.960 7  23172975.453                    23172985.832
      3340.072        2602.648          44.000          43.200



 128342490.019 6 100007242.20343  24422765.344                    24422776.383
       559.841         436.238          38.900          19.000



 109019287.480 8  84950156.276 8  20745691.414                    20745699.703
     -1651.137       -1286.596          50.200          49.000



 132952669.017 6 103599541.145 5  25300061.539                    25300072.055
       964.349         751.438          36.900          34.900



 112144433.806 8  87385308.755 8  21340388.273                    21340394.871
       341.144         265.831          49.700          49.200



 120893667.747 7  94202902.594 7  23005318.508                    23005328.840
     -3015.005       -2349.351          42.500          43.700



 111940053.294 7  87226047.771 7  21301495.844                    21301504.613
     -2201.159       -1715.188          47.900          47.500



 113459087.189 8  88409776.883 7  21590539.117                    21590545.801
      1790.617        1395.282          48.300          45.800



 23 11  9  9 24 30.0000000  0  9G20G30G16G09G29G11G04G06G07
 115254980.943 7  89809107.76945  21932303.711                    21932310.492
      2709.217        2111.075          46.100          35.500



 121674758.502 7  94811609.795 7  23153929.273                    23153938.918
      3332.851        2597.025          44.500          43.300



 128325999.771 6  99994392.70243  24419627.680                    24419638.258
       540.145         420.878          39.300          18.600



 109068994.993 8  84988889.330 8  20755150.594                    20755158.531
     -1662.325       -1295.318          50.100          48.900



 132924021.699 6 103577218.566 5  25294610.055                    25294620.895
       946.077         737.206          37.200          34.200



 112134515.955 8  87377580.535 8  21338501.711                    21338508.438
       320.716         249.910          48.600          48.800



 120984184.417 7  94273434.914 7  23022543.828                    23022554.066
     -3019.316       -2352.710          43.000          43.700



 112006341.677 7  87277700.987 7  21314110.156                    21314118.988
     -2217.527       -1727.944          47.800          47.800



 113405592.881 8  88368093.009 7  21580359.180                    21580366.094
      1776.143        1384.001          48.100          46.100



 23 11  9  9 25  0.0000000  0  9G20G30G16G09G29G11G04G06G07
 115173831.665 7  89745874.58445  21916861.250                    21916868.059
      2701.028        2104.689          46.600          34.600



 121574884.437 7  94733785.961 7  23134923.398                    23134933.672
      3325.607        2591.382          44.100          43.400



 128310101.263 6  99982004.31343  24416602.102                    24416612.469
       520.462         405.548          38.200          19.000



 109119038.078 8  85027883.873 8  20764673.414                    20764681.406
     -1673.479       -1304.006          50.500          49.200



 132895923.000 6 103555323.430 5  25289262.438                    25289272.371
       927.804         722.967          36.800          32.800



 112125212.023 8  87370330.696 8  21336730.898                    21336737.535
       300.263         233.974          49.600          48.900



 121074830.782 7  94344068.293 7  23039793.898                    23039803.281
     -3023.571       -2356.025          43.300          43.300



 112073121.935 7  87329737.474 8  21326818.258                    21326826.961
     -2233.866       -1740.669          47.600          48.500



 113352535.161 7  88326749.347 7  21570262.641                    21570269.586
      1761.589        1372.669          47.800          46.500



 23 11  9  9 25 30.0000000  0  9G20G30G16G09G29G11G04G06G07
 115092930.482 7  89682834.70945  21901466.914                    21901473.160
      2692.660        2098.175          46.400          35.200



 121475229.836 7  94656133.164 7  23115959.289                    23115970.102
      3318.220        2585.623          42.500          44.100



 128294795.662 6  99970077.91143  24413690.047                    24413699.230
       500.572         390.060          37.200          18.300



 109169415.222 8  85067138.714 8  20774259.930                    20774267.953
     -1684.635       -1312.704          49.600          49.300



 132868373.790 6 103533856.534 5  25284020.617                    25284030.527
       909.430         708.636          38.900          31.400



 112116522.473 8  87363559.592 8  21335077.180                    21335084.156
       279.727         217.968          48.700          49.500



 121165605.387 7  94414801.614 7  23057067.477                    23057076.996
     -3027.888       -2359.393          44.100          43.800



 112140391.779 7  87382155.438 8  21339619.039                    21339628.371
     -2250.223       -1753.412          46.800          48.700



 113299914.729 7  88285746.427 7  21560249.516                    21560256.348
      1746.934        1361.245          47.600          45.600



 23 11  9  9 26  0.0000000  0  9G20G30G16G09G29G11G04G06G07
 115012279.349 7  89619989.66345  21886119.039                    21886125.563
      2684.296        2091.660          46.300          34.400



 121375797.173 7  94578653.281 7  23097037.563                    23097048.391
      3310.791        2579.832          43.500          43.800



 128280084.307 6  99958614.60942  24410890.398                    24410899.820
       480.790         374.629          37.300          17.800



 109220125.270 8  85106652.961 8  20783909.914                    20783917.945
     -1695.711       -1321.327          49.600          49.600



 132841374.978 6 103512818.322 4  25278882.656                    25278888.121
       891.046         694.328          38.400          26.700



 112108447.949 8  87357267.724 8  21333540.555                    21333547.781
       259.205         201.976          48.200          50.000



 121256506.951 7  94485633.857 7  23074366.070                    23074375.285
     -3032.114       -2362.684          44.100          43.500



 112208149.235 7  87434953.370 8  21352512.797                    21352522.559
     -2266.447       -1766.059          47.500          48.800



 113247732.872 7  88245085.236 7  21550319.914                    21550326.227
      1732.290        1349.843          47.500          45.700



 23 11  9  9 26 30.0000000  0  9G20G30G16G09G29G11G04G06G07
 114931880.178 7  89557340.95845  21870819.625                    21870825.895
      2675.880        2085.102          46.600          35.000



 121276588.746 7  94501348.116 7  23078159.195                    23078169.727
      3303.316        2574.012          43.200          44.600



 128265968.209 6  99947615.08743  24408204.594                    24408214.586
       460.925         359.157          38.300          19.000



 109271166.801 8  85146425.510 8  20793623.156                    20793631.078
     -1706.710       -1329.901          49.500          49.500



 132814927.228 6 103492209.681 5  25273850.281                    25273859.238
       872.695         680.016          38.000          32.800



 112100988.913 7  87351455.456 8  21332121.602                    21332128.250
       238.691         185.994          47.900          49.200



 121347534.043 7  94556563.927 7  23091687.258                    23091696.836
     -3036.226       -2365.886          43.400          42.400



 112276392.157 7  87488129.584 8  21365499.273                    21365508.598
     -2282.564       -1778.619          47.200          48.400



 113195991.012 7  88204766.920 7  21540473.258                    21540480.461
      1717.596        1338.385          47.900          46.000



 23 11  9  9 27  0.0000000  0  9G20G30G16G09G29G11G04G06G07
 114851735.211 7  89494890.33345  21855568.484                    21855574.984
      2667.380        2078.474          46.600          34.300



 121177606.761 7  94424219.396 7  23059323.289                    23059334.023
      3295.710        2568.084          43.500          44.800



 128252448.686 6  99937080.44243  24405631.570                    24405642.668
       441.040         343.651          38.300          19.300



 109322538.336 8  85186455.220 8  20803398.578                    20803406.844
     -1717.679       -1338.447          49.000          49.200



 132789031.374 6 103472031.031 5  25268923.242                    25268931.973
       854.260         665.656          40.000          31.400



 112094145.689 7  87346123.047 8  21330818.961                    21330826.027
       218.179         170.014          47.600          49.100



 121438685.179 7  94627590.663 7  23109033.344                    23109042.500
     -3040.343       -2369.096          43.700          42.300



 112345118.332 7  87541682.347 8  21378577.344                    21378586.520
     -2298.635       -1791.137          47.300          48.400



 113144690.556 7  88164792.555 7  21530711.133                    21530718.574
      1702.893        1326.926          47.800          47.000



 23 11  9  9 27 30.0000000  0  9G20G30G16G09G29G11G04G06G07
 114771846.566 7  89432639.44245  21840366.211                    21840372.422
      2658.784        2071.779          46.500          34.200



 121078853.635 7  94347269.012 7  23040531.297                    23040541.770
      3288.056        2562.119          43.600          44.000



 128239526.308 6  99927011.08743  24403172.602                    24403183.555
       421.128         328.165          38.000          18.600



 109374238.770 8  85226741.209 8  20813237.320                    20813244.992
     -1728.646       -1346.994          49.400          49.700



 132763688.456 6 103452283.234 5  25264100.477                    25264109.027
       835.823         651.297          39.900          33.100



 112087918.975 7  87341271.039 8  21329634.539                    21329641.156
       197.600         153.971          47.500          49.100



 121529959.244 7  94698713.182 7  23126402.641                    23126411.453
     -3044.448       -2372.290          43.400          42.100



 112414325.816 7  87595610.162 8  21391747.328                    21391756.656
     -2314.685       -1803.645          47.300          48.100



 113093832.875 8  88125163.215 7  21521033.250                    21521040.398
      1688.133        1315.426          48.000          46.500



 23 11  9  9 28  0.0000000  0  9G20G30G16G09G29G11G04G06G07
 114692215.880 7  89370589.56845  21825213.055                    21825219.715
      2650.172        2065.065          47.200          34.600



 120980331.714 7  94270498.760 7  23021782.914                    23021793.563
      3280.302        2556.076          43.800          44.100



 128227202.347 6  99917408.07443  24400826.664                    24400837.082
       401.144         312.568          37.400          18.300



 109426266.697 8  85267282.384 8  20823137.945                    20823145.914
     -1739.527       -1355.470          49.400          50.000



 132738898.704 6 103432966.496 5  25259382.625                    25259392.672
       817.384         636.924          39.600          33.400



 112082309.096 7  87336899.677 8  21328566.930                    21328573.285
       177.065         137.973          47.500          49.100



 121621354.788 7  94769930.383 7  23143794.258                    23143803.734
     -3048.467       -2375.426          43.700          43.000



 112484012.325 8  87649911.253 7  21405008.242                    21405017.117
     -2330.591       -1816.037          48.200          47.800



 113043419.190 8  88085879.843 7  21511439.813                    21511446.801
      1673.299        1303.870          48.100          46.000



 23 11  9  9 28 30.0000000  0  9G20G30G16G09G29G11G04G06G07
 114612845.389 7  89308742.43545  21810109.430                    21810115.582
      2641.453        2058.276          47.200          34.800



 120882043.051 7  94193910.259 7  23003079.289                    23003089.418
      3272.510        2550.001          43.600          44.200



 128215477.578 6  99908271.89642  24398595.336                    24398605.664
       381.171         297.023          36.700          17.400



 109478620.433 8  85308077.445 8  20833100.125                    20833108.703
     -1750.370       -1363.926          48.800          49.700



 132714663.546 6 103414081.891 4  25254771.922                    25254777.398
       798.909         622.528          39.400          28.200



 112077316.227 7  87333009.098 8  21327616.469                    21327623.129
       156.474         121.929          47.300          49.700



 121712870.199 7  94841240.934 7  23161209.320                    23161218.879
     -3052.429       -2378.513          43.000          42.000



 112554175.492 7  87704583.767 8  21418359.633                    21418369.207
     -2346.431       -1828.388          47.300          48.000



 112993450.504 8  88046943.205 7  21501931.266                    21501938.203
      1658.422        1292.281          48.100          46.400



 23 11  9  9 29  0.0000000  0  9G20G30G16G09G29G11G04G06G07
 114533737.288 7  89247099.75745  21795055.445                    21795061.961
      2632.687        2051.445          47.600          34.700



 120783989.992 7  94117505.342 7  22984420.359                    22984430.457
      3264.604        2543.847          44.700          44.300



 128204352.773 6  99899603.24242  24396478.703                    24396488.855
       361.134         281.410          36.800          17.800



 109531298.839 8  85349125.487 8  20843124.492                    20843132.801
     -1761.153       -1372.321          48.900          50.000



 132690983.392 6 103395629.629 4  25250265.516                    25250271.449
       780.388         608.109          39.200          29.900



 112072940.818 7  87329599.664 8  21326784.086                    21326790.895
       135.902         105.898          47.600          50.000



 121804504.284 7  94912643.996 7  23178646.750                    23178656.574
     -3056.343       -2381.566          42.600          42.600



 112624813.227 7  87759626.057 7  21431801.742                    21431811.313
     -2362.218       -1840.686          47.000          47.900



 112943928.106 8  88008354.332 7  21492507.531                    21492514.125
      1643.540        1280.677          48.800          46.300



 23 11  9  9 29 30.0000000  0  9G20G30G16G09G29G11G04G06G07
 114454893.162 7  89185662.76645  21780051.500                    21780057.738
      2623.867        2044.573          46.900          35.000



 120686174.881 7  94041285.846 7  22965806.359                    22965817.117
      3256.648        2537.645          43.600          44.600



 128193829.485 6  99891403.24643  24394476.820                    24394486.352
       341.031         265.737          37.000          19.000



 109584300.614 8  85390425.515 8  20853210.398                    20853218.773
     -1771.946       -1380.734          49.500          50.000



 132667858.796 6 103377610.463 5  25245863.844                    25245873.551
       761.878         593.662          39.600          33.600



 112069183.342 7  87326671.731 8  21326068.938                    21326075.875
       115.266          89.818          47.800          49.800



 121896255.742 7  94984138.492 7  23196107.180                    23196116.922
     -3060.275       -2384.624          42.600          42.900



 112695923.374 7  87815036.457 8  21445334.023                    21445343.016
     -2377.938       -1852.937          47.200          48.100



 112894853.262 8  87970114.192 7  21483169.008                    21483175.855
      1628.605        1269.043          49.000          46.300



 23 11  9  9 30  0.0000000  0  9G20G30G16G09G29G11G04G06G07
 114376315.762 7  89124433.61145  21765099.094                    21765104.797
      2614.910        2037.594          46.700          34.800



 120588600.225 7  93965253.723 7  22947238.516                    22947248.750
      3248.554        2531.339          43.700          44.500



 128183908.088 6  99883672.25843  24392589.539                    24392599.008
       320.990         250.134          37.700          19.300



 109637624.481 8  85431976.539 8  20863357.797                    20863365.840
     -1782.663       -1389.094          49.500          49.000



 132645290.365 6 103360024.658 5  25241569.852                    25241578.629
       743.275         579.177          38.600          33.500



 112066044.191 8  87324225.607 8  21325471.508                    21325478.957
        94.660          73.762          48.000          49.500



 121988123.420 6  95055723.546 7  23213588.313                    23213598.730
     -3064.138       -2387.635          41.700          43.000



 112767503.880 7  87870813.376 8  21458954.445                    21458964.457
     -2393.590       -1865.134          47.200          48.200



 112846227.423 8  87932223.931 7  21473915.570                    21473922.133
      1613.573        1257.331          48.200          45.700



 23 11  9  9 30 30.0000000  0  9G20G30G16G09G29G11G04G06G07
 114298006.841 7  89063413.65945  21750197.211                    21750203.352
      2605.930        2030.597          46.600          34.100



 120491268.015 7  93889410.496 7  22928716.859                    22928727.176
      3240.455        2525.026          43.700          44.000



 128174589.082 6  99876410.65743  24390814.164                    24390824.719
       300.851         234.432          36.200          18.300



 109691268.890 8  85473777.333 8  20873565.430                    20873574.023
     -1793.343       -1397.410          49.800          49.500



 132623279.156 6 103342872.994 5  25237382.203                    25237387.746
       724.650         564.665          39.000          30.900



 112063523.449 8  87322261.377 8  21324991.742                    21324998.980
        74.050          57.697          48.200          49.300



 122080105.727 7  95127397.930 7  23231091.836                    23231102.410
     -3067.934       -2390.589          42.100          43.200



 112839552.201 7  87926954.811 8  21472665.914                    21472675.543
     -2409.140       -1877.244          47.000          48.000



 112798051.201 8  87894684.025 7  21464748.359                    21464754.625
      1598.568        1245.633          48.900          46.000



 23 11  9  9 31  0.0000000  0  9G20G30G16G09G29G11G04G06G07
 114219968.132 7  89002604.26345  21735346.914                    21735352.668
      2596.922        2023.582          47.200          34.000



 120394180.712 7  93813758.106 7  22910241.469                    22910251.891
      3232.318        2518.690          44.400          43.500



 128165874.005 5  99869619.58342  24389154.984                    24389166.629
       280.806         218.804          35.400          16.900



 109745232.640 8  85515826.964 8  20883834.859                    20883843.191
     -1803.884       -1405.624          49.600          49.100



 132601825.590 6 103326155.867 5  25233299.219                    25233306.871
       706.141         550.247          38.800          32.800



 112061621.562 7  87320779.358 8  21324629.906                    21324637.223
        53.443          41.644          47.800          49.600



 122172201.518 7  95199160.740 7  23248617.883                    23248627.523
     -3071.653       -2393.497          42.000          43.500



 112912066.320 7  87983459.209 8  21486464.344                    21486474.512
     -2424.598       -1889.291          47.000          48.800



 112750326.069 8  87857495.602 7  21455666.625                    21455673.027
      1583.587        1233.963          49.200          46.700



 23 11  9  9 31 30.0000000  0  9G20G30G16G09G29G11G04G06G07
 114142201.876 7  88942007.16745  21720548.680                    21720554.605
      2587.808        2016.483          46.400          34.200



 120297340.610 7  93738298.351 7  22891813.906                    22891823.844
      3223.973        2512.188          44.000          44.100



 128157763.595 6  99863299.65643  24387613.031                    24387623.117
       260.627         203.089          36.400          18.300



 109799514.368 8  85558124.367 8  20894163.953                    20894172.672
     -1814.500       -1413.893          49.100          49.200



 132580930.251 6 103309873.786 5  25229321.906                    25229330.395
       687.558         535.749          37.600          32.800



 112060338.694 7  87319779.686 8  21324386.125                    21324393.027
        32.792          25.552          47.700          49.300



 122264409.430 6  95271010.903 7  23266164.234                    23266174.121
     -3075.403       -2396.414          41.100          43.400



 112985043.932 7  88040324.771 8  21500351.500                    21500361.469
     -2440.055       -1901.339          46.800          48.100



 112703053.484 8  87820659.827 7  21446670.734                    21446677.594
      1568.440        1222.161          48.500          46.200



 23 11  9  9 32  0.0000000  0  9G20G30G16G09G29G11G04G06G07
 114064710.179 7  88881624.02545  21705802.492                    21705808.066
      2578.637        2009.328          46.600          34.800



 120200749.818 7  93663032.858 7  22873432.734                    22873443.195
      3215.667        2505.708          45.000          44.000



 128150258.541 6  99857451.45043  24386185.688                    24386195.887
       240.381         187.305          37.100          18.600



 109854112.636 8  85600668.425 8  20904554.063                    20904562.250
     -1825.022       -1422.097          49.300          49.300



 132560593.932 6 103294027.278 5  25225452.445                    25225460.719
       668.858         521.193          38.100          32.600



 112059675.002 7  87319262.495 8  21324259.406                    21324266.668
        12.158           9.481          47.900          49.100



 122356728.108 6  95342947.393 7  23283731.820                    23283741.891
     -3079.068       -2399.268          41.500          43.100



 113058482.599 7  88097549.612 8  21514326.352                    21514335.973
     -2455.347       -1913.254          46.000          48.100



 112656234.424 8  87784177.438 7  21437761.133                    21437768.223
      1553.327        1210.381          48.400          46.200



 23 11  9  9 32 30.0000000  0  9G20G30G16G09G29G11G04G06G07
 113987495.374 7  88821456.64445  21691109.063                    21691114.879
      2569.368        2002.098          46.600          35.300



 120104410.815 7  93587963.550 7  22855100.180                    22855110.316
      3207.232        2499.145          44.200          43.900



 128143359.428 5  99852075.40842  24384872.023                    24384883.070
       220.243         171.615          35.200          17.800



 109909026.233 8  85643458.186 8  20915003.719                    20915012.211
     -1835.521       -1430.274          49.200          49.600



 132540816.716 6 103278616.419 5  25221689.813                    25221698.246
       650.234         506.678          40.000          34.200



 112059630.854 8  87319228.063 8  21324250.961                    21324258.461
        -8.481          -6.602          48.700          49.100



 122449156.302 6  95414969.201 7  23301321.406                    23301330.871
     -3082.652       -2402.063          41.800          43.400



 113132380.262 7  88155132.106 7  21528389.250                    21528398.754
     -2470.578       -1925.120          46.800          47.900



 112609869.877 8  87748049.217 7  21428938.672                    21428945.164
      1538.178        1198.582          48.400          45.500



 23 11  9  9 33  0.0000000  0  9G20G30G16G09G29G11G04G06G07
 113910559.193 7  88761506.37445  21676468.953                    21676474.535
      2560.051        1994.845          46.400          35.800



 120008325.621 7  93513092.020 7  22836816.086                    22836825.730
      3198.747        2492.529          44.500          44.100



 128137066.931 6  99847171.97443  24383675.102                    24383685.297
       199.986         155.869          36.400          18.300



 109964253.584 8  85686492.438 8  20925513.453                    20925521.547
     -1845.919       -1438.375          48.900          49.100



 132521599.337 6 103263641.808 5  25218033.227                    25218041.172
       631.592         492.145          39.800          34.700



 112060206.171 7  87319676.330 8  21324360.539                    21324367.453
       -29.130         -22.702          47.600          49.500



 122541692.600 7  95487075.258 7  23318930.313                    23318939.516
     -3086.240       -2404.860          42.000          43.000



 113206734.369 7  88213070.263 8  21542538.281                    21542548.191
     -2485.755       -1936.946          46.800          48.300



 112563960.869 8  87712275.972 7  21420202.391                    21420208.652
      1522.961        1186.721          48.800          46.300



 23 11  9  9 33 30.0000000  0  9G20G30G16G09G29G11G04G06G07
 113833903.460 7  88701774.66145  21661881.813                    21661887.398
      2550.616        1987.492          46.500          35.800



 119912496.610 7  93438420.111 7  22818580.625                    22818590.680
      3190.140        2485.820          44.900          44.700



 128131381.955 6  99842742.00643  24382593.719                    24382603.621
       179.727         140.053          38.600          18.300



 110019793.479 8  85729770.231 8  20936082.438                    20936090.504
     -1856.331       -1446.489          49.200          49.200



 132502942.285 6 103249103.776 5  25214482.813                    25214489.285
       612.878         477.575          41.100          33.300



 112061401.235 7  87320607.520 8  21324588.742                    21324595.461
       -49.830         -38.826          47.800          49.400



 122634335.800 7  95559264.607 7  23336559.281                    23336569.715
     -3089.824       -2407.655          42.200          43.100



 113281542.724 7  88271362.383 8  21556773.563                    21556783.902
     -2500.894       -1948.746          46.500          48.200



 112518508.562 8  87676858.580 7  21411553.203                    21411559.332
      1507.683        1174.827          48.700          46.200



 23 11  9  9 34  0.0000000  0  9G20G30G16G09G29G11G04G06G07
 113757530.537 7  88642263.31845  21647348.359                    21647354.066
      2541.202        1980.152          46.900          35.300



 119816925.711 7  93363949.331 7  22800393.773                    22800404.184
      3181.523        2479.107          43.700          45.500



 128126305.107 6  99838785.93643  24381628.203                    24381637.984
       159.376         124.200          38.700          20.100



 110075644.309 7  85773290.312 8  20946710.055                    20946718.754
     -1866.692       -1454.561          47.700          48.900



 132484846.033 6 103235002.701 5  25211039.328                    25211046.996
       594.150         462.977          39.800          34.300



 112063215.848 8  87322021.472 8  21324933.625                    21324940.250
       -70.466         -54.908          48.700          49.000



 122727084.394 7  95631536.071 6  23354209.320                    23354218.754
     -3093.282       -2410.344          42.300          41.900



 113356802.685 7  88330006.421 8  21571095.953                    21571105.664
     -2515.924       -1960.459          46.700          48.600



 112473513.800 8  87641797.712 7  21402990.953                    21402997.234
      1492.450        1162.943          48.000          45.800



 23 11  9  9 34 30.0000000  0  9G20G30G16G09G29G11G04G06G07
 113681442.317 7  88582973.83045  21632869.234                    21632875.270
      2531.680        1972.730          46.400          35.400



 119721615.448 7  93289681.638 7  22782256.859                    22782267.008
      3172.794        2472.311          44.500          45.000



 128121837.029 6  99835304.24443  24380776.859                    24380788.105
       139.126         108.393          38.100          19.300



 110131804.833 8  85817051.717 8  20957397.320                    20957405.480
     -1876.965       -1462.571          48.900          48.400



 132467311.011 6 103221338.986 5  25207701.680                    25207710.781
       575.488         448.436          41.200          34.600



 112065650.322 8  87323918.446 8  21325396.680                    21325403.492
       -91.128         -71.010          48.000          49.500



 122819937.219 6  95703888.792 7  23371877.719                    23371888.348
     -3096.744       -2413.040          41.100          42.100



 113432512.073 7  88389000.651 8  21585502.492                    21585512.078
     -2530.843       -1972.080          46.800          48.100



 112428977.994 7  87607094.501 7  21394515.875                    21394522.328
      1477.131        1151.010          47.500          45.400



 23 11  9  9 35  0.0000000  0  9G20G30G16G09G29G11G04G06G07
 113605641.251 7  88523908.07346  21618445.633                    21618450.469
      2522.070        1965.246          46.700          36.000



 119626568.115 7  93215618.809 7  22764169.617                    22764179.895
      3163.991        2465.446          44.200          45.400



 128117978.167 6  99832297.25343  24380043.023                    24380053.688
       118.831          92.621          36.300          19.600



 110188273.898 8  85861053.540 8  20968143.008                    20968151.309
     -1887.231       -1470.563          49.000          49.300



 132450337.794 6 103208113.077 6  25204472.211                    25204481.570
       556.724         433.816          40.100          36.000



 112068704.843 8  87326298.563 8  21325978.375                    21325985.230
      -111.784         -87.106          48.800          49.800



 122912893.144 7  95776321.798 7  23389567.664                    23389577.613
     -3100.171       -2415.715          42.500          43.000



 113508668.695 7  88448343.385 7  21599994.484                    21600004.625
     -2545.718       -1983.675          45.300          47.900



 112384902.071 8  87572749.624 7  21386128.781                    21386134.852
      1461.792        1139.057          48.300          45.600



 23 11  9  9 35 30.0000000  0  9G20G30G16G09G29G11G04G06G07
 113530129.205 7  88465067.54245  21604075.734                    21604081.129
      2512.357        1957.683          47.100          35.400



 119531785.848 7  93141762.540 7  22746133.414                    22746143.352
      3155.094        2458.516          43.500          45.700



 128114729.483 6  99829765.79242  24379423.820                    24379434.930
        98.411          76.681          38.600          16.900



 110245050.031 8  85905294.636 8  20978947.805                    20978955.559
     -1897.504       -1478.573          48.800          49.000



 132433926.606 6 103195325.080 5  25201349.688                    25201358.258
       537.960         419.191          39.000          35.700



 112072379.330 8  87329161.774 8  21326677.641                    21326684.316
      -132.512        -103.261          49.100          49.100



 123005950.812 6  95848834.091 7  23407275.688                    23407285.750
     -3103.569       -2418.357          41.400          42.600



 113585270.049 7  88508032.663 7  21614570.922                    21614580.898
     -2560.537       -1995.219          45.800          47.900



 112341286.820 7  87538763.718 7  21377828.648                    21377834.629
      1446.354        1127.029          47.500          46.000



 23 11  9  9 36  0.0000000  0  9G20G30G16G09G29G11G04G06G07
 113454908.321 7  88406453.88345  21589761.359                    21589767.523
      2502.633        1950.099          46.600          35.700



 119437270.784 7  93068114.466 7  22728147.602                    22728157.781
      3146.155        2451.546          44.400          45.600



 128112091.356 6  99827710.11243  24378923.016                    24378932.855
        78.093          60.857          38.400          18.600



 110302131.767 8  85949773.870 8  20989809.539                    20989818.086
     -1907.658       -1486.489          48.400          49.100



 132418077.736 6 103182975.230 5  25198333.180                    25198341.203
       519.276         404.631          39.500          34.700



 112076673.641 8  87332507.957 8  21327494.344                    21327501.270
      -153.147        -119.335          48.300          48.800



 123099108.826 7  95921424.580 7  23425003.531                    23425014.180
     -3106.858       -2420.919          42.000          42.900



 113662313.585 7  88568066.498 7  21629232.617                    21629242.047
     -2575.222       -2006.666          46.200          47.500



 112298133.460 8  87505137.726 7  21369617.039                    21369623.684
      1430.979        1115.047          48.100          46.100



 23 11  9  9 36 30.0000000  0  9G20G30G16G09G29G11G04G06G07
 113379980.407 7  88348068.51846  21575502.656                    21575509.508
      2492.858        1942.487          46.300          36.400



 119343025.364 7  92994676.487 7  22710213.758                    22710223.301
      3137.137        2444.527          43.400          44.700



 128110064.283 6  99826130.59643  24378537.250                    24378548.945
        57.693          44.964          36.200          19.300



 110359517.957 8  85994490.329 8  21000730.008                    21000738.672
     -1917.752       -1494.355          49.000          48.800



 132402792.066 6 103171064.251 5  25195424.500                    25195431.355
       500.441         389.954          40.600          33.300



 112081588.057 8  87336337.345 8  21328429.758                    21328436.746
      -173.800        -135.427          48.000          49.600



 123192366.259 6  95994092.531 7  23442749.836                    23442760.059
     -3110.159       -2423.498          41.300          42.000



 113739797.174 7  88628443.220 7  21643977.453                    21643987.219
     -2589.852       -2018.063          46.800          47.900



 112255443.217 7  87471872.604 7  21361493.297                    21361500.109
      1415.535        1103.015          47.800          46.400



 23 11  9  9 37  0.0000000  0  9G20G30G16G09G29G11G04G06G07
 113305347.754 7  88289913.22746  21561300.898                    21561307.141
      2482.960        1934.773          46.400          36.800



 119249051.568 7  92921450.183 7  22692330.422                    22692340.570
      3128.049        2437.442          43.200          45.200



 128108648.882 6  99825027.69343  24378267.773                    24378279.844
        37.277          29.028          36.400          19.600



 110417207.087 8  86039442.847 8  21011707.625                    21011715.652
     -1927.850       -1502.219          48.800          48.800



 132388069.397 6 103159591.926 5  25192622.703                    25192630.660
       481.668         375.336          40.600          33.600



 112087122.266 7  87340649.684 8  21329483.016                    21329489.863
      -194.464        -151.530          47.900          49.500



 123285721.512 6  96066836.700 7  23460514.422                    23460525.512
     -3113.455       -2426.057          40.800          42.000



 113817718.157 7  88689160.766 8  21658805.172                    21658814.984
     -2604.399       -2029.398          46.400          48.200



 112213216.766 7  87438968.877 7  21353457.609                    21353464.559
      1400.057        1090.957          47.700          46.500



 23 11  9  9 37 30.0000000  0  9G20G30G16G09G29G11G04G06G07
 113231012.944 7  88231990.01945  21547155.180                    21547161.551
      2473.024        1927.027          45.900          35.900



 119155352.243 7  92848437.752 7  22674499.961                    22674510.168
      3118.859        2430.281          43.500          45.100



 128107845.530 6  99824401.72243  24378115.523                    24378125.887
        16.892          13.188          37.000          19.000



 110475198.340 8  86084630.791 8  21022743.086                    21022751.742
     -1937.893       -1510.040          48.400          48.200



 132373910.560 6 103148558.978 6  25189928.477                    25189938.168
       462.910         360.712          40.500          36.100



 112093276.810 8  87345445.403 8  21330654.148                    21330661.168
      -215.138        -167.632          48.400          48.600



 123379173.948 6  96139656.611 7  23478297.766                    23478309.207
     -3116.660       -2428.562          40.800          42.600



 113896074.658 7  88750217.680 8  21673716.102                    21673726.336
     -2618.846       -2040.656          46.600          48.500



 112171455.462 7  87406427.591 7  21345511.055                    21345517.020
      1384.504        1078.831          47.800          46.600



 23 11  9  9 38  0.0000000  0  9G20G30G16G09G29G11G04G06G07
 113156977.518 7  88174300.08945  21533066.688                    21533073.180
      2463.040        1919.255          45.600          35.200



 119061929.051 7  92775640.464 7  22656722.727                    22656732.508
      3109.667        2423.118          44.600          45.500



 128107654.490 6  99824252.95543  24378078.938                    24378088.758
        -3.466          -2.698          37.300          19.300



 110533489.862 8  86130052.695 8  21033835.680                    21033844.016
     -1947.841       -1517.797          48.600          48.400



 132360315.630 6 103137965.484 5  25187341.219                    25187350.230
       444.084         346.037          39.500          34.800



 112100051.038 8  87350723.986 8  21331942.945                    21331950.000
      -235.756        -183.703          48.300          49.000



 123472721.850 6  96212550.895 7  23496099.922                    23496110.867
     -3119.760       -2430.975          41.600          42.500



 113974863.760 7  88811611.697 7  21688708.758                    21688718.516
     -2633.232       -2051.862          47.000          47.900



 112130159.797 7  87374249.163 7  21337652.516                    21337659.121
      1369.055        1066.794          47.800          47.200



 23 11  9  9 38 30.0000000  0  9G20G30G16G09G29G11G04G06G07
 113083243.552 7  88116845.06745  21519034.992                    21519042.066
      2452.917        1911.360          45.800          35.700



 118968784.190 7  92703060.061 7  22638997.375                    22639007.313
      3100.327        2415.836          44.700          45.000



 128108076.614 6  99824581.92143  24378158.492                    24378168.828
       -23.938         -18.648          36.200          18.300



 110592080.284 8  86175707.509 8  21044985.289                    21044993.645
     -1957.819       -1525.573          48.200          48.200



 132347284.796 6 103127811.493 5  25184862.211                    25184870.363
       425.278         331.389          41.300          34.600



 112107444.818 8  87356485.339 8  21333349.914                    21333357.199
      -256.446        -199.821          48.400          48.800



 123566363.956 6  96285518.583 7  23513919.633                    23513930.715
     -3122.935       -2433.449          41.600          43.000



 114054082.892 7  88873340.789 7  21703783.547                    21703793.492
     -2647.543       -2063.020          45.300          47.600



 112089330.685 8  87342434.283 7  21329882.875                    21329890.035
      1353.437        1054.625          48.300          47.100



 23 11  9  9 39  0.0000000  0  9G20G30G16G09G29G11G04G06G07
 113009813.199 7  88059626.61545  21505061.539                    21505068.461
      2442.760        1903.450          46.100          35.600



 118875919.964 7  92630698.341 7  22621325.820                    22621336.383
      3090.935        2408.525          44.300          45.800



 128109111.923 6  99825388.67243  24378355.789                    24378366.773
       -44.371         -34.564          36.700          19.600



 110650968.361 8  86221594.251 8  21056191.344                    21056199.359
     -1967.738       -1533.302          48.700          48.300



 132334818.250 6 103118097.224 5  25182490.266                    25182497.566
       406.424         316.703          40.700          34.000



 112115458.117 8  87362729.439 8  21334875.094                    21334882.629
      -277.109        -215.926          48.000          49.300



 123660099.066 6  96358558.761 6  23531756.633                    23531767.609
     -3125.988       -2435.830          41.800          41.600



 114133729.771 7  88935403.184 7  21718940.078                    21718950.590
     -2661.759       -2074.095          46.200          47.500



 112048969.495 7  87310984.005 7  21322202.766                    21322209.023
      1337.805        1042.447          47.800          46.800



 23 11  9  9 39 30.0000000  0  9G20G30G16G09G29G11G04G06G07
 112936688.368 7  88002646.22845  21491146.773                    21491153.520
      2432.586        1895.519          45.900          35.800



 118783338.336 7  92558556.857 7  22603708.570                    22603718.492
      3081.505        2401.170          44.200          45.500



 128110760.575 6  99826673.37343  24378669.430                    24378680.844
       -64.840         -50.524          37.400          20.100



 110710152.564 8  86267711.750 8  21067453.969                    21067462.035
     -1977.526       -1540.928          48.900          48.000



 132322916.163 6 103108822.787 5  25180225.703                    25180233.102
       387.696         302.106          39.900          35.100



 112124090.534 8  87369455.961 8  21336517.867                    21336524.645
      -297.685        -231.957          48.500          48.800



 123753925.859 6  96431670.362 7  23549611.930                    23549623.363
     -3128.991       -2438.175          41.800          43.000



 114213801.661 7  88997796.757 7  21734177.961                    21734187.727
     -2675.823       -2085.051          45.500          47.400



 112009076.742 7  87279898.771 7  21314611.383                    21314617.699
      1322.219        1030.306          47.900          46.800



 23 11  9  9 40  0.0000000  0  9G20G30G16G09G29G11G04G06G07
 112863871.579 7  87945905.88045  21477289.953                    21477296.648
      2422.242        1887.459          45.600          35.800



 118691041.869 7  92486637.548 7  22586144.625                    22586155.180
      3071.943        2393.719          44.400          45.800



 128113023.481 6  99828436.66343  24379099.617                    24379110.180
       -85.341         -66.492          37.100          19.300



 110769631.927 8  86314059.238 8  21078772.414                    21078780.891
     -1987.409       -1548.626          48.400          48.600



 132311578.895 6 103099988.558 6  25178066.820                    25178075.930
       368.811         287.388          39.400          36.400



 112133342.299 8  87376665.092 8  21338278.461                    21338285.637
      -318.395        -248.097          48.600          48.600



 123847843.442 6  96504852.684 6  23567484.359                    23567494.754
     -3132.058       -2440.557          41.800          41.100



 114294296.461 7  89060519.868 7  21749495.766                    21749504.914
     -2689.955       -2096.057          46.200          46.800



 111969653.442 7  87249179.316 7  21307109.289                    21307116.063
      1306.510        1018.064          47.600          46.500



 23 11  9  9 40 30.0000000  0  9G20G30G16G09G29G11G04G06G07
 112791364.387 7  87889406.78346  21463492.930                    21463499.074
      2411.909        1879.410          46.400          36.200



 118599032.475 7  92414941.954 7  22568636.258                    22568646.090
      3062.343        2386.240          44.600          45.500



 128115900.854 6  99830678.78243  24379647.063                    24379657.371
      -105.812         -82.457          36.600          19.000



 110829404.773 8  86360635.405 8  21090146.813                    21090155.078
     -1997.117       -1556.189          48.000          48.800



 132300806.259 6 103091594.211 6  25176018.383                    25176026.723
       349.977         272.712          41.400          36.500



 112143212.848 8  87384356.385 8  21340156.555                    21340164.176
      -338.966        -264.122          48.500          49.000



 123941850.327 7  96578104.622 7  23585373.305                    23585384.305
     -3134.993       -2442.845          42.000          42.700



 114375211.343 7  89123570.327 7  21764893.438                    21764902.930
     -2703.893       -2106.927          47.000          47.000



 111930700.389 8  87218826.301 7  21299696.586                    21299703.340
      1290.849        1005.853          48.200          47.000



