     2.11           OBSERVATION DATA    G (GPS)             RINEX VERSION / TYPE
teqc  2019Feb25                         20230910 13:51:56UTCPGM / RUN BY / DATE
Linux 2.6.32-573.12.1.x86_64|x86_64|gcc|Linux 64|=+         COMMENT
teqc  2019Feb25                         20230910 13:51:56UTCCOMMENT
     2.11           OBSERVATION DATA    M (MIXED)           COMMENT
teqc  2019Feb25     IGN-RGP             20230910 10:02:14UTCCOMMENT
teqc  2019Feb25     Administrateur RGP  20230910 10:02:14UTCCOMMENT
teqc  2019Feb25     IGN-RGP             20230910 10:02:12UTCCOMMENT
teqc  2019Feb25     IGN-RGP             20230910 10:02:11UTCCOMMENT
BIT 2 OF LLI FLAGS DATA COLLECTED UNDER A/S CONDITION       COMMENT
IGNF                                                        MARKER NAME
10001M009                                                   MARKER NUMBER
Automatic           IGN                                     OBSERVER / AGENCY
1834194             LEICA GR50          4.51                REC # / TYPE / VERS
5000113963          TRM57971.00     NONE                    ANT # / TYPE
  4201694.1440   177888.8370  4779371.7670                  APPROX POSITION XYZ
        0.0000        0.0000        0.0000                  ANTENNA: DELTA H/E/N
     1     1                                                WAVELENGTH FACT L1/2
    21    L1    L2    C1    P1    P2    D1    D2    S1    S2# / TYPES OF OBSERV
          L5    C5    D5    S5    L7    C7    D7    S7    L8# / TYPES OF OBSERV
          C8    D8    S8                                    # / TYPES OF OBSERV
    30.0000                                                 INTERVAL
DefaultJobName                                              COMMENT
DefaultUserDiscription                                      COMMENT
Project creator:                                            COMMENT
 SNR is mapped to RINEX snr flag value [0-9]                COMMENT
  L1 & L2: min(max(int(snr_dBHz/6), 0), 9)                  COMMENT
    18                                                      LEAP SECONDS
Forced Modulo Decimation to 30 seconds                      COMMENT
teqc_2019 edited: all GLONASS satellites excluded           COMMENT
teqc_2019 edited: all SBAS satellites excluded              COMMENT
teqc_2019 edited: all Galileo satellites excluded           COMMENT
  2023     9    10     9     0    0.0000000     GPS         TIME OF FIRST OBS
                                                            END OF HEADER
 23  9 10  9  0  0.0000000  0 12G02G03G04G08G14G17G19G21G22G28G31G32
 112320635.430 8  87522575.29248  21373901.820                    21373899.660
     -1422.016       -1108.065          50.150          48.950



 107718882.567 8  83936810.03648  20498216.380                    20498217.840
      1353.677        1054.813          51.300          51.150    80439445.682 9
  20498219.140        1010.797          55.400


 126164358.026 6  98309917.72346  24008274.300                    24008279.740
      3771.365        2938.730          41.850          39.400    94213697.930 7
  24008287.020        2816.156          46.200


 128757434.670 6 100330462.54346  24501738.460                    24501744.840
     -3770.270       -2937.881          41.600          41.100    96150024.261 7
  24501747.600       -2815.479          43.150


 127466490.684 7  99324514.68346  24256081.440                    24256085.080
     -2486.780       -1937.756          42.800          38.700    95186014.894 7
  24256091.720       -1857.084          45.100


 116584405.355 8  90844991.54447  22185275.800                    22185275.080
      2013.617        1569.053          48.250          47.300



 124213860.865 7  96790016.75047  23637113.080                    23637111.880
      3437.084        2678.249          44.050          42.750



 115070468.156 8  89665309.44447  21897178.780                    21897177.460
     -1946.512       -1516.765          49.750          47.050



 126846019.095 7  98841024.53646  24138000.360                    24138001.940
     -1430.175       -1114.426          42.100          40.550



 129470832.439 6 100886429.93746  24637472.160                    24637476.500
      2109.365        1643.673          41.500          38.700    96682842.042 7
  24637484.500        1575.056          44.500


 133134211.619 6 103740969.61546  25334598.720                    25334605.880
      2997.948        2336.069          39.500          39.300



 124315605.165 7  96869331.58247  23656472.260                    23656474.880
     -2490.648       -1940.769          45.100          44.800    92833105.840 7
  23656476.320       -1860.054          47.850


 23  9 10  9  0 30.0000000  0 12G02G03G04G08G14G17G19G21G22G28G31G32
 112363438.259 8  87555928.09648  21382046.980                    21382044.660
     -1432.077       -1115.906          50.150          48.350



 107678471.889 8  83905321.19548  20490526.440                    20490527.960
      1339.663        1043.894          51.200          51.100    80409268.877 9
  20490529.400        1000.419          55.600


 126051248.348 6  98221780.45446  23986750.360                    23986755.760
      3768.926        2936.830          41.850          39.150    94129233.100 7
  23986762.960        2814.183          45.300


 128870554.942 6 100418607.99646  24523264.680                    24523270.620
     -3771.678       -2938.977          41.650          41.500    96234496.926 7
  24523274.080       -2816.645          43.750


 127541218.424 7  99382743.96346  24270301.900                    24270305.160
     -2495.715       -1944.719          42.600          39.450    95241817.895 7
  24270312.180       -1863.478          44.950


 116524186.679 8  90798067.91947  22173816.520                    22173816.100
      2000.190        1558.591          48.450          47.500



 124110864.776 7  96709760.08746  23617513.700                    23617512.500
      3428.651        2671.677          43.700          41.550



 115128963.487 8  89710890.15647  21908310.080                    21908308.900
     -1953.892       -1522.516          49.400          47.050



 126889113.437 7  98874604.45046  24146201.100                    24146202.440
     -1443.178       -1124.558          43.100          39.250



 129407713.824 6 100837246.83846  24625460.860                    24625465.600
      2098.009        1634.820          41.950          39.650    96635708.309 7
  24625473.160        1566.560          44.550


 133044305.411 6 103670912.98546  25317490.080                    25317496.960
      2995.121        2333.865          40.000          39.250



 124390505.664 7  96927695.49347  23670725.420                    23670728.340
     -2503.064       -1950.443          44.700          44.550    92889037.900 8
  23670729.660       -1869.308          48.200


 23  9 10  9  1  0.0000000  0 12G02G03G04G08G14G17G19G21G22G28G31G32
 112406560.804 8  87589530.01848  21390252.840                    21390250.420
     -1442.923       -1124.358          50.000          48.700



 107638495.446 8  83874170.72948  20482919.060                    20482920.740
      1325.131        1032.569          51.050          51.200    80379416.346 9
  20482922.180         989.592          55.350


 125938233.030 6  98133716.74346  23965243.940                    23965249.660
      3765.227        2933.947          40.950          39.850    94044838.728 7
  23965256.580        2811.838          45.900


 128983730.862 6 100506796.79546  24544801.600                    24544807.420
     -3773.572       -2940.453          41.500          41.850    96319011.147 7
  24544811.320       -2817.971          42.850


 127616220.415 7  99441186.93146  24284574.580                    24284577.560
     -2504.665       -1951.691          43.700          38.600    95297825.721 7
  24284584.920       -1870.549          45.100


 116464385.313 8  90751469.46947  22162436.660                    22162436.460
      1986.278        1547.750          49.050          47.150



 124008139.327 7  96629714.32546  23597965.680                    23597964.440
      3419.725        2664.723          43.650          40.800



 115187694.620 8  89756654.60147  21919486.200                    21919485.120
     -1961.710       -1528.607          49.700          46.650



 126932616.270 7  98908502.68246  24154479.480                    24154480.860
     -1457.044       -1135.363          43.150          40.200



 129344952.381 7 100788342.09446  24613517.660                    24613522.880
      2086.044        1625.497          42.900          38.400    96588841.300 7
  24613529.800        1557.594          44.600


 132954503.888 6 103600937.92846  25300401.320                    25300408.120
      2991.905        2331.363          37.550          37.150



 124465789.791 7  96986358.34847  23685051.620                    23685054.760
     -2515.905       -1960.449          45.200          45.200    92945256.446 8
  23685056.040       -1878.818          48.050


 23  9 10  9  1 30.0000000  0 12G02G03G04G08G14G17G19G21G22G28G31G32
 112450007.135 8  87623384.22548  21398520.340                    21398517.820
     -1453.442       -1132.555          50.300          48.350



 107598957.703 8  83843362.10348  20475395.120                    20475396.960
      1310.756        1021.368          51.050          50.900    80349891.416 9
  20475398.320         978.828          55.200


 125825318.850 7  98045731.86946  23943756.920                    23943763.080
      3762.114        2931.523          42.400          41.000    93960519.914 7
  23943769.320        2809.618          46.000


 129096963.826 6 100595030.03846  24566349.280                    24566355.220
     -3775.279       -2941.784          40.800          41.200    96403567.949 7
  24566359.360       -2819.178          43.050


 127691497.916 7  99499844.57646  24298899.640                    24298902.400
     -2513.733       -1958.756          43.650          38.600    95354039.252 7
  24298909.920       -1876.939          45.300


 116405007.223 8  90705200.83947  22151137.440                    22151137.220
      1972.271        1536.834          49.300          46.900



 123905691.428 7  96549884.83046  23578470.400                    23578469.260
      3410.342        2657.411          43.500          40.600



 115246665.351 8  89802605.75947  21930707.920                    21930706.840
     -1969.513       -1534.687          49.700          46.500



 126976529.835 7  98942720.93446  24162836.140                    24162837.460
     -1470.214       -1145.626          44.700          39.600



 129282555.086 7 100739721.07146  24601643.680                    24601649.220
      2074.052        1616.152          43.600          38.400    96542246.204 7
  24601655.840        1548.847          45.050


 132864814.527 6 103531050.25847  25283333.900                    25283340.720
      2987.772        2328.140          41.300          42.000



 124541459.540 7  97045321.67047  23699451.280                    23699454.340
     -2528.646       -1970.376          45.650          45.100    93001762.938 7
  23699455.820       -1888.179          47.900


 23  9 10  9  2  0.0000000  0 12G02G03G04G08G14G17G19G21G22G28G31G32
 112493771.683 8  87657486.41248  21406848.620                    21406845.800
     -1464.363       -1141.064          50.450          48.800



 107559853.236 8  83812891.08948  20467953.640                    20467955.700
      1296.055        1009.912          50.400          50.250    80320690.034 9
  20467956.740         967.744          55.100


 125712502.763 6  97957823.41246  23922288.740                    23922294.840
      3758.819        2928.958          40.650          39.050    93876274.360 7
  23922300.740        2806.776          45.750


 129210245.661 6 100683301.34646  24587906.160                    24587912.500
     -3777.115       -2943.215          40.700          40.200    96488161.247 7
  24587916.400       -2820.649          43.400


 127767042.177 7  99558710.09746  24313275.300                    24313278.320
     -2522.619       -1965.683          42.950          38.650    95410452.030 7
  24313285.420       -1883.977          45.400


 116346049.429 8  90659259.70947  22139918.280                    22139917.860
      1958.018        1525.729          49.350          47.050



 123803518.557 7  96470269.65746  23559027.440                    23559026.360
      3400.881        2650.040          43.100          41.650



 115305869.787 8  89848739.01647  21941974.060                    21941973.220
     -1977.456       -1540.877          48.900          46.700



 127020846.619 7  98977253.37846  24171269.440                    24171270.800
     -1484.230       -1156.549          44.250          39.750



 129220519.056 7 100691381.55946  24589838.600                    24589844.320
      2061.606        1606.455          42.950          41.300    96495920.878 7
  24589850.680        1539.348          45.350


 132775235.054 6 103461248.26346  25266287.520                    25266294.380
      2983.644        2324.924          40.050          39.750



 124617506.792 7  97104579.16547  23713922.800                    23713925.840
     -2541.410       -1980.323          45.850          45.350    93058551.355 7
  23713927.320       -1897.813          47.950


 23  9 10  9  2 30.0000000  0 12G02G03G04G08G14G17G19G21G22G28G31G32
 112537858.020 8  87691839.35348  21415238.120                    21415235.160
     -1474.697       -1149.116          50.750          48.750



 107521186.005 8  83782760.78048  20460595.460                    20460597.640
      1281.795         998.802          50.900          50.950    80291815.156 9
  20460598.300         957.095          54.850


 125599790.986 6  97869996.23746  23900840.100                    23900846.320
      3755.330        2926.237          40.650          40.200    93792106.705 7
  23900851.860        2804.234          45.600


 129323578.470 6 100771612.39746  24609472.820                    24609479.080
     -3778.330       -2944.162          40.300          40.250    96572792.616 7
  24609483.160       -2821.583          42.950


 127842853.989 7  99617784.10246  24327701.760                    24327705.260
     -2531.439       -1972.555          42.800          40.500    95467064.563 7
  24327711.940       -1890.281          45.100


 116287517.168 8  90613650.16147  22128780.060                    22128779.460
      1944.134        1514.910          49.400          47.050



 123701627.019 7  96390873.69446  23539637.980                    23539636.940
      3391.697        2642.883          43.300          41.500



 115365310.833 8  89895056.64147  21953285.240                    21953284.440
     -1985.226       -1546.932          48.950          46.550



 127065568.145 7  99012101.21646  24179779.840                    24179781.160
     -1497.423       -1166.826          44.600          40.850



 129158850.691 7 100643328.51546  24578103.280                    24578109.460
      2049.642        1597.131          42.050          39.350    96449870.074 7
  24578115.320        1530.458          45.550


 132685772.118 7 103391536.98546  25249263.420                    25249270.040
      2980.317        2322.332          42.400          41.650



 124693933.109 7  97164132.03147  23728466.520                    23728469.620
     -2553.687       -1989.891          46.250          46.300    93115622.829 7
  23728470.940       -1907.055          47.950


 23  9 10  9  3  0.0000000  0 12G02G03G04G08G14G17G19G21G22G28G31G32
 112582265.879 8  87726442.82648  21423688.700                    21423685.900
     -1485.459       -1157.502          51.000          48.400



 107482955.927 8  83752971.11948  20453320.500                    20453322.720
      1267.167         987.403          50.800          50.800    80263266.725 9
  20453323.100         946.281          54.900


 125487185.816 6  97782252.15546  23879411.780                    23879418.120
      3751.917        2923.576          41.250          40.050    93708018.677 7
  23879423.260        2801.658          46.000


 129436959.468 6 100859960.98246  24631048.660                    24631055.000
     -3779.887       -2945.374          40.000          40.800    96657459.963 7
  24631059.060       -2822.852          42.600


 127918929.973 6  99677063.96546  24342178.400                    24342182.160
     -2540.201       -1979.385          41.500          38.800    95523874.397 7
  24342188.460       -1896.747          44.700


 116229412.146 8  90568373.52747  22117723.100                    22117722.360
      1929.893        1503.813          49.300          46.800



 123600019.386 7  96311698.96746  23520302.440                    23520301.480
      3382.511        2635.726          43.150          40.500



 115424988.162 8  89941558.38547  21964641.460                    21964640.480
     -1993.050       -1553.028          49.800          45.900



 127110692.509 7  99047262.92746  24188366.780                    24188368.120
     -1510.514       -1177.027          44.500          38.900



 129097552.440 6 100595563.87546  24566438.240                    24566444.920
      2037.247        1587.471          41.700          40.600    96404095.664 7
  24566450.680        1521.285          46.350


 132596428.538 6 103321918.73247  25232261.780                    25232268.560
      2976.367        2319.251          41.950          42.700



 124770735.791 7  97223978.15847  23743081.760                    23743085.140
     -2566.128       -1999.585          46.350          46.300    93172975.334 7
  23743086.180       -1916.268          47.950


 23  9 10  9  3 30.0000000  0 12G02G03G04G08G14G17G19G21G22G28G31G32
 112626994.667 8  87761296.37648  21432200.400                    21432197.820
     -1495.846       -1165.596          50.650          48.600



 107445162.849 8  83723521.97648  20446128.760                    20446130.820
      1252.939         976.316          50.850          50.950    80235044.637 9
  20446131.240         935.516          54.850


 125374689.590 6  97694592.95146  23858004.400                    23858010.760
      3748.401        2920.842          41.350          40.850    93624011.967 7
  23858015.420        2799.054          45.700


 129550386.190 6 100948345.16546  24652633.340                    24652639.360
     -3781.280       -2946.462          40.050          39.900    96742161.418 6
  24652643.700       -2823.711          41.700


 127995266.778 6  99736547.05546  24356704.560                    24356708.980
     -2548.624       -1985.943          41.350          39.900    95580879.020 7
  24356714.540       -1903.126          44.650


 116171736.188 8  90523431.23447  22106747.740                    22106746.960
      1915.714        1492.765          48.550          47.700



 123498698.377 7  96232747.57246  23501021.540                    23501020.760
      3372.850        2628.198          42.900          41.500



 115484900.903 8  89988243.57247  21976042.640                    21976041.420
     -2000.549       -1558.871          49.800          45.850



 127156216.422 7  99082735.97946  24197029.780                    24197031.100
     -1523.767       -1187.354          44.050          38.950



 129036626.612 6 100548089.42946  24554843.980                    24554851.120
      2025.080        1577.987          41.750          38.650    96358599.409 7
  24554856.720        1512.053          46.500


 132507207.587 7 103252396.05846  25215283.500                    25215290.280
      2972.347        2316.117          42.250          41.650



 124847912.078 7  97284115.41047  23757768.060                    23757771.740
     -2578.123       -2008.931          46.600          46.000    93230606.849 7
  23757772.400       -1925.385          47.350


 23  9 10  9  4  0.0000000  0 12G02G03G04G08G14G17G19G21G22G28G31G32
 112672044.442 8  87796400.04748  21440773.240                    21440770.760
     -1507.198       -1174.442          50.750          48.750



 107407807.143 8  83694413.63848  20439020.360                    20439022.140
      1237.766         964.493          51.600          51.550    80207149.144 9
  20439022.760         924.270          55.150


 125262304.962 6  97607020.71746  23836618.100                    23836624.520
      3744.036        2917.438          41.700          39.400    93540088.619 7
  23836628.880        2795.954          45.900


 129663856.402 6 101036763.28946  24674226.320                    24674232.320
     -3783.111       -2947.886          40.600          39.800    96826895.401 7
  24674236.360       -2825.093          42.700


 128071861.516 6  99796231.13346  24371279.920                    24371284.600
     -2557.464       -1992.833          40.700          38.650    95638076.237 7
  24371290.080       -1909.904          45.300


 116114491.483 8  90478824.98547  22095854.300                    22095853.640
      1900.665        1481.038          48.700          46.700



 123397666.983 7  96154021.86446  23481795.580                    23481795.000
      3362.556        2620.177          43.100          41.200



 115545049.001 8  90035112.15547  21987488.680                    21987487.120
     -2009.182       -1565.598          50.400          45.550



 127202138.600 7  99118519.38846  24205768.460                    24205769.920
     -1537.377       -1197.960          42.700          39.700



 128976076.165 7 100500907.46746  24543321.520                    24543328.740
      2011.829        1567.665          43.250          38.900    96313383.407 7
  24543334.260        1502.410          46.650


 132418112.171 6 103182971.17346  25198329.020                    25198335.900
      2967.662        2312.466          40.750          41.100



 124925459.816 7  97344542.10647  23772525.000                    23772528.880
     -2591.237       -2019.149          46.900          46.750    93288515.745 7
  23772529.080       -1935.135          47.050


 23  9 10  9  4 30.0000000  0 12G02G03G04G08G14G17G19G21G22G28G31G32
 112717411.320 8  87831750.80348  21449406.320                    21449404.060
     -1517.658       -1182.593          50.800          48.800



 107370885.159 8  83665643.26948  20431994.540                    20431996.020
      1223.405         953.303          52.000          52.000    80179577.538 9
  20431996.880         913.564          55.300


 125150030.764 7  97519534.52946  23815253.080                    23815259.080
      3740.438        2914.636          42.800          41.200    93456247.709 7
  23815263.280        2793.197          46.000


 129777363.747 6 101125210.34946  24695826.280                    24695831.860
     -3784.742       -2949.156          40.100          40.350    96911657.083 7
  24695836.020       -2825.909          42.650


 128148707.392 6  99856110.91046  24385903.280                    24385907.860
     -2565.646       -1999.213          40.600          39.800    95695460.997 7
  24385913.420       -1916.068          45.000


 116057676.223 8  90434553.37447  22085042.600                    22085042.040
      1886.646        1470.114          48.550          46.750



 123296924.130 7  96075520.97646  23462624.720                    23462624.200
      3352.983        2612.716          43.050          41.450



 115605428.265 8  90082160.86347  21998978.720                    21998976.840
     -2016.647       -1571.416          50.650          45.000



 127248453.051 7  99154608.47846  24214581.860                    24214583.100
     -1550.577       -1208.243          42.600          40.700



 128915899.918 7 100454017.06646  24531870.320                    24531877.260
      1999.372        1557.957          42.500          39.200    96268446.825 7
  24531882.820        1493.092          46.250


 132329142.069 6 103113643.91946  25181398.480                    25181405.300
      2963.446        2309.180          41.700          41.650



 125003372.851 7  97405253.43747  23787351.440                    23787355.420
     -2603.322       -2028.567          47.300          47.200    93346697.410 7
  23787355.300       -1944.018          46.650


 23  9 10  9  5  0.0000000  0 12G02G03G04G08G14G17G19G21G22G28G31G32
 112763099.056 8  87867351.57448  21458100.420                    21458098.380
     -1527.850       -1190.533          50.750          48.550



 107334401.001 8  83637214.05348  20425052.020                    20425053.200
      1209.271         942.289          51.850          51.750    80152332.873 9
  20425054.260         903.042          55.400


 125037873.480 7  97432139.41546  23793910.120                    23793916.040
      3736.984        2911.943          42.400          40.000    93372494.111 7
  23793920.380        2790.614          45.650


 129890910.612 6 101213688.15446  24717433.640                    24717439.320
     -3784.938       -2949.312          39.750          39.700    96996448.287 7
  24717443.440       -2826.563          42.250


 128225805.221 6  99916187.04246  24400574.840                    24400579.020
     -2573.643       -2005.437          41.550          40.250    95753033.904 7
  24400584.840       -1921.958          45.100


 116001295.920 8  90390620.68347  22074313.680                    22074313.180
      1872.436        1459.041          48.450          46.400



 123196477.025 7  95997250.53046  23443510.220                    23443509.660
      3343.754        2605.521          43.500          41.500



 115666042.036 8  90129392.31347  22010513.340                    22010511.240
     -2023.958       -1577.112          50.150          45.200



 127295161.648 7  99191004.68746  24223470.220                    24223471.380
     -1563.066       -1217.977          42.700          39.400



 128856104.464 6 100407423.35946  24520491.260                    24520498.320
      1987.350        1548.589          41.900          36.700    96223794.605 7
  24520503.540        1484.015          45.750


 132240304.280 6 103044419.78946  25164493.060                    25164500.100
      2959.218        2305.888          40.550          40.850



 125081652.684 7  97466250.60347  23802247.720                    23802251.760
     -2614.939       -2037.618          47.350          47.150    93405152.998 7
  23802251.380       -1952.709          46.250


 23  9 10  9  5 30.0000000  0 12G02G03G04G08G14G17G19G21G22G28G31G32
 112809107.635 8  87903202.34648  21466855.560                    21466853.560
     -1539.014       -1199.233          50.100          49.000



 107298354.849 8  83609126.15148  20418192.800                    20418193.720
      1194.193         930.540          51.600          51.650    80125415.298 9
  20418194.940         891.844          55.350


 124925835.707 7  97344837.42446  23772589.980                    23772595.760
      3732.599        2908.521          43.000          40.550    93288829.747 7
  23772600.180        2787.309          46.000


 130004494.260 6 101302194.62446  24739048.200                    24739053.720
     -3786.749       -2950.722          41.350          41.650    97081266.956 6
  24739057.940       -2827.729          41.250


 128303152.073 6  99976457.18746  24415293.740                    24415297.720
     -2582.359       -2012.233          41.300          39.750    95810792.746 7
  24415303.740       -1928.298          45.000


 115945352.717 8  90347028.59347  22063667.980                    22063667.540
      1857.480        1447.388          48.450          46.350



 123096328.538 7  95919212.78446  23424452.580                    23424452.000
      3333.282        2597.364          44.000          41.900



 115726890.007 8  90176806.25347  22022092.400                    22022090.480
     -2032.168       -1583.511          49.650          45.450



 127342262.352 7  99227706.44746  24232433.200                    24232434.300
     -1576.449       -1228.407          42.950          36.950



 128796692.526 6 100361128.54146  24509185.220                    24509192.120
      1974.221        1538.360          41.050          39.450    96179428.771 7
  24509197.200        1474.149          44.750


 132151602.006 6 102975301.17546  25147613.600                    25147620.540
      2954.442        2302.162          41.000          41.100



 125160297.004 7  97527531.77947  23817213.400                    23817217.420
     -2627.559       -2047.452          47.150          47.050    93463880.760 7
  23817216.740       -1962.041          45.400


 23  9 10  9  6  0.0000000  0 12G02G03G04G08G14G17G19G21G22G28G31G32
 112855438.214 8  87939304.04048  21475671.880                    21475669.920
     -1550.017       -1207.808          49.850          48.950



 107262748.408 8  83581380.88048  20411417.160                    20411417.920
      1179.229         918.881          51.350          51.350    80098826.074 9
  20411419.360         880.672          55.350


 124813921.610 7  97257631.80646  23751293.380                    23751299.040
      3728.230        2905.120          42.350          40.350    93205257.727 7
  23751303.500        2783.992          45.850


 130118114.091 6 101390729.31046  24760669.620                    24760675.020
     -3788.277       -2951.913          39.950          39.700    97166112.643 6
  24760679.180       -2828.857          41.950


 128380746.384 6 100036920.14146  24430059.760                    24430063.580
     -2590.934       -2018.913          40.700          38.750    95868736.385 7
  24430069.820       -1934.715          44.850


 115889850.110 8  90303779.81647  22053106.140                    22053105.740
      1842.462        1435.685          48.950          46.300



 122996483.066 7  95841411.14246  23405452.720                    23405451.960
      3322.602        2589.041          44.250          41.550



 115787973.431 8  90224403.66047  22033716.100                    22033714.780
     -2040.443       -1589.958          49.500          46.350



 127389754.683 7  99264713.37646  24241470.680                    24241471.820
     -1589.713       -1238.738          43.250          37.500



 128737668.259 6 100315135.80046  24497952.880                    24497959.940
      1960.816        1527.917          40.500          38.800    96135352.406 7
  24497964.700        1464.240          43.950


 132063040.260 6 102906292.20046  25130760.860                    25130768.040
      2949.286        2298.149          41.100          40.750



 125239304.970 7  97589096.31947  23832248.240                    23832252.280
     -2639.801       -2056.992          47.600          47.600    93522880.097 7
  23832251.300       -1971.326          44.550


 23  9 10  9  6 30.0000000  0 12G02G03G04G08G14G17G19G21G22G28G31G32
 112902087.390 8  87975653.98848  21484548.820                    21484546.840
     -1560.839       -1216.240          49.800          48.550



 107227578.132 8  83553975.48248  20404724.400                    20404725.160
      1164.553         907.444          51.250          51.350    80072562.570 9
  20404726.800         869.643          55.750


 124702130.097 7  97170521.71746  23730019.920                    23730025.420
      3723.723        2901.605          43.200          39.800    93121777.277 7
  23730030.280        2780.738          46.100


 130231764.118 6 101479287.52246  24782296.780                    24782302.000
     -3789.388       -2952.778          39.850          39.200    97250980.834 7
  24782306.480       -2829.730          42.950


 128458581.407 6 100097570.69246  24444871.560                    24444875.160
     -2599.198       -2025.354          40.400          40.300    95926859.796 7
  24444881.700       -1940.726          45.650


 115834786.561 8  90260873.16347  22042627.940                    22042627.500
      1827.549        1424.064          49.050          46.350



 122896939.565 7  95763844.80846  23386510.340                    23386509.480
      3312.402        2581.095          44.300          41.850



 115849288.260 8  90272181.38047  22045383.800                    22045383.020
     -2048.326       -1596.101          49.050          47.000



 127437632.891 7  99302020.96845  24250581.700                    24250582.600
     -1602.894       -1249.012          44.100          35.600



 128679030.692 6 100269444.33546  24486794.220                    24486801.480
      1947.396        1517.455          40.750          39.050    96091564.815 7
  24486805.960        1454.437          43.950


 131974618.361 6 102837392.05646  25113934.720                    25113941.920
      2945.000        2294.809          39.550          39.200



 125318670.578 7  97650939.52947  23847351.100                    23847355.200
     -2651.969       -2066.473          47.400          47.300    93582146.503 7
  23847353.840       -1980.388          44.250


 23  9 10  9  7  0.0000000  0 12G02G03G04G08G14G17G19G21G22G28G31G32
 112949055.988 8  88012252.84248  21493486.660                    21493484.580
     -1570.800       -1224.002          49.650          48.850



 107192845.569 8  83526911.15848  20398114.920                    20398115.780
      1150.538         896.523          51.000          51.050    80046625.932 9
  20398117.540         859.107          55.800


 124590465.176 7  97083510.30346  23708770.720                    23708776.120
      3720.084        2898.774          43.300          40.350    93038391.349 7
  23708781.260        2777.980          46.250


 130345443.460 6 101567868.54946  24803929.580                    24803934.920
     -3789.466       -2952.841          40.650          41.200    97335870.922 7
  24803939.020       -2829.955          42.050


 128536655.548 6 100158407.55646  24459728.820                    24459732.140
     -2606.452       -2031.004          40.350          38.150    95985161.738 7
  24459739.080       -1946.362          44.650


 115780165.063 8  90218310.96947  22032233.880                    22032233.360
      1813.488        1413.108          49.050          46.750



 122797702.398 7  95686517.17247  23367626.120                    23367625.180
      3303.012        2573.776          43.350          42.550



 115910835.892 8  90320140.49247  22057095.820                    22057095.520
     -2055.475       -1601.672          48.900          47.100



 127485896.056 7  99339628.53546  24259766.060                    24259767.040
     -1615.192       -1258.596          43.500          39.400



 128620783.803 6 100224057.32246  24475710.240                    24475717.260
      1935.008        1507.806          41.850          40.600    96048068.983 7
  24475721.880        1444.983          43.750


 131886341.006 6 102768604.59546  25097136.240                    25097143.240
      2940.116        2291.003          41.500          41.150



 125398392.745 7  97713060.58647  23862521.800                    23862525.940
     -2663.126       -2075.166          46.750          46.650    93641679.155 7
  23862524.580       -1988.698          44.350


 23  9 10  9  7 30.0000000  0 12G02G03G04G08G14G17G19G21G22G28G31G32
 112996344.538 8  88049101.00448  21502485.400                    21502483.240
     -1581.591       -1232.410          50.050          48.300



 107158551.270 8  83500188.34448  20391588.780                    20391589.800
      1135.970         885.172          51.250          51.300    80021016.573 9
  20391591.620         848.319          55.800


 124478929.912 7  96996599.88346  23687546.080                    23687551.080
      3716.027        2895.613          43.000          40.200    92955102.244 7
  23687556.900        2774.800          46.400


 130459149.870 6 101656470.68146  24825567.520                    24825573.140
     -3790.615       -2953.735          41.100          40.950    97420781.206 6
  24825576.880       -2830.486          41.350


 128614966.166 6 100219428.69746  24474630.800                    24474634.000
     -2614.235       -2037.068          40.200          39.800    96043640.322 7
  24474641.200       -1952.121          44.950


 115725988.393 8  90176095.38847  22021924.420                    22021923.840
      1798.555        1401.472          49.650          46.200



 122698775.212 7  95609431.09747  23348800.840                    23348799.800
      3292.541        2565.618          43.650          42.350



 115972615.786 8  90368280.60647  22068852.100                    22068852.160
     -2063.107       -1607.618          49.100          47.600



 127534542.492 7  99377534.74646  24269023.340                    24269024.360
     -1627.985       -1268.564          43.350          38.000



 128562930.673 7 100178977.13046  24464701.180                    24464708.280
      1921.991        1497.662          42.500          38.500    96004867.192 7
  24464712.980        1435.116          43.250


 131798211.944 6 102699932.63146  25080365.820                    25080372.780
      2935.011        2287.023          39.800          39.300



 125478469.627 7  97775458.03547  23877759.940                    23877764.140
     -2674.965       -2084.393          47.150          47.050    93701476.697 7
  23877763.100       -1997.619          44.200


 23  9 10  9  8  0.0000000  0 12G02G03G04G08G14G17G19G21G22G28G31G32
 113043954.009 8  88086199.24848  21511545.340                    21511542.980
     -1592.273       -1240.734          50.300          48.000



 107124696.532 8  83473808.04748  20385146.280                    20385147.460
      1121.368         873.794          50.800          50.850    79995735.461 9
  20385149.320         837.291          55.750


 124367528.053 7  96909793.41246  23666346.840                    23666351.340
      3711.188        2891.842          42.700          41.000    92871912.771 7
  23666357.660        2771.333          46.150


 130572883.174 6 101745093.72746  24847210.400                    24847216.220
     -3791.668       -2954.559          39.900          39.400    97505711.598 6
  24847219.240       -2831.199          39.450


 128693511.426 6 100280632.65146  24489577.320                    24489580.500
     -2622.656       -2043.630          38.550          37.750    96102294.067 7
  24489588.100       -1958.018          44.800


 115672259.108 8  90134228.42347  22011700.120                    22011699.520
      1783.554        1389.782          49.150          46.800



 122600162.049 7  95532589.72446  23330035.400                    23330034.300
      3282.080        2557.468          43.900          40.650



 116034628.975 8  90416602.49747  22080652.840                    22080653.040
     -2070.914       -1613.702          48.850          47.150



 127583571.537 7  99415739.10946  24278353.400                    24278354.680
     -1640.237       -1278.110          43.050          39.350



 128505475.084 7 100134206.72946  24453767.840                    24453774.780
      1908.672        1487.284          42.900          38.600    95961962.241 7
  24453779.400        1425.307          42.650


 131710235.682 6 102631379.74346  25063624.340                    25063631.280
      2930.071        2283.175          38.850          38.900



 125558899.903 7  97838130.86747  23893065.380                    23893069.640
     -2686.690       -2093.528          47.250          47.150    93761538.143 7
  23893068.960       -2006.383          44.150


 23  9 10  9  8 30.0000000  0 12G02G03G04G08G14G17G19G21G22G28G31G32
 113091879.903 8  88123544.04948  21520665.540                    21520663.020
     -1602.902       -1249.016          50.600          48.000



 107091277.139 8  83447766.96648  20378786.640                    20378788.040
      1106.616         862.299          50.950          50.950    79970779.428 9
  20378789.780         826.344          55.900


 124256257.877 7  96823089.58746  23645172.660                    23645177.040
      3706.888        2888.489          42.400          41.200    92788821.641 7
  23645183.620        2767.928          46.300


 130686635.913 6 101833731.92646  24868857.060                    24868862.940
     -3792.148       -2954.930          40.700          39.950    97590656.547 6
  24868865.660       -2831.850          41.900


 128772283.853 6 100342013.61146  24504566.800                    24504570.280
     -2629.620       -2049.062          38.850          38.300    96161117.474 7
  24504578.060       -1963.712          44.950


 115618975.069 8  90092708.39647  22001560.540                    22001559.900
      1768.666        1378.182          49.700          46.050



 122501861.243 7  95455991.72447  23311329.440                    23311328.260
      3271.366        2549.116          44.150          42.400



 116096871.105 8  90465102.77447  22092497.020                    22092497.400
     -2078.668       -1619.744          48.900          46.850



 127632976.248 7  99454236.17246  24287754.920                    24287756.340
     -1652.986       -1288.044          43.500          39.350



 128448415.323 7 100089744.76046  24442909.800                    24442916.700
      1895.266        1476.837          42.650          40.350    95919352.889 7
  24442921.080        1415.156          42.650


 131622411.167 6 102562945.03546  25046911.840                    25046918.700
      2924.811        2279.073          39.000          39.700



 125639676.892 7  97901073.86547  23908436.780                    23908441.160
     -2698.417       -2102.666          47.800          47.800    93821858.480 7
  23908440.780       -2015.056          44.400


 23  9 10  9  9  0.0000000  0 12G02G03G04G08G14G17G19G21G22G28G31G32
 113140129.188 8  88161140.84548  21529847.220                    21529844.740
     -1613.534       -1257.301          50.350          48.550



 107058300.302 8  83422070.73748  20372511.280                    20372512.900
      1091.849         850.791          50.700          50.750    79946153.874 9
  20372514.380         815.439          55.750


 124145129.077 7  96736495.94046  23624025.360                    23624029.460
      3702.090        2884.754          43.400          38.850    92705836.089 7
  23624036.440        2764.541          46.450


 130800413.440 6 101922389.48846  24890508.420                    24890513.960
     -3792.863       -2955.485          41.150          40.950    97675619.888 7
  24890517.320       -2832.284          42.400


 128851287.625 6 100403574.85946  24519600.660                    24519604.140
     -2637.437       -2055.152          39.550          38.850    96220113.639 7
  24519612.020       -1969.340          44.750


 115566145.595 8  90051542.56947  21991507.480                    21991506.740
      1753.570        1366.418          49.400          46.250



 122403882.938 7  95379645.04446  23292685.060                    23292683.580
      3260.574        2540.711          44.800          41.350



 116159348.490 8  90513786.36547  22104386.000                    22104386.380
     -2086.409       -1625.776          48.350          47.150



 127682761.769 7  99493029.96946  24297228.920                    24297230.080
     -1665.636       -1297.904          43.250          38.350



 128391761.078 7 100045598.79346  24432128.900                    24432135.460
      1881.991        1466.490          42.900          39.900    95877046.339 6
  24432139.880        1405.316          41.900


 131534748.736 6 102494636.63546  25030230.140                    25030236.980
      2919.254        2274.742          39.650          39.650



 125720805.354 7  97964290.72147  23923875.100                    23923879.660
     -2710.046       -2111.729          47.300          47.050    93882441.278 7
  23923879.560       -2023.628          44.550


 23  9 10  9  9 30.0000000  0 12G02G03G04G08G14G17G19G21G22G28G31G32
 113188692.652 8  88198982.44848  21539088.580                    21539086.220
     -1623.765       -1265.272          50.450          48.450



 107025756.621 8  83396712.03148  20366318.340                    20366320.200
      1077.724         839.784          50.900          50.850    79921851.790 9
  20366321.320         804.847          55.600


 124034134.816 7  96650007.11146  23602903.740                    23602907.480
      3697.907        2881.494          43.700          39.350    92622951.027 7
  23602914.800        2761.338          46.600


 130914203.658 6 102011056.89546  24912162.200                    24912168.340
     -3793.283       -2955.815          40.750          41.200    97760592.750 6
  24912171.260       -2832.301          41.800


 128930510.167 6 100465306.57146  24534676.120                    24534680.020
     -2644.138       -2060.372          39.250          38.900    96279273.180 7
  24534687.540       -1974.558          44.550


 115513762.564 8  90010724.61447  21981539.380                    21981538.540
      1738.744        1354.865          49.600          46.150



 122306220.642 7  95303544.58446  23274100.720                    23274099.160
      3250.289        2532.695          44.900          41.600



 116222051.048 8  90562645.42747  22116317.960                    22116318.180
     -2093.640       -1631.410          48.450          46.900



 127732916.216 7  99532111.26046  24306773.160                    24306774.260
     -1677.953       -1307.499          43.600          39.050



 128335505.500 7 100001763.45446  24421423.860                    24421429.960
      1868.628        1456.079          42.050          40.500    95835037.490 7
  24421434.360        1395.466          42.400


 131447242.077 6 102426449.61046  25013578.060                    25013584.780
      2914.141        2270.759          39.900          39.800



 125802273.336 8  98027772.14348  23939378.120                    23939382.760
     -2721.025       -2120.283          48.150          48.250    93943277.624 7
  23939383.060       -2031.898          45.050


 23  9 10  9 10  0.0000000  0 12G02G03G04G08G14G17G19G21G22G28G31G32
 113237574.732 8  88237072.31748  21548390.500                    21548388.200
     -1634.778       -1273.855          50.550          48.150



 106993651.539 8  83371695.08848  20360208.920                    20360210.860
      1062.796         828.152          51.400          51.350    79897877.224 9
  20360211.660         793.657          55.600


 123923283.064 7  96563629.33946  23581809.120                    23581812.780
      3692.556        2877.324          43.500          40.100    92540172.359 7
  23581820.200        2757.496          47.000


 131028010.019 6 102099736.85146  24933818.980                    24933825.920
     -3793.944       -2956.332          39.250          39.800    97845577.658 6
  24933828.340       -2832.961          41.650


 129009953.736 6 100527210.49946  24549793.980                    24549797.940
     -2651.610       -2066.194          40.050          37.100    96338597.758 7
  24549805.440       -1980.273          45.100


 115461833.609 8  89970260.48347  21971657.600                    21971656.780
      1723.270        1342.807          49.500          46.650



 122208882.650 7  95227696.83346  23255578.100                    23255576.400
      3239.160        2524.021          45.950          41.250



 116284984.138 8  90611684.11947  22128293.920                    22128293.800
     -2101.568       -1637.589          49.050          46.550



 127783443.077 7  99571482.71046  24316388.120                    24316389.040
     -1690.551       -1317.315          43.550          39.550



 128279656.446 6  99958244.91446  24410795.920                    24410802.080
      1854.576        1445.130          41.800          39.400    95793332.233 7
  24410806.360        1385.233          43.000


 131359900.021 6 102358390.83946  24996957.540                    24996963.960
      2908.404        2266.287          40.500          40.550



 125884083.870 7  98091520.49647  23954946.360                    23954950.920
     -2732.793       -2129.453          47.350          47.200    94004369.765 7
  23954951.700       -2040.675          45.150


 23  9 10  9 10 30.0000000  0 12G02G03G04G08G14G17G19G21G22G28G31G32
 113286778.207 8  88275412.63048  21557753.640                    21557751.420
     -1645.260       -1282.022          50.450          48.350



 106961987.780 8  83347022.03948  20354183.600                    20354185.440
      1048.279         816.842          51.700          51.800    79874232.223 9
  20354186.040         782.780          55.550


 123812579.037 7  96477366.66546  23560742.780                    23560746.220
      3687.715        2873.552          44.150          40.850    92457504.026 7
  23560753.680        2753.838          46.850


 131141832.803 6 102188429.59146  24955478.980                    24955486.320
     -3794.283       -2956.594          41.200          40.900    97930574.825 6
  24955488.580       -2833.282          41.200


 129089617.982 6 100589286.39446  24564953.920                    24564957.360
     -2658.926       -2071.897          41.050          39.650    96398087.112 7
  24564965.400       -1985.618          44.850


 115410363.083 8  89930153.57447  21961863.040                    21961862.340
      1708.094        1330.982          49.150          46.950



 122111874.340 7  95152105.97946  23237118.120                    23237116.380
      3228.181        2515.466          45.850          41.950



 116348149.694 8  90660903.95747  22140314.200                    22140313.640
     -2109.187       -1643.525          49.800          45.850



 127834342.691 7  99611144.64646  24326074.160                    24326074.940
     -1702.921       -1326.954          43.200          39.100



 128224219.120 6  99915047.19846  24400246.300                    24400252.280
      1841.180        1434.694          40.550          39.350    95751934.472 7
  24400256.760        1374.847          43.700


 131272728.547 6 102290465.02146  24980369.280                    24980375.140
      2903.163        2262.205          40.800          40.900



 125966237.132 7  98155535.91747  23970579.740                    23970584.400
     -2744.040       -2138.217          47.400          47.450    94065717.843 7
  23970585.360       -2049.055          45.300


 23  9 10  9 11  0.0000000  0 13G02G03G04G08G09G14G17G19G21G22G28G31
                                G32
 113336297.786 8  88313999.26548  21567176.900                    21567174.860
     -1655.744       -1290.191          49.900          48.600



 106930760.407 8  83322689.03248  20348241.380                    20348243.100
      1033.767         805.533          51.800          51.700    79850913.092 9
  20348243.600         771.975          55.700


 123702020.350 7  96391217.27146  23539704.040                    23539707.220
      3682.896        2869.799          44.000          39.950    92374944.225 7
  23539714.940        2750.321          47.500


 131255664.971 6 102277129.63246  24977140.900                    24977148.480
     -3794.153       -2956.495          40.550          40.650    98015579.015 6
  24977150.320       -2833.387          40.650



                                                                 101393949.560 5
  25838022.220        2900.692          35.050


 129169494.837 6 100651527.94545  24580154.280                    24580157.740
     -2666.061       -2077.454          40.500          35.350    96457735.236 7
  24580165.620       -1990.771          44.900


 115359347.947 8  89890401.51647  21952155.020                    21952154.600
      1693.053        1319.262          48.900          46.800



 122015193.764 7  95076770.49646  23218720.340                    23218718.600
      3217.280        2506.972          45.800          41.800



 116411542.456 8  90710300.84247  22152377.660                    22152376.740
     -2116.687       -1649.369          49.600          45.350



 127885607.741 7  99651091.28846  24335829.520                    24335830.740
     -1714.714       -1336.145          42.850          39.250



 128169191.121 6  99872168.41446  24389774.340                    24389780.520
      1827.683        1424.177          41.050          40.300    95710842.339 7
  24389785.320        1364.792          44.550


 131185725.744 6 102222670.69446  24963813.200                    24963819.060
      2897.532        2257.817          41.600          41.600



 126048725.739 7  98219812.62847  23986276.840                    23986281.680
     -2755.064       -2146.809          47.050          46.900    94127316.331 7
  23986282.680       -2057.280          45.700


 23  9 10  9 11 30.0000000  0 13G02G03G04G08G09G14G17G19G21G22G28G31
                                G32
 113386138.875 8  88352836.43148  21576661.360                    21576659.240
     -1666.323       -1298.435          49.850          48.400



 106899975.054 8  83298700.45948  20342383.280                    20342384.960
      1019.200         794.183          51.450          51.200    79827924.036 9
  20342385.420         761.141          55.650


 123591615.213 7  96305187.49746  23518694.620                    23518697.620
      3678.040        2866.014          44.200          40.150    92292499.066 7
  23518705.360        2746.545          47.200


 131369509.805 6 102365839.58946  24998805.100                    24998812.580
     -3794.711       -2956.927          41.150          41.300    98100592.610 7
  24998814.740       -2833.562          43.250


                                  25815829.980
      3886.806                          38.400                   101306913.709 6
  25815843.000        2902.145          40.050


 129249586.759 6 100713937.10246  24595395.780                    24595399.120
     -2673.180       -2083.002          41.250          39.250    96517543.980 7
  24595406.660       -1995.982          44.400


 115308795.276 8  89851009.83247  21942535.000                    21942534.880
      1677.805        1307.380          48.800          47.350



 121918849.507 7  95001697.08646  23200386.620                    23200384.840
      3206.225        2498.357          46.100          41.550



 116475168.029 8  90759879.12347  22164485.300                    22164484.180
     -2124.356       -1655.345          49.550          44.900



 127937241.617 7  99691325.36146  24345655.180                    24345656.680
     -1726.924       -1345.659          42.650          40.400



 128114580.506 7  99829614.86646  24379382.100                    24379388.280
      1813.828        1413.380          42.200          39.350    95670061.909 7
  24379393.140        1354.514          44.600


 131098900.503 7 102155014.75646  24947290.920                    24947296.620
      2891.669        2253.250          42.050          41.850



 126131552.860 7  98284353.12947  24002038.400                    24002043.360
     -2766.022       -2155.346          46.950          47.100    94189167.619 7
  24002044.200       -2065.646          45.250


 23  9 10  9 12  0.0000000  0 13G02G03G04G08G09G14G17G19G21G22G28G31
                                G32
 113436295.130 8  88391919.18648  21586205.740                    21586203.540
     -1677.230       -1306.935          49.550          48.400



 106869625.321 8  83275051.31548  20336607.980                    20336609.660
      1004.316         782.584          50.850          50.900    79805260.278 9
  20336610.160         749.983          55.650


 123481359.771 7  96219274.36446  23497713.520                    23497716.400
      3672.523        2861.715          43.900          40.050    92210165.706 7
  23497724.300        2742.515          46.900


 131483358.627 6 102454552.66646  25020469.920                    25020477.200
     -3794.824       -2957.018          39.750          39.400    98185609.195 7
  25020479.980       -2834.021          42.900


 135546496.030 5 105620678.45145  25793640.460                    25793648.100
      3888.063        3029.677          32.350          32.550   101219830.393 6
  25793651.480        2903.492          37.300


 129329884.310 7 100776506.45746  24610676.320                    24610679.680
     -2680.025       -2088.335          42.800          38.150    96577506.259 7
  24610686.700       -2001.362          42.900


 115258700.578 8  89811975.00347  21933002.140                    21933002.180
      1662.037        1295.094          48.200          47.550



 121822837.951 7  94926882.91747  23182116.100                    23182114.240
      3194.632        2489.324          45.400          42.650



 116539018.917 8  90809632.98847  22176635.800                    22176634.500
     -2132.138       -1661.407          49.700          44.650



 127989235.876 7  99731840.23346  24355549.360                    24355551.180
     -1739.244       -1355.260          42.300          40.300



 128060383.352 6  99787383.47146  24369068.660                    24369074.660
      1799.607        1402.294          41.950          39.850    95629590.191 7
  24369079.600        1343.909          44.650


 131012249.548 6 102087494.65846  24930801.820                    24930807.380
      2885.327        2248.311          41.000          41.200



 126214709.663 7  98349150.51347  24017862.680                    24017867.720
     -2777.467       -2164.264          46.700          46.800    94251265.065 7
  24017868.300       -2074.064          44.950


 23  9 10  9 12 30.0000000  0 13G02G03G04G08G09G14G17G19G21G22G28G31
                                G32
 113486771.178 8  88431251.12248  21595810.900                    21595808.740
     -1688.045       -1315.361          49.450          48.650



 106839716.250 8  83251745.53948  20330916.420                    20330918.100
       989.528         771.062          50.900          50.800    79782925.584 9
  20330918.800         738.881          55.950


 123371261.618 7  96133483.82246  23476762.440                    23476765.220
      3667.009        2857.417          44.550          40.350    92127949.803 7
  23476773.240        2738.477          47.400


 131597214.344 6 102543271.00546  25042135.840                    25042143.800
     -3795.871       -2957.835          40.150          40.550    98270630.858 6
  25042146.020       -2834.124          41.250


                                  25771438.460
      3889.479                          37.150                   101132702.739 6
  25771449.080        2904.736          36.550


 129410389.402 7 100839237.54146  24625996.260                    24625999.620
     -2687.229       -2093.952          42.100          38.300    96637623.528 7
  24626005.800       -2006.686          43.150


 115209070.702 8  89773302.37847  21923557.740                    21923557.840
      1646.417        1282.923          48.600          47.050



 121727167.130 7  94852334.25046  23163910.460                    23163908.460
      3183.122        2480.355          45.900          41.300



 116603099.954 8  90859566.18647  22188830.100                    22188828.800
     -2140.180       -1667.676          49.650          45.000



 128041592.937 7  99772637.82046  24365512.540                    24365514.900
     -1751.513       -1364.818          42.550          40.000



 128006607.195 7  99745480.09946  24358835.320                    24358841.100
      1785.526        1391.324          42.350          39.650    95589432.855 7
  24358846.260        1333.090          45.100


 130925781.436 6 102020117.04446  24914347.580                    24914352.760
      2878.942        2243.338          41.250          40.600



 126298198.695 7  98414206.77747  24033750.160                    24033755.320
     -2788.552       -2172.902          45.950          46.000    94313610.633 7
  24033755.440       -2082.512          45.100


 23  9 10  9 13  0.0000000  0 13G02G03G04G08G09G14G17G19G21G22G28G31
                                G32
 113537562.628 8  88470828.82847  21605476.140                    21605474.000
     -1698.782       -1323.728          49.950          47.700



 106810243.618 8  83228779.85748  20325307.900                    20325309.520
       974.429         759.296          51.800          51.950    79760916.794 9
  20325310.500         727.729          56.150


 123261319.134 7  96047814.53546  23455840.960                    23455843.540
      3661.612        2853.211          44.500          39.000    92045850.142 7
  23455851.780        2734.211          47.900


 131711069.879 6 102631989.26546  25063802.200                    25063810.120
     -3795.761       -2957.745          41.150          41.900    98355652.496 7
  25063812.520       -2834.381          42.650


 135313084.940 6 105438808.69046  25749224.360                    25749234.320
      3891.341        3032.201          36.550          36.650   101045532.677 6
  25749235.660        2906.076          39.400


 129491094.710 6 100902124.64946  24641354.080                    24641357.600
     -2693.752       -2099.034          41.900          39.400    96697890.310 7
  24641363.260       -2011.796          43.400


 115159903.402 8  89734990.20547  21914201.520                    21914201.580
      1630.676        1270.657          48.750          47.050



 121631835.779 7  94778050.10346  23145769.420                    23145767.220
      3171.533        2471.325          46.300          41.100



 116667406.530 8  90909675.13947  22201067.280                    22201066.140
     -2147.902       -1673.691          49.450          44.900



 128094306.403 7  99813713.13146  24375543.600                    24375546.240
     -1763.630       -1374.260          42.400          38.650



 127953250.286 7  99703903.41646  24348681.860                    24348687.440
      1771.050        1380.044          42.850          40.250    95549588.556 7
  24348692.640        1322.461          44.700


 130839495.112 7 101952881.14447  24897927.760                    24897933.060
      2872.672        2238.453          43.500          43.600



 126382013.303 7  98479516.74047  24049699.660                    24049704.920
     -2799.713       -2181.598          46.700          46.900    94376199.314 7
  24049704.560       -2090.799          45.400


 23  9 10  9 13 30.0000000  0 13G02G03G04G08G09G14G17G19G21G22G28G31
                                G32
 113588673.857 8  88510655.71548  21615202.320                    21615200.240
     -1708.771       -1331.511          50.200          48.450



 106781212.434 8  83206158.16248  20319783.460                    20319784.920
       960.667         748.572          51.700          51.650    79739237.676 9
  20319786.220         717.322          55.950


 123151539.898 7  95962272.46346  23434950.380                    23434953.080
      3656.896        2849.532          44.300          39.650    91963872.383 7
  23434961.340        2730.703          47.850


 131824928.720 6 102720710.11846  25085469.280                    25085476.700
     -3795.247       -2957.345          40.400          40.850    98440676.547 6
  25085479.620       -2833.957          41.500


 135196299.986 5 105347807.45546  25727000.740                    25727010.640
      3894.132        3034.393          35.850          36.500   100958323.109 6
  25727012.520        2907.797          38.950


 129572002.271 6 100965169.35946  24656750.180                    24656753.480
     -2700.194       -2104.051          40.400          38.150    96758308.120 7
  24656759.240       -2016.279          42.400


 115111205.490 8  89697043.78047  21904934.660                    21904934.680
      1615.714        1258.998          48.450          47.400



 121536851.966 7  94704036.77146  23127694.480                    23127692.180
      3160.536        2462.757          46.550          40.750



 116731943.434 8  90959963.56447  22213348.200                    22213347.380
     -2154.759       -1679.034          48.900          45.800



 128147378.903 6  99855068.18946  24385642.940                    24385645.900
     -1774.903       -1383.047          41.600          39.050



 127900320.077 7  99662659.21846  24338609.580                    24338615.020
      1757.400        1369.407          43.850          38.150    95510062.903 7
  24338620.060        1312.308          44.300


 130753399.050 7 101885793.48147  24881544.140                    24881549.400
      2866.743        2233.834          42.550          42.100



 126466156.119 7  98545082.43747  24065711.680                    24065716.960
     -2810.046       -2189.650          46.550          46.450    94439033.070 7
  24065716.280       -2098.400          45.350


 23  9 10  9 14  0.0000000  0 13G02G03G04G08G09G14G17G19G21G22G28G31
                                G32
 113640102.217 8  88550729.72148  21624988.920                    21624986.840
     -1719.912       -1340.192          50.250          48.000



 106752619.894 8  83183878.26948  20314342.520                    20314343.820
       945.404         736.679          51.850          51.900    79717886.102 9
  20314345.300         706.052          56.250


 123041923.779 7  95876857.49046  23414091.060                    23414093.660
      3650.766        2844.757          44.700          39.200    91882016.386 8
  23414101.840        2726.349          48.250


 131938785.953 6 102809429.67146  25107135.780                    25107143.620
     -3795.448       -2957.504          40.350          39.450    98525699.426 7
  25107146.500       -2834.232          42.750


 135079461.676 5 105256764.58045  25704767.300                    25704776.760
      3894.552        3034.722          34.500          35.450   100871073.689 6
  25704779.320        2908.722          40.650


 129653106.063 6 101028366.96946  24672183.440                    24672187.440
     -2707.151       -2109.474          39.750          38.050    96818872.475 7
  24672192.920       -2021.376          42.900


 115062975.894 8  89659462.29747  21895756.840                    21895756.860
      1599.458        1246.332          48.350          47.050



 121442215.278 7  94630293.92446  23109685.600                    23109683.380
      3148.307        2453.227          46.000          40.250



 116796706.925 8  91010428.54447  22225672.180                    22225671.860
     -2162.927       -1685.400          48.600          46.100



 128200805.795 6  99896699.41546  24395809.820                    24395812.960
     -1787.438       -1392.812          41.650          37.050



 127847816.198 7  99621747.20846  24328618.440                    24328623.640
      1742.785        1358.020          43.350          38.350    95470855.585 7
  24328628.600        1301.492          44.050


 130667493.642 7 101818854.40147  24865196.720                    24865202.240
      2859.982        2228.566          42.350          42.800



 126550621.793 7  98610899.72647  24081785.240                    24081790.360
     -2821.328       -2198.440          46.050          45.850    94502107.930 7
  24081789.560       -2106.651          45.700


 23  9 10  9 14 30.0000000  0 13G02G03G04G08G09G14G17G19G21G22G28G31
                                G32
 113691844.888 8  88591048.63848  21634835.360                    21634833.280
     -1730.062       -1348.103          50.450          48.200



 106724463.482 8  83161938.20448  20308984.620                    20308985.860
       931.195         725.606          51.900          51.850    79696860.216 9
  20308987.260         695.425          56.150


 122932470.762 7  95791569.61546  23393262.540                    23393265.200
      3645.578        2840.716          44.700          39.850    91800282.214 8
  23393273.360        2722.381          48.300


 132052636.112 6 102898143.78046  25128801.080                    25128808.460
     -3795.034       -2957.181          38.800          38.650    98610716.977 7
  25128812.260       -2833.740          43.600


 134962569.498 6 105165679.63746  25682523.600                    25682533.360
      3897.404        3036.926          39.950          39.800   100783784.010 6
  25682535.640        2910.182          39.300


 129734400.616 6 101091713.22446  24687652.720                    24687657.200
     -2713.217       -2114.204          39.300          37.450    96879579.256 7
  24687663.180       -2025.876          43.750


 115015213.862 8  89622245.13547  21886667.940                    21886667.980
      1584.200        1234.442          48.350          46.650



 121347926.187 7  94556821.93547  23091742.880                    23091740.900
      3136.909        2444.346          45.650          42.650



 116861694.228 8  91061067.91647  22238038.820                    22238038.800
     -2170.009       -1690.919          48.900          45.450



 128254581.861 6  99938602.70146  24406043.240                    24406046.600
     -1798.295       -1401.275          41.650          37.100



 127795738.625 7  99581167.38046  24318708.540                    24318713.380
      1728.670        1347.018          43.300          38.000    95431966.622 7
  24318718.260        1290.862          43.850


 130581779.620 7 101752064.47047  24848885.600                    24848891.440
      2853.756        2223.712          42.850          42.750



 126635405.430 7  98676964.76447  24097919.260                    24097924.240
     -2831.487       -2206.358          46.350          46.750    94565420.237 7
  24097923.500       -2114.324          45.750


 23  9 10  9 15  0.0000000  0 13G02G03G04G08G09G14G17G19G21G22G28G31
                                G32
 113743907.192 8  88631616.62648  21644742.600                    21644740.700
     -1740.344       -1356.113          50.500          48.150



 106696748.701 8  83140342.27048  20303710.700                    20303712.120
       916.883         714.454          51.700          51.600    79676164.115 9
  20303713.200         684.624          56.300


 122823189.031 7  95706415.18546  23372466.840                    23372469.420
      3640.160        2836.495          44.600          38.800    91718675.930 8
  23372477.500        2718.318          48.400


 132166483.137 6 102986855.39546  25150465.540                    25150473.400
     -3794.628       -2956.863          40.050          38.400    98695732.169 7
  25150477.060       -2833.529          44.600


 134845630.954 6 105074558.74746  25660270.980                    25660280.940
      3899.826        3038.833          36.950          37.150   100696459.773 6
  25660282.760        2911.735          40.250


 129815888.302 6 101155210.00045  24703159.200                    24703164.280
     -2719.312       -2118.948          38.850          35.800    96940430.313 7
  24703170.340       -2030.485          43.650


 114967926.262 8  89585397.67147  21877669.320                    21877669.280
      1568.623        1222.305          48.300          46.450



 121253993.557 7  94483627.70946  23073867.920                    23073866.300
      3125.620        2435.549          45.250          41.750



 116926910.978 8  91111886.08447  22250449.180                    22250449.360
     -2177.311       -1696.609          49.050          45.800



 128308710.376 7  99980780.62846  24416343.900                    24416347.240
     -1809.789       -1410.229          42.800          37.200



 127744095.292 7  99540925.91646  24308881.020                    24308885.660
      1714.544        1336.008          42.450          37.800    95393401.905 7
  24308890.460        1280.312          43.200


 130496265.529 6 101685430.36346  24832612.340                    24832618.900
      2847.371        2218.738          40.750          40.150



 126720510.119 7  98743279.96347  24114114.380                    24114119.140
     -2841.552       -2214.201          46.100          45.750    94628972.285 7
  24114118.520       -2122.017          46.050


 23  9 10  9 15 30.0000000  0 13G02G03G04G08G09G14G17G19G21G22G28G31
                                G32
 113796283.999 8  88672429.66648  21654709.640                    21654707.840
     -1750.884       -1364.327          50.350          48.850



 106669470.556 8  83119086.57048  20298519.820                    20298521.500
       902.090         702.927          51.450          51.350    79655794.067 9
  20298522.260         673.707          55.950


 122714076.218 7  95621392.39046  23351703.180                    23351705.820
      3634.421        2832.022          44.350          40.800    91637195.785 7
  23351713.720        2714.013          47.700


 132280319.124 6 103075558.41146  25172128.140                    25172136.520
     -3794.083       -2956.439          40.850          40.050    98780739.137 7
  25172139.700       -2833.283          43.500


                                  25638008.800                    25638018.900
      3900.871        3039.643          36.550          36.100   100609098.716 6
  25638020.300        2912.719          39.850


 129897561.175 6 101218851.07046  24718701.060                    24718706.060
     -2725.442       -2123.725          40.700          37.950    97001419.635 7
  24718712.800       -2035.089          44.100


 114921110.358 8  89548917.74747  21868760.520                    21868760.140
      1552.790        1209.966          48.400          46.200



 121160415.044 7  94410709.42847  23056060.280                    23056058.980
      3113.529        2426.127          44.500          42.250



 116992351.325 8  91162878.48047  22262902.200                    22262902.280
     -2184.776       -1702.427          48.950          46.050



 128363184.069 7 100023227.51246  24426710.220                    24426713.340
     -1821.308       -1419.206          42.750          37.550



 127692883.690 7  99501020.84546  24299135.740                    24299140.180
      1699.915        1324.613          43.550          37.650    95355159.541 7
  24299144.880        1269.622          42.900


 130410949.810 6 101618950.82346  24816376.800                    24816384.020
      2840.493        2213.382          38.700          38.800



 126805928.488 7  98809839.60547  24130368.980                    24130373.580
     -2852.426       -2222.673          45.300          45.050    94692758.570 7
  24130373.240       -2129.894          45.700


 23  9 10  9 16  0.0000000  0 13G02G03G04G08G09G14G17G19G21G22G28G31
                                G32
 113848978.321 8  88713490.12548  21664737.140                    21664735.240
     -1762.393       -1373.295          50.700          48.000



 106642632.540 8  83098173.83348  20293412.680                    20293414.580
       886.645         690.892          51.800          52.000    79635752.692 9
  20293415.120         662.175          56.000


 122605138.447 7  95536505.95546  23330972.940                    23330975.640
      3627.742        2826.817          44.550          40.350    91555846.323 7
  23330983.180        2709.126          47.650


 132394146.429 6 103164254.64046  25193789.060                    25193797.740
     -3794.922       -2957.098          38.700          38.100    98865739.627 6
  25193800.400       -2833.519          40.800


 134611613.383 6 104892207.99946  25615738.380                    25615748.280
      3901.623        3040.232          39.050          39.100   100521705.042 7
  25615750.220        2913.313          44.200


 129979419.569 6 101282636.70946  24734278.540                    24734283.380
     -2732.153       -2128.955          40.850          38.200    97062547.511 7
  24734290.060       -2040.269          43.700


 114874771.400 8  89512809.47447  21859942.520                    21859941.880
      1536.143        1196.994          49.000          45.800



 121067197.094 7  94338072.10846  23038321.360                    23038320.220
      3100.721        2416.147          44.600          41.900



 117058018.474 8  91214047.60347  22275398.380                    22275398.340
     -2193.203       -1708.992          49.200          45.400



 128418003.984 7 100065944.17946  24437142.480                    24437145.540
     -1833.901       -1429.019          43.300          38.100



 127642109.752 7  99461456.80646  24289473.660                    24289478.080
      1684.483        1312.586          43.050          39.300    95317244.011 7
  24289483.040        1258.025          43.400


 130325839.356 6 101552631.22046  24800180.520                    24800188.160
      2833.071        2207.596          39.000          39.400



 126891661.588 7  98876644.47147  24146683.400                    24146687.760
     -2863.508       -2231.311          46.100          46.050    94756779.876 7
  24146687.820       -2138.329          45.850


 23  9 10  9 16 30.0000000  0 13G02G03G04G08G09G14G17G19G21G22G28G31
                                G32
 113901986.061 8  88754794.80848  21674824.260                    21674822.240
     -1772.146       -1380.895          50.600          48.250



 106616230.751 8  83077601.01048  20288388.520                    20288390.520
       872.809         680.110          51.650          51.800    79616037.076 9
  20288391.100         651.711          56.050


 122496374.500 7  95451754.98446  23310275.660                    23310278.360
      3622.605        2822.816          44.100          41.700    91474626.685 7
  23310285.840        2705.078          47.750


 132507958.138 6 103252938.71846  25215447.020                    25215456.120
     -3793.410       -2955.916          38.800          38.550    98950728.525 6
  25215457.760       -2832.833          41.400


 134494536.028 6 104800978.87046  25593459.380                    25593468.820
      3903.347        3041.566          40.650          40.650   100434277.223 6
  25593471.320        2914.797          41.150


 130061456.700 6 101346561.57545  24749889.780                    24749894.880
     -2737.588       -2133.191          39.550          35.250    97123808.811 7
  24749901.440       -2044.280          43.300


 114828906.956 8  89477070.95547  21851214.900                    21851214.060
      1520.820        1185.055          49.300          46.050



 120974339.025 7  94265715.20447  23020650.920                    23020649.860
      3089.048        2407.050          44.150          42.750



 117123907.964 8  91265389.97747  22287936.860                    22287936.760
     -2200.026       -1714.309          49.100          45.750



 128473164.228 7 100108926.04046  24447639.300                    24447642.220
     -1844.444       -1437.231          42.700          38.350



 127591771.975 7  99422232.64346  24279894.460                    24279899.400
      1670.693        1301.841          42.550          40.050    95279654.219 7
  24279904.520        1247.500          44.000


 130240933.592 6 101486471.11646  24784023.120                    24784031.260
      2826.720        2202.650          38.750          37.700



 126977703.114 7  98943689.68547  24163056.500                    24163060.620
     -2873.103       -2238.784          45.900          45.950    94821031.506 7
  24163061.080       -2145.464          45.800


 23  9 10  9 17  0.0000000  0 13G02G03G04G08G09G14G17G19G21G22G28G31
                                G32
 113955312.786 8  88796348.04747  21684972.040                    21684970.000
     -1783.048       -1389.391          50.350          47.850



 106590270.841 8  83057372.51348  20283448.420                    20283450.480
       857.829         668.438          51.600          51.450    79596651.437 9
  20283451.260         640.513          56.000


 122387792.658 7  95367145.90246  23289613.120                    23289616.120
      3616.236        2817.851          44.700          41.800    91393543.009 7
  23289623.100        2700.236          47.350


 132621757.906 6 103341613.52546  25237102.520                    25237111.760
     -3793.187       -2955.742          39.100          39.800    99035708.456 6
  25237113.080       -2832.558          41.850


 134377420.741 6 104709720.34546  25571173.060                    25571182.980
      3904.238        3042.271          36.250          36.200   100346821.126 6
  25571185.240        2915.368          40.550


 130143675.112 6 101410627.74246  24765535.920                    24765540.820
     -2743.735       -2137.977          40.100          38.050    97185205.530 7
  24765547.160       -2049.154          43.250


 114783524.569 8  89441708.06247  21842579.040                    21842578.120
      1504.519        1172.353          49.100          46.050



 120881849.266 7  94193645.29446  23003050.740                    23003049.640
      3076.544        2397.307          44.950          41.350



 117190024.863 8  91316909.55647  22300518.560                    22300518.280
     -2207.885       -1720.433          48.750          45.100



 128528667.989 7 100152175.54246  24458201.540                    24458204.260
     -1856.185       -1446.380          42.950          37.050



 127541878.501 6  99383354.68146  24270399.800                    24270404.940
      1655.241        1289.800          41.650          37.350    95242396.165 7
  24270410.640        1236.135          44.100


 130156241.612 6 101420477.58046  24767906.520                    24767914.920
      2819.065        2196.685          39.350          39.600



 127064056.376 7  99010977.81547  24179488.900                    24179492.760
     -2883.979       -2247.260          45.050          44.950    94885515.924 7
  24179493.620       -2153.563          45.750


 23  9 10  9 17 30.0000000  0 13G02G03G04G08G09G14G17G19G21G22G28G31
                                G32
 114008952.063 8  88838144.82748  21695179.260                    21695177.260
     -1793.264       -1397.351          50.250          48.250



 106564746.433 8  83037483.36848  20278591.200                    20278593.240
       843.434         657.221          51.000          50.900    79577591.008 9
  20278594.220         629.906          55.850


 122279389.151 7  95282675.77646  23268984.440                    23268987.820
      3610.435        2813.331          43.950          41.650    91312592.499 7
  23268994.240        2696.086          47.150


 132735537.530 6 103430272.65946  25258754.320                    25258763.140
     -3791.992       -2954.809          40.500          40.600    99120673.393 6
  25258764.780       -2831.939          41.900


 134260263.275 5 104618428.98145  25548878.600                    25548888.820
      3905.892        3043.554          35.800          35.900   100259333.589 7
  25548890.780        2916.707          42.300


 130226065.410 6 101474827.83246  24781214.620                    24781219.520
     -2749.012       -2142.090          40.050          39.250    97246730.582 7
  24781225.620       -2052.979          42.850


 114738619.834 8  89406717.36647  21834034.060                    21834033.140
      1488.735        1160.055          49.350          46.750



 120789724.487 7  94121859.77947  22985520.040                    22985518.800
      3064.599        2388.000          45.250          42.450



 117256362.686 8  91368601.28947  22313142.300                    22313141.840
     -2215.113       -1726.065          48.700          44.600



 128584506.648 7 100195686.01546  24468827.540                    24468829.980
     -1866.963       -1454.783          42.800          37.800



 127492425.335 7  99344819.76346  24260988.980                    24260994.080
      1640.630        1278.414          42.200          39.800    95205466.877 7
  24261000.440        1225.439          44.150


 130071760.067 6 101354647.99746  24751830.000                    24751838.660
      2812.532        2191.588          40.850          41.500



 127150712.550 7  99078501.95447  24195978.920                    24195982.740
     -2893.521       -2254.696          45.350          45.450    94950226.540 7
  24195983.840       -2160.811          45.800


 23  9 10  9 18  0.0000000  0 13G02G03G04G08G09G14G17G19G21G22G28G31
                                G32
 114062909.540 8  88880189.55747  21705447.040                    21705444.940
     -1803.868       -1405.614          50.400          47.100



 106539663.400 8  83017938.14548  20273818.000                    20273819.960
       828.705         645.744          51.100          51.450    79558860.175 9
  20273821.020         618.896          56.050


 122171172.612 7  95198351.34246  23248391.400                    23248394.860
      3604.086        2808.384          44.600          41.800    91231781.601 7
  23248401.120        2691.377          47.550


 132849300.816 6 103518919.07046  25280403.240                    25280411.840
     -3792.094       -2954.888          40.000          40.150    99205626.084 7
  25280413.260       -2831.445          42.450


 134143071.691 6 104527111.02346  25526577.660                    25526587.900
      3906.688        3044.175          38.400          38.600   100171820.593 7
  25526589.880        2917.331          42.100


 130308630.536 6 101539164.15246  24796926.260                    24796931.440
     -2755.011       -2146.769          38.950          38.750    97308386.187 7
  24796937.460       -2057.330          42.100


 114694200.191 8  89372104.66147  21825581.380                    21825580.540
      1472.553        1147.444          49.150          46.650



 120697973.667 7  94050365.66447  22968060.460                    22968059.180
      3052.066        2378.234          45.250          42.100



 117322927.135 8  91420469.62347  22325809.100                    22325808.400
     -2222.604       -1731.901          48.350          45.100



 128640683.639 7 100239460.13046  24479517.960                    24479520.060
     -1878.326       -1463.636          42.800          38.600



 127443420.760 6  99306634.39346  24251663.620                    24251668.720
      1626.009        1267.021          41.550          40.150    95168872.593 7
  24251675.360        1214.250          44.250


 129987498.408 6 101288989.75746  24735795.420                    24735804.040
      2805.015        2185.731          41.100          41.000



 127237675.168 7  99146264.89247  24212527.340                    24212531.040
     -2903.776       -2262.687          45.150          44.950    95015165.979 7
  24212532.380       -2168.424          46.150


 23  9 10  9 18 30.0000000  0 13G02G03G04G08G09G14G17G19G21G22G28G31
                                G32
 114117178.436 8  88922476.95947  21715774.120                    21715771.900
     -1814.724       -1414.072          50.500          47.150



 106515015.249 8  82998731.80148  20269127.640                    20269129.440
       813.768         634.104          51.550          51.450    79540454.097 9
  20269130.440         607.765          55.800


 122063139.202 7  95114169.57247  23227833.180                    23227836.860
      3597.627        2803.352          43.850          42.000    91151107.430 7
  23227842.840        2686.503          47.300


 132963038.626 6 103607545.59646  25302047.160                    25302055.800
     -3791.531       -2954.450          39.800          40.000    99290559.789 6
  25302056.880       -2831.186          40.900


 134025841.637 6 104435763.03946  25504269.680                    25504279.520
      3907.967        3045.175          37.900          37.900   100084278.758 6
  25504281.860        2918.269          39.850


 130391360.951 6 101603629.28146  24812669.240                    24812675.280
     -2760.901       -2151.354          39.200          37.900    97370165.248 7
  24812680.460       -2061.673          42.900


 114650260.669 8  89337866.07347  21817220.000                    21817219.300
      1456.125        1134.644          49.350          46.300



 120606592.975 7  93979159.95747  22950671.300                    22950670.020
      3039.353        2368.327          44.550          42.250



 117389711.197 8  91472509.08947  22338517.680                    22338516.820
     -2230.230       -1737.845          48.050          44.750



 128697190.331 7 100283491.16446  24490271.020                    24490272.620
     -1889.649       -1472.460          43.500          36.250



 127394860.780 6  99268795.48846  24242422.760                    24242428.200
      1610.813        1255.181          40.950          40.250    95132610.296 7
  24242434.640        1202.844          44.300


 129903453.764 6 101223500.62846  24719802.280                    24719810.740
      2797.378        2179.783          41.800          41.800



 127324935.384 7  99214259.72447  24229132.400                    24229136.040
     -2914.035       -2270.684          44.600          44.800    95080327.652 7
  24229137.600       -2176.042          45.850


 23  9 10  9 19  0.0000000  0 13G02G03G04G08G09G14G17G19G21G22G28G31
                                G32
 114171760.201 8  88965008.15647  21726160.680                    21726158.540
     -1824.937       -1422.030          50.650          46.950



 106490803.961 8  82979865.86848  20264520.400                    20264522.100
       799.707         623.148          51.400          51.450    79522374.251 9
  20264523.040         597.105          55.750


 121955293.564 7  95030134.13647  23207310.660                    23207314.620
      3591.525        2798.597          44.250          42.000    91070573.495 7
  23207320.400        2681.905          47.800


 133076751.434 6 103696152.64246  25323686.240                    25323694.740
     -3789.918       -2953.197          38.400          38.250    99375474.837 6
  25323695.620       -2830.351          41.300


 133908577.425 6 104344388.46846  25481954.960                    25481964.820
      3909.188        3046.127          39.200          39.750    99996711.510 6
  25481967.500        2919.169          40.800


 130474255.683 6 101668222.48346  24828443.640                    24828450.100
     -2765.859       -2155.220          38.900          37.250    97432067.046 7
  24828454.680       -2065.611          42.300


 114606805.249 8  89304004.71247  21808950.660                    21808950.140
      1440.163        1122.206          49.200          46.650



 120515587.664 7  93908246.76847  22933353.340                    22933352.320
      3026.876        2358.605          44.550          42.550



 117456716.394 8  91524720.86147  22351268.340                    22351267.640
     -2237.317       -1743.367          48.350          45.100



 128754026.336 7 100327778.81046  24501086.580                    24501088.100
     -1900.142       -1480.635          43.350          36.700



 127346749.719 7  99231306.38646  24233267.520                    24233273.140
      1596.079        1243.700          42.950          39.550    95096683.226 7
  24233279.340        1191.742          44.600


 129819630.954 6 101158184.34346  24703851.320                    24703859.400
      2790.098        2174.110          41.650          41.550



 127412492.783 7  99282486.12947  24245793.980                    24245797.660
     -2923.724       -2278.231          44.050          43.800    95145711.269 7
  24245799.360       -2183.348          45.850


 23  9 10  9 19 30.0000000  0 13G02G03G04G08G09G14G17G19G21G22G28G31
                                G32
 114226662.421 8  89007789.05547  21736608.220                    21736606.200
     -1834.545       -1429.517          50.250          47.700



 106467037.025 8  82961346.18248  20259997.580                    20259999.480
       785.648         612.194          50.250          50.350    79504626.216 9
  20260000.320         586.609          55.750


 121847645.889 7  94946252.95746  23186825.820                    23186829.940
      3585.681        2794.042          43.800          41.100    90990187.379 7
  23186835.680        2677.571          47.900


 133190443.888 6 103784743.83246  25345321.400                    25345330.040
     -3788.936       -2952.428          39.250          39.750    99460374.650 6
  25345330.840       -2829.220          40.150


 133791288.838 6 104252994.84246  25459635.780                    25459645.620
      3910.854        3047.421          41.050          40.950    99909126.000 6
  25459648.300        2920.302          41.650


 130557319.243 6 101732947.18445  24844249.940                    24844256.660
     -2770.739       -2159.022          38.450          35.050    97494094.855 7
  24844261.180       -2069.085          42.600


 114563843.158 8  89270527.76147  21800775.180                    21800774.760
      1424.659        1110.125          48.900          46.850



 120424968.201 7  93837634.23047  22916108.900                    22916108.060
      3015.025        2349.372          43.900          43.350



 117523949.920 8  91577110.54347  22364062.520                    22364062.020
     -2244.061       -1748.621          48.150          44.800



 128811196.973 7 100372327.19646  24511965.780                    24511967.060
     -1910.601       -1488.786          42.900          37.900



 127299097.533 7  99194174.79046  24224199.900                    24224204.960
      1581.334        1232.207          43.550          40.550    95061098.786 7
  24224211.380        1181.060          44.850


 129736041.162 6 101093049.64746  24687944.740                    24687952.660
      2783.038        2168.606          41.550          41.750



 127500352.540 7  99350948.13747  24262513.140                    24262516.900
     -2933.180       -2285.599          43.800          43.650    95211320.656 7
  24262518.760       -2190.236          45.750


 23  9 10  9 20  0.0000000  0 13G02G03G04G08G09G14G17G19G21G22G28G31
                                G32
 114281873.048 8  89050810.26747  21747114.460                    21747112.540
     -1845.044       -1437.698          49.800          47.600



 106443702.416 8  82943163.35948  20255557.120                    20255559.200
       771.117         600.870          50.550          50.550    79487201.015 9
  20255560.000         575.800          56.000


 121740186.882 7  94862518.76546  23166376.980                    23166381.220
      3579.320        2789.085          44.600          41.100    90909942.131 8
  23166386.720        2672.778          48.350


 133304102.167 6 103873308.41646  25366950.100                    25366958.660
     -3787.729       -2951.488          40.200          39.750    99545249.011 6
  25366959.800       -2828.277          40.050


 133673966.028 6 104161574.58546  25437309.980                    25437319.680
      3911.936        3048.265          39.700          40.100    99821514.911 7
  25437322.420        2921.077          42.000


 130640536.634 6 101797791.81245  24860085.620                    24860092.500
     -2775.891       -2163.033          38.700          34.750    97556237.573 7
  24860096.980       -2072.976          43.650


 114521364.192 8  89237427.26847  21792691.660                    21792691.140
      1408.396        1097.451          48.900          46.600



 120334725.292 7  93767315.12547  22898936.160                    22898935.420
      3002.456        2339.576          44.350          43.900



 117591399.606 8  91629668.65847  22376897.920                    22376897.580
     -2251.474       -1754.396          48.750          44.750



 128868687.791 7 100417125.07946  24522905.840                    24522907.040
     -1921.351       -1497.165          42.100          37.800



 127251894.529 7  99157393.23946  24215217.600                    24215222.480
      1566.411        1220.580          43.500          40.600    95025849.811 7
  24215228.860        1169.787          45.450


 129652675.899 6 101028089.90546  24672080.820                    24672088.440
      2775.384        2162.644          41.200          41.750



 127588500.235 7  99419634.49747  24279287.180                    24279290.940
     -2942.381       -2292.771          44.700          44.650    95277145.052 7
  24279292.980       -2197.323          46.300


 23  9 10  9 20 30.0000000  0 13G02G03G04G08G09G14G17G19G21G22G28G31
                                G32
 114337400.377 8  89094078.26947  21757681.000                    21757679.100
     -1856.146       -1446.351          50.150          47.350



 106420808.754 8  82925324.15048  20251200.660                    20251202.780
       755.944         589.048          51.700          51.800    79470105.103 9
  20251203.540         564.455          55.900


 121632927.825 7  94778940.38346  23145966.180                    23145970.680
      3572.215        2783.546          44.350          41.600    90829846.215 8
  23145976.060        2667.509          48.600


 133417733.260 6 103961851.90646  25388573.680                    25388581.760
     -3787.096       -2950.992          40.150          40.200    99630103.113 6
  25388583.940       -2828.056          40.700


 133556620.025 6 104070136.25546  25414979.720                    25414989.080
      3912.301        3048.550          40.250          40.000    99733886.519 7
  25414992.100        2921.215          43.150


 130723913.566 6 101862760.70845  24875951.780                    24875958.660
     -2781.775       -2167.618          37.900          34.700    97618499.382 7
  24875963.280       -2077.371          42.450


 114479378.479 8  89204711.13047  21784702.000                    21784701.240
      1391.430        1084.231          49.400          45.850



 120244870.838 7  93697298.70747  22881837.480                    22881836.700
      2988.796        2328.934          44.950          42.750



 117659073.335 8  91682401.36047  22389776.000                    22389775.660
     -2259.443       -1760.607          49.250          44.650



 128926505.187 7 100462177.46646  24533908.120                    24533909.420
     -1932.503       -1505.850          42.750          37.100



 127205151.795 7  99120970.33446  24206322.780                    24206327.420
      1550.512        1208.190          44.300          38.200    94990944.544 7
  24206333.780        1157.859          44.750


 129569546.940 7 100963314.30147  24656261.940                    24656269.140
      2767.292        2156.339          42.200          42.750



 127676942.243 7  99488550.18347  24296117.180                    24296120.920
     -2952.751       -2300.851          44.700          45.100    95343189.210 7
  24296123.280       -2204.995          46.050


 23  9 10  9 21  0.0000000  0 13G02G03G04G08G09G14G17G19G21G22G28G31
                                G32
 114393240.728 8  89137590.18447  21768307.160                    21768305.120
     -1866.842       -1454.684          50.200          47.150



 106398352.587 8  82907825.84648  20246927.500                    20246929.400
       741.145         577.516          51.650          51.350    79453335.885 9
  20246930.320         553.416          55.850


 121525868.001 7  94695517.22347  23125593.340                    23125597.680
      3565.084        2777.989          44.400          42.000    90749899.037 8
  23125603.260        2662.314          48.200


 133531331.233 6 104050369.55146  25410190.780                    25410199.460
     -3786.036       -2950.168          39.600          39.700    99714932.434 6
  25410201.600       -2827.205          41.900


 133439249.498 6 103978678.80746  25392644.720                    25392654.100
      3912.179        3048.457          37.600          37.400    99646239.843 6
  25392656.980        2921.702          41.150


 130807443.642 6 101927848.94446  24891847.120                    24891853.740
     -2786.845       -2171.569          40.200          36.950    97680875.610 6
  24891858.580       -2081.237          41.550


 114437884.433 8  89172378.09847  21776805.960                    21776804.960
      1374.801        1071.273          49.500          46.400



 120155404.537 7  93627584.73547  22864812.800                    22864811.840
      2975.509        2318.579          45.900          43.100



 117726967.335 8  91735305.70047  22402695.980                    22402695.500
     -2267.026       -1766.516          49.050          45.100



 128984643.333 6 100507479.75046  24544971.420                    24544972.660
     -1943.312       -1514.273          41.900          37.950



 127158868.241 7  99084905.24746  24197515.340                    24197519.960
      1534.963        1196.076          44.000          39.600    94956382.168 7
  24197525.720        1146.193          44.000


 129486654.349 6 100898722.85447  24640487.900                    24640494.640
      2758.726        2149.663          41.950          42.300



 127765672.712 7  99557690.67047  24313002.160                    24313005.840
     -2962.616       -2308.536          44.650          44.250    95409448.818 7
  24313008.300       -2212.365          45.400


 23  9 10  9 21 30.0000000  0 13G02G03G04G08G09G14G17G19G21G22G28G31
                                G32
 114449396.119 8  89181347.57847  21778993.300                    21778991.120
     -1877.140       -1462.708          50.750          47.200



 106376336.193 8  82890670.22548  20242737.980                    20242739.520
       726.402         566.028          51.750          51.750    79436895.073 9
  20242740.780         542.470          55.900


 121419012.491 7  94612253.29846  23105259.360                    23105263.660
      3558.315        2772.720          44.050          41.950    90670104.455 8
  23105269.220        2657.213          48.250


 133644896.972 6 104138862.07746  25431801.720                    25431810.740
     -3785.098       -2949.438          37.900          38.200    99799737.685 7
  25431812.980       -2826.373          42.000


 133321859.179 6 103887205.99046  25370306.140                    25370315.480
      3912.903        3049.021          39.000          39.350    99558578.439 7
  25370318.200        2922.145          42.250


 130891126.259 6 101993056.04346  24907771.720                    24907777.580
     -2791.971       -2175.573          39.200          36.500    97743365.717 7
  24907782.840       -2084.859          42.000


 114396886.223 8  89140431.44347  21769004.340                    21769003.200
      1358.323        1058.433          49.850          46.650



 120066331.342 7  93558177.08347  22847862.940                    22847861.780
      2962.435        2308.392          46.250          43.100



 117795083.827 8  91788383.41247  22415658.300                    22415657.720
     -2274.540       -1772.371          49.250          44.200



 129043102.282 7 100553032.02446  24556095.840                    24556097.200
     -1953.924       -1522.542          42.750          38.200



 127113048.528 7  99049201.58046  24188796.180                    24188800.860
      1519.525        1184.046          44.000          39.450    94922166.148 7
  24188805.760        1134.677          43.400


 129404003.782 7 100834319.99347  24624759.920                    24624766.400
      2750.714        2143.419          42.200          42.350



 127854691.639 7  99627055.93447  24329942.120                    24329945.680
     -2972.297       -2316.080          45.450          45.550    95475923.824 7
  24329948.100       -2219.438          45.350


 23  9 10  9 22  0.0000000  0 13G02G03G04G08G09G14G17G19G21G22G28G31
                                G32
 114505859.425 8  89225344.91147  21789738.000                    21789735.800
     -1887.074       -1470.448          49.900          46.800



 106354752.753 8  82873851.96448  20238630.800                    20238632.000
       712.454         555.159          51.300          51.350    79420777.573 9
  20238633.640         532.020          56.150


 121312357.093 7  94529145.26547  23084963.600                    23084967.780
      3552.246        2767.985          44.250          42.850    90590459.308 8
  23084973.460        2652.461          48.600


 133758421.201 6 104227322.19346  25453404.680                    25453414.180
     -3783.436       -2948.144          37.800          37.600    99884511.934 6
  25453416.400       -2825.119          41.500


 133204444.350 6 103795714.04946  25347962.800                    25347972.360
      3914.804        3050.504          37.550          36.900    99470898.727 6
  25347974.700        2923.031          41.100


 130974951.492 6 102058374.29446  24923723.500                    24923728.740
     -2796.385       -2179.006          38.050          36.600    97805962.339 6
  24923734.320       -2088.169          41.600


 114356378.386 8  89108866.89347  21761296.080                    21761294.860
      1342.334        1045.976          49.700          46.950



 119977647.492 7  93489072.80347  22830987.160                    22830985.800
      2949.964        2298.673          46.300          44.150



 117863415.232 8  91841628.59347  22428661.360                    22428660.820
     -2280.971       -1777.382          49.000          44.050



 129101872.633 7 100598826.94746  24567279.640                    24567281.060
     -1964.017       -1530.407          42.250          38.400



 127067688.060 7  99013855.79446  24180164.360                    24180169.140
      1504.600        1172.417          43.300          40.500    94888293.103 7
  24180173.540        1123.459          44.050


 129321591.870 7 100770103.10746  24609077.280                    24609083.360
      2743.478        2137.781          42.400          41.850



 127943989.753 7  99696638.73247  24346935.300                    24346938.700
     -2980.853       -2322.746          45.450          45.350    95542607.329 7
  24346941.100       -2226.095          45.550


 23  9 10  9 22 30.0000000  0 13G02G03G04G08G09G14G17G19G21G22G28G31
                                G32
 114562635.743 8  89269586.14047  21800542.140                    21800539.980
     -1897.830       -1478.830          49.350          47.650



 106333607.137 8  82857374.85948  20234606.920                    20234607.920
       697.482         543.492          51.050          50.850    79404987.016 9
  20234609.800         520.795          56.300


 121205909.570 7  94446199.25246  23064707.300                    23064711.360
      3544.652        2762.070          44.550          41.600    90510969.383 8
  23064717.080        2646.951          48.250


 133871906.587 6 104315752.11946  25475000.320                    25475010.140
     -3782.133       -2947.126          38.800          39.050    99969257.238 6
  25475012.540       -2824.527          41.050


 133087012.419 6 103704208.85346  25325616.080                    25325625.720
      3914.531        3050.290          39.500          40.000    99383206.212 6
  25325627.280        2923.160          40.850


 131058921.554 6 102123805.37645  24939702.600                    24939707.460
     -2801.641       -2183.099          39.400          35.300    97868667.069 6
  24939713.380       -2092.007          41.800


 114316367.897 8  89077689.88847  21753682.420                    21753681.220
      1325.239        1032.653          49.650          47.000



 119889361.533 7  93420278.57347  22814186.980                    22814185.460
      2936.019        2287.807          46.300          44.400



 117931966.565 8  91895045.13947  22441706.300                    22441705.840
     -2288.846       -1783.519          49.200          44.350



 129160957.525 7 100644866.95846  24578523.200                    24578524.860
     -1974.950       -1538.930          42.550          36.050



 127022794.308 7  98978873.68246  24171621.200                    24171626.380
      1488.542        1159.903          42.950          41.650    94854768.583 7
  24171630.540        1111.560          44.150


 129239426.994 7 100706078.70447  24593441.620                    24593447.600
      2734.859        2131.064          42.750          43.550



 128033569.880 7  99766441.27347  24363982.000                    24363985.420
     -2990.707       -2330.427          44.550          44.850    95609501.392 7
  24363987.700       -2233.394          45.250


 23  9 10  9 23  0.0000000  0 13G02G03G04G08G09G14G17G19G21G22G28G31
                                G32
 114619726.356 8  89314072.27147  21811406.020                    21811404.120
     -1908.361       -1487.036          49.250          47.750



 106312900.863 8  82841240.09748  20230666.620                    20230667.600
       682.771         532.028          51.000          50.900    79389524.536 9
  20230669.600         509.914          56.250


 121099674.136 7  94363418.47046  23044491.500                    23044495.260
      3537.674        2756.632          44.900          41.600    90431637.800 8
  23044500.980        2641.750          48.100


 133985353.034 6 104404151.69446  25496588.580                    25496598.760
     -3780.850       -2946.126          38.750          38.900   100053973.422 6
  25496600.940       -2823.283          40.350


 132969567.290 6 103612693.26046  25303266.900                    25303276.240
      3914.711        3050.429          40.000          39.300    99295503.874 6
  25303278.100        2923.512          41.750


 131143034.834 6 102189348.06845  24955709.020                    24955714.380
     -2806.103       -2186.573          40.300          33.500    97931478.781 6
  24955719.480       -2095.472          40.600


 114276857.705 8  89046902.73047  21746163.860                    21746162.860
      1308.448        1019.570          49.350          47.250



 119801477.483 7  93351797.52247  22797463.240                    22797461.720
      2922.725        2277.448          46.550          43.200



 118000738.857 8  91948633.86047  22454793.300                    22454792.980
     -2296.094       -1789.166          49.150          44.500



 129220355.874 6 100691151.24946  24589826.380                    24589828.520
     -1985.043       -1546.794          41.700          38.300



 126978371.065 7  98944258.20846  24163167.660                    24163173.120
      1472.936        1147.743          43.200          41.000    94821595.431 7
  24163177.080        1099.911          44.350


 129157513.973 7 100642250.56347  24577854.000                    24577860.000
      2726.172        2124.297          42.350          42.800



 128123431.102 7  99836462.86447  24381082.180                    24381085.680
     -3000.039       -2337.698          45.200          45.400    95676605.380 7
  24381087.860       -2240.244          44.800


 23  9 10  9 23 30.0000000  0 14G02G03G04G06G08G09G14G17G19G21G22G28
                                G31G32
 114677125.456 8  89358798.77848  21822328.700                    21822327.060
     -1918.702       -1495.095          49.050          48.400



 106292628.407 8  82825443.39548  20226808.880                    20226809.900
       668.207         520.682          51.000          51.000    79374386.028 9
  20226812.020         498.993          56.350


 120993648.033 7  94280800.82846  23024315.260                    23024319.000
      3530.363        2750.936          44.550          40.750    90352462.587 8
  23024324.920        2636.271          48.000


 134138213.996 5                  25525653.300
      3384.353                          32.850                   100168182.699 5
  25525661.060        2527.668          35.000


 134098752.945 6 104492515.03346  25518167.820                    25518178.260
     -3779.478       -2945.054          38.450          38.000   100138654.946 6
  25518180.100       -2822.450          39.500


 132852105.744 6 103521164.96546  25280914.480                    25280924.000
      3915.340        3050.922          38.700          38.350    99207789.272 6
  25280925.500        2923.736          40.900


 131227283.171 6 102254995.93546  24971741.360                    24971746.560
     -2810.943       -2190.353          39.650          37.100    97994391.341 6
  24971751.540       -2099.064          41.650


 114237843.954 8  89016502.41547  21738739.720                    21738738.940
      1291.838        1006.627          49.250          47.350



 119713992.946 7  93283627.77947  22780815.480                    22780813.980
      2909.109        2266.839          46.150          43.600



 118069726.237 8  92002390.17847  22467921.260                    22467920.980
     -2303.582       -1795.001          48.850          44.250



 129280059.769 6 100737673.59746  24601187.740                    24601190.000
     -1995.662       -1555.069          41.500          38.550



 126934415.216 7  98910006.93946  24154803.140                    24154808.640
      1457.112        1135.413          43.550          41.300    94788771.301 7
  24154812.660        1088.151          44.550


 129075850.890 7 100578617.18847  24562313.960                    24562319.780
      2717.691        2117.688          43.250          43.100



 128213565.686 7  99906697.46547  24398234.360                    24398238.080
     -3009.347       -2344.949          44.750          44.650    95743913.507 7
  24398240.140       -2247.146          44.900


 23  9 10  9 24  0.0000000  0 14G02G03G04G06G08G09G14G17G19G21G22G28
                                G31G32
 114734838.544 8  89403769.95047  21833311.220                    21833309.680
     -1928.500       -1502.729          50.000          47.850



 106272795.567 8  82809989.24048  20223034.860                    20223035.860
       654.249         509.805          51.350          51.250    79359575.798 9
  20223038.120         488.490          56.550


 120887839.799 7  94198352.94346  23004180.620                    23004184.220
      3523.832        2745.847          45.200          41.350    90273450.045 7
  23004190.160        2631.345          47.950


 134036653.037 6 104444171.02345  25506328.360                    25506333.200
      3386.414        2638.759          38.850          35.700   100092341.608 6
  25506335.960        2528.755          40.600


 134212110.085 6 104580845.04146  25539739.200                    25539749.900
     -3777.301       -2943.358          38.900          38.800   100223304.488 6
  25539751.980       -2820.899          41.100


 132734635.848 6 103429630.18946  25258560.540                    25258570.140
      3916.205        3051.592          39.800          39.900    99120068.449 7
  25258571.400        2924.386          43.400


 131311669.314 6 102320751.25245  24987799.640                    24987805.120
     -2814.651       -2193.240          39.000          35.650    98057406.830 7
  24987810.060       -2101.909          42.500


 114199334.116 8  88986494.75347  21731411.460                    21731410.980
      1275.658         994.020          49.650          47.000



 119626916.845 7  93215776.29947  22764245.340                    22764244.060
      2896.215        2256.791          45.900          43.650



 118138934.269 8  92056318.42647  22481091.020                    22481090.920
     -2310.023       -1800.021          48.000          44.900



 129340073.007 6 100784437.03646  24612607.920                    24612610.580
     -2004.684       -1562.095          40.500          38.700



 126890934.779 7  98876126.13946  24146529.040                    24146534.460
      1441.968        1123.612          43.150          41.150    94756302.211 7
  24146538.980        1076.614          45.600


 128994446.925 7 100515185.74047  24546823.120                    24546829.060
      2709.514        2111.317          42.650          42.600



 128303977.068 7  99977147.72947  24415439.220                    24415443.100
     -3017.734       -2351.487          44.050          43.650    95811428.321 7
  24415445.220       -2253.647          45.100


 23  9 10  9 24 30.0000000  0 14G02G03G04G06G08G09G14G17G19G21G22G28
                                G31G32
 114792862.436 8  89448983.30747  21844352.940                    21844351.280
     -1939.304       -1511.148          50.500          47.100



 106253399.336 8  82794875.29248  20219343.960                    20219344.940
       639.260         498.124          51.100          51.150    79345091.594 9
  20219347.160         477.324          56.250


 120782249.181 7  94116074.64446  22984087.240                    22984090.660
      3516.132        2739.845          45.400          41.050    90194600.028 8
  22984096.800        2625.635          48.100


 133935059.888 6 104365007.40746  25486995.740                    25487000.360
      3387.045        2639.252          38.150          37.950   100016476.461 7
  25487003.660        2529.270          42.650


 134325419.230 6 104669137.63246  25561301.540                    25561312.340
     -3776.449       -2942.696          37.700          37.950   100307918.140 6
  25561314.420       -2819.885          40.750


 132617157.057 6 103338088.41646  25236204.920                    25236214.240
      3916.210        3051.599          36.550          36.950    99032341.023 7
  25236216.060        2924.263          42.400


 131396187.431 6 102386609.41346  25003883.020                    25003888.800
     -2819.503       -2197.020          39.600          36.000    98120520.830 7
  25003894.320       -2105.443          43.800


 114161327.080 8  88956878.88547  21724178.960                    21724178.660
      1258.539         980.680          49.750          46.950



 119540249.179 7  93148243.09447  22747752.820                    22747751.880
      2882.143        2245.826          45.950          43.700



 118208359.635 7  92110416.01447  22494302.080                    22494302.160
     -2317.828       -1806.103          47.900          45.200



 129400390.154 6 100831437.25346  24624085.940                    24624088.440
     -2015.323       -1570.383          39.850          37.050



 126847929.127 7  98842615.30946  24138345.140                    24138350.580
      1425.722        1110.956          43.300          41.950    94724187.667 7
  24138356.020        1064.566          46.550


 128913302.357 7 100451956.41347  24531381.620                    24531387.620
      2700.232        2104.085          43.100          42.950



 128394659.989 7 100047809.58747  24432695.560                    24432699.800
     -3027.314       -2358.952          43.850          43.700    95879145.906 7
  24432702.080       -2260.646          44.850


 23  9 10  9 25  0.0000000  0 14G02G03G04G06G08G09G14G17G19G21G22G28
                                G31G32
 114851195.865 8  89494437.86447  21855453.500                    21855451.620
     -1949.798       -1519.325          50.500          47.150



 106234438.503 8  82780100.62348  20215735.860                    20215736.960
       624.495         486.620          51.650          51.650    79330932.527 9
  20215738.840         466.437          55.900


 120676877.811 7  94033967.17547  22964035.760                    22964038.800
      3508.641        2734.010          45.300          42.100    90115913.737 7
  22964045.280        2619.994          47.850


 133833434.346 6 104285818.56546  25467656.760                    25467662.060
      3387.823        2639.856          38.350          36.300    99940587.178 6
  25467664.820        2529.760          40.750


 134438677.964 6 104757390.95346  25582854.140                    25582865.060
     -3774.754       -2941.377          37.500          37.800   100392494.150 6
  25582866.420       -2818.639          40.650


 132499670.671 6 103246540.80046  25213847.700                    25213857.480
      3915.923        3051.373          40.700          41.150    98944607.833 7
  25213858.700        2924.354          42.500


 131480833.454 6 102452567.21546  25019990.720                    25019996.420
     -2823.804       -2200.371          39.500          38.500    98183730.395 7
  25020002.860       -2108.686          42.900


 114123823.570 8  88927655.37747  21717042.260                    21717042.080
      1241.544         967.438          49.600          47.350



 119453991.999 7  93081029.74447  22731338.480                    22731337.760
      2868.139        2234.914          45.950          42.800



 118278000.579 8  92164681.59347  22507554.280                    22507554.320
     -2325.070       -1811.746          48.700          44.500



 129461007.498 6 100878671.37946  24635621.060                    24635623.740
     -2025.896       -1578.621          39.700          36.400



 126805399.421 7  98809475.34846  24130251.920                    24130257.300
      1409.676        1098.449          43.200          40.900    94692428.553 7
  24130263.620        1052.542          47.000


 128832419.583 7 100388931.08247  24515989.880                    24515996.000
      2691.313        2097.133          43.550          43.900



 128485611.035 7 100118680.39147  24450003.140                    24450007.560
     -3036.328       -2365.974          44.000          44.300    95947063.712 7
  24450010.000       -2267.319          44.350


 23  9 10  9 25 30.0000000  0 14G02G03G04G06G08G09G14G17G19G21G22G28
                                G31G32
 114909839.313 8  89540133.98947  21866613.000                    21866611.060
     -1959.419       -1526.822          50.100          47.150



 106215913.539 8  82765665.58848  20212210.700                    20212211.920
       610.736         475.899          51.050          51.050    79317098.955 9
  20212213.400         456.035          55.850


 120571728.887 7  93952033.07346  22944026.360                    22944029.600
      3501.813        2728.688          45.850          40.400    90037393.571 8
  22944035.920        2614.864          48.000


 133731777.906 6 104206605.66246  25448312.300                    25448317.940
      3389.782        2641.389          38.550          37.550    99864674.800 6
  25448320.260        2531.125          41.800


 134551883.778 6 104845603.05846  25604396.680                    25604407.660
     -3772.323       -2939.479          39.250          38.700   100477030.711 6
  25604408.400       -2816.879          40.950


 132382179.463 6 103154989.30546  25191489.820                    25191499.500
      3916.881        3052.122          39.700          39.300    98856871.055 7
  25191500.580        2924.879          43.200


 131565605.090 6 102518622.93746  25036122.060                    25036128.200
     -2827.482       -2203.237          37.950          36.500    98247033.793 7
  25036134.920       -2111.396          43.350


 114086825.427 8  88898825.66447  21710001.760                    21710001.580
      1225.429         954.880          49.200          47.600



 119368148.604 7  93014138.81947  22715002.980                    22715002.240
      2855.191        2224.825          45.700          42.800



 118347857.613 8  92219115.54947  22520847.800                    22520847.700
     -2331.513       -1816.766          48.950          44.050



 129521923.436 6 100926138.13946  24647212.960                    24647215.940
     -2035.071       -1585.776          39.900          36.200



 126763348.409 7  98776708.40946  24122249.740                    24122254.800
      1394.433        1086.572          42.900          41.150    94661026.922 7
  24122261.840        1041.050          47.150


 128751802.809 7 100326113.03047  24500648.640                    24500655.080
      2683.351        2090.930          42.750          42.550



 128576828.392 7 100189758.68947  24467361.420                    24467366.040
     -3044.647       -2372.458          43.900          44.050    96015180.399 7
  24467368.460       -2273.470          44.150


 23  9 10  9 26  0.0000000  0 14G02G03G04G06G08G09G14G17G19G21G22G28
                                G31G32
 114968794.710 8  89586073.19047  21877831.900                    21877830.060
     -1970.203       -1535.226          50.450          47.100



 106197826.868 8  82751572.07848  20208768.900                    20208770.200
       595.792         464.254          51.450          51.600    79303592.663 9
  20208771.420         444.994          56.000


 120466807.653 7  93870276.37246  22924060.520                    22924063.500
      3493.769        2722.421          45.600          40.500    89959043.440 8
  22924069.940        2608.904          48.300


 133630094.467 6 104127371.73046  25428962.700                    25428968.140
      3389.891        2641.470          40.800          37.250    99788742.239 7
  25428970.480        2531.552          42.250


 134665037.779 6 104933774.78446  25625929.500                    25625940.360
     -3770.536       -2938.089          38.400          38.900   100561528.576 6
  25625940.720       -2815.783          39.700


 132264688.307 6 103063437.85046  25169132.000                    25169141.720
      3916.215        3051.600          41.250          40.950    98769134.304 6
  25169142.660        2924.651          41.900


 131650501.862 6 102584776.15345  25052276.940                    25052283.540
     -2832.305       -2206.997          37.050          32.850    98310430.547 7
  25052290.920       -2114.534          43.900


 114050336.716 8  88870392.91148  21703058.180                    21703057.960
      1208.030         941.322          49.350          48.000



 119282724.571 7  92947574.65447  22698747.340                    22698746.340
      2840.642        2213.487          46.100          42.650



 118417932.749 8  92273719.46347  22534182.920                    22534182.520
     -2339.211       -1822.765          49.000          44.600



 129583138.083 6 100973837.69246  24658861.800                    24658864.860
     -2045.123       -1593.610          40.050          37.300



 126721780.811 7  98744318.17346  24114339.480                    24114344.380
      1377.938        1073.719          42.250          40.850    94629986.281 7
  24114351.560        1028.867          47.300


 128671457.692 7 100263506.67647  24485359.120                    24485365.820
      2673.670        2083.387          42.300          42.600



 128668312.233 7 100261044.64747  24484770.400                    24484775.060
     -3053.653       -2379.475          43.650          43.950    96083496.082 7
  24484777.660       -2280.314          44.700


 23  9 10  9 26 30.0000000  0 14G02G03G04G06G08G09G14G17G19G21G22G28
                                G31G32
 115028056.021 8  89632250.75947  21889109.040                    21889107.260
     -1980.527       -1543.270          51.000          46.950



 106180172.614 8  82737815.51248  20205409.320                    20205410.780
       581.335         452.988          51.600          51.600    79290409.293 9
  20205411.840         433.991          55.850


 120362110.992 7  93788694.71046  22904137.240                    22904140.360
      3485.946        2716.327          46.650          41.300    89880861.019 7
  22904146.580        2603.192          47.900


 133528379.080 6 104048112.86446  25409607.000                    25409612.540
      3390.797        2642.176          39.850          36.950    99712785.787 7
  25409614.700        2532.187          43.050


 134778132.435 6 105021900.24346  25647450.900                    25647461.700
     -3768.718       -2936.673          38.150          38.100   100645982.133 6
  25647462.060       -2814.486          39.900


 132147193.715 6 102971883.75346  25146773.520                    25146783.400
      3916.419        3051.760          40.250          39.950    98681394.956 6
  25146783.500        2924.583          41.300


 131735514.933 5 102651019.98245  25068454.480                    25068461.300
     -2835.068       -2209.156          35.800          34.550    98373914.290 7
  25068468.200       -2117.814          42.950


 114014353.165 8  88842353.79547  21696210.740                    21696210.440
      1190.891         927.968          50.000          47.150



 119197716.773 7  92881334.85147  22682570.920                    22682569.620
      2826.472        2202.447          46.850          42.200



 118488219.671 8  92328488.40947  22547558.280                    22547557.780
     -2346.530       -1828.469          49.150          43.850



 129644643.141 6 101021763.56845  24670565.920                    24670568.660
     -2054.863       -1601.199          41.200          34.800



 126680693.041 7  98712301.84646  24106520.560                    24106525.280
      1361.504        1060.916          42.650          41.050    94599303.962 7
  24106532.420        1016.588          47.400


 128591381.813 7 100201110.12347  24470120.840                    24470127.780
      2664.479        2076.226          42.700          42.850



 128760054.468 7 100332531.96047  24502228.560                    24502233.180
     -3062.661       -2386.493          45.100          44.850    96152004.733 7
  24502235.960       -2286.980          44.050


 23  9 10  9 27  0.0000000  0 14G02G03G04G06G08G09G14G17G19G21G22G28
                                G31G32
 115087628.866 8  89678671.08247  21900445.500                    21900443.740
     -1991.224       -1551.605          50.750          46.900



 106162956.261 8  82724400.15848  20202133.100                    20202134.760
       566.339         441.302          51.350          51.300    79277552.912 9
  20202135.620         422.910          55.900


 120257647.217 7  93707294.48946  22884258.360                    22884261.460
      3478.023        2710.153          45.350          41.200    89802852.514 8
  22884267.560        2597.145          48.000


 133426638.033 6 103968834.09446  25390246.360                    25390252.080
      3391.393        2642.645          39.950          38.100    99636810.241 7
  25390254.300        2532.682          43.500


 134891170.918 6 105109981.95846  25668961.440                    25668972.580
     -3767.240       -2935.519          38.500          39.550   100730393.716 6
  25668972.980       -2813.054          40.300


 132029703.700 6 102880333.20046  25124415.820                    25124425.580
      3915.761        3051.247          39.950          40.400    98593659.053 7
  25124425.780        2924.300          42.350


 131820647.119 6 102717356.67546  25084654.860                    25084661.260
     -2839.437       -2212.552          37.800          37.100    98437486.888 7
  25084667.820       -2120.689          42.650


 113978881.959 8  88814713.90947  21689460.720                    21689460.420
      1173.570         914.471          49.900          46.850



 119113134.292 7  92815426.45047  22666475.460                    22666473.660
      2811.992        2191.165          46.100          43.200



 118558723.791 8  92383426.60047  22560974.800                    22560974.380
     -2354.051       -1834.328          48.550          44.550



 129706441.935 6 101069918.31546  24682326.040                    24682328.280
     -2064.996       -1609.090          41.750          38.150



 126640092.911 7  98680665.47746  24098794.720                    24098799.260
      1344.844        1047.934          42.750          40.400    94568985.780 7
  24098805.980        1004.377          47.550


 128511584.265 7 100138930.46947  24454935.580                    24454942.860
      2654.907        2068.769          42.000          42.300



 128852058.323 7 100404223.14147  24519736.480                    24519740.920
     -3071.025       -2393.012          43.500          43.150    96220708.752 7
  24519743.940       -2293.510          43.850


 23  9 10  9 27 30.0000000  0 14G02G03G04G06G08G09G14G17G19G21G22G28
                                G31G32
 115147508.416 8  89725330.38547  21911840.340                    21911838.540
     -2001.272       -1559.436          50.750          46.300



 106146173.464 8  82711322.65048  20198939.400                    20198941.140
       552.113         430.219          51.100          51.100    79265020.300 9
  20198941.940         412.327          55.850


 120153414.779 7  93626074.55447  22864423.440                    22864426.560
      3470.497        2704.287          46.350          42.200    89725016.773 7
  22864432.480        2591.552          47.850


 133324868.483 6 103889533.01645  25370880.380                    25370886.180
      3392.853        2643.774          39.350          35.550    99560813.409 7
  25370888.380        2533.476          42.300


 135004147.220 6 105198015.20746  25690460.200                    25690471.440
     -3764.811       -2933.630          37.700          38.300   100814758.897 6
  25690471.980       -2811.453          39.650


 131912216.391 6 102788784.79746  25102058.600                    25102068.260
      3915.938        3051.387          40.200          40.150    98505925.172 6
  25102068.360        2924.415          41.700


 131905891.336 6 102783780.65045  25100876.440                    25100882.480
     -2843.426       -2215.656          37.350          35.150    98501143.122 7
  25100888.760       -2123.362          42.700


 113943920.560 8  88787471.26747  21682807.780                    21682807.420
      1156.684         901.312          49.750          46.750



 119028975.793 7  92749848.41547  22650460.720                    22650458.580
      2798.089        2180.330          46.350          43.450



 118629440.488 8  92438530.42847  22574431.640                    22574431.420
     -2360.844       -1839.622          48.450          43.800



 129768527.794 7 101118296.72845  24694140.820                    24694143.140
     -2074.327       -1616.364          42.000          33.900



 126599978.311 7  98649407.44446  24091161.220                    24091165.420
      1328.942        1035.542          42.700          39.650    94539030.210 7
  24091172.020         992.386          47.450


 128432064.207 7 100076967.03347  24439803.180                    24439810.600
      2645.912        2061.758          42.500          42.950



 128944317.311 7 100476113.12847  24537292.880                    24537297.080
     -3079.451       -2399.576          42.800          42.800    96289603.273 7
  24537300.400       -2299.656          43.700


 23  9 10  9 28  0.0000000  0 14G02G03G04G06G08G09G14G17G19G21G22G28
                                G31G32
 115207699.148 8  89772232.17747  21923294.320                    21923292.360
     -2011.380       -1567.311          50.750          46.500



 106129828.543 8  82698586.34248  20195828.980                    20195830.780
       537.680         418.971          50.950          51.050    79252814.672 9
  20195831.580         401.530          55.800


 120049420.817 7  93545040.44147  22844633.880                    22844637.120
      3462.524        2698.076          45.750          42.350    89647359.109 7
  22844642.800        2585.689          47.900


 133223076.047 6 103810214.14746  25351509.980                    25351515.480
      3393.891        2644.586          39.050          37.000    99484799.490 7
  25351517.820        2534.325          42.550


 135117063.820 6 105286001.95946  25711947.480                    25711959.140
     -3762.627       -2931.924          36.000          36.050   100899079.503 6
  25711959.760       -2809.850          38.500


 131794738.641 6 102697243.80846  25079703.340                    25079712.900
      3915.957        3051.398          41.350          41.500    98418198.403 7
  25079713.020        2924.088          42.600


 131991249.034 6 102850293.01146  25117119.720                    25117125.460
     -2847.188       -2218.598          37.300          36.550    98564884.149 6
  25117131.060       -2126.017          39.900


 113909474.596 8  88760630.27447  21676252.900                    21676252.440
      1139.672         888.057          50.050          46.850



 118945248.555 7  92684606.44047  22634528.060                    22634525.740
      2783.881        2169.259          47.050          43.500



 118700373.790 8  92493803.02447  22587929.660                    22587929.880
     -2367.906       -1845.125          48.400          44.100



 129830902.721 6 101166900.41245  24706010.580                    24706012.440
     -2083.845       -1623.779          41.550          35.950



 126560355.866 7  98618532.87746  24083621.380                    24083625.120
      1312.599        1022.807          42.800          40.300    94509442.125 7
  24083631.740         980.242          47.150


 128352829.210 6 100015225.73946  24424725.060                    24424732.540
      2636.379        2054.330          41.500          41.550



 129036833.490 7 100548203.50947  24554898.060                    24554902.220
     -3087.856       -2406.126          43.150          43.250    96358689.875 7
  24554905.620       -2305.870          43.550


 23  9 10  9 28 30.0000000  0 14G02G03G04G06G08G09G14G17G19G21G22G28
                                G31G32
 115268194.126 8  89819371.03747  21934806.200                    21934804.120
     -2021.985       -1575.575          50.550          46.900



 106113914.801 8  82686186.01348  20192800.600                    20192802.560
       522.822         407.395          50.900          50.850    79240931.029 9
  20192803.320         390.361          55.950


 119945661.471 7  93464189.15347  22824888.920                    22824892.240
      3454.115        2691.523          46.100          43.050    89569876.655 7
  22824897.740        2579.457          47.950


 133121255.205 6 103730873.16645  25332134.140                    25332139.560
      3394.094        2644.746          36.950          34.650    99408764.348 7
  25332142.140        2534.465          43.200


 135229911.968 5 105373935.36845  25733421.680                    25733433.460
     -3760.781       -2930.484          35.450          35.750   100983348.961 6
  25733435.160       -2808.546          40.150


 131677266.262 6 102605707.02046  25057348.940                    25057358.560
      3914.867        3050.553          39.650          39.950    98330475.660 7
  25057358.520        2923.800          42.450


 132076710.783 6 102916886.55145  25133382.580                    25133387.860
     -2850.791       -2221.392          37.500          35.600    98628702.903 7
  25133393.540       -2128.935          43.600


 113875539.291 8  88734187.18147  21669795.240                    21669794.660
      1122.203         874.444          49.750          47.100



 118861949.038 7  92619697.74247  22618676.780                    22618674.480
      2769.011        2157.672          46.900          44.300



 118771516.423 8  92549238.75647  22601467.680                    22601468.140
     -2375.341       -1850.919          48.800          44.050



 129893557.679 6 101215722.28446  24717933.560                    24717935.520
     -2093.791       -1631.532          40.950          36.850



 126521221.137 7  98588038.37046  24076174.440                    24076177.620
      1295.809        1009.725          43.550          41.000    94480218.248 7
  24076184.240         967.673          46.850


 128273876.349 6  99953704.25846  24409700.700                    24409708.220
      2626.474        2046.611          41.500          41.700



 129129598.040 7 100620487.43147  24572550.560                    24572554.600
     -3096.497       -2412.859          42.800          42.600    96427961.950 7
  24572558.240       -2312.440          43.700


 23  9 10  9 29  0.0000000  0 14G02G03G04G06G08G09G14G17G19G21G22G28
                                G31G32
 115328996.896 8  89866749.74147  21946376.700                    21946374.380
     -2032.005       -1583.383          50.550          46.450



 106098435.997 8  82674124.59948  20189855.080                    20189857.240
       508.657         396.356          51.250          51.250    79229372.174 9
  20189857.900         379.848          56.000


 119842143.250 7  93383525.75747  22805189.880                    22805193.380
      3446.532        2685.616          45.400          42.550    89492574.268 8
  22805198.560        2573.610          48.250


 133019410.865 6 103651513.84846  25312753.740                    25312759.320
      3395.337        2645.712          39.950          37.850    99332711.639 7
  25312762.000        2535.432          42.800


 135342694.059 5 105461817.25745  25754883.420                    25754895.220
     -3758.568       -2928.762          34.750          35.600   101067569.103 6
  25754897.800       -2806.774          39.350


 131559805.459 6 102514179.21046  25034996.700                    25035006.500
      3915.040        3050.681          40.500          40.150    98242761.581 6
  25035006.200        2923.456          41.850


 132162277.527 6 102983561.81746  25149665.260                    25149670.800
     -2853.933       -2223.856          37.250          38.150    98692600.041 7
  25149676.580       -2131.380          43.400


 113842120.129 8  88708146.28447  21663435.760                    21663435.080
      1105.321         861.289          49.450          47.350



 118779084.061 7  92555127.65847  22602908.120                    22602905.960
      2754.813        2146.607          46.800          44.500



 118842872.314 8  92604840.66147  22615046.440                    22615046.860
     -2382.242       -1856.297          49.200          44.300



 129956494.159 6 101264763.55645  24729910.120                    24729912.000
     -2102.633       -1638.418          41.800          35.550



 126482580.051 7  98557928.52846  24068821.480                    24068824.000
      1279.655         997.137          43.550          39.600    94451363.016 7
  24068830.740         955.561          46.800


 128195212.556 6  99892408.03446  24394731.420                    24394738.860
      2616.842        2039.106          41.000          40.850



 129222612.454 6 100692966.06746  24590250.440                    24590254.560
     -3104.592       -2419.167          41.700          41.800    96497420.597 7
  24590258.400       -2318.525          43.300


 23  9 10  9 29 30.0000000  0 14G02G03G04G06G08G09G14G17G19G21G22G28
                                G31G32
 115390108.258 8  89914368.91047  21958005.900                    21958003.400
     -2041.880       -1591.077          50.500          46.000



 106083393.182 8  82662402.91148  20186992.540                    20186994.740
       494.578         385.385          51.050          51.100    79218138.893 9
  20186995.420         369.290          55.950


 119738870.113 7  93303053.31447  22785537.520                    22785541.060
      3438.524        2679.374          46.050          42.900    89415454.877 8
  22785546.140        2567.771          48.100


 132917545.605 6 103572138.24446  25293369.520                    25293375.100
      3396.203        2646.388          39.800          37.900    99256643.323 7
  25293377.860        2536.108          42.450


 135455409.273 5 105549647.10345  25776332.680                    25776343.760
     -3755.617       -2926.461          35.250          34.550   101151739.252 6
  25776347.740       -2804.711          40.500


 131442359.765 6 102422663.26946  25012647.160                    25012657.240
      3914.429        3050.209          40.200          40.700    98155058.837 6
  25012656.800        2923.430          41.350


 132247947.735 6 103050317.74346  25165967.780                    25165973.260
     -2856.703       -2226.005          38.750          37.800    98756574.451 7
  25165979.240       -2133.457          43.000


 113809219.382 8  88682509.34847  21657174.940                    21657174.180
      1088.386         848.093          49.200          47.600



 118696657.242 7  92490898.99747  22587222.660                    22587220.800
      2740.471        2135.433          46.550          45.200



 118914442.000 8  92660609.16647  22628665.900                    22628666.340
     -2388.909       -1861.490          49.450          43.800



 130019711.190 6 101314023.42746  24741939.980                    24741942.000
     -2111.703       -1645.485          41.900          37.650



 126444436.006 7  98528205.99146  24061562.760                    24061565.420
      1263.485         984.537          43.100          38.800    94422878.950 7
  24061572.180         943.507          47.050


 128116842.814 6  99831340.92846  24379818.200                    24379825.380
      2607.773        2032.040          41.750          41.750



 129315875.642 6 100765638.54746  24607997.800                    24608002.080
     -3112.519       -2425.344          41.600          41.950    96567065.018 7
  24608005.920       -2324.299          43.100


 23  9 10  9 30  0.0000000  0 14G02G03G04G06G08G09G14G17G19G21G22G28
                                G31G32
 115451526.122 8  89962226.91347  21969693.380                    21969690.860
     -2052.524       -1599.372          50.700          46.550



 106068784.304 8  82651019.35948  20184212.620                    20184214.620
       479.555         373.679          51.350          51.300    79207229.649 9
  20184215.440         358.101          56.250


 119635842.746 7  93222772.39747  22765931.900                    22765935.500
      3429.771        2672.554          45.800          43.500    89338519.021 8
  22765940.300        2561.259          48.550


 132815658.389 6 103492745.52346  25273981.180                    25273986.500
      3396.473        2646.598          40.300          36.550    99180558.627 7
  25273989.520        2536.228          42.800


 135568053.618 5 105637421.70845  25797768.280                    25797778.960
     -3753.627       -2924.912          35.350          35.250   101235856.510 6
  25797783.900       -2803.067          41.000


 131324929.686 6 102331159.46746  24990300.880                    24990311.080
      3914.206        3050.037          38.500          38.500    98067367.725 7
  24990309.980        2922.696          42.650


 132333716.364 5 103117150.41145  25182289.340                    25182294.880
     -2860.725       -2229.135          35.100          34.400    98820622.408 7
  25182300.900       -2136.250          44.500


 113776836.692 8  88657276.09247  21651012.700                    21651011.960
      1070.579         834.219          49.250          47.100



 118614670.551 7  92427013.30147  22571620.820                    22571619.400
      2725.264        2123.584          45.950          44.600



 118986223.226 8  92716542.49647  22642325.600                    22642325.860
     -2396.438       -1867.357          49.750          43.650



 130083204.129 6 101363498.24645  24754022.300                    24754024.380
     -2121.163       -1652.862          41.950          34.300



 126406789.163 6  98498870.87546  24054398.440                    24054401.420
      1246.350         971.187          41.950          40.050    94394766.183 7
  24054408.460         930.645          47.500


 128038768.477 7  99770504.00347  24364961.180                    24364967.980
      2597.248        2023.838          42.600          42.250



 129409383.357 7 100838501.57747  24625791.860                    24625796.320
     -3121.246       -2432.144          43.250          42.950    96636892.057 7
  24625800.060       -2330.754          43.700


 23  9 10  9 30 30.0000000  0 14G02G03G04G06G08G09G14G17G19G21G22G28
                                G31G32
 115513246.469 8  90010320.61647  21981438.400                    21981436.060
     -2062.416       -1607.080          50.100          46.400



 106054605.788 8  82639971.15048  20181514.620                    20181516.320
       465.520         362.741          51.700          51.600    79196641.780 9
  20181517.320         347.588          56.150


 119533060.493 7  93142682.47047  22746372.980                    22746376.700
      3421.798        2666.342          45.550          43.050    89261766.201 8
  22746381.320        2555.420          48.750


 132713747.108 6 103413334.07346  25254588.060                    25254593.280
      3397.035        2647.038          38.900          37.000    99104455.953 6
  25254596.580        2537.099          41.650


 135680621.853 5 105725137.01245  25819189.380                    25819199.800
     -3750.849       -2922.750          32.950          34.250   101319916.940 6
  25819205.220       -2801.057          41.250


 131207514.227 6 102239667.08646  24967957.240                    24967967.320
      3913.606        3049.571          39.750          39.250    97979687.552 6
  24967966.340        2922.494          41.550


 132419577.382 6 103184054.93846  25198628.240                    25198633.440
     -2863.781       -2231.525          37.650          36.900    98884739.231 7
  25198640.220       -2138.351          44.000


 113744970.257 8  88632445.10347  21644948.660                    21644947.980
      1053.583         820.974          48.800          47.650



 118533123.218 7  92363469.97047  22556102.500                    22556101.460
      2710.926        2112.412          45.550          44.100



 119058211.922 8  92772637.49247  22656024.760                    22656024.840
     -2403.156       -1872.593          49.450          43.600



 130146967.347 6 101413183.72345  24766156.040                    24766158.200
     -2129.950       -1659.710          41.750          33.800



 126369638.114 7  98469922.12946  24047328.620                    24047331.900
      1230.105         958.528          43.100          39.800    94367023.656 7
  24047338.980         918.631          46.800


 127960989.298 7  99709897.04146  24350160.300                    24350166.800
      2587.661        2016.365          42.350          41.700



 129503129.900 7 100911550.70247  24643631.320                    24643636.180
     -3128.835       -2438.057          43.400          43.650    96706897.433 7
  24643639.640       -2336.467          43.400


 23  9 10  9 31  0.0000000  0 14G02G03G04G06G08G09G14G17G19G21G22G28
                                G31G32
 115575275.098 8  90058654.53447  21993242.040                    21993239.820
     -2073.002       -1615.328          50.050          46.150



 106040863.218 8  82629262.64848  20178899.600                    20178901.060
       450.669         351.170          51.750          51.750    79186379.464 9
  20178902.140         336.503          56.050


 119430531.753 7  93062790.06447  22726862.220                    22726866.000
      3413.260        2659.686          45.600          43.150    89185202.690 8
  22726870.420        2548.760          48.200


 132611818.698 6 103333909.25646  25235191.800                    25235197.080
      3397.798        2647.629          40.150          36.500    99028340.498 7
  25235200.160        2537.148          42.850


 135793117.945 5 105812796.03845  25840596.700                    25840607.460
     -3748.774       -2921.132          32.350          32.100   101403923.511 6
  25840612.500       -2799.433          40.250


 131090121.511 6 102148192.42346  24945617.880                    24945628.100
      3912.614        3048.799          39.450          39.850    97892024.327 7
  24945626.720        2921.637          43.250


 132505533.414 5 103251033.59745  25214985.300                    25214990.780
     -2867.892       -2234.729          35.250          34.350    98948927.089 7
  25214997.360       -2140.983          42.950


 113713627.210 8  88608021.96847  21638984.160                    21638983.620
      1035.813         807.127          48.400          47.800



 118452023.901 7  92300275.73147  22540669.560                    22540668.720
      2695.769        2100.601          45.000          44.200



 119130413.942 8  92828898.72047  22669764.500                    22669764.340
     -2410.300       -1878.158          49.350          43.350



 130211003.972 6 101463082.23446  24778341.740                    24778344.260
     -2139.167       -1666.888          41.650          36.550



 126332990.714 7  98441365.80746  24040354.760                    24040358.140
      1213.269         945.406          43.800          40.850    94339657.216 7
  24040365.140         905.836          46.150


 127883514.550 6  99649527.31246  24335417.300                    24335423.480
      2577.225        2008.233          41.050          40.650



 129597118.742 7 100984788.62447  24661516.900                    24661522.000
     -3137.147       -2444.535          44.150          44.200    96777083.734 7
  24661525.160       -2342.597          43.400


 23  9 10  9 31 30.0000000  0 14G02G03G04G06G08G09G14G17G19G21G22G28
                                G31G32
 115637606.411 8  90107224.31547  22005103.280                    22005101.180
     -2083.248       -1623.312          50.100          46.150



 106027551.060 8  82618889.52848  20176366.460                    20176367.820
       436.061         339.787          51.650          51.550    79176438.562 9
  20176368.900         325.642          56.300


 119328253.791 7  92983093.09047  22707399.280                    22707403.220
      3404.566        2652.914          45.550          42.800    89108826.437 8
  22707407.260        2542.342          48.800


 132509868.931 6 103254467.84146  25215791.600                    25215796.820
      3397.932        2647.738          39.200          37.150    98952209.110 7
  25215799.820        2537.650          42.400


 135905534.334 5 105900392.93345  25861988.720                    25861999.880
     -3746.024       -2918.989          35.150          34.200   101487870.488 6
  25862004.500       -2797.481          40.650


 130972748.555 6 102056733.11746  24923282.260                    24923292.720
      3911.572        3047.982          40.250          40.750    97804375.871 7
  24923291.440        2921.089          43.350


 132591576.215 6 103318079.89846  25231358.620                    25231364.540
     -2870.200       -2236.523          36.750          36.200    99013179.765 7
  25231370.840       -2143.189          43.600


 113682803.518 8  88584003.51147  21633118.460                    21633118.120
      1018.307         793.486          48.350          46.900



 118371370.163 7  92237428.71047  22525321.580                    22525320.860
      2680.577        2088.763          45.900          43.400



 119202823.091 8  92885321.34047  22683543.600                    22683543.380
     -2417.623       -1883.864          48.850          43.100



 130275306.280 7 101513187.76945  24790578.240                    24790580.640
     -2148.286       -1673.991          42.250          32.200



 126296843.621 7  98413199.34246  24033476.300                    24033479.620
      1196.018         931.965          44.650          40.200    94312664.342 7
  24033486.400         893.187          45.950


 127806342.112 6  99589393.15846  24320731.540                    24320737.860
      2566.595        1999.951          39.750          39.700



 129691342.135 7 101058209.31547  24679447.160                    24679452.600
     -3145.244       -2450.844          44.000          43.600    96847445.193 7
  24679455.340       -2348.514          43.550


 23  9 10  9 32  0.0000000  0 14G02G03G04G06G08G09G14G17G19G21G22G28
                                G31G32
 115700246.678 8  90156034.83747  22017023.320                    22017021.380
     -2093.011       -1630.920          49.850          46.950



 106014675.874 8  82608856.89948  20173916.480                    20173917.780
       422.089         328.900          51.650          51.450    79166823.959 9
  20173918.940         315.178          56.600


 119226236.090 7  92903598.87647  22687986.000                    22687989.780
      3396.559        2646.672          46.100          42.950    89032644.511 8
  22687993.760        2536.271          48.750


 132407905.875 6 103175016.06446  25196388.920                    25196393.900
      3399.024        2648.587          39.450          38.200    98876067.817 7
  25196396.920        2538.398          42.800


 136017875.938 5 105987931.60445  25883366.720                    25883377.960
     -3743.275       -2916.846          34.400          34.250   101571761.658 6
  25883382.400       -2795.128          39.700


 130855404.314 6 101965296.26046  24900952.040                    24900962.860
      3911.344        3047.807          39.100          38.550    97716748.904 7
  24900961.120        2920.803          42.900


 132677709.788 5 103385196.86445  25247749.300                    25247755.380
     -2872.584       -2238.387          34.700          35.050    99077500.216 7
  25247761.520       -2144.980          42.350


 113652507.253 8  88560396.03847  21627353.140                    21627352.940
      1001.153         780.120          48.300          47.100



 118291171.543 7  92174936.31847  22510060.280                    22510059.660
      2665.838        2077.276          46.050          43.600



 119275445.869 8  92941910.42147  22697363.300                    22697363.060
     -2424.050       -1888.874          48.450          43.300



 130339878.664 6 101563503.74045  24802866.140                    24802868.660
     -2156.601       -1680.476          41.750          34.250



 126261205.505 7  98385429.47346  24026694.620                    24026697.760
      1179.751         919.289          44.800          40.500    94286051.563 7
  24026704.620         880.862          46.050


 127729482.158 6  99529502.48546  24306104.900                    24306111.600
      2556.977        1992.455          39.200          39.500



 129785804.540 7 101131816.24647  24697422.940                    24697428.560
     -3152.760       -2456.702          43.900          43.700    96917985.156 7
  24697430.920       -2354.213          43.450


 23  9 10  9 32 30.0000000  0 14G02G03G04G06G08G09G14G17G19G21G22G28
                                G31G32
 115763188.324 8  90205080.18947  22029000.700                    22028998.980
     -2103.677       -1639.231          49.950          46.950



 106002230.315 8  82599159.04748  20171548.260                    20171549.420
       407.244         317.334          51.750          51.650    79157530.179 9
  20171550.800         304.129          56.600


 119124474.086 7  92824303.93147  22668621.220                    22668625.020
      3387.362        2639.509          45.800          43.400    88956653.546 8
  22668628.720        2529.493          48.850


 132305923.548 6 103095549.26746  25176982.440                    25176987.440
      3399.548        2648.996          38.800          36.850    98799912.146 7
  25176990.400        2538.416          42.000


 136130133.924 5 106075405.11645  25904728.880                    25904739.960
     -3741.000       -2915.074          32.750          33.750   101655590.391 6
  25904744.560       -2793.736          38.050


 130738084.268 6 101873878.13046  24878626.840                    24878637.700
      3909.703        3046.526          39.200          40.100    97629139.940 7
  24878635.640        2919.729          42.100


 132763923.968 6 103452376.75246  25264155.100                    25264161.680
     -2874.990       -2240.244          36.650          36.200    99141880.905 7
  25264167.460       -2147.282          43.050


 113622733.105 8  88537195.39947  21621687.260                    21621687.120
       983.168         766.105          48.600          47.300



 118211423.894 7  92112795.32347  22494884.900                    22494884.200
      2650.276        2065.151          46.550          43.300



 119348274.824 8  92998660.16347  22711222.160                    22711221.960
     -2431.521       -1894.695          48.200          43.050



 130404711.245 6 101614022.48545  24815203.700                    24815205.940
     -2165.815       -1687.651          41.850          34.750



 126226071.271 7  98358052.23646  24020008.720                    24020011.840
      1162.388         905.760          44.600          39.750    94259815.044 7
  24020018.820         867.941          46.050


 127652930.885 6  99469852.35146  24291537.180                    24291543.700
      2546.022        1983.921          38.050          38.450



 129880496.495 7 101205602.06747  24715442.460                    24715447.940
     -3160.626       -2462.829          44.550          44.200    96988696.555 7
  24715450.040       -2360.206          43.550


 23  9 10  9 33  0.0000000  0 14G02G03G04G06G08G09G14G17G19G21G22G28
                                G31G32
 115826432.815 8  90254361.52747  22041035.720                    22041034.100
     -2113.079       -1646.558          49.650          47.100



 105990216.130 8  82589797.33148  20169262.140                    20169263.060
       393.401         306.545          51.700          51.600    79148558.533 9
  20169264.740         293.712          56.550


 119022972.479 7  92745211.85647  22649306.240                    22649309.780
      3379.005        2632.994          45.800          43.700    88880857.003 8
  22649313.620        2523.318          48.950


 132203925.133 6 103016069.94545  25157572.620                    25157578.040
      3400.362        2649.632          38.050          33.850    98723744.472 6
  25157580.780        2539.119          41.550


 136242308.655 5 106162813.75845  25926075.160                    25926085.740
     -3737.941       -2912.694          33.800          34.150   101739356.972 6
  25926091.080       -2791.354          36.300


 130620792.646 6 101782482.17846  24856307.100                    24856317.700
      3909.309        3046.218          40.600          39.700    97541552.164 6
  24856315.440        2919.211          41.800


 132850218.130 5 103519618.83046  25280576.360                    25280582.860
     -2877.812       -2242.458          35.950          36.000    99206321.207 7
  25280588.620       -2148.929          43.700


 113593484.030 8  88514403.90847  21616121.360                    21616121.200
       966.244         752.916          48.650          47.250



 118132131.988 7  92051009.45347  22479796.240                    22479795.340
      2635.479        2053.620          46.350          43.750



 119421311.123 7  93055571.48647  22725120.500                    22725120.420
     -2437.883       -1899.652          47.850          43.350



 130469803.491 7 101664743.54145  24827590.680                    24827592.960
     -2174.021       -1694.046          42.200          35.050



 126191444.833 7  98331070.68246  24013419.240                    24013422.520
      1145.799         892.831          43.400          41.050    94233957.716 7
  24013429.460         855.647          46.300


 127576693.444 6  99410446.73846  24277029.480                    24277035.720
      2536.171        1976.245          37.050          37.100



 129975417.676 7 101279566.50447  24733505.520                    24733510.860
     -3167.577       -2468.245          43.750          44.200    97059579.104 7
  24733512.780       -2365.547          43.600


 23  9 10  9 33 30.0000000  0 14G02G03G04G06G08G09G14G17G19G21G22G28
                                G31G32
 115889984.671 8  90303882.36747  22053129.340                    22053127.780
     -2123.271       -1654.499          49.950          46.550



 105978637.755 8  82580775.20948  20167058.960                    20167059.640
       378.926         295.267          52.200          52.300    79139912.326 9
  20167061.600         283.059          56.350


 118921738.499 7  92666328.33947  22630042.000                    22630045.500
      3370.204        2626.137          46.850          42.800    88805260.302 8
  22630049.200        2516.780          48.650


 132101916.497 6 102936582.67845  25138161.160                    25138166.680
      3400.892        2650.045          38.150          35.850    98647569.148 6
  25138169.260        2539.557          41.600


 136354402.984 4 106250159.76944  25947406.320                    25947416.160
     -3735.509       -2910.797          29.350          25.850   101823063.478 6
  25947422.460       -2788.961          39.450


 130503536.457 6 101691113.86846  24833994.000                    24834004.420
      3908.168        3045.332          41.300          41.050    97453990.853 7
  24834002.260        2918.459          42.100


 132936593.847 6 103586924.55345  25297013.100                    25297019.840
     -2880.453       -2244.517          36.900          35.950    99270822.500 7
  25297025.600       -2150.849          43.500


 113564765.921 8  88492026.15447  21610656.640                    21610656.340
       948.703         739.249          49.250          47.050



 118053303.366 7  91989584.58647  22464795.700                    22464794.620
      2620.195        2041.712          46.700          43.800



 119494559.165 8  93112647.79947  22739059.140                    22739059.160
     -2444.845       -1905.076          48.650          42.950



 130535157.902 6 101715668.87346  24840027.520                    24840029.680
     -2182.503       -1700.658          41.750          36.350



 126157332.703 7  98304489.90446  24006927.600                    24006931.340
      1128.785         879.577          42.750          39.800    94208484.480 7
  24006937.840         842.912          46.300


 127500777.870 6  99351291.91346  24262583.300                    24262589.180
      2525.706        1968.088          39.050          39.100



 130070570.374 7 101353711.33947  24751612.620                    24751617.940
     -3175.234       -2474.214          43.550          43.400    97130634.541 7
  24751619.680       -2371.146          43.300


 23  9 10  9 34  0.0000000  0 14G02G03G04G06G08G09G14G17G19G21G22G28
                                G31G32
 115953835.054 8  90353635.83147  22065279.760                    22065278.240
     -2133.186       -1662.226          49.950          46.300



 105967486.640 8  82572086.01448  20164937.000                    20164937.740
       364.850         284.298          51.850          51.750    79131585.187 9
  20164939.640         272.376          56.050


 118820766.497 7  92587648.92947  22610827.740                    22610831.000
      3361.504        2619.356          46.150          42.650    88729859.240 8
  22610834.880        2510.139          48.950


 131999890.533 6 102857081.89245  25118746.200                    25118751.820
      3401.680        2650.664          37.550          35.100    98571380.877 6
  25118754.380        2539.885          40.200


 136466544.395 5 106337607.89145  25968720.640                    25968729.760
     -3731.838       -2907.930          34.050          33.250   101906702.044 6
  25968736.380       -2786.623          36.550


 130386309.782 6 101599768.46046  24811686.500                    24811696.540
      3907.195        3044.571          38.150          38.500    97366451.545 7
  24811695.100        2917.710          43.800


 133023039.840 6 103654285.03046  25313463.260                    25313470.100
     -2882.118       -2245.803          37.950          38.000    99335376.300 7
  25313475.860       -2152.588          42.300


 113536571.701 8  88470056.61747  21605291.620                    21605291.220
       931.215         725.621          49.800          46.600



 117974932.460 7  91928516.36847  22449882.180                    22449880.880
      2605.096        2029.945          46.150          43.900



 119568010.265 8  93169882.32847  22753036.420                    22753036.660
     -2451.577       -1910.323          48.450          43.400



 130600763.599 7 101766790.00046  24852512.080                    24852514.220
     -2190.883       -1707.191          42.650          36.850



 126123728.572 7  98278304.93446  24000532.780                    24000536.820
      1111.746         866.298          42.300          41.050    94183390.578 7
  24000542.980         830.160          46.300


 127425179.274 6  99292384.07346  24248197.480                    24248202.960
      2514.897        1959.665          40.050          40.250



 130165943.974 7 101428028.31947  24769761.840                    24769766.920
     -3182.786       -2480.097          43.250          43.250    97201854.951 7
  24769768.680       -2376.735          43.300


 23  9 10  9 34 30.0000000  0 14G02G03G04G06G08G09G14G17G19G21G22G28
                                G31G32
 116017989.026 8  90403625.86447  22077487.960                    22077486.280
     -2143.684       -1670.405          49.900          46.200



 105956767.984 8  82563733.80248  20162897.200                    20162898.160
       350.044         272.762          50.800          50.950    79123580.978 9
  20162899.760         261.345          56.300


 118720064.515 7  92509179.93847  22591664.800                    22591667.960
      3351.962        2611.920          46.850          42.650    88654659.800 8
  22591671.980        2503.186          49.150


 131897853.935 6 102777572.81146  25099329.100                    25099335.220
      3401.708        2650.681          38.350          36.050    98495184.675 6
  25099337.580        2539.901          39.800


 136578460.617 5 106424815.10545  25990017.980                    25990026.680
     -3729.146       -2905.833          32.100          32.550   101990275.613 6
  25990033.640       -2784.907          37.400


 130269120.360 6 101508452.16746  24789386.220                    24789396.300
      3905.485        3043.240          40.800          41.050    97278940.086 7
  24789395.120        2916.466          43.700


 133109558.794 6 103721702.34746  25329927.560                    25329934.060
     -2885.399       -2248.364          37.600          38.000    99399984.520 7
  25329939.960       -2154.589          44.800


 113508908.635 8  88448500.96847  21600027.720                    21600027.180
       913.164         711.556          49.750          47.400



 117897027.936 7  91867811.56947  22435057.340                    22435055.880
      2588.762        2017.218          45.750          43.650



 119641669.348 8  93227278.92647  22767053.320                    22767053.740
     -2458.875       -1916.010          48.450          43.400



 130666623.277 6 101818109.05645  24865045.020                    24865047.360
     -2199.522       -1713.919          41.500          35.000



 126090639.666 6  98252521.46546  23994236.100                    23994240.320
      1094.203         852.630          41.900          41.150    94158681.424 7
  23994246.280         817.069          46.800


 127349906.485 6  99233730.08546  24233873.500                    24233878.960
      2503.493        1950.779          39.700          38.550



 130261541.566 7 101502519.83547  24787953.560                    24787958.620
     -3190.584       -2486.174          42.650          42.600    97273242.612 7
  24787960.480       -2382.426          44.100


 23  9 10  9 35  0.0000000  0 14G02G03G04G06G08G09G14G17G19G21G22G28
                                G31G32
 116082442.675 8  90453849.40647  22089753.180                    22089751.380
     -2153.060       -1677.711          49.950          46.150



 105946477.713 8  82555715.40148  20160938.800                    20160940.140
       336.244         262.008          51.050          51.050    79115896.673 9
  20160941.460         251.068          56.550


 118619631.400 7  92430920.43947  22572553.040                    22572555.840
      3343.688        2605.474          46.350          43.200    88579661.141 8
  22572560.240        2496.859          49.700


 131795804.168 6 102698053.44346  25079909.740                    25079915.780
      3402.398        2651.218          38.250          37.250    98418978.613 6
  25079918.320        2540.582          40.500


 136690295.350 5 106511952.19845  26011297.020                    26011307.580
     -3725.217       -2902.782          32.900          32.300   102073779.996 6
  26011313.480       -2782.015          39.900


 130151966.840 6 101417163.72446  24767092.620                    24767102.400
      3904.922        3042.800          41.650          41.350    97191455.372 7
  24767101.540        2915.993          44.700


 133196144.053 6 103789171.31145  25346404.200                    25346410.920
     -2886.800       -2249.454          36.800          35.600    99464642.273 7
  25346416.800       -2155.755          44.000


 113481773.760 8  88427356.90447  21594864.260                    21594863.660
       896.025         698.202          49.750          47.250



 117819588.588 7  91807469.25647  22420320.980                    22420319.520
      2574.036        2005.743          45.700          43.950



 119715532.038 8  93284834.17847  22781109.060                    22781109.500
     -2465.079       -1920.845          48.300          44.050



 130732730.793 6 101869621.24645  24877624.820                    24877627.260
     -2207.361       -1720.026          40.500          34.350



 126058064.056 6  98227137.95346  23988037.080                    23988041.440
      1077.648         839.729          40.750          40.100    94134355.591 7
  23988047.420         804.694          46.750


 127274958.670 6  99175329.32346  24219611.260                    24219616.860
      2493.219        1942.771          40.400          40.400



 130357357.025 7 101577181.09447  24806186.720                    24806192.000
     -3197.119       -2491.268          43.800          44.100    97344792.974 7
  24806193.900       -2387.435          44.550


 23  9 10  9 35 30.0000000  0 14G02G03G04G06G08G09G14G17G19G21G22G28
                                G31G32
 116147199.581 8  90504309.25947  22102076.120                    22102074.100
     -2163.944       -1686.193          49.900          45.650



 105936619.857 8  82548033.94348  20159062.740                    20159064.400
       321.065         250.181          51.050          51.350    79108535.272 9
  20159065.660         239.801          56.150


 118519474.039 7  92352875.81447  22553493.760                    22553496.480
      3333.615        2597.624          47.250          43.350    88504868.393 8
  22553501.100        2489.412          49.300


 131693746.523 6 102618528.03846  25060488.680                    25060494.780
      3401.896        2650.828          37.700          36.000    98342766.724 6
  25060497.660        2540.312          41.300



                                                                 102157217.520 6
  26032576.000       -2780.254          37.200


 130034855.995 6 101325908.53446  24744807.400                    24744817.120
      3902.534        3040.937          40.700          40.200    97104002.467 7
  24744816.120        2914.196          42.000


 133282797.003 6 103856693.03046  25362893.600                    25362900.180
     -2889.827       -2251.812          37.000          36.850    99529350.605 7
  25362906.220       -2158.022          42.600


 113455172.503 8  88406628.65547  21589802.240                    21589801.660
       877.626         683.864          49.500          47.750



 117742621.526 7  91747494.95047  22405674.500                    22405673.140
      2557.352        1992.742          45.750          44.250



 119789601.997 8  93342550.94647  22795204.280                    22795204.740
     -2472.790       -1926.852          48.750          43.250



 130799088.078 6 101921328.02945  24890252.260                    24890254.860
     -2216.453       -1727.110          40.750          35.300



 126026007.895 6  98202159.20846  23981937.000                    23981941.200
      1059.593         825.657          41.900          40.400    94110417.647 7
  23981947.360         791.237          46.000


 127200343.525 6  99117187.78946  24205412.220                    24205418.060
      2481.300        1933.482          40.350          40.500



 130453392.312 7 101652013.66247  24824461.700                    24824467.240
     -3205.126       -2497.505          44.000          43.850    97416507.489 7
  24824469.120       -2393.316          44.350


 23  9 10  9 36  0.0000000  0 14G02G03G04G06G08G09G14G17G19G21G22G28
                                G31G32
 116212252.030 8  90554999.40147  22114455.200                    22114453.020
     -2172.862       -1693.142          49.900          44.750



 105927186.816 8  82540683.50548  20157267.640                    20157269.340
       307.915         239.933          51.050          50.950    79101491.104 9
  20157270.700         229.864          56.600


 118419587.723 7  92275042.39347  22534485.960                    22534488.460
      3325.435        2591.250          46.900          43.000    88430278.048 8
  22534493.480        2483.161          49.800


 131591675.203 6 102538991.87645  25041065.040                    25041070.940
      3403.188        2651.828          39.750          35.300    98266544.595 6
  25041074.260        2541.224          40.800


                                  26053803.220                    26053813.960
     -3719.312       -2898.167          32.100          30.250   102240581.204 5
  26053819.500       -2777.012          35.050


 129917782.712 6 101234682.62046  24722529.060                    24722538.480
      3902.269        3040.732          41.250          41.650    97016577.660 7
  24722538.100        2913.848          44.500


 133369507.668 6 103924259.72546  25379394.100                    25379400.780
     -2891.234       -2252.910          40.650          37.500    99594101.981 7
  25379407.040       -2158.816          45.900


 113429098.964 8  88386311.60647  21584840.560                    21584840.020
       860.636         670.625          50.000          47.050



 117666122.524 7  91687885.37147  22391117.140                    22391115.980
      2542.735        1981.353          46.650          44.000



 119863871.765 8  93400423.40047  22809337.460                    22809337.880
     -2478.581       -1931.365          49.000          43.250



 130865684.824 6 101973221.39945  24902925.120                    24902928.380
     -2223.625       -1732.702          40.250          35.850



 125994465.714 6  98177580.94346  23975934.620                    23975938.640
      1043.375         813.021          41.600          40.700    94086863.492 7
  23975945.060         778.995          46.750


 127126057.171 6  99059302.44846  24191275.640                    24191281.920
      2471.176        1925.595          40.200          39.700



 130549637.800 7 101727010.02847  24842776.740                    24842782.420
     -3211.194       -2502.234          43.750          43.100    97488378.979 7
  24842784.500       -2398.085          44.550


 23  9 10  9 36 30.0000000  0 13G02G03G04G06G09G14G17G19G21G22G28G31
                                G32
 116277609.082 8  90605926.89147  22126892.200                    22126889.940
     -2183.386       -1701.341          49.350          45.050



 105918187.744 8  82533671.25148  20155555.140                    20155556.740
       292.949         228.273          51.350          51.400    79094771.008 9
  20155558.200         218.815          56.450


 118319984.508 7  92197429.56047  22515532.140                    22515534.520
      3315.545        2583.544          47.000          42.800    88355899.097 8
  22515539.720        2475.972          49.950


 131489600.795 6 102459453.36746  25021640.920                    25021646.620
      3402.518        2651.309          39.200          37.100    98190320.150 6
  25021650.040        2541.052          41.600


 129800758.881 6 101143495.25046  24700260.040                    24700269.260
      3900.021        3038.979          40.350          40.500    96929189.749 7
  24700268.920        2912.374          43.550


 133456282.172 6 103991876.16846  25395907.040                    25395913.180
     -2893.237       -2254.472          39.750          37.850    99658901.084 7
  25395919.700       -2160.498          45.100


 113403563.680 8  88366413.98247  21579981.320                    21579980.780
       842.437         656.444          50.050          47.250



 117590103.672 7  91628649.93347  22376651.180                    22376650.300
      2526.184        1968.456          46.150          44.600



 119938350.171 8  93458458.43647  22823510.320                    22823510.560
     -2485.803       -1936.993          48.800          43.300



 130932528.171 6 102025306.90945  24915644.960                    24915648.380
     -2231.631       -1738.944          39.500          35.750



 125963448.745 6  98153411.93546  23970032.040                    23970036.020
      1025.352         798.978          41.850          39.700    94063701.546 7
  23970043.020         765.702          47.500


 127052112.012 6  99001682.97446  24177204.180                    24177210.540
      2459.354        1916.384          40.100          40.850



 130646100.603 7 101802175.73246  24861133.080                    24861139.000
     -3218.849       -2508.196          42.400          41.950    97560412.749 7
  24861141.120       -2403.587          44.650


 23  9 10  9 37  0.0000000  0 13G02G03G04G06G09G14G17G19G21G22G28G31
                                G32
 116343265.367 8  90657087.54247  22139386.100                    22139383.980
     -2193.892       -1709.529          48.950          45.300



 105909617.173 8  82526992.88048  20153924.240                    20153925.760
       278.345         216.892          51.250          51.350    79088370.902 9
  20153927.180         207.762          56.200


 118220661.781 7  92120035.29947  22496631.680                    22496633.900
      3305.881        2576.013          47.000          43.000    88281729.624 8
  22496639.420        2468.581          49.750


 131387519.384 6 102379909.35746  25002215.540                    25002221.260
      3402.566        2651.349          40.400          37.050    98114090.484 6
  25002224.500        2540.878          41.150


 129683781.747 6 101052344.31046  24677999.900                    24678009.180
      3898.012        3037.411          41.800          41.650    96841836.792 7
  24678009.460        2910.892          43.650


 133543113.193 5 104059536.57245  25412430.360                    25412436.560
     -2895.657       -2256.365          35.900          35.200    99723742.324 7
  25412443.080       -2162.131          43.600


 113378562.638 8  88346932.64447  21575223.780                    21575223.180
       824.170         642.209          49.850          47.500



 117514562.474 7  91569786.69547  22362276.100                    22362275.520
      2509.542        1955.488          46.500          43.700



 120013031.564 8  93516651.64346  22837721.860                    22837721.860
     -2493.070       -1942.654          49.050          41.700



 130999610.249 6 102077578.46645  24928410.340                    24928414.400
     -2240.256       -1745.664          39.450          33.900



 125932953.535 7  98129649.51846  23964229.020                    23964233.020
      1007.422         785.007          43.050          39.050    94040929.239 7
  23964240.160         752.330          47.350


 126978506.343 6  98944328.03946  24163197.360                    24163203.760
      2447.335        1907.019          40.050          39.650



 130742773.229 7 101877504.92347  24879529.320                    24879535.480
     -3226.265       -2513.978          42.250          43.200    97632603.205 7
  24879537.620       -2409.145          44.300


 23  9 10  9 37 30.0000000  0 13G02G03G04G06G09G14G17G19G21G22G28G31
                                G32
 116409219.396 8  90708480.20447  22151936.740                    22151934.980
     -2203.702       -1717.174          48.950          45.900



 105901474.209 8  82520647.70348  20152374.700                    20152376.240
       264.103         205.794          51.400          51.350    79082290.102 9
  20152377.540         197.249          56.050


 118121621.583 7  92042861.18247  22477784.920                    22477787.040
      3296.285        2568.535          47.350          42.800    88207771.105 8
  22477792.760        2461.583          49.600


 131285431.628 6 102300360.45045  24982788.920                    24982795.040
      3402.926        2651.635          40.200          35.300    98037856.105 6
  24982797.520        2541.004          40.550


 129566853.111 6 100961231.13346  24655749.020                    24655758.240
      3896.721        3036.406          40.200          40.300    96754520.034 7
  24655758.540        2909.783          43.900


 133629996.939 6 104127238.15246  25428963.780                    25428970.080
     -2897.011       -2257.413          40.000          38.650    99788623.015 7
  25428976.420       -2163.451          44.400


 113354096.593 8  88327868.19447  21570568.000                    21570567.420
       806.501         628.441          49.700          47.550



 117439501.229 7  91511297.44247  22347992.500                    22347992.080
      2493.743        1943.177          46.500          44.700



 120087914.882 8  93575002.17447  22851971.800                    22851971.740
     -2499.803       -1947.903          48.450          42.300



 131066928.210 6 102130033.83146  24941220.740                    24941224.980
     -2248.161       -1751.819          38.550          37.400



 125902981.356 7  98106294.61246  23958525.840                    23958529.260
       990.115         771.519          43.650          38.550    94018547.474 7
  23958536.520         739.370          47.300


 126905242.822 6  98887239.72246  24149255.860                    24149261.980
      2436.255        1898.386          41.700          41.350



 130839652.698 7 101952995.32746  24897965.000                    24897971.200
     -3232.940       -2519.178          42.000          41.900    97704948.151 7
  24897973.500       -2414.201          44.500


 23  9 10  9 38  0.0000000  0 13G02G03G04G06G09G14G17G19G21G22G28G31
                                G32
 116475470.225 8  90760104.14247  22164543.920                    22164542.540
     -2213.309       -1724.659          48.750          46.250



 105893757.849 8  82514634.94148  20150906.360                    20150907.980
       250.050         194.844          51.200          51.450    79076527.873 9
  20150909.140         186.701          56.400


 118022865.785 7  91965908.69247  22458992.240                    22458994.420
      3287.003        2561.304          46.800          42.950    88134024.977 8
  22459000.260        2454.645          49.950


 131183338.234 6 102220807.09546  24963361.380                    24963367.240
      3403.362        2651.966          41.150          38.050    97961617.487 6
  24963369.660        2541.383          40.650


 129449974.646 6 100870157.16546  24633507.340                    24633516.940
      3895.260        3035.274          38.800          38.900    96667240.827 7
  24633517.100        2908.706          43.800


 133716929.359 5 104194977.66845  25445506.340                    25445512.840
     -2898.330       -2258.445          35.350          32.000    99853540.061 6
  25445518.980       -2164.536          40.900


 113330165.963 8  88309220.93747  21566014.120                    21566013.580
       788.740         614.603          49.300          47.650



 117364922.057 7  91453183.83247  22333800.600                    22333800.160
      2477.807        1930.760          46.200          44.600



 120162998.784 8  93633509.02047  22866259.800                    22866259.720
     -2506.099       -1952.808          48.000          42.900



 131134478.583 6 102182670.28346  24954075.340                    24954079.800
     -2254.911       -1757.076          38.650          37.550



 125873533.167 7  98083348.02946  23952922.280                    23952925.160
       972.947         758.143          43.600          38.200    93996557.024 7
  23952932.400         726.435          47.700


 126832323.900 6  98830419.92846  24135379.860                    24135385.720
      2424.889        1889.528          41.650          41.750



 130936736.091 6 102028644.61846  24916439.440                    24916445.700
     -3239.646       -2524.403          41.500          41.950    97777445.367 7
  24916448.000       -2419.239          44.200


 23  9 10  9 38 30.0000000  0 13G02G03G04G06G09G14G17G19G21G22G28G31
                                G32
 116542022.887 8  90811963.26547  22177208.480                    22177207.480
     -2223.337       -1732.473          48.700          46.250



 105886472.961 8  82508958.39748  20149520.160                    20149521.940
       235.824         183.758          50.750          50.650    79071087.842 9
  20149522.980         176.190          56.350


 117924402.175 7  91889183.87347  22440255.160                    22440257.200
      3277.493        2553.894          47.000          42.300    88060497.047 8
  22440263.420        2447.493          49.600


 131081245.575 6 102141254.35945  24943934.040                    24943939.800
      3403.243        2651.874          41.300          35.500    97885379.403 6
  24943941.940        2541.564          41.200


 129333153.986 6 100779128.22746  24611276.620                    24611286.300
      3893.307        3033.754          40.050          40.400    96580004.796 7
  24611286.800        2907.347          44.300


 133803913.541 6 104262757.52745  25462058.920                    25462065.080
     -2899.498       -2259.346          37.100          34.650    99918495.706 7
  25462071.740       -2165.563          43.500


 113306776.975 8  88290995.74447  21561563.260                    21561562.880
       770.804         600.626          49.000          47.500



 117290832.920 7  91395452.05547  22319701.980                    22319701.360
      2461.494        1918.048          46.200          44.550



 120238287.908 7  93692175.76447  22880586.880                    22880586.920
     -2512.893       -1958.102          47.800          42.900



 131202264.042 6 102235489.90446  24966974.720                    24966979.340
     -2263.165       -1763.513          38.750          37.500



 125844615.855 7  98060815.12046  23947419.620                    23947422.320
       955.110         744.243          43.650          39.250    93974962.994 7
  23947429.300         713.346          47.700


 126759758.069 7  98773875.29347  24121571.080                    24121576.840
      2413.313        1880.510          42.550          42.550



 131034026.270 6 102104455.04046  24934953.140                    24934959.420
     -3246.112       -2529.441          41.300          40.800    97850096.988 7
  24934961.780       -2424.064          43.650


 23  9 10  9 39  0.0000000  0 13G02G03G04G06G09G14G17G19G21G22G28G31
                                G32
 116608872.054 8  90864053.42147  22189929.500                    22189928.760
     -2233.443       -1740.349          49.250          46.050



 105879614.609 8  82503614.21448  20148215.020                    20148216.960
       221.313         172.451          50.650          50.700    79065966.327 9
  20148218.060         165.294          56.550


 117826228.693 7  91812685.14647  22421573.220                    22421575.360
      3267.352        2545.992          47.250          42.950    87987185.778 8
  22421581.620        2439.978          49.750


 130979150.373 6 102061699.64246  24924506.220                    24924511.780
      3402.774        2651.512          41.300          37.350    97809139.480 6
  24924513.640        2541.229          41.250


 129216388.892 6 100688142.61246  24589056.900                    24589066.500
      3891.236        3032.141          39.350          39.800    96492810.286 7
  24589066.880        2905.591          42.950


 133890941.689 5 104330571.49145  25478620.180                    25478626.220
     -2902.512       -2261.714          35.300          34.950    99983484.025 7
  25478632.760       -2166.896          43.500


 113283926.417 8  88273190.10648  21557214.860                    21557214.660
       752.455         586.328          48.700          48.000



 117217231.750 7  91338100.51947  22305696.160                    22305695.240
      2445.005        1905.199          46.550          44.150



 120313777.501 8  93750998.71947  22894952.100                    22894952.220
     -2519.970       -1963.615          48.150          43.200



 131270277.649 6 102288487.36846  24979917.540                    24979922.280
     -2270.933       -1769.563          39.900          36.250



 125816226.509 7  98038693.61946  23942017.280                    23942020.160
       937.136         730.236          44.050          38.850    93953763.236 7
  23942026.940         699.939          47.600


 126687543.913 7  98717604.69447  24107829.200                    24107834.800
      2401.006        1870.920          43.350          43.600



 131131516.345 6 102180421.20246  24953504.780                    24953511.180
     -3253.092       -2534.881          41.100          39.950    97922897.871 7
  24953513.480       -2429.293          43.900


 23  9 10  9 39 30.0000000  0 13G02G03G04G06G09G14G17G19G21G22G28G31
                                G32
 116676015.419 8  90916372.82147  22202706.600                    22202705.920
     -2243.268       -1748.005          49.650          46.550



 105873180.699 8  82498600.76148  20146990.660                    20146992.620
       207.129         161.398          51.000          51.100    79061161.772 9
  20146993.880         154.726          56.850


 117728346.182 7  91736413.13347  22402946.680                    22402948.720
      3257.623        2538.411          46.850          42.850    87914091.805 8
  22402955.440        2432.648          50.050


 130877051.986 6 101982142.48046  24905077.660                    24905083.400
      3403.035        2651.718          40.850          37.800    97732897.172 7
  24905084.780        2541.328          42.500


 129099679.906 6 100597200.77046  24566847.540                    24566857.380
      3889.285        3030.620          39.800          39.250    96405657.759 7
  24566858.000        2904.164          44.500


 133978119.622 6 104398559.53846  25495188.820                    25495195.080
     -2903.274       -2262.294          38.050          37.050   100048502.194 7
  25495201.260       -2167.980          42.050


 113261613.122 8  88255803.11847  21552968.700                    21552968.680
       734.640         572.446          48.450          47.700



 117144119.708 7  91281130.13547  22291783.320                    22291782.000
      2428.578        1892.400          45.700          43.850



 120389464.779 7  93809975.71047  22909354.900                    22909355.120
     -2526.370       -1968.604          47.700          42.350



 131338514.815 6 102341659.01846  24992902.840                    24992907.720
     -2278.171       -1775.203          39.000          38.850



 125788365.018 7  98016983.44446  23936715.200                    23936718.720
       919.604         716.576          43.600          39.850    93932957.675 8
  23936725.140         686.766          48.100


 126615682.814 7  98661609.21047  24094154.400                    24094159.960
      2389.402        1861.878          43.400          43.150



 131229202.139 6 102256539.89046  24972093.700                    24972100.100
     -3259.704       -2540.033          41.550          41.400    97995844.928 7
  24972102.360       -2434.021          43.750


 23  9 10  9 40  0.0000000  0 13G02G03G04G06G09G14G17G19G21G22G28G31
                                G32
 116743457.753 8  90968925.19647  22215540.680                    22215539.900
     -2252.786       -1755.421          49.950          46.550



 105867176.132 8  82493921.87048  20145848.020                    20145850.080
       193.216         150.557          50.850          50.750    79056677.829 9
  20145851.300         144.290          56.700


 117630762.412 7  91660373.93447  22384376.860                    22384379.020
      3248.069        2530.966          47.200          42.400    87841220.916 8
  22384385.740        2425.429          49.750


 130774957.336 6 101902588.16446  24885649.720                    24885655.260
      3403.296        2651.917          41.100          36.750    97656657.619 7
  24885656.600        2541.502          42.200


 128983034.678 6 100506308.65046  24544650.000                    24544660.200
      3887.294        3029.067          39.250          39.500    96318552.855 7
  24544660.600        2902.903          43.800


 134065229.962 6 104466437.67845  25511765.460                    25511771.760
     -2904.191       -2263.006          37.350          35.700   100113552.042 7
  25511777.780       -2168.630          42.300


 113239843.735 7  88238839.95647  21548826.040                    21548826.160
       716.866         558.597          47.900          47.600



 117071504.987 7  91224547.24647  22277965.060                    22277963.340
      2412.414        1879.805          45.450          43.200



 120465354.646 7  93869110.56747  22923796.240                    22923796.540
     -2532.841       -1973.647          46.900          42.650



 131406978.363 6 102395007.04745  25005931.060                    25005935.880
     -2285.410       -1780.845          39.800          32.750



 125761038.313 7  97995689.98746  23931514.800                    23931519.020
       902.239         703.045          43.250          40.100    93912551.466 8
  23931525.260         673.638          48.200


 126544183.421 7  98605895.58647  24080548.260                    24080554.080
      2377.604        1852.684          42.800          42.850



 131327086.624 6 102332813.42147  24990720.640                    24990726.820
     -3265.889       -2544.852          41.500          42.000    98068940.382 7
  24990729.040       -2438.798          43.600


 23  9 10  9 40 30.0000000  0 13G02G03G04G06G09G14G17G19G21G22G28G31
                                G32
 116811193.991 8  91021706.58747  22228430.760                    22228429.780
     -2262.698       -1763.145          50.300          46.500



 105861596.026 8  82489573.71048  20144786.220                    20144788.360
       179.071         139.535          51.100          51.250    79052510.844 9
  20144789.420         133.680          56.750


 117533475.441 7  91584565.99747  22365863.540                    22365865.720
      3237.872        2523.021          46.700          43.700    87768571.669 8
  22365872.740        2417.938          50.100


 130672863.009 6 101823034.12846  24866221.680                    24866227.320
      3402.896        2651.607          40.500          39.100    97580418.321 7
  24866228.780        2541.399          42.850


 128866451.062 6 100415464.54046  24522464.820                    24522474.800
      3885.041        3027.316          40.750          40.050    96231494.001 7
  24522475.140        2901.210          44.000


                                  25528348.560                    25528354.940
     -2905.579       -2264.104          36.000          29.600   100178627.355 6
  25528360.440       -2169.590          39.100


 113218614.524 8  88222297.71247  21544786.240                    21544786.380
       698.693         544.437          48.250          47.800



 116999385.705 7  91168350.44047  22264241.100                    22264238.920
      2395.694        1866.776          45.700          44.650



 120541442.115 7  93928399.41847  22938275.100                    22938275.480
     -2539.562       -1978.882          46.600          43.450



 131475661.012 6 102448525.85745  25019001.040                    25019005.540
     -2293.088       -1786.825          38.750          34.350



 125734243.441 7  97974810.97746  23926415.640                    23926420.180
       884.519         689.237          43.050          39.950    93892542.424 8
  23926426.620         660.370          48.000


 126473044.545 7  98550462.86847  24067010.700                    24067016.640
      2365.382        1843.159          42.400          42.300



 131425162.993 7 102409236.46447  25009384.140                    25009390.100
     -3272.367       -2549.901          42.650          43.250    98142179.123 7
  25009392.200       -2443.629          43.050


 23  9 10  9 41  0.0000000  0 13G02G03G04G06G09G14G17G19G21G22G28G31
                                G32
 116879224.965 8  91074717.64647  22241376.780                    22241375.560
     -2272.778       -1770.998          49.350          46.650



 105856441.624 8  82485557.27548  20143805.420                    20143807.580
       164.536         128.209          50.850          50.750    79048661.749 9
  20143808.580         122.918          56.700


 117436489.369 7  91508992.53447  22347407.540                    22347409.740
      3227.624        2515.035          46.750          42.000    87696147.114 8
  22347416.700        2410.276          49.350


 130570771.900 6 101743482.62146  24846794.240                    24846800.180
      3402.802        2651.534          40.350          38.650    97504181.472 7
  24846801.480        2541.076          43.150


 128749933.031 6 100324671.54446  24500292.080                    24500301.800
      3882.605        3025.416          41.050          41.300    96144484.091 7
  24500301.820        2899.391          43.100


                                  25544937.980                    25544944.220
     -2906.696       -2264.995          36.750          31.150   100243727.903 6
  25544949.740       -2170.574          41.300


 113197928.306 8  88206178.57247  21540849.700                    21540849.820
       680.363         530.153          48.000          47.300



 116927765.904 7  91112542.81947  22250612.220                    22250609.700
      2378.860        1853.658          45.850          43.400



 120617728.201 7  93987843.01747  22952791.780                    22952792.300
     -2546.305       -1984.136          46.950          42.500



 131544561.970 6 102502214.72146  25032112.460                    25032117.180
     -2300.593       -1792.674          40.350          36.750



 125707983.643 7  97954348.85046  23921418.400                    23921422.760
       866.354         675.079          42.600          37.950    93872932.923 7
  23921429.600         646.853          47.300


 126402270.571 7  98495314.51546  24053542.580                    24053548.840
      2352.784        1833.345          42.300          41.800



 131523430.424 6 102485808.42146  25028083.960                    25028089.680
     -3278.937       -2555.018          41.650          41.200    98215560.564 7
  25028091.800       -2448.403          43.000


 23  9 10  9 41 30.0000000  0 13G02G03G04G06G09G14G17G19G21G22G28G31
                                G32
 116947551.273 8  91127958.82347  22254378.840                    22254377.460
     -2282.617       -1778.667          49.000          46.150



 105851713.001 8  82481872.61948  20142905.620                    20142907.620
       150.313         117.127          50.750          50.850    79045130.621 9
  20142908.860         112.271          56.850


 117339807.197 7  91433655.88647  22329009.360                    22329011.680
      3217.352        2507.030          46.800          43.250    87623949.514 8
  22329018.480        2402.634          49.750


 130468685.852 6 101663935.03146  24827367.780                    24827373.860
      3402.209        2651.071          39.850          38.800    97427948.373 7
  24827375.200        2540.902          44.100


 128633483.381 6 100233931.86446  24478132.320                    24478142.040
      3880.146        3023.501          39.650          39.750    96057525.273 7
  24478142.060        2897.601          44.000


 134326773.445 6 104670246.91046  25561533.760                    25561539.000
     -2907.706       -2265.758          39.350          37.450   100308851.978 6
  25561545.460       -2171.372          41.350


 113177786.365 7  88190483.54347  21537016.740                    21537016.780
       661.972         515.821          47.900          47.350



 116856649.047 7  91057127.11347  22237079.160                    22237076.460
      2361.872        1840.419          46.200          43.150



 120694212.943 7  94047441.37647  22967346.240                    22967347.040
     -2552.930       -1989.300          46.350          43.300



 131613679.027 6 102556072.02245  25045265.100                    25045270.080
     -2307.611       -1798.146          39.150          34.650



 125682260.922 7  97934305.24346  23916523.500                    23916527.440
       848.010         660.789          42.550          39.350    93853724.486 7
  23916534.280         633.437          46.700


 126331865.093 6  98440453.29046  24040144.520                    24040150.980
      2340.607        1823.857          41.350          41.250



 131621887.250 6 102562527.91746  25046819.720                    25046825.320
     -3285.239       -2559.933          41.650          41.550    98289083.405 7
  25046827.540       -2453.211          43.050


 23  9 10  9 42  0.0000000  0 13G02G03G04G06G09G14G17G19G21G22G28G31
                                G32
 117016171.544 8  91181429.07647  22267436.780                    22267435.320
     -2292.306       -1786.214          48.950          46.100



 105847409.280 8  82478519.05448  20142086.640                    20142088.520
       136.260         106.176          50.650          50.700    79041916.787 9
  20142089.980         101.774          56.650


 117243430.966 7  91358557.63647  22310669.420                    22310671.920
      3207.287        2499.189          46.550          43.950    87551980.376 8
  22310678.460        2395.056          49.050


 130366605.624 6 101584391.98446  24807942.480                    24807948.540
      3402.128        2651.011          38.900          38.300    97351719.635 7
  24807950.080        2540.831          44.050


 128517103.931 6 100143246.91446  24455985.980                    24455995.580
      3878.161        3021.955          40.250          39.850    95970618.933 7
  24455995.560        2895.797          44.050


 134414003.106 7 104738204.25246  25578134.120                    25578139.460
     -2908.360       -2266.261          42.150          41.050   100373996.869 7
  25578146.500       -2171.907          45.600


 113158189.299 8  88175213.09047  21533287.560                    21533287.420
       644.053         501.858          48.100          47.250



 116786036.962 7  91002104.73347  22223642.140                    22223639.340
      2345.112        1827.361          46.450          43.900



 120770894.975 7  94107193.50447  22981938.440                    22981939.160
     -2559.365       -1994.314          46.450          43.150



 131683009.127 6 102610095.31346  25058458.100                    25058462.700
     -2314.594       -1803.587          39.650          38.700



 125657076.296 7  97914680.94546  23911731.200                    23911734.740
       830.573         647.203          42.600          40.200    93834917.881 7
  23911741.260         620.155          46.350


 126261831.012 6  98385881.44846  24026817.220                    24026823.760
      2327.916        1813.966          40.950          40.600



 131720530.548 7 102639392.76347  25065591.100                    25065596.400
     -3291.409       -2564.735          42.350          42.500    98362745.492 7
  25065598.780       -2457.632          42.950


 23  9 10  9 42 30.0000000  0 13G02G03G04G06G09G14G17G19G21G22G28G31
                                G32
 117085084.797 8  91235127.62047  22280550.600                    22280549.140
     -2302.439       -1794.111          50.050          45.850



 105843529.387 8  82475495.74448  20141348.300                    20141350.200
       121.792          94.902          50.800          50.900    79039019.449 9
  20141351.660          90.996          56.800


 117147362.504 7  91283699.19747  22292388.040                    22292390.740
      3196.499        2490.782          46.350          44.200    87480241.056 8
  22292396.780        2387.163          49.550


 130264531.926 6 101504854.04946  24788518.460                    24788524.460
      3401.854        2650.793          39.650          38.550    97275495.775 7
  24788526.260        2540.347          44.250


 128400796.470 6 100052617.98646  24433853.300                    24433862.340
      3875.219        3019.663          41.250          41.150    95883766.294 7
  24433862.480        2893.934          44.350


 134501264.562 6 104806200.12246  25594739.500                    25594745.080
     -2909.624       -2267.251          40.650          37.750   100439159.521 7
  25594752.200       -2172.739          43.350


 113139137.689 8  88160367.66147  21529662.240                    21529661.960
       625.517         487.414          48.800          47.250



 116715931.814 7  90947477.35047  22210301.720                    22210298.860
      2327.930        1813.971          46.900          43.900



 120847773.561 7  94167098.77947  22996568.100                    22996568.820
     -2566.266       -1999.691          47.250          42.400



 131752548.725 6 102664281.86446  25071691.200                    25071695.380
     -2321.783       -1809.185          40.850          36.300



 125632430.642 7  97895476.62146  23907041.300                    23907044.780
       812.321         632.980          43.000          39.200    93816513.761 7
  23907050.920         606.388          46.250


 126192170.858 6  98331600.97546  24013561.280                    24013567.840
      2315.246        1804.093          41.300          41.450



 131819357.373 7 102716400.58147  25084397.340                    25084402.600
     -3297.751       -2569.680          43.100          43.350    98436544.652 7
  25084404.940       -2462.465          42.950


 23  9 10  9 43  0.0000000  0 13G02G03G04G06G09G14G17G19G21G22G28G31
                                G32
 117154289.234 8  91289053.08247  22293719.940                    22293718.480
     -2311.825       -1801.425          50.350          45.650



 105840071.884 8  82472801.57848  20140690.300                    20140692.220
       107.988          84.146          50.850          50.900    79036437.533 9
  20140693.680          80.727          56.800


 117051603.293 7  91209081.74247  22274165.500                    22274168.460
      3186.670        2483.123          46.700          44.350    87408732.693 8
  22274174.200        2379.638          49.500


 130162465.040 6 101425321.41346  24769095.800                    24769101.760
      3401.884        2650.817          39.400          38.900    97199276.991 7
  24769103.860        2540.487          44.950


 128284562.303 6  99962046.19446  24411734.500                    24411743.180
      3873.093        3018.002          40.650          40.500    95796968.430 7
  24411743.500        2892.368          42.900



                                                                 100504337.658 5
  25611361.820       -2172.850          35.550


 113120631.104 8  88145946.92747  21526140.640                    21526140.320
       607.589         473.445          48.950          47.400



 116646335.488 7  90893246.46547  22197058.160                    22197055.180
      2311.208        1800.942          46.950          43.350



 120924846.815 7  94227155.74347  23011234.800                    23011235.540
     -2572.587       -2004.616          47.850          42.200



 131822294.402 6 102718628.99345  25084963.500                    25084967.320
     -2328.590       -1814.489          40.100          34.250



 125608324.423 7  97876692.62046  23902454.000                    23902457.540
       794.199         618.856          43.350          40.100    93798512.426 7
  23902463.260         593.294          46.200


 126122886.789 6  98277613.55246  24000376.900                    24000383.200
      2302.776        1794.378          41.150          41.200



 131918364.352 7 102793548.81047  25103237.800                    25103243.020
     -3303.457       -2574.123          43.400          42.600    98510478.350 7
  25103245.440       -2466.613          42.800


 23  9 10  9 43 30.0000000  0 13G02G03G04G06G09G14G17G19G21G22G28G31
                                G32
 117223785.147 8  91343205.65547  22306944.740                    22306943.320
     -2321.192       -1808.724          49.850          46.350



 105837037.156 8  82470436.85548  20140112.880                    20140114.620
        94.238          73.433          51.150          51.050    79034171.337 9
  20140116.140          70.411          56.750


 116956156.606 7  91134707.82247  22256002.460                    22256005.700
      3176.631        2475.301          46.550          44.250    87337457.700 8
  22256010.820        2372.070          49.750


 130060407.107 6 101345795.74546  24749674.800                    24749680.640
      3402.062        2650.955          40.250          40.000    97123064.929 7
  24749683.140        2540.365          45.450


 128168404.552 6  99871533.99946  24389630.120                    24389639.100
      3870.682        3016.124          40.650          40.550    95710227.599 7
  24389639.120        2890.471          44.200


                                  25627961.960                    25627966.420
     -2910.297       -2267.760          34.050          31.700   100569681.446 6
  25627976.080       -2173.083          40.050


 113102671.029 8  88131952.05347  21522723.080                    21522722.780
       589.673         459.485          49.000          47.600



 116577251.097 7  90839414.48247  22183911.960                    22183908.940
      2294.481        1787.907          46.700          43.900



 121002114.765 7  94287364.40747  23025938.540                    23025939.200
     -2578.809       -2009.467          47.400          42.550



 131892244.179 6 102773135.16746  25098274.700                    25098278.380
     -2335.045       -1819.522          41.250          36.300



 125584759.856 7  97858330.68946  23897969.600                    23897973.380
       776.859         605.346          43.150          41.000    93780915.605 7
  23897978.880         579.845          46.350


 126053982.351 6  98223921.96946  23987264.680                    23987270.940
      2290.795        1785.041          41.650          41.550



 132017549.985 7 102870836.25346  25122112.280                    25122117.400
     -3308.709       -2578.216          42.550          41.900    98584545.472 7
  25122120.060       -2470.928          42.700


 23  9 10  9 44  0.0000000  0 12G02G03G04G06G09G17G19G21G22G28G31G32
 117293569.782 8  91397583.20747  22320224.380                    22320223.240
     -2330.736       -1816.160          49.750          46.700



 105834422.552 8  82468399.49548  20139615.380                    20139617.060
        80.446          62.686          51.250          51.450    79032218.871 9
  20139618.440          60.015          56.400


 116861022.760 7  91060577.64847  22237899.040                    22237902.580
      3166.191        2467.165          46.650          44.700    87266416.319 8
  22237907.320        2364.273          49.800


 129958357.321 6 101266276.44246  24730255.340                    24730261.120
      3401.522        2650.536          40.400          39.900    97046858.911 7
  24730263.920        2540.269          45.450


 128052323.326 6  99781081.41146  24367540.460                    24367549.340
      3868.052        3014.075          41.750          41.600    95623543.916 7
  24367549.060        2888.560          43.000


 113085256.546 8  88118382.31647  21519409.340                    21519409.080
       571.607         445.408          49.100          47.600



 116508679.217 7  90785981.86247  22170863.160                    22170860.340
      2277.349        1774.558          46.550          44.700



 121079574.810 7  94347722.77747  23040678.840                    23040679.520
     -2585.060       -2014.336          47.050          43.050



 131962393.377 6 102827796.73245  25111623.780                    25111627.460
     -2341.182       -1824.305          40.950          34.150



 125561736.216 7  97840390.26846  23893588.220                    23893592.320
       758.725         591.218          42.850          40.150    93763722.690 7
  23893597.620         566.487          46.700


 125985458.612 7  98170527.02447  23974224.980                    23974230.900
      2278.058        1775.116          42.650          42.850



 132116909.823 7 102948259.42347  25141019.840                    25141024.960
     -3314.598       -2582.807          43.750          43.600    98658742.659 7
  25141027.740       -2475.306          42.300


 23  9 10  9 44 30.0000000  0 12G02G03G04G06G09G17G19G21G22G28G31G32
 117363646.059 8  91452187.99947  22333559.520                    22333558.560
     -2340.746       -1823.962          49.300          46.600



 105832231.142 8  82466691.89748  20139198.360                    20139200.160
        65.941          51.383          51.000          50.900    79030582.418 9
  20139201.340          49.282          56.400


 116766207.655 7  90986695.86347  22219856.200                    22219859.960
      3155.072        2458.501          46.500          44.900    87195612.955 8
  22219864.200        2356.064          49.400


 129856320.445 6 101186767.19746  24710838.100                    24710844.040
      3401.002        2650.131          39.050          38.650    96970662.571 7
  24710847.080        2539.666          45.400


 127936324.529 6  99690693.01446  24345466.440                    24345475.000
      3865.115        3011.784          41.250          41.150    95536921.793 7
  24345475.000        2886.239          44.050


 113068391.944 8  88105241.06047  21516200.260                    21516200.020
       552.888         430.821          48.850          47.700



 116440625.648 7  90732953.12847  22157912.900                    22157910.420
      2259.812        1760.893          45.750          45.150



 121157229.733 7  94408232.98447  23055456.200                    23055457.000
     -2591.923       -2019.685          47.100          43.450



 132032742.781 6 102882614.33346  25125011.080                    25125014.920
     -2348.521       -1830.021          40.550          36.200



 125539258.404 7  97822875.11046  23889310.800                    23889314.980
       740.215         576.790          42.350          39.000    93746937.358 7
  23889320.360         552.637          46.750


 125917322.256 7  98117433.92547  23961259.020                    23961264.460
      2264.493        1764.545          43.300          43.150



 132216444.916 7 103025819.18147  25159960.800                    25159965.680
     -3320.779       -2587.622          43.500          43.700    98733070.725 6
  25159968.720       -2479.762          41.550


 23  9 10  9 45  0.0000000  0 12G02G03G04G06G09G17G19G21G22G28G31G32
 117434014.326 8  91507020.34647  22346950.220                    22346949.320
     -2350.365       -1831.456          49.550          46.250



 105830463.650 8  82465314.62248  20138861.940                    20138863.920
        51.937          40.470          50.900          50.950    79029262.534 9
  20138865.080          38.797          56.650


 116671714.937 7  90913065.28047  22201874.760                    22201878.860
      3144.466        2450.238          45.850          45.300    87125050.346 8
  22201882.600        2348.131          50.050


 129754299.118 6 101107270.10246  24691423.980                    24691429.640
      3399.927        2649.298          37.950          37.600    96894477.802 7
  24691433.060        2539.284          45.000


 127820411.629 6  99600371.55746  24323408.540                    24323417.040
      3862.582        3009.812          39.900          39.400    95450363.823 7
  24323417.120        2884.155          43.650


 113052079.001 8  88092529.66348  21513096.060                    21513095.860
       534.694         416.645          49.200          48.000



 116373094.307 7  90680331.32847  22145062.060                    22145059.900
      2242.369        1747.301          45.850          45.250



 121235080.212 7  94468895.59447  23070270.880                    23070271.620
     -2598.163       -2024.546          46.750          42.700



 132103290.826 6 102937586.70945  25138436.020                    25138439.800
     -2354.638       -1834.788          41.250          35.450



 125517328.936 7  97805787.28346  23885137.720                    23885142.020
       722.034         562.627          42.350          39.750    93730561.533 7
  23885147.440         539.147          46.600


 125849577.318 7  98064645.83047  23948367.720                    23948372.580
      2251.926        1754.753          43.300          42.900



 132316154.251 7 103103514.68947  25178934.880                    25178939.740
     -3326.500       -2592.082          42.550          42.600    98807528.904 6
  25178942.820       -2483.952          41.650


 23  9 10  9 45 30.0000000  0 12G02G03G04G06G09G17G19G21G22G28G31G32
 117504671.875 8  91562078.09647  22360395.960                    22360395.220
     -2360.951       -1839.705          49.300          46.400



 105829117.221 8  82464265.44248  20138605.680                    20138607.680
        37.091          28.901          50.550          50.650    79028257.076 9
  20138608.980          27.692          56.400


 116577544.720 7  90839685.99247  22183954.700                    22183958.940
      3132.727        2441.088          45.950          45.850    87054728.558 8
  22183962.300        2339.423          49.300


 129652292.132 6 101027784.18246  24672012.540                    24672018.020
      3399.331        2648.829          38.550          38.550    96818303.839 7
  24672021.720        2538.360          44.950


 127704584.659 6  99510117.09246  24301367.140                    24301375.860
      3858.617        3006.724          40.400          40.250    95363869.981 7
  24301375.740        2881.429          43.850


 113036316.327 8  88080247.04647  21510096.600                    21510096.340
       515.428         401.633          49.650          47.800



 116306085.531 7  90628116.73947  22132310.680                    22132308.800
      2224.161        1733.113          46.150          45.850



 121313123.101 7  94529708.12847  23085122.180                    23085122.960
     -2605.514       -2030.273          47.000          43.350



 132174032.560 6 102992710.02145  25151897.940                    25151901.980
     -2361.899       -1840.448          40.700          34.300



 125495946.827 7  97789125.96746  23881068.880                    23881073.100
       702.660         547.530          42.550          40.750    93714594.429 7
  23881078.460         524.854          46.100


 125782224.608 7  98012163.34647  23935550.960                    23935555.380
      2237.664        1743.639          42.900          42.950



 132416033.048 7 103181342.26147  25197941.200                    25197945.900
     -3332.875       -2597.048          43.000          42.950    98882113.651 6
  25197949.080       -2488.763          41.300


 23  9 10  9 46  0.0000000  0 12G02G03G04G06G09G17G19G21G22G28G31G32
 117575617.087 8  91617360.00647  22373896.420                    22373895.820
     -2369.691       -1846.515          49.600          45.800



 105828190.398 8  82463543.23648  20138429.360                    20138431.240
        23.781          18.530          51.100          50.850    79027564.956 9
  20138432.620          17.834          56.450


 116483698.391 7  90766559.10447  22166096.220                    22166100.740
      3122.766        2433.329          46.450          45.750    86984648.635 8
  22166103.480        2331.945          49.700


 129550299.989 6 100948309.82246  24652604.140                    24652609.540
      3399.395        2648.880          39.550          37.750    96742140.916 7
  24652613.160        2538.530          44.700


 127588844.923 6  99419930.54346  24279342.440                    24279350.900
      3856.487        3005.064          40.200          40.050    95277441.254 7
  24279350.780        2879.774          42.950


 113021103.667 8  88068393.00447  21507201.860                    21507201.360
       497.815         387.908          50.050          47.100



 116239600.777 7  90576310.45547  22119659.060                    22119657.280
      2207.192        1719.891          47.000          45.300



 121391356.882 7  94590669.39547  23100009.800                    23100010.540
     -2611.092       -2034.620          47.300          43.250



 132244964.441 6 103047981.53446  25165395.940                    25165400.220
     -2367.405       -1844.731          41.100          37.650



 125475112.377 7  97772891.39046  23877104.200                    23877108.360
       685.410         534.086          42.800          38.950    93699036.306 7
  23877113.460         511.747          45.900


 125715266.168 7  97959988.08047  23922809.340                    23922813.200
      2225.262        1733.975          43.600          43.950



 132516078.037 7 103259299.34047  25216979.160                    25216983.680
     -3337.727       -2600.826          43.600          43.650    98956822.497 6
  25216986.900       -2492.507          40.850


 23  9 10  9 46 30.0000000  0 12G02G03G04G06G09G17G19G21G22G28G31G32
 117646850.877 8  91672866.77647  22387451.760                    22387451.300
     -2379.062       -1853.816          49.250          46.400



 105827684.315 8  82463148.88348  20138333.160                    20138334.900
         9.986           7.782          51.100          51.050    79027187.037 9
  20138336.320           7.461          56.500


 116390180.093 7  90693687.79847  22148300.200                    22148304.620
      3111.905        2424.864          46.100          45.850    86914813.664 8
  22148307.340        2323.825          49.400


 129448325.729 6 100868849.38246  24633199.180                    24633204.320
      3399.073        2648.630          40.150          39.300    96665991.344 7
  24633207.960        2538.256          44.350


 127473196.377 6  99329815.06746  24257334.820                    24257343.320
      3853.854        3003.011          39.800          40.000    95191080.684 7
  24257343.540        2877.641          43.250


 113006443.621 8  88056969.57547  21504412.280                    21504411.480
       479.601         373.715          50.550          47.150



 116173644.323 7  90524915.83647  22107107.980                    22107106.160
      2189.883        1706.403          46.600          45.950



 121469783.039 7  94651780.58247  23114933.940                    23114934.600
     -2617.191       -2039.374          47.100          43.000



 132316085.253 6 103103400.22645  25178929.940                    25178934.580
     -2373.692       -1849.635          41.550          35.850



 125454828.621 7  97757085.91346  23873244.380                    23873248.560
       666.917         519.678          43.100          40.350    93683889.381 7
  23873253.380         498.086          45.950


 125648706.869 7  97908123.80947  23910143.620                    23910147.100
      2212.083        1723.706          43.150          42.950



 132616288.515 7 103337385.37447  25236048.580                    25236052.800
     -3342.831       -2604.806          43.550          43.650    99031654.931 6
  25236056.060       -2496.420          41.250


 23  9 10  9 47  0.0000000  0 12G02G03G04G06G09G17G19G21G22G28G31G32
 117718373.008 8  91728598.22847  22401062.000                    22401061.600
     -2388.878       -1861.466          49.450          45.900



 105827598.994 8  82463082.39648  20138317.020                    20138318.640
        -4.113          -3.205          51.000          51.000    79027123.323 9
  20138320.120          -3.076          56.600


 116296992.698 7  90621074.34747  22130567.180                    22130571.560
      3100.736        2416.161          46.250          45.900    86845225.787 8
  22130573.840        2315.497          49.700


 129346371.175 6 100789404.29046  24613798.140                    24613802.740
      3398.119        2647.885          40.750          38.900    96589856.463 7
  24613806.540        2537.706          44.400


 127357641.928 6  99239772.90246  24235345.300                    24235353.680
      3850.214        3000.173          40.050          39.750    95104790.316 7
  24235353.720        2875.166          43.750


 112992337.125 8  88045977.48247  21501728.060                    21501726.940
       461.025         359.239          50.800          47.050



 116108219.099 7  90473935.16147  22094657.920                    22094656.080
      2172.065        1692.521          46.700          45.800



 121548400.611 7  94713040.91747  23129894.460                    23129895.220
     -2623.769       -2044.500          46.900          42.200



 132387392.852 7 103158964.46246  25192499.360                    25192504.760
     -2379.825       -1854.411          42.300          36.050



 125435097.253 7  97741710.85846  23869489.760                    23869493.560
       648.426         505.268          43.300          40.650    93669154.961 7
  23869498.620         484.272          46.300


 125582549.901 6  97856573.05046  23897554.360                    23897557.800
      2198.481        1713.106          41.250          41.800



 132716662.667 7 103415598.93447  25255149.200                    25255153.280
     -3348.413       -2609.157          43.400          42.800    99106609.607 6
  25255156.400       -2500.389          40.600


 23  9 10  9 47 30.0000000  0 12G02G03G04G06G09G17G19G21G22G28G31G32
 117790178.246 8  91784550.28247  22414726.120                    22414725.520
     -2398.070       -1868.629          49.400          45.550



 105827929.231 8  82463339.72148  20138379.900                    20138381.440
       -17.773         -13.849          51.050          51.100    79027369.923 9
  20138382.860         -13.289          56.550


 116204133.889 7  90548716.93747  22112896.740                    22112900.840
      3089.922        2407.733          47.150          45.000    86775883.298 8
  22112903.420        2307.371          49.900


 129244432.922 6 100709971.93446  24594400.060                    24594404.600
      3397.615        2647.491          40.950          38.850    96513733.799 7
  24594408.460        2537.220          44.250


 127242179.156 6  99149802.15446  24213373.320                    24213381.580
      3847.377        2997.967          39.550          39.400    95018568.413 7
  24213381.840        2872.892          44.200


 112978780.234 8  88035413.65047  21499148.400                    21499147.140
       442.805         345.042          51.200          46.700



 116043322.788 7  90423366.62547  22082308.440                    22082306.540
      2154.512        1678.841          46.150          45.400



 121627204.495 7  94774446.43346  23144890.420                    23144891.180
     -2629.725       -2049.140          47.400          41.950



 132458879.956 7 103214668.60545  25206103.180                    25206108.440
     -2385.831       -1859.092          42.000          31.850



 125415914.860 7  97726763.52846  23865839.400                    23865843.000
       630.581         491.361          42.850          39.850    93654830.478 7
  23865848.640         470.700          47.100


 125516793.363 6  97805334.31046  23885041.020                    23885044.760
      2185.348        1702.873          39.500          39.700



 132817193.495 7 103493934.61347  25274279.600                    25274283.420
     -3353.509       -2613.120          42.850          42.450    99181681.239 6
  25274286.540       -2504.250          39.700


 23  9 10  9 48  0.0000000  0 12G02G03G04G06G09G17G19G21G22G28G31G32
 117862271.079 8  91840726.43247  22428445.000                    22428444.320
     -2407.719       -1876.146          49.550          45.050



 105828679.663 8  82463924.46948  20138522.720                    20138524.220
       -31.902         -24.859          51.450          51.450    79027930.307 9
  20138525.520         -23.809          56.200


 116111611.254 7  90476621.47847  22095290.260                    22095294.120
      3078.520        2398.851          46.800          45.800    86706791.822 8
  22095296.680        2298.999          49.700


 129142517.574 6 100630557.38946  24575006.280                    24575010.780
      3397.138        2647.119          40.850          38.300    96437628.215 7
  24575014.580        2536.666          43.600


 127126815.562 6  99059908.66746  24191420.280                    24191428.360
      3843.750        2995.137          40.700          40.500    94932420.496 7
  24191428.680        2870.441          44.250


 112965778.898 8  88025282.72147  21496674.400                    21496673.220
       424.208         330.551          51.350          47.200



 115978963.078 7  90373216.21847  22070061.040                    22070059.180
      2136.551        1664.845          45.650          45.400



 121706199.255 7  94836000.67647  23159922.680                    23159923.600
     -2636.212       -2054.194          47.950          42.200



 132530548.802 7 103270514.34445  25219741.500                    25219746.480
     -2391.924       -1863.843          42.350          32.350



 125397287.840 7  97712249.01046  23862294.520                    23862298.020
       611.883         476.794          42.050          40.250    93640920.698 7
  23862304.720         456.882          47.700


 125451445.938 6  97754414.38646  23872605.420                    23872609.460
      2171.516        1692.095          40.500          39.750



 132917883.877 7 103572394.54647  25293440.340                    25293444.320
     -3358.701       -2617.172          42.750          42.550    99256872.026 6
  25293447.000       -2508.182          39.650


 23  9 10  9 48 30.0000000  0 12G02G03G04G06G09G17G19G21G22G28G31G32
 117934648.701 8  91897124.49147  22442218.060                    22442217.200
     -2417.407       -1883.697          48.900          45.700



 105829847.547 8  82464834.50348  20138745.000                    20138746.440
       -45.965         -35.816          51.050          51.050    79028802.420 9
  20138747.720         -34.285          56.300


 116019424.991 7  90404788.10847  22077747.820                    22077751.240
      3067.151        2389.991          47.100          44.750    86637951.547 8
  22077754.400        2290.457          50.300


 129040624.301 6 100551160.09346  24555616.520                    24555621.520
      3395.831        2646.105          40.300          39.000    96361539.095 7
  24555625.000        2536.016          43.950


 127011551.194 6  98970092.47746  24169486.120                    24169494.100
      3840.677        2992.742          40.300          39.950    94846346.720 7
  24169494.520        2867.904          43.950


 112953331.582 8  88015583.51347  21494305.800                    21494304.760
       405.660         316.099          50.950          47.700



 115915140.294 7  90323484.20747  22057915.800                    22057914.040
      2118.521        1650.798          45.650          45.200



 121785382.069 7  94897701.45447  23174990.740                    23174991.660
     -2642.459       -2059.063          47.750          42.300



 132602394.704 6 103326498.07045  25233413.380                    25233418.300
     -2397.805       -1868.422          41.550          35.100



 125379215.140 7  97698166.41346  23858855.140                    23858858.220
       593.114         462.167          42.300          39.600    93627424.884 8
  23858866.340         442.959          48.450


 125386508.385 7  97703813.79246  23860248.200                    23860252.280
      2157.666        1681.302          42.000          41.450



 133018729.279 7 103650975.33047  25312630.580                    25312634.320
     -3364.350       -2621.571          42.400          42.050    99332178.575 6
  25312637.080       -2512.217          40.550


 23  9 10  9 49  0.0000000  0 12G02G03G04G06G09G17G19G21G22G28G31G32
 118007309.751 8  91953743.40747  22456045.060                    22456044.080
     -2426.402       -1890.706          48.600          45.700



 105831431.707 8  82466068.91948  20139046.460                    20139047.900
       -59.343         -46.240          50.650          50.600    79029985.408 9
  20139049.180         -44.357          56.600


 115927576.766 7  90333218.16347  22060269.720                    22060272.860
      3056.439        2381.645          47.400          44.700    86569363.707 8
  22060276.320        2282.279          50.350


 128938753.778 6 100471780.47346  24536231.160                    24536236.520
      3395.790        2646.071          40.350          37.250    96285466.998 7
  24536239.720        2535.733          44.100


 126896387.856 6  98880355.00446  24147571.180                    24147579.120
      3837.492        2990.262          40.200          40.100    94760348.359 7
  24147579.640        2865.567          44.950


 112941438.138 8  88006315.88348  21492042.580                    21492041.740
       387.586         302.014          50.650          48.000



 115851856.033 7  90274171.81247  22045873.180                    22045871.460
      2100.816        1637.000          45.850          44.350



 121864751.634 7  94959547.74946  23190094.420                    23190095.400
     -2648.409       -2063.699          47.500          41.600



 132674414.192 6 103382617.06845  25247118.320                    25247123.060
     -2403.096       -1872.542          41.100          32.300



 125361697.313 7  97684516.18646  23855521.680                    23855524.340
       575.093         448.126          43.150          39.400    93614343.414 8
  23855533.320         429.423          48.650


 125321982.632 6  97653534.05647  23847969.260                    23847973.360
      2144.479        1671.025          41.650          42.050



 133119726.749 6 103729674.56146  25331849.800                    25331853.760
     -3368.639       -2624.920          41.300          41.650    99407598.654 6
  25331856.140       -2515.561          40.650


 23  9 10  9 49 30.0000000  0 12G02G03G04G06G09G17G19G21G22G28G31G32
 118080255.839 8  92010584.42447  22469926.300                    22469925.300
     -2435.930       -1898.130          49.150          44.850



 105833433.946 8  82467629.10848  20139427.460                    20139428.940
       -73.398         -57.193          51.150          51.250    79031480.585 9
  20139430.200         -54.776          56.550


 115836071.341 7  90261915.31847  22042856.760                    22042859.560
      3044.803        2372.577          47.500          45.000    86501031.826 8
  22042863.640        2273.707          50.800


 128836909.822 6 100392421.57146  24516850.980                    24516856.460
      3394.697        2645.222          41.150          38.900    96209414.711 7
  24516859.520        2534.931          43.500


 126781330.121 6  98790699.78146  24125676.320                    24125684.180
      3833.851        2987.422          40.650          40.900    94674428.794 7
  24125684.900        2862.954          45.200


 112930101.558 8  87997482.17647  21489885.240                    21489884.620
       368.910         287.463          50.850          47.800



 115789115.389 7  90225283.01347  22033934.140                    22033932.420
      2082.674        1622.863          46.150          44.300



 121944309.436 7  95021540.73646  23205233.940                    23205234.820
     -2654.689       -2068.593          47.700          41.650



 132746606.826 6 103438870.99346  25260856.040                    25260860.680
     -2408.942       -1877.095          40.550          38.000



 125344737.814 7  97671301.00346  23852294.660                    23852296.920
       556.486         433.625          44.000          40.100    93601678.850 8
  23852306.060         415.565          48.250


 125257874.390 7  97603579.65147  23835769.600                    23835773.820
      2130.271        1659.954          42.350          42.100



 133220876.279 6 103808492.32746  25351098.000                    25351102.000
     -3373.651       -2628.821          41.150          41.700    99483132.321 6
  25351104.380       -2519.358          39.850


 23  9 10  9 50  0.0000000  0 12G02G03G04G06G09G17G19G21G22G28G31G32
 118153485.533 8  92067646.44047  22483861.640                    22483860.300
     -2445.750       -1905.781          49.400          44.350



 105835853.076 8  82469514.14348  20139887.740                    20139889.360
       -87.724         -68.355          50.900          51.000    79033287.072 9
  20139890.540         -65.467          56.800


 115744910.365 7  90190880.87347  22025509.360                    22025511.960
      3032.854        2363.266          47.850          44.750    86432957.173 8
  22025516.500        2264.802          50.700


 128735093.126 6 100313083.91246  24497475.960                    24497481.840
      3393.521        2644.303          41.850          39.250    96133382.792 7
  24497484.140        2533.965          43.500


 126666379.694 6  98701128.18646  24103801.980                    24103809.840
      3829.500        2984.031          41.800          41.900    94588589.366 7
  24103810.640        2859.848          45.300


 112919321.625 8  87989082.21647  21487833.820                    21487833.280
       349.938         272.679          50.950          47.000



 115726920.074 7  90176819.13747  22022098.940                    22022097.180
      2063.937        1608.263          47.500          43.650



 122024054.195 7  95083679.40246  23220408.920                    23220409.820
     -2661.289       -2073.734          47.850          40.550



 132818969.587 6 103495257.39145  25274626.240                    25274630.940
     -2414.909       -1881.751          40.700          31.100



 125328337.176 7  97658521.29846  23849174.020                    23849176.300
       537.232         418.624          43.950          39.550    93589431.621 8
  23849184.820         401.197          48.350


 125194185.685 7  97553952.17547  23823649.860                    23823654.220
      2115.835        1648.706          43.150          43.300



 133322174.967 6 103887426.28446  25370374.580                    25370378.660
     -3379.234       -2633.171          41.600          41.700    99558777.357 6
  25370380.900       -2523.273          40.300


 23  9 10  9 50 30.0000000  0 12G02G03G04G06G09G17G19G21G22G28G31G32
 118226996.306 8  92124927.46547  22497850.440                    22497849.020
     -2454.841       -1912.866          49.550          44.100



 105838686.677 8  82471722.14948  20140426.920                    20140428.680
      -101.147         -78.816          51.450          51.350    79035403.069 9
  20140429.820         -75.499          56.450


 115654094.408 7  90120115.28147  22008227.600                    22008230.000
      3021.641        2354.527          47.800          44.350    86365140.146 8
  22008234.860        2256.493          50.550


 128633303.255 6 100233767.14846  24478106.020                    24478111.780
      3392.764        2643.714          41.750          38.500    96057370.890 7
  24478113.760        2533.596          42.850


 126551537.013 6  98611640.52046  24081948.020                    24081956.180
      3826.789        2981.917          41.300          40.600    94502830.400 7
  24081956.880        2857.533          45.000


 112909097.402 8  87981115.27447  21485888.180                    21485887.600
       331.813         258.555          50.900          47.050



 115665270.313 7  90128780.36747  22010367.480                    22010365.840
      2046.246        1594.477          47.300          44.800



 122103983.476 7  95145961.83846  23235619.000                    23235619.920
     -2666.922       -2078.123          47.100          41.150



 132891497.844 6 103551772.85746  25288428.000                    25288432.100
     -2419.964       -1885.687          39.800          36.350



 125312494.629 7  97646176.45246  23846159.400                    23846161.820
       518.892         404.332          43.850          38.900    93577601.136 7
  23846169.620         387.642          47.900


 125130917.649 7  97504652.47047  23811610.300                    23811614.480
      2102.234        1638.106          44.250          44.250



 133423618.682 6 103966473.25347  25389678.760                    25389683.160
     -3383.585       -2636.562          41.500          42.150    99634530.694 6
  25389685.080       -2526.681          39.350


 23  9 10  9 51  0.0000000  0 13G02G03G04G06G09G12G17G19G21G22G28G31
                                G32
 118300786.820 8  92182426.49247  22511892.440                    22511890.780
     -2464.354       -1920.278          49.050          44.500



 105841933.378 8  82474252.04148  20141044.700                    20141046.620
      -115.179         -89.750          50.950          50.800    79037827.549 9
  20141047.760         -86.012          56.550


 115563624.949 7  90049619.67247  21991011.700                    21991013.940
      3009.844        2345.336          47.050          44.950    86297581.885 8
  21991019.280        2247.635          50.350


 128531540.856 6 100154471.79546  24458741.360                    24458746.980
      3391.473        2642.709          41.900          38.300    95981379.511 7
  24458748.820        2532.664          42.700


 126436803.666 6  98522238.04947  24060114.840                    24060123.220
      3822.666        2978.705          41.700          42.000    94417153.055 7
  24060124.020        2854.455          44.850


                                  25610365.680
      1234.047                          37.950



 112899428.515 8  87973581.05647  21484048.220                    21484047.480
       312.952         243.858          50.700          47.050



 115604167.816 7  90081168.03847  21998740.180                    21998738.520
      2027.738        1580.057          47.650          44.600



 122184095.769 7  95208386.90547  23250863.840                    23250864.700
     -2673.696       -2083.403          46.450          42.300



 132964187.902 6 103608414.30345  25302260.280                    25302264.900
     -2425.653       -1890.127          39.700          34.500



 125297210.411 7  97634266.65146  23843250.720                    23843253.740
       500.037         389.640          42.200          39.000    93566187.593 7
  23843260.660         373.494          47.750


 125068072.606 7  97455682.37647  23799651.380                    23799655.380
      2087.961        1626.985          43.200          43.500



 133525204.322 6 104045630.82446  25409009.860                    25409014.480
     -3388.479       -2640.376          40.650          40.200    99710389.995 6
  25409016.540       -2530.341          39.950


 23  9 10  9 51 30.0000000  0 13G02G03G04G06G09G12G17G19G21G22G28G31
                                G32
 118374856.811 8  92240143.27347  22525987.480                    22525985.860
     -2473.726       -1927.581          48.950          45.300



 105845593.255 8  82477103.90248  20141741.140                    20141743.240
      -128.945        -100.477          50.950          51.100    79040560.584 9
  20141744.260         -96.267          56.550


 115473505.024 7  89979396.42847  21973862.300                    21973864.440
      2998.259        2336.308          47.050          44.800    86230284.615 8
  21973869.880        2238.830          50.350


 128429807.944 7 100075199.41646  24439382.140                    24439387.660
      3390.794        2642.177          42.350          38.350    95905410.166 7
  24439389.580        2531.919          42.600


 126322182.540 6  98432922.99246  24038303.000                    24038311.320
      3818.901        2975.771          41.050          41.500    94331559.503 7
  24038312.540        2851.646          45.600


 134546627.549 5 104841555.46854  25603372.200                    25603378.760
      1216.066         947.584          34.350          27.000



 112890316.239 8  87966480.55747  21482314.180                    21482313.380
       294.433         229.428          50.200          47.600



 115543615.771 7  90033984.63047  21987217.480                    21987215.880
      2009.139        1565.562          47.200          46.150



 122264391.059 7  95270954.54546  23266143.500                    23266144.340
     -2679.669       -2088.057          47.000          40.600



 133037037.641 6 103665180.25445  25316123.020                    25316127.500
     -2431.148       -1894.405          39.800          34.750



 125282486.280 6  97622793.27046  23840448.560                    23840452.040
       481.737         375.377          41.300          38.700    93555192.298 7
  23840458.320         359.542          47.650


 125005653.804 7  97407044.42147  23787773.480                    23787777.360
      2073.550        1615.756          43.600          43.600



 133626930.297 6 104124897.71846  25428367.820                    25428372.520
     -3393.269       -2644.109          40.550          40.150    99786354.113 6
  25428374.560       -2533.979          40.700


 23  9 10  9 52  0.0000000  0 13G02G03G04G06G09G12G17G19G21G22G28G31
                                G32
 118449213.240 8  92298083.24947  22540136.900                    22540135.560
     -2483.327       -1935.063          48.800          44.650



 105849673.498 8  82480283.30248  20142517.620                    20142519.900
      -142.945        -111.386          51.050          51.100    79043607.515 9
  20142520.680        -106.783          56.700


 115383744.639 7  89909453.34047  21956781.380                    21956783.340
      2986.009        2326.762          47.050          44.100    86163255.826 8
  21956789.140        2229.800          50.550


 128328113.751 6  99995957.24145  24420030.200                    24420035.740
      3389.162        2640.907          41.900          33.750    95829469.730 7
  24420038.080        2530.928          43.300


 126207683.720 6  98343703.23746  24016514.420                    24016522.840
      3814.604        2972.425          41.050          41.050    94246057.249 7
  24016524.240        2848.554          46.200


 134510420.255 6 104813327.91445  25596483.140                    25596485.500
      1197.754         933.313          37.650          35.100



 112881768.588 8  87959820.03347  21480687.600                    21480686.760
       275.568         214.729          50.000          47.500



 115483624.131 7  89987237.91247  21975801.300                    21975799.860
      1990.432        1550.985          46.950          45.900



 122344876.401 7  95333670.27546  23281459.340                    23281460.360
     -2686.009       -2092.997          46.700          41.150



 133110052.184 6 103722074.58645  25330017.320                    25330021.620
     -2436.684       -1898.719          38.500          33.550



 125268330.962 6  97611763.13546  23837754.580                    23837758.420
       462.385         360.298          41.300          37.600    93544621.760 7
  23837764.260         345.246          47.650


 124943672.004 7  97358746.98747  23775978.740                    23775982.600
      2058.697        1604.183          43.750          44.350



 133728801.997 6 104204278.21946  25447753.460                    25447758.340
     -3398.082       -2647.861          41.550          41.650    99862427.053 6
  25447760.300       -2537.590          41.050


 23  9 10  9 52 30.0000000  0 13G02G03G04G06G09G12G17G19G21G22G28G31
                                G32
 118523843.690 8  92356236.75147  22554338.480                    22554337.260
     -2492.769       -1942.420          48.550          44.800



 105854161.577 8  82483780.51248  20143371.660                    20143374.000
      -156.873        -122.239          51.250          51.300    79046959.009 9
  20143374.720        -117.106          56.850


 115294334.193 7  89839782.93147  21939767.080                    21939768.900
      2974.005        2317.409          47.150          44.000    86096488.350 8
  21939774.700        2220.860          50.800


 128226447.754 6  99916737.02346  24400683.580                    24400688.760
      3387.938        2639.953          41.450          38.350    95753550.383 7
  24400691.880        2529.933          43.600


 126093297.631 6  98254571.30646  23994747.300                    23994755.880
      3810.360        2969.116          41.000          40.650    94160639.162 7
  23994757.280        2845.529          46.500


 134474746.915 6 104785530.57345  25589694.680                    25589695.580
      1179.599         919.161          38.700          35.700



 112873774.113 8  87953590.56047  21479166.240                    21479165.580
       256.813         200.113          49.950          47.700



 115424182.998 7  89940920.16347  21964489.820                    21964488.520
      1971.740        1536.421          46.950          45.750



 122425538.949 7  95396524.09646  23296808.900                    23296809.920
     -2692.264       -2097.871          46.800          39.600



 133183216.926 6 103779086.01045  25343940.220                    25343944.620
     -2441.712       -1902.629          38.100          34.700



 125254733.544 6  97601167.74346  23835166.820                    23835170.740
       443.356         345.472          41.300          37.350    93534467.839 7
  23835176.660         331.174          47.650


 124882118.029 7  97310782.91847  23764265.440                    23764269.160
      2043.746        1592.533          43.850          43.750



 133830805.200 6 104283761.20746  25467164.240                    25467169.040
     -3402.831       -2651.555          40.000          40.600    99938598.197 6
  25467171.180       -2541.130          41.600


 23  9 10  9 53  0.0000000  0 13G02G03G04G06G09G12G17G19G21G22G28G31
                                G32
 118598753.204 8  92414607.69247  22568593.240                    22568592.200
     -2501.426       -1949.167          48.750          44.700



 105859062.762 8  82487599.61648  20144304.320                    20144306.540
      -170.193        -132.618          50.800          50.750    79050618.986 9
  20144307.360        -127.007          56.300


 115205281.881 7  89770391.57047  21922820.960                    21922822.580
      2962.526        2308.465          47.100          44.550    86029988.314 8
  21922828.800        2212.323          50.750


 128124817.268 6  99837544.49546  24381343.820                    24381348.780
      3387.222        2639.395          40.600          38.850    95677657.539 7
  24381352.320        2529.396          43.250


 125979032.463 7  98165533.60047  23973003.300                    23973011.800
      3806.959        2966.463          42.300          42.050    94075311.373 7
  23973013.080        2842.725          45.700


 134439614.409 6 104758154.71546  25583009.040                    25583010.300
      1162.128         905.562          40.950          36.700



 112866339.323 8  87947797.20847  21477751.320                    21477750.860
       238.640         185.953          49.900          47.700



 115365300.867 7  89895038.00947  21953284.840                    21953283.640
      1953.655        1522.329          46.900          46.400



 122506383.994 7  95459520.09846  23312193.220                    23312194.520
     -2697.791       -2102.179          45.800          41.800



 133256535.016 6 103836216.84546  25357892.220                    25357897.080
     -2446.163       -1906.107          38.300          37.000



 125241700.904 7  97591012.38145  23832686.960                    23832690.160
       425.099         331.242          42.350          35.850    93524735.662 7
  23832696.720         317.418          47.300


 124821000.597 7  97263159.02047  23752635.240                    23752638.560
      2030.108        1581.905          43.500          43.800



 133932943.590 6 104363349.47746  25486600.560                    25486605.640
     -3406.784       -2654.640          40.300          40.500   100014870.317 6
  25486607.560       -2544.048          41.250


 23  9 10  9 53 30.0000000  0 13G02G03G04G06G09G12G17G19G21G22G28G31
                                G32
 118673941.705 8  92473196.04047  22582901.220                    22582900.420
     -2510.792       -1956.465          49.050          45.300



 105864377.377 8  82491740.86148  20145315.640                    20145317.720
      -184.013        -143.387          50.800          50.850    79054587.676 9
  20145318.640        -137.395          56.200


 115116590.856 7  89701281.72347  21905943.640                    21905945.320
      2950.396        2299.011          47.000          44.900    85963758.050 8
  21905951.360        2203.224          50.750


 128023224.589 6  99758381.41446  24362011.160                    24362015.800
      3385.781        2638.274          40.250          37.950    95601792.945 7
  24362019.920        2528.393          43.650


 125864891.401 6  98076592.58646  23951283.000                    23951291.120
      3802.667        2963.119          41.200          41.250    93990076.252 7
  23951292.700        2839.569          45.900


 134405025.135 6 104731202.01846  25576426.720                    25576428.240
      1144.183         891.578          38.350          37.150



 112859465.652 8  87942441.09147  21476443.280                    21476442.880
       219.872         171.328          50.050          47.650



 115306981.093 7  89849594.04447  21942186.980                    21942185.920
      1934.619        1507.495          47.800          46.200



 122587411.662 7  95522658.42846  23327612.400                    23327613.500
     -2704.010       -2107.024          45.600          40.650



 133330004.537 6 103893465.73746  25371873.140                    25371878.460
     -2451.369       -1910.160          37.700          36.850



 125229234.822 6  97581298.53346  23830314.980                    23830317.440
       406.326         316.614          41.700          38.650    93515426.554 7
  23830324.820         303.236          47.200


 124760323.672 7  97215878.39947  23741088.820                    23741091.980
      2015.452        1570.485          42.850          42.950



 134035215.753 6 104443042.02946  25506062.220                    25506067.500
     -3411.409       -2658.242          40.350          40.700   100091242.303 6
  25506069.480       -2547.118          40.300


 23  9 10  9 54  0.0000000  0 13G02G03G04G06G09G12G17G19G21G22G28G31
                                G32
 118749406.616 8  92531999.77247  22597261.920                    22597261.140
     -2520.370       -1963.928          49.000          44.750



 105870102.659 8  82496202.12248  20146405.120                    20146407.200
      -197.961        -154.256          51.350          51.200    79058863.047 9
  20146408.100        -147.855          56.100


 115028261.316 7  89632453.54547  21889135.160                    21889136.780
      2938.017        2289.364          47.500          44.900    85897797.734 8
  21889142.960        2193.941          51.100


 127921669.121 6  99679247.31646  24342685.780                    24342690.500
      3384.506        2637.280          40.750          37.300    95525956.134 7
  24342694.480        2527.215          43.350


 125750874.643 6  97987748.42846  23929586.300                    23929594.320
      3798.141        2959.593          41.600          41.050    93904933.955 7
  23929596.080        2836.240          46.200


 134370977.973 6 104704671.66646  25569947.600                    25569949.620
      1125.885         877.313          39.500          38.250



 112853151.175 8  87937520.70747  21475241.720                    21475241.340
       200.859         156.514          50.550          47.200



 115249223.566 8  89804588.18847  21931196.240                    21931195.260
      1915.574        1492.656          48.300          46.200



 122668619.055 7  95585936.78246  23343065.760                    23343066.980
     -2710.090       -2111.763          46.750          40.000



 133403620.623 6 103950828.86445  25385881.980                    25385887.620
     -2456.406       -1914.073          38.500          34.600



 125217334.148 6  97572025.25446  23828050.400                    23828053.100
       386.963         301.529          41.750          38.250    93506539.651 7
  23828060.440         288.933          47.250


 124700087.646 7  97168941.33847  23729626.220                    23729629.400
      2000.070        1558.500          42.900          42.300



 134137617.250 6 104522835.39746  25525548.620                    25525554.060
     -3415.639       -2661.534          39.850          39.850   100167710.947 6
  25525555.860       -2550.763          40.850


 23  9 10  9 54 30.0000000  0 13G02G03G04G06G09G12G17G19G21G22G28G31
                                G32
 118825147.484 8  92591018.51847  22611675.100                    22611674.400
     -2529.558       -1971.089          48.550          45.300



 105876238.614 8  82500983.38048  20147572.720                    20147574.980
      -211.656        -164.928          50.850          50.900    79063445.084 9
  20147575.600        -157.967          56.050


 114940296.101 7  89563909.27047  21872395.980                    21872397.840
      2925.887        2279.911          47.350          44.700    85832109.473 8
  21872403.600        2184.954          51.150


 127820152.871 6  99600143.78646  24323367.720                    24323372.860
      3382.931        2636.049          40.400          38.400    95450148.614 7
  24323376.300        2526.247          43.300


 125636985.100 7  97899003.40346  23907913.880                    23907921.700
      3793.791        2956.203          42.050          41.850    93819886.668 7
  23907923.580        2833.141          46.300


 134337474.870 6 104678565.41146  25563571.980                    25563573.780
      1107.383         862.899          37.900          36.800



 112847396.720 8  87933036.69647  21474146.760                    21474146.260
       182.302         142.053          50.650          47.200



 115192031.262 8  89760022.76547  21920313.120                    21920312.080
      1896.641        1477.902          48.900          46.000



 122750006.020 7  95649355.07846  23358553.300                    23358554.360
     -2716.160       -2116.491          46.150          40.700



 133477381.384 6 104008304.67946  25399918.280                    25399924.040
     -2461.262       -1917.867          38.550          36.400



 125206000.366 7  97563193.71946  23825893.760                    23825896.960
       368.229         286.931          42.550          39.850    93498076.077 8
  23825904.180         275.043          48.200


 124640296.231 7  97122350.74247  23718248.240                    23718251.380
      1985.384        1547.057          42.200          42.100



 134240146.561 6 104602728.31946  25545059.340                    25545065.000
     -3420.084       -2664.998          40.100          40.550   100244274.985 6
  25545066.480       -2553.635          40.400


 23  9 10  9 55  0.0000000  0 13G02G03G04G06G09G12G17G19G21G22G28G31
                                G32
 118901162.507 8  92650250.90647  22626140.380                    22626139.760
     -2538.663       -1978.183          48.250          44.750



 105882783.459 8  82506083.25548  20148818.060                    20148820.560
      -225.042        -175.357          50.500          50.350    79068332.472 9
  20148820.800        -168.100          55.850


 114852696.330 7  89495649.75247  21855726.300                    21855728.320
      2913.646        2270.374          47.800          45.350    85766694.113 8
  21855733.800        2175.826          51.100


 127718676.197 6  99521071.09846  24304057.380                    24304062.820
      3381.909        2635.254          40.000          40.000    95374370.646 7
  24304065.420        2525.296          43.400


 125523223.927 7  97810358.39446  23886265.740                    23886273.400
      3789.704        2953.017          42.100          41.500    93734935.208 7
  23886275.020        2829.961          45.900


 134304515.716 5 104652882.95545  25557300.160                    25557302.060
      1089.755         849.154          34.650          34.300



 112842201.807 8  87928988.68547  21473158.260                    21473157.620
       163.676         127.539          50.400          47.250



 115135405.239 8  89715898.59947  21909537.740                    21909536.660
      1877.898        1463.299          49.100          46.000



 122831570.710 7  95712911.86546  23374074.820                    23374075.820
     -2721.919       -2120.979          45.650          40.650



 133551282.800 6 104065890.18246  25413981.400                    25413986.720
     -2465.792       -1921.393          38.100          37.350



 125195233.192 7  97554803.69546  23823844.840                    23823848.740
       349.095         272.021          42.200          40.700    93490035.642 8
  23823856.040         260.808          48.450


 124580951.010 7  97076107.85447  23706955.240                    23706958.300
      1970.615        1535.550          42.950          42.500



 134342800.218 6 104682718.15946  25564593.420                    25564599.340
     -3423.984       -2668.044          39.200          39.200   100320931.900 6
  25564600.840       -2556.806          40.500


 23  9 10  9 55 30.0000000  0 13G02G03G04G06G09G12G17G19G21G22G28G31
                                G32
 118977453.617 7  92709698.40947  22640658.060                    22640657.480
     -2548.531       -1985.871          47.500          45.500



 105889739.063 8  82511503.20848  20150141.620                    20150143.980
      -239.603        -186.703          50.350          50.600    79073526.586 9
  20150144.240        -178.888          56.050


 114765466.777 7  89427678.70947  21839127.020                    21839129.360
      2900.650        2260.249          47.000          46.150    85701555.204 8
  21839134.220        2166.072          51.100


 127617242.948 6  99442032.29046  24284755.220                    24284761.180
      3379.789        2633.604          39.800          39.150    95298625.121 7
  24284762.900        2523.739          43.200


 125409595.890 6  97721817.15046  23864642.980                    23864650.640
      3784.699        2949.119          41.750          41.500    93650083.196 7
  23864652.220        2826.234          46.100


 134272104.638 6 104627627.62345  25551132.540                    25551134.280
      1070.276         833.978          38.850          32.150



 112837569.551 8  87925379.10247  21472276.860                    21472275.980
       144.232         112.388          50.100          47.550



 115079350.225 8  89672219.37447  21898870.940                    21898869.800
      1858.198        1447.947          49.000          45.800



 122913315.188 7  95776608.73446  23389630.440                    23389631.340
     -2728.701       -2126.264          46.150          39.600



 133625324.721 6 104123585.05645  25428071.160                    25428076.520
     -2471.145       -1925.573          37.900          34.950



 125185035.935 7  97546857.76046  23821904.320                    23821908.960
       329.551         256.791          42.500          41.700    93482420.783 7
  23821915.980         246.131          47.900


 124522057.098 7  97030216.61647  23695748.100                    23695750.880
      1954.729        1523.169          42.900          42.550



 134445578.399 6 104762804.98646  25584151.320                    25584157.420
     -3428.926       -2671.894          38.800          38.850   100397681.829 6
  25584158.720       -2560.439          40.200


 23  9 10  9 56  0.0000000  0 13G02G03G04G06G09G12G17G19G21G22G28G31
                                G32
 119054016.822 7  92769357.92947  22655227.440                    22655227.060
     -2556.743       -1992.271          46.950          45.300



 105897101.988 8  82517240.55048  20151542.700                    20151544.920
      -252.309        -196.604          50.250          50.250    79079024.868 9
  20151545.400        -188.395          55.950


 114678606.851 7  89359995.67947  21822598.100                    21822600.600
      2888.913        2251.104          47.000          46.200    85636692.303 8
  21822604.880        2157.395          50.800


 127515851.929 6  99363026.34646  24265461.080                    24265467.240
      3378.978        2632.970          39.450          40.000    95222911.095 7
  24265468.440        2523.184          43.300


 125296100.621 6  97633379.34846  23843045.500                    23843053.040
      3780.243        2945.647          41.900          41.300    93565330.320 7
  23843054.820        2823.306          46.350


 134240239.814 5 104602797.91445  25545068.740                    25545070.640
      1052.988         820.510          35.600          35.000



 112833497.080 8  87922205.72147  21471501.900                    21471500.940
       126.316          98.427          49.900          47.650



 115023865.209 8  89628984.30647  21888312.580                    21888311.260
      1839.904        1433.691          48.950          45.750



 122995235.177 7  95840442.33646  23405219.400                    23405220.460
     -2733.747       -2130.198          46.150          40.250



 133699501.302 6 104181384.97745  25442186.540                    25442191.600
     -2474.687       -1928.326          37.700          35.050



 125175406.661 7  97539354.41346  23820071.940                    23820076.700
       311.581         242.788          42.400          40.400    93475230.062 7
  23820083.460         232.500          47.100


 124463614.366 7  96984676.93447  23684627.020                    23684629.420
      1940.329        1511.948          44.000          44.100



 134548476.137 6 104842985.06846  25603732.140                    25603738.280
     -3431.980       -2674.274          39.700          39.250   100474521.047 6
  25603739.420       -2562.801          41.250


 23  9 10  9 56 30.0000000  0 13G02G03G04G06G09G12G17G19G21G22G28G31
                                G32
 119130849.203 7  92829227.19847  22669848.100                    22669847.800
     -2565.932       -1999.432          47.050          44.350



 105904869.448 8  82523293.11748  20153020.760                    20153022.920
      -266.163        -207.400          50.250          50.200    79084825.244 9
  20153023.580        -198.688          55.750


 114592116.623 7  89292600.72647  21806139.480                    21806142.120
      2876.517        2241.442          47.500          46.250    85572105.492 8
  21806145.920        2148.019          50.450


 127414502.376 6  99284052.73546  24246174.840                    24246181.280
      3377.386        2631.730          41.200          40.800    95147228.049 7
  24246181.900        2522.039          43.250


 125182738.116 6  97545045.02147  23821473.300                    23821480.740
      3776.215        2942.507          41.800          42.400    93480676.625 7
  23821482.360        2819.851          46.000


 134208920.212 6 104578393.06745  25539108.780                    25539110.680
      1034.321         805.969          36.450          31.550



 112829982.362 8  87919466.96047  21470833.040                    21470832.100
       107.542          83.798          49.950          47.350



 114968950.708 8  89586193.79547  21877862.660                    21877861.200
      1820.602        1418.651          48.400          45.500



 123077328.379 7  95904410.95046  23420841.300                    23420842.380
     -2739.789       -2134.905          46.250          41.200



 133773807.884 6 104239286.10145  25456326.640                    25456331.200
     -2479.489       -1932.074          40.600          31.650



 125166344.084 6  97532292.63446  23818347.440                    23818351.860
       292.193         227.682          41.650          40.850    93468462.487 7
  23818358.620         218.155          46.400


 124405623.665 7  96939489.48147  23673591.720                    23673594.160
      1925.099        1500.080          43.650          43.900



 134651488.963 6 104923254.77846  25623334.760                    25623341.120
     -3436.402       -2677.717          38.200          37.950   100551446.170 6
  25623342.120       -2565.917          39.350


 23  9 10  9 57  0.0000000  0 13G02G03G04G06G09G12G17G19G21G22G28G31
                                G32
 119207957.143 7  92889311.19847  22684521.360                    22684521.080
     -2574.729       -2006.285          47.850          43.650



 105913048.028 8  82529666.03448  20154577.160                    20154579.120
      -279.373        -217.693          50.850          50.800    79090932.622 9
  20154579.800        -208.607          55.850


 114506005.565 7  89225501.23947  21789753.080                    21789755.820
      2864.170        2231.821          47.950          45.100    85507801.825 8
  21789759.000        2138.740          50.400


 127313203.078 6  99205118.30146  24226898.220                    24226904.780
      3375.866        2630.549          41.200          40.750    95071582.536 7
  24226904.960        2520.798          43.650


 125069518.035 6  97456821.69846  23799928.000                    23799935.560
      3771.446        2938.794          41.600          40.950    93396129.274 7
  23799937.160        2816.501          46.000


 134178154.063 6 104554419.41846  25533254.140                    25533256.240
      1016.316         791.933          38.550          37.150



 112827033.165 8  87917168.86247  21470271.780                    21470271.100
        88.998          69.349          49.900          47.600



 114914616.014 7  89543855.08447  21867523.020                    21867521.380
      1801.719        1403.938          47.900          45.300



 123159601.178 7  95968519.48346  23436497.480                    23436498.700
     -2745.297       -2139.198          47.200          40.100



 133848248.835 6 104297292.02145  25470492.520                    25470496.660
     -2483.335       -1935.067          40.300          33.100



 125157856.146 7  97525678.59546  23816732.300                    23816736.300
       273.372         213.014          42.300          40.050    93462124.030 7
  23816742.980         204.160          46.350


 124348094.798 7  96894661.92347  23662644.160                    23662646.840
      1909.794        1488.155          42.850          42.250



 134754622.019 6 105003618.20246  25642960.320                    25642966.800
     -3439.706       -2680.294          37.950          38.550   100628461.128 6
  25642967.560       -2568.520          40.650


 23  9 10  9 57 30.0000000  0 13G02G03G04G06G09G12G17G19G21G22G28G31
                                G32
 119285335.971 8  92949606.27247  22699246.320                    22699246.060
     -2583.521       -2013.136          48.650          43.350



 105921633.140 8  82536355.72548  20156211.060                    20156212.700
      -292.753        -228.119          51.650          51.700    79097343.574 9
  20156213.500        -218.604          55.750


 114420271.948 8  89158695.84947  21773438.540                    21773441.180
      2851.736        2222.134          48.200          45.200    85443780.005 8
  21773444.220        2129.453          50.350


 127211951.564 7  99126221.07846  24207630.840                    24207637.080
      3374.797        2629.714          42.000          40.500    94995972.713 7
  24207637.420        2519.843          44.000


 124956438.642 6  97368707.98746  23778409.620                    23778417.060
      3767.393        2935.635          41.600          41.900    93311687.007 7
  23778418.720        2813.179          46.200


 134147938.411 6 104530874.75146  25527504.420                    25527506.440
       998.248         777.855          41.500          38.350



 112824645.895 8  87915308.63147  21469817.460                    21469816.980
        70.301          54.779          50.250          47.000



 114860859.342 7  89501966.78947  21857293.240                    21857291.640
      1782.406        1388.889          47.550          45.200



 123242048.288 7  96032763.87046  23452186.920                    23452187.920
     -2751.037       -2143.669          46.900          40.250



 133922817.552 6 104355397.46545  25484682.560                    25484686.840
     -2487.597       -1938.387          39.600          33.650



 125149939.634 7  97519509.85446  23815225.980                    23815229.680
       254.691         198.459          42.750          38.750    93456212.305 7
  23815236.380         189.962          46.400


 124291026.405 7  96850193.17147  23651784.000                    23651786.900
      1894.593        1476.311          43.500          43.400



 134857869.314 6 105084070.67346  25662607.740                    25662614.000
     -3443.283       -2683.073          39.800          39.400   100705561.371 6
  25662614.900       -2571.217          40.850


 23  9 10  9 58  0.0000000  0 13G02G03G04G06G09G12G17G19G21G22G28G31
                                G32
 119362985.285 8  93010112.11847  22714022.760                    22714022.420
     -2592.862       -2020.415          48.700          44.600



 105930624.222 8  82543361.75748  20157922.220                    20157923.660
      -306.645        -238.944          51.800          51.850    79104057.682 9
  20157924.600        -228.902          55.900


 114334918.093 8  89092186.38147  21757196.340                    21757198.800
      2838.668        2211.950          48.750          45.200    85380041.760 8
  21757201.580        2119.832          50.650


 127110749.529 6  99047362.39946  24188372.860                    24188378.780
      3372.348        2627.805          41.650          41.050    94920399.784 7
  24188379.380        2518.457          44.650


 124843502.457 6  97280705.88846  23756918.560                    23756925.880
      3762.054        2931.474          41.650          40.800    93227351.684 7
  23756927.480        2809.327          46.400


 134118274.579 6 104507760.05946  25521859.560                    25521861.560
       979.011         762.860          37.600          36.300



 112822820.771 8  87913886.43647  21469470.040                    21469469.860
        51.243          39.929          50.150          47.150



 114807682.737 7  89460530.50647  21847173.860                    21847172.320
      1762.733        1373.559          47.550          45.400



 123324669.514 7  96097143.91946  23467909.480                    23467910.700
     -2757.073       -2148.374          46.750          40.300



 133997511.478 6 104413600.41845  25498896.540                    25498900.620
     -2491.922       -1941.766          39.350          35.900



 125142595.370 7  97513787.04746  23813828.480                    23813832.140
       235.248         183.309          43.050          40.750    93450727.924 7
  23813838.820         175.667          46.950


 124234421.625 7  96806085.66147  23641012.340                    23641015.180
      1878.865        1464.053          44.000          44.150



 134961228.321 6 105164610.12046  25682276.260                    25682282.860
     -3447.172       -2686.106          38.000          38.500   100782745.035 6
  25682283.520       -2574.070          38.550


 23  9 10  9 58 30.0000000  0 13G02G03G04G06G09G12G17G19G21G22G28G31
                                G32
 119440903.787 8  93070827.71547  22728850.380                    22728849.980
     -2602.105       -2027.619          48.100          44.750



 105940020.509 8  82550683.52548  20159710.420                    20159711.740
      -320.353        -249.626          51.000          51.150    79111074.378 9
  20159712.760        -239.197          55.650


 114249946.093 8  89025974.45347  21741026.780                    21741029.040
      2825.679        2201.829          48.300          46.050    85316588.687 8
  21741032.040        2110.030          50.500


 127009598.268 6  98968543.29346  24169124.260                    24169130.020
      3370.410        2626.296          40.800          40.400    94844864.818 7
  24169131.160        2516.882          44.850


 124730711.613 7  97192817.05446  23735455.200                    23735462.140
      3756.696        2927.300          42.150          41.350    93143124.914 7
  23735463.980        2805.430          46.050


 134089163.566 6 104485076.17346  25516319.860                    25516322.160
       960.619         748.532          38.200          36.200



 112821557.863 8  87912902.33147  21469229.680                    21469229.560
        32.293          25.162          49.400          47.600



 114755088.122 7  89419547.70347  21837165.340                    21837163.800
      1742.986        1358.172          47.850          45.550



 123407464.282 7  96161659.20646  23483664.980                    23483666.080
     -2763.024       -2153.011          45.750          40.600



 134072327.802 6 104471898.79345  25513133.680                    25513137.820
     -2496.222       -1945.114          38.550          34.950



 125135823.978 7  97508510.61346  23812539.920                    23812543.760
       215.813         168.163          42.250          40.900    93445671.352 7
  23812550.340         161.125          47.000


 124178283.132 7  96762341.46747  23630329.440                    23630332.220
      1863.218        1451.859          43.950          43.650



 135064696.950 6 105245235.00146  25701965.640                    25701972.420
     -3451.336       -2689.354          40.100          39.650   100860010.556 6
  25701972.880       -2577.126          40.300


 23  9 10  9 59  0.0000000  0 13G02G03G04G06G09G12G17G19G21G22G28G31
                                G32
 119519089.986 7  93131751.91847  22743728.900                    22743728.500
     -2610.811       -2034.402          47.700          44.750



 105949820.753 8  82558320.06148  20161575.360                    20161576.700
      -333.598        -259.947          51.100          51.150    79118392.731 9
  20161577.680        -249.081          55.800


 114165357.539 8  88960061.31947  21724930.200                    21724932.180
      2812.985        2191.937          48.950          45.250    85253421.931 8
  21724935.300        2100.672          50.850


 126908498.761 6  98889764.49846  24149885.600                    24149891.180
      3369.009        2625.205          40.200          40.100    94769368.498 7
  24149893.000        2515.809          45.550


 124618067.812 7  97105042.83247  23714019.920                    23714026.560
      3752.161        2923.769          42.900          43.300    93059007.996 7
  23714028.460        2801.963          46.350


 134060605.565 6 104462823.18546  25510885.500                    25510888.000
       942.507         734.424          39.300          36.700



 112820856.914 8  87912356.11147  21469096.300                    21469096.160
        13.836          10.780          50.100          47.200



 114703077.323 8  89379019.82047  21827268.020                    21827266.420
      1723.801        1343.222          48.700          44.800



 123490430.535 7  96226308.10146  23499452.860                    23499454.220
     -2768.496       -2157.272          44.950          40.800



 134147262.984 6 104530289.76645  25527393.320                    25527397.600
     -2500.289       -1948.283          40.200          33.650



 125129625.564 6  97503680.66146  23811360.400                    23811364.300
       196.976         153.488          41.850          40.850    93441042.648 7
  23811370.800         146.985          47.050


 124122612.682 7  96718962.00547  23619735.580                    23619738.620
      1847.688        1439.761          44.650          44.400



 135168272.322 6 105325943.04246  25721675.360                    25721682.440
     -3454.371       -2691.721          39.900          39.850   100937355.756 6
  25721682.620       -2579.569          40.800


 23  9 10  9 59 30.0000000  0 13G02G03G04G06G09G12G17G19G21G22G28G31
                                G32
 119597546.205 7  93192886.51747  22758658.700                    22758658.320
     -2619.524       -2041.191          47.550          45.200



 105960027.291 8  82566273.19248  20163517.540                    20163519.060
      -346.819        -270.249          51.000          50.900    79126014.476 9
  20163519.960        -258.984          55.750


 114081157.541 8  88894450.96747  21708907.460                    21708909.480
      2800.319        2182.068          49.150          45.450    85190545.362 8
  21708912.800        2091.104          50.800


 126807455.575 6  98811029.60946  24130657.520                    24130663.020
      3367.213        2623.801          40.500          40.100    94693914.237 7
  24130665.520        2514.571          46.000


 124505576.379 7  97017387.36447  23692613.520                    23692619.940
      3747.577        2920.198          43.150          43.200    92975004.875 7
  23692621.840        2798.353          46.200


 134032605.088 6 104441004.64445  25505557.140                    25505559.520
       924.328         720.259          39.400          34.800



 112820720.943 8  87912250.12847  21469070.480                    21469070.220
        -4.558          -3.552          50.200          47.100



 114651655.353 8  89338950.76347  21817482.860                    21817481.140
      1704.517        1328.195          49.050          44.500



 123573570.672 7  96291092.47646  23515273.760                    23515275.440
     -2774.099       -2161.640          44.700          40.700



 134222317.486 6 104588773.73645  25541675.740                    25541680.420
     -2504.021       -1951.189          39.700          33.600



 125124003.772 7  97499300.02246  23810290.580                    23810294.560
       178.074         138.761          42.000          38.650    93436844.553 7
  23810300.880         132.780          46.650


 124067415.899 7  96675951.63247  23609231.820                    23609235.120
      1832.182        1427.678          44.550          45.200



 135271955.446 6 105406735.06246  25741405.700                    25741412.820
     -3457.628       -2694.257          40.100          39.550   101014781.460 6
  25741413.040       -2582.180          40.100


                            4  1
RINEX FILE SPLICE; other post-header comments skipped       COMMENT
 23  9 10 10  0  0.0000000  0 13G02G03G04G06G09G12G17G19G21G22G28G31
                                G32
 119676269.327 7  93254229.08747  22773639.220                    22773638.900
     -2628.910       -2048.505          47.350          44.850



 105970637.181 8  82574540.63348  20165536.500                    20165538.200
      -360.696        -281.063          50.700          50.800    79133937.436 9
  20165539.060        -269.303          56.000


 113997346.068 8  88829143.35747  21692958.680                    21692960.540
      2786.914        2171.622          48.300          46.050    85127958.904 8
  21692964.080        2081.134          51.150


 126706467.955 6  98732338.03146  24111440.040                    24111445.560
      3365.244        2622.271          39.550          39.550    94618501.507 7
  24111448.660        2512.878          46.550


 124393237.378 7  96929850.67947  23671236.180                    23671242.260
      3741.813        2915.705          43.500          43.350    92891115.589 7
  23671244.160        2794.259          46.150


 134005160.997 6 104419619.53245  25500334.840                    25500337.000
       905.406         705.505          39.400          32.900



 112821147.894 8  87912582.78747  21469151.860                    21469151.500
       -23.903         -18.627          50.000          47.400



 114600821.729 8  89299340.14947  21807809.700                    21807807.840
      1684.184        1312.351          48.850          44.700



 123656881.929 7  96356010.18947  23531127.220                    23531129.040
     -2780.325       -2166.491          44.000          42.350



 134297486.444 6 104647346.87245  25555979.920                    25555985.320
     -2507.822       -1954.147          38.550          35.850



 125118956.938 6  97495367.41846  23809330.220                    23809334.140
       158.323         123.371          41.650          39.750    93433075.790 7
  23809340.180         118.255          46.350


 124012693.388 7  96633310.83347  23598818.360                    23598821.840
      1815.838        1414.941          43.850          44.100



 135375741.645 6 105487607.44046  25761155.680                    25761162.540
     -3461.412       -2697.199          37.550          37.650   101092284.135 6
  25761163.020       -2584.937          37.950


 23  9 10 10  0 30.0000000  0 13G02G03G04G06G09G12G17G19G21G22G28G31
                                G32
 119755255.702 7  93315776.78347  22788669.820                    22788669.640
     -2636.907       -2054.736          47.300          45.600



 105981647.090 8  82583119.76148  20167631.600                    20167633.380
      -373.513        -291.049          50.850          50.850    79142159.102 9
  20167634.260        -278.921          56.250


 113913922.632 8  88764138.12147  21677083.620                    21677085.740
      2774.460        2161.918          48.750          45.600    85065662.221 8
  21677089.380        2071.808          51.450


 126605534.865 6  98653688.93946  24092232.960                    24092238.760
      3363.751        2621.104          40.500          38.900    94543129.455 7
  24092242.100        2511.781          47.000


 124281050.398 7  96842432.47847  23649887.640                    23649893.480
      3737.203        2912.116          43.050          43.300    92807339.870 7
  23649895.500        2790.730          46.900


 133978270.770 6 104398666.10645  25495217.740                    25495220.240
       887.234         691.354          40.300          35.200



 112822135.097 8  87913351.99947  21469339.880                    21469339.380
       -42.104         -32.810          50.550          47.050



 114550575.920 8  89260187.57347  21798248.380                    21798246.380
      1665.221        1297.574          49.300          44.600



 123740360.668 7  96421058.39846  23547012.660                    23547014.620
     -2785.298       -2170.367          44.150          41.500



 134372764.212 6 104706004.78545  25570304.780                    25570310.020
     -2510.724       -1956.418          39.350          31.550



 125114483.048 7  97491881.23546  23808478.840                    23808482.540
       139.965         109.065          42.700          38.900    93429734.866 7
  23808488.380         104.288          46.650


 123958445.124 7  96591039.56347  23588495.040                    23588498.480
      1800.517        1403.004          42.850          42.650



 135479626.579 6 105568556.66546  25780924.340                    25780931.320
     -3464.305       -2699.457          39.100          38.300   101169860.470 6
  25780931.780       -2586.939          40.550


 23  9 10 10  1  0.0000000  0 13G02G03G04G06G09G12G17G19G21G22G28G31
                                G32
 119834508.618 7  93377532.17947  22803751.200                    22803750.960
     -2646.057       -2061.866          47.200          44.600



 105993060.357 8  82592013.19548  20169803.380                    20169805.300
      -386.979        -301.543          50.550          50.600    79150681.974 9
  20169806.140        -288.985          56.050


 113830893.379 8  88699440.03947  21661283.560                    21661285.700
      2761.301        2151.665          48.700          45.400    85003659.908 8
  21661289.580        2061.948          51.550


 126504661.816 6  98575086.63346  24073037.360                    24073043.280
      3361.252        2619.163          41.300          40.550    94467802.262 7
  24073046.700        2510.283          47.000


 124169021.810 7  96755137.70447  23628569.160                    23628574.880
      3731.620        2907.764          44.550          45.000    92723682.435 7
  23628577.080        2786.686          47.050


 133951939.797 7 104378148.39546  25490207.200                    25490209.640
       868.588         676.818          42.050          38.050



 112823686.754 8  87914561.05147  21469635.320                    21469634.800
       -60.958         -47.501          50.600          47.500



 114500924.030 8  89221497.79547  21788799.980                    21788797.940
      1645.325        1282.071          48.950          44.750



 123824010.515 7  96486239.95346  23562930.720                    23562932.560
     -2791.044       -2174.846          44.550          40.900



 134448151.987 6 104764748.45945  25584650.700                    25584656.120
     -2514.579       -1959.412          37.450          35.300



 125110586.697 7  97488845.09646  23807737.380                    23807740.620
       120.371          93.797          42.750          39.100    93426825.222 7
  23807746.800          89.903          46.850


 123904677.577 7  96549142.89247  23578263.280                    23578266.700
      1784.295        1390.363          43.850          44.000



 135583611.599 6 105649583.89446  25800712.000                    25800719.240
     -3467.530       -2701.970          37.650          38.500   101247511.569 6
  25800719.540       -2589.315          38.850


 23  9 10 10  1 30.0000000  0 13G02G03G04G06G09G12G17G19G21G22G28G31
                                G32
 119914025.897 7  93439493.56647  22818882.920                    22818882.600
     -2654.849       -2068.718          47.350          44.700



 106004874.996 8  82601219.39148  20172051.440                    20172053.600
      -400.312        -311.932          50.400          50.650    79159504.575 9
  20172054.360        -298.998          55.900


 113748259.173 8  88635049.79447  21645558.620                    21645561.140
      2747.912        2141.231          48.600          45.650    84941952.584 8
  21645565.020        2052.091          51.450


 126403849.097 7  98496531.34646  24053853.340                    24053859.420
      3359.340        2617.670          42.000          39.850    94392520.145 7
  24053862.700        2508.698          46.900


 124057152.539 7  96667967.09947  23607281.080                    23607286.740
      3726.575        2903.834          44.150          43.650    92640143.995 7
  23607288.780        2782.707          46.600


 133926167.737 6 104358066.21946  25485302.960                    25485305.060
       849.914         662.265          39.000          37.250



 112825801.834 8  87916209.14247  21470037.940                    21470037.400
       -79.723         -62.123          50.600          47.650



 114451866.771 8  89183271.37147  21779464.620                    21779462.600
      1625.413        1266.557          48.350          45.300



 123907828.767 7  96551552.74846  23578881.020                    23578882.460
     -2796.608       -2179.180          44.750          40.550



 134523646.136 5 104823574.97745  25599016.700                    25599022.520
     -2518.101       -1962.165          35.950          34.400



 125107267.107 7  97486258.40146  23807105.600                    23807108.720
       101.389          79.006          42.050          37.050    93424346.309 7
  23807115.240          75.519          46.750


 123851392.156 7  96507621.90547  23568123.400                    23568126.800
      1768.315        1377.912          44.600          44.550



 135687693.373 6 105730686.53246  25820518.180                    25820525.300
     -3470.728       -2704.464          38.650          38.250   101325234.940 6
  25820525.560       -2591.786          37.350


