     2.11           OBSERVATION DATA    G (GPS)             RINEX VERSION / TYPE
teqc  2019Feb25                         20230910 13:51:56UTCPGM / RUN BY / DATE
Linux 2.6.32-573.12.1.x86_64|x86_64|gcc|Linux 64|=+         COMMENT
teqc  2019Feb25                         20230910 13:51:56UTCCOMMENT
     2.11           OBSERVATION DATA    M (MIXED)           COMMENT
teqc  2019Feb25     IGN-RGP             20230910 10:04:21UTCCOMMENT
teqc  2019Feb25     Administrateur RGP  20230910 10:04:21UTCCOMMENT
teqc  2019Feb25     IGN-RGP             20230910 10:04:20UTCCOMMENT
teqc  2019Feb25     IGN-RGP             20230910 10:04:19UTCCOMMENT
BIT 2 OF LLI FLAGS DATA COLLECTED UNDER A/S CONDITION       COMMENT
PANA                                                        MARKER NAME
10001M008                                                   MARKER NUMBER
Automatic           Lycee Dorian - Paris 11                 OBSERVER / AGENCY
1700671             LEICA GR10          2.00/4.007          REC # / TYPE / VERS
11311010            LEIAS10         NONE                    ANT # / TYPE
  4201030.6890   175603.7900  4780030.2470                  APPROX POSITION XYZ
        0.0000        0.0000        0.0000                  ANTENNA: DELTA H/E/N
     1     1                                                WAVELENGTH FACT L1/2
    21    L1    L2    C1    P1    P2    D1    D2    S1    S2# / TYPES OF OBSERV
          L5    C5    D5    S5    L7    C7    D7    S7    L8# / TYPES OF OBSERV
          C8    D8    S8                                    # / TYPES OF OBSERV
    30.0000                                                 INTERVAL
DefaultJobName                                              COMMENT
DefaultUserDiscription                                      COMMENT
Project creator:                                            COMMENT
 SNR is mapped to RINEX snr flag value [0-9]                COMMENT
  L1 & L2: min(max(int(snr_dBHz/6), 0), 9)                  COMMENT
    18                                                      LEAP SECONDS
Forced Modulo Decimation to 30 seconds                      COMMENT
teqc_2019 edited: all GLONASS satellites excluded           COMMENT
teqc_2019 edited: all SBAS satellites excluded              COMMENT
teqc_2019 edited: all Galileo satellites excluded           COMMENT
  2023     9    10     9     0    0.0000000     GPS         TIME OF FIRST OBS
                                                            END OF HEADER
 23  9 10  9  0  0.0000000  0 11G02G03G04G08G14G17G19G21G22G28G32
 112327042.684 8  87527544.87347  21375123.800                    21375118.500
                                        49.700          46.000



 107715297.327 8  83934006.107 8  20497530.920                    20497530.040
                                        49.800          48.900



 126168899.830 7  98313452.866 6  24009143.540                    24009145.900
                                        42.250          41.700



 128764851.680 6 100336223.037 7  24503152.280                    24503156.700
                                        40.500          43.700



 127456239.453 7  99316520.691 6  24254130.400                    24254130.340
                                        42.600          40.400



 116574625.558 8  90837370.077 7  22183412.200                    22183409.320
                                        48.650          45.300



 124202559.990 7  96781198.41946  23634958.900                    23634955.420
                                        43.850          39.800



 115078543.385 8  89671579.75347  21898717.860                    21898714.100
                                        49.300          44.550



 126834146.822 7  98831785.75846  24135741.960                    24135740.480
                                        43.700          40.000



 129481637.538 7 100894799.169 7  24639535.640                    24639538.820
                                        42.850          43.700



 124319934.673 7  96872673.355 7  23657295.760                    23657296.600
                                        46.850          43.650



 23  9 10  9  0 30.0000000  0 11G02G03G04G08G14G17G19G21G22G28G32
 112369890.063 8  87560932.39047  21383277.440                    21383272.120
                                        49.300          46.100



 107674903.727 8  83902530.583 8  20489844.260                    20489843.380
                                        49.850          48.850



 126055790.622 6  98225315.967 6  23987619.560                    23987621.760
                                        40.800          41.600



 128877979.863 6 100424374.622 7  24524680.060                    24524684.520
                                        38.600          43.000



 127530985.692 6  99374764.383 6  24268354.240                    24268354.160
                                        41.900          40.350



 116514426.320 8  90790461.589 7  22171956.680                    22171953.800
                                        48.400          44.900



 124099573.537 7  96700949.26646  23615361.240                    23615357.660
                                        43.750          39.300



 115137076.524 8  89717189.92147  21909856.400                    21909852.660
                                        49.150          44.500



 126877247.575 7  98865370.66146  24143943.860                    24143942.400
                                        42.700          39.450



 129418495.165 7 100845597.605 7  24627519.840                    24627523.120
                                        42.700          43.750



 124394818.293 7  96931024.133 7  23671545.700                    23671546.580
                                        46.750          43.000



 23  9 10  9  1  0.0000000  0 11G02G03G04G08G14G17G19G21G22G28G32
 112413061.377 8  87594572.31547  21391492.720                    21391487.420
                                        49.350          46.050



 107634948.960 8  83871397.006 8  20482241.100                    20482240.240
                                        49.750          48.650



 125942780.047 6  98137255.960 7  23966114.280                    23966116.380
                                        40.950          42.350



 128991168.009 6 100512572.948 7  24546219.220                    24546223.720
                                        40.600          42.950



 127606010.696 6  99433225.247 7  24282631.160                    24282631.120
                                        41.950          42.200



 116454648.805 8  90743881.711 7  22160581.400                    22160578.500
                                        48.850          44.800



 123996862.137 7  96620914.47646  23595815.900                    23595812.220
                                        43.700          39.950



 115195849.671 8  89762987.11147  21921040.640                    21921036.880
                                        49.400          43.050



 126920761.302 7  98899277.34546  24152224.320                    24152222.940
                                        43.250          38.600



 129355714.215 6 100796677.644 7  24615572.820                    24615576.160
                                        41.950          43.500



 124470090.110 7  96989677.409 7  23685869.520                    23685870.400
                                        46.550          43.150



 23  9 10  9  1 30.0000000  0 11G02G03G04G08G14G17G19G21G22G28G32
 112456547.694 8  87628457.68447  21399767.940                    21399762.680
                                        49.400          46.450



 107595424.524 8  83840598.744 8  20474719.840                    20474718.980
                                        50.100          48.700



 125829861.841 6  98049267.966 7  23944626.500                    23944628.540
                                        41.400          43.350



 129104404.486 6 100600808.895 7  24567767.580                    24567772.180
                                        40.000          42.850



 127681302.619 7  99491894.130 7  24296958.880                    24296958.860
                                        42.850          42.650



 116395285.948 8  90697624.947 7  22149285.020                    22149282.100
                                        49.200          45.450



 123894419.727 7  96541089.25846  23576321.760                    23576318.020
                                        44.100          38.950



 115254853.630 8  89808964.14847  21932268.800                    21932265.020
                                        49.700          43.900



 126964677.200 7  98933497.41746  24160581.320                    24160580.000
                                        44.900          39.550



 129293288.603 7 100748034.550 7  24603693.420                    24603696.780
                                        42.250          44.200



 124545739.044 7  97048624.509 7  23700265.120                    23700266.020
                                        46.250          43.600



 23  9 10  9  2  0.0000000  0 11G02G03G04G08G14G17G19G21G22G28G32
 112500353.068 8  87662591.68047  21408103.860                    21408098.620
                                        49.400          46.300



 107556334.536 8  83810139.027 8  20467281.240                    20467280.380
                                        50.150          48.850



 125717042.638 7  97961357.109 7  23923157.580                    23923159.560
                                        42.000          43.800



 129217690.704 6 100689083.635 7  24589325.400                    24589330.080
                                        40.550          43.200



 127756862.380 6  99550771.743 7  24311337.540                    24311337.540
                                        41.650          42.550



 116336344.414 8  90651696.492 7  22138068.820                    22138065.900
                                        49.100          45.700



 123792253.340 7  96461479.13446  23556880.140                    23556876.340
                                        45.050          38.600



 115314092.099 8  89855123.92947  21943541.600                    21943537.780
                                        49.600          43.850



 127008997.368 7  98968032.53346  24169015.260                    24169013.980
                                        44.500          40.000



 129231225.040 7 100699673.581 7  24591882.880                    24591886.300
                                        42.250          44.000



 124621766.600 7  97107866.651 7  23714732.740                    23714733.680
                                        46.700          43.750



 23  9 10  9  2 30.0000000  0 11G02G03G04G08G14G17G19G21G22G28G32
 112544480.652 8  87696976.74347  21416501.100                    21416495.900
                                        49.400          46.400



 107517682.591 8  83780020.629 8  20459926.000                    20459925.160
                                        49.800          49.000



 125604328.210 7  97873527.859 7  23901708.620                    23901710.560
                                        43.200          43.500



 129331028.460 6 100777398.518 6  24610893.040                    24610897.800
                                        40.600          41.750



 127832690.414 7  99609858.375 7  24325767.260                    24325767.320
                                        42.600          43.100



 116277829.003 8  90606100.065 7  22126933.720                    22126930.800
                                        49.000          45.300



 123690368.933 7  96382088.72646  23537492.180                    23537488.320
                                        44.950          38.450



 115373567.548 8  89901468.36147  21954859.500                    21954855.640
                                        49.400          43.550



 127053722.995 7  99002883.53646  24177526.420                    24177525.200
                                        42.800          38.250



 129169529.559 6 100651599.386 7  24580142.420                    24580145.880
                                        41.250          44.100



 124698173.925 7  97167404.726 7  23729272.640                    23729273.600
                                        46.050          43.600



 23  9 10  9  3  0.0000000  0 11G02G03G04G08G14G17G19G21G22G28G32
 112588929.668 8  87731612.27647  21424959.520                    21424954.340
                                        49.350          46.300



 107479468.091 8  83750243.097 8  20452654.020                    20452653.180
                                        49.950          49.050



 125491720.391 7  97785781.711 7  23880279.960                    23880281.840
                                        43.250          44.300



 129444414.387 6 100865751.006 6  24632469.800                    24632474.620
                                        39.700          41.100



 127908782.775 7  99669150.969 7  24340247.280                    24340247.380
                                        42.250          43.050



 116219740.897 8  90560836.618 7  22115879.920                    22115877.000
                                        48.850          45.300



 123588768.571 7  96302919.65446  23518158.280                    23518154.360
                                        45.000          39.050



 115433279.191 8  89947996.83847  21966222.320                    21966218.440
                                        49.200          43.050



 127098851.671 7  99038048.61946  24186114.220                    24186113.040
                                        43.000          36.450



 129108204.063 6 100603813.493 7  24568472.300                    24568475.820
                                        40.500          44.200



 124774957.839 7  97227236.243 7  23743884.200                    23743885.160
                                        46.350          44.050



 23  9 10  9  3 30.0000000  0 11G02G03G04G08G14G17G19G21G22G28G32
 112633699.988 8  87766498.17847  21433479.060                    21433473.900
                                        49.150          46.800



 107441691.354 8  83720806.674 8  20445465.320                    20445464.520
                                        49.800          49.200



 125379221.898 7  97698120.731 7  23858872.120                    23858873.940
                                        43.300          44.750



 129557846.443 6 100954139.353 6  24654055.400                    24654060.300
                                        37.850          41.650



 127985136.575 7  99728647.303 7  24354777.020                    24354777.160
                                        42.850          42.800



 116162082.435 8  90515907.955 7  22104907.880                    22104904.960
                                        48.200          44.700



 123487455.360 7  96223974.31546  23498879.060                    23498875.080
                                        44.350          40.000



 115493226.618 8  89994709.05347  21977630.020                    21977626.080
                                        49.250          42.900



 127144380.468 7  99073525.51846  24194778.120                    24194776.960
                                        43.550          37.600



 129047251.469 6 100556318.182 7  24556873.140                    24556876.720
                                        40.550          44.250



 124852116.033 7  97287359.394 7  23758566.980                    23758567.980
                                        46.000          44.550



 23  9 10  9  4  0.0000000  0 11G02G03G04G08G14G17G19G21G22G28G32
 112678789.243 8  87801632.60747  21442059.300                    21442054.160
                                        49.650          46.350



 107404350.292 8  83691709.763 8  20438359.540                    20438358.740
                                        50.000          49.000



 125266833.011 7  97610545.174 7  23837485.120                    23837486.920
                                        44.050          44.350



 129671320.069 6 101042560.135 6  24675648.900                    24675653.840
                                        38.600          40.500



 128061746.529 7  99788343.261 7  24369355.480                    24369355.660
                                        43.600          42.850



 116104853.341 8  90471313.868 7  22094017.540                    22094014.620
                                        48.750          44.950



 123386429.965 7  96145253.27146  23479654.580                    23479650.520
                                        44.650          39.250



 115553407.300 8  90041603.04647  21989082.080                    21989078.080
                                        49.800          42.550



 127190305.774 7  99109311.38445  24203517.460                    24203516.300
                                        44.100          35.900



 128986672.092 6 100509113.701 7  24545344.980                    24545348.640
                                        41.500          44.250



 124929643.926 7  97347770.638 7  23773320.120                    23773321.140
                                        46.650          44.800



 23  9 10  9  4 30.0000000  0 11G02G03G04G08G14G17G19G21G22G28G32
 112724199.344 8  87837017.04447  21450700.600                    21450695.480
                                        49.400          46.300



 107367447.094 8  83662954.026 8  20431337.080                    20431336.320
                                        50.100          49.050



 125154558.345 7  97523058.600 7  23816119.900                    23816121.660
                                        43.150          45.250



 129784834.726 6 101131012.879 6  24697250.200                    24697255.200
                                        37.050          40.800



 128138611.615 7  99848238.006 7  24383982.520                    24383982.700
                                        44.100          42.250



 116048057.653 8  90427057.488 7  22083209.680                    22083206.740
                                        48.950          45.450



 123285697.039 7  96066760.12246  23460485.740                    23460481.640
                                        44.150          40.300



 115613822.924 8  90088680.08647  22000578.860                    22000574.820
                                        49.650          43.250



 127236627.411 7  99145406.03846  24212332.280                    24212331.080
                                        43.600          37.650



 128926470.656 6 100462203.669 7  24533888.820                    24533892.520
                                        41.950          43.950



 125007541.148 7  97408469.652 7  23788143.540                    23788144.600
                                        46.950          44.850



 23  9 10  9  5  0.0000000  0 11G02G03G04G08G14G17G19G21G22G28G32
 112769929.856 8  87872651.14247  21459402.880                    21459397.780
                                        49.250          46.250



 107330981.649 8  83634539.398 8  20424397.940                    20424397.160
                                        49.900          48.900



 125042400.173 7  97435662.808 7  23794776.800                    23794778.560
                                        43.200          44.650



 129898388.465 6 101219496.054 6  24718858.940                    24718864.020
                                        36.650          41.100



 128215728.517 7  99908328.937 7  24398657.520                    24398657.680
                                        44.300          42.250



 115991696.594 8  90383139.798 7  22072484.500                    22072481.560
                                        48.900          45.000



 123185259.603 7  95988497.20846  23441373.140                    23441368.980
                                        44.700          39.600



 115674472.568 8  90135939.48147  22012120.200                    22012116.120
                                        49.150          42.750



 127283343.000 7  99181807.69346  24221222.040                    24221220.820
                                        43.700          36.450



 128866649.586 7 100415590.039 7  24522505.100                    24522508.760
                                        42.250          43.300



 125085805.040 7  97469454.402 7  23803036.740                    23803037.820
                                        47.150          44.600



 23  9 10  9  5 30.0000000  0 11G02G03G04G08G14G17G19G21G22G28G32
 112815979.380 8  87908533.82647  21468165.860                    21468160.780
                                        49.250          45.900



 107294952.776 8  83606464.958 8  20417541.860                    20417541.100
                                        49.650          49.000



 124930359.761 7  97348358.781 7  23773456.100                    23773457.860
                                        42.950          45.400



 130011977.312 6 101308006.551 6  24740474.360                    24740479.520
                                        37.600          41.800



 128293092.807 7  99968612.681 6  24413379.560                    24413379.720
                                        44.250          41.750



 115935771.027 8  90339561.450 7  22061842.220                    22061839.240
                                        48.850          45.300



 123085119.145 7  95910465.72446  23422317.020                    23422312.820
                                        44.500          39.250



 115735354.587 8  90183379.94847  22023705.740                    22023701.640
                                        48.400          42.550



 127330449.106 7  99218513.65146  24230186.100                    24230184.880
                                        43.850          37.250



 128807210.172 7 100369273.774 7  24511194.040                    24511197.620
                                        42.250          42.650



 125164431.874 7  97530721.953 7  23817999.020                    23818000.120
                                        46.950          44.900



 23  9 10  9  6  0.0000000  0 11G02G03G04G08G14G17G19G21G22G28G32
 112862348.249 8  87944665.34747  21476989.600                    21476984.520
                                        49.400          45.700



 107259361.322 8  83578731.357 8  20410769.020                    20410768.280
                                        49.750          49.200



 124818440.402 7  97261149.063 7  23752158.420                    23752160.220
                                        42.650          43.950



 130125599.768 6 101396543.274 6  24762096.140                    24762101.400
                                        37.700          41.700



 128370702.169 7 100029087.354 7  24428148.260                    24428148.420
                                        43.750          42.250



 115880283.554 8  90296324.479 7  22051283.300                    22051280.280
                                        48.850          45.300



 122985279.223 7  95832668.39646  23403318.100                    23403313.880
                                        43.700          40.500



 115796469.378 8  90231001.79147  22035335.540                    22035331.460
                                        48.000          42.950



 127377944.453 7  99255522.92146  24239224.240                    24239223.020
                                        43.200          36.000



 128748155.718 6 100323257.498 7  24499956.260                    24499959.720
                                        41.950          43.200



 125243420.018 7  97592271.029 7  23833030.060                    23833031.200
                                        47.000          44.850



 23  9 10  9  6 30.0000000  0 11G02G03G04G08G14G17G19G21G22G28G32
 112909039.376 8  87981047.99047  21485874.660                    21485869.580
                                        49.600          45.800



 107224210.106 8  83551340.812 8  20404079.920                    20404079.220
                                        50.250          49.250



 124706647.389 6  97174037.808 7  23730884.780                    23730886.580
                                        41.300          44.250



 130239256.190 6 101485106.474 7  24783724.360                    24783729.720
                                        38.050          42.100



 128448556.219 7 100089752.704 7  24442963.520                    24442963.680
                                        44.700          42.250



 115825238.979 8  90253432.616 7  22040808.660                    22040805.620
                                        49.150          45.750



 122885745.183 7  95755109.43946  23384377.360                    23384373.140
                                        43.800          41.500



 115857819.245 8  90278806.80547  22047010.060                    22047006.020
                                        48.350          43.150



 127425829.640 7  99292835.94646  24248336.580                    24248335.360
                                        42.400          36.200



 128689491.665 7 100277545.415 7  24488792.760                    24488796.060
                                        43.250          43.550



 125322769.753 7  97654101.872 7  23848129.920                    23848131.100
                                        46.900          44.800



 23  9 10  9  7  0.0000000  0 11G02G03G04G08G14G17G19G21G22G28G32
 112956049.573 8  88017679.26747  21494820.440                    21494815.320
                                        49.750          45.200



 107189496.593 8  83524291.339 8  20397474.140                    20397473.460
                                        50.250          48.600



 124594980.652 6  97087024.926 7  23709635.160                    23709636.960
                                        41.250          44.050



 130352941.584 6 101573692.208 6  24805358.140                    24805363.620
                                        39.400          41.050



 128526649.175 7 100150604.271 6  24457824.220                    24457824.360
                                        43.900          41.700



 115770636.312 8  90210885.088 7  22030418.140                    22030415.080
                                        49.200          45.550



 122786517.323 7  95677789.08146  23365494.860                    23365490.660
                                        44.400          41.500



 115919401.484 8  90326792.88547  22058728.800                    22058724.820
                                        48.550          43.550



 127474099.679 7  99330448.87245  24257522.120                    24257520.880
                                        43.350          33.950



 128631217.941 7 100232137.488 6  24477703.560                    24477706.720
                                        43.100          41.800



 125402475.981 7  97716210.524 7  23863297.620                    23863298.800
                                        46.700          44.050



 23  9 10  9  7 30.0000000  0 11G02G03G04G08G14G17G19G21G22G28G32
 113003377.158 8  88054557.85847  21503826.640                    21503821.460
                                        49.600          45.450



 107155219.210 8  83497581.705 8  20390951.360                    20390950.660
                                        50.150          48.450



 124483441.061 6  97000111.178 7  23688409.680                    23688411.480
                                        40.500          43.050



 130466651.675 6 101662297.217 6  24826996.620                    24827002.160
                                        39.200          41.650



 128604976.430 7 100211638.360 6  24472729.520                    24472729.680
                                        43.100          41.150



 115716476.106 8  90168682.324 7  22020111.820                    22020108.740
                                        48.850          44.700



 122687597.108 7  95600708.41746  23346670.940                    23346666.760
                                        44.750          40.900



 115981213.479 8  90374958.00047  22070491.240                    22070487.340
                                        48.200          43.050



 127522750.692 7  99368358.65045  24266780.180                    24266778.900
                                        43.650          34.000



 128573335.386 7 100187034.360 7  24466688.820                    24466691.820
                                        43.200          42.300



 125482534.710 7  97778593.811 7  23878532.400                    23878533.620
                                        46.550          44.600



 23  9 10  9  8  0.0000000  0 11G02G03G04G08G14G17G19G21G22G28G32
 113051024.173 8  88091685.35947  21512893.600                    21512888.400
                                        49.650          45.100



 107121380.274 8  83471213.721 8  20384512.020                    20384511.300
                                        50.150          48.350



 124372033.415 6  96913300.237 7  23667209.300                    23667211.100
                                        41.000          43.500



 130580387.230 6 101750922.042 6  24848639.980                    24848645.580
                                        36.900          40.700



 128683537.024 6 100272854.266 7  24487679.240                    24487679.400
                                        41.950          42.550



 115662761.937 8  90126827.141 7  22009890.380                    22009887.240
                                        48.850          44.350



 122588989.615 7  95523871.44446  23327906.540                    23327902.340
                                        45.300          41.550



 116043257.250 8  90423303.70647  22082297.800                    22082293.960
                                        48.250          43.400



 127571783.105 7  99406565.62545  24276110.840                    24276109.520
                                        43.350          32.300



 128515848.900 7 100142239.895 6  24455749.420                    24455752.260
                                        43.300          41.800



 125562945.626 7  97841251.549 7  23893834.200                    23893835.440
                                        46.900          43.700



 23  9 10  9  8 30.0000000  0 11G02G03G04G08G14G17G19G21G22G28G32
 113098992.040 8  88129062.86447  21522021.640                    21522016.400
                                        49.700          45.350



 107087981.470 8  83445188.687 8  20378156.440                    20378155.680
                                        50.150          48.450



 124260761.912 7  96826595.362 7  23646034.840                    23646036.640
                                        42.250          43.450



 130694146.838 6 101839565.572 6  24870287.940                    24870293.620
                                        37.000          39.550



 128762329.536 6 100334250.873 7  24502673.100                    24502673.280
                                        41.500          42.800



 115609497.620 8  90085322.473 7  21999754.540                    21999751.340
                                        48.950          44.050



 122490699.124 7  95447281.48046  23309202.460                    23309198.280
                                        44.900          41.200



 116105534.354 8  90471831.24047  22094148.760                    22094145.000
                                        48.400          43.300



 127621195.844 6  99445068.99246  24285513.840                    24285512.500
                                        41.300          38.000



 128458762.612 7 100097757.263 6  24444886.140                    24444888.800
                                        42.700          41.300



 125643707.972 7  97904183.137 7  23909202.880                    23909204.120
                                        46.900          43.000



 23  9 10  9  9  0.0000000  0 11G02G03G04G08G14G17G19G21G22G28G32
 113147280.130 8  88166689.90047  21531210.620                    21531205.320
                                        49.350          45.550



 107055022.463 8  83419506.358 8  20371884.540                    20371883.760
                                        50.150          48.750



 124149628.795 7  96739998.335 7  23624886.740                    23624888.480
                                        43.050          44.450



 130807928.140 6 101928226.039 6  24891940.000                    24891945.740
                                        36.300          40.700



 128841350.471 6 100395825.482 7  24517710.380                    24517710.640
                                        40.600          42.300



 115556684.889 8  90044169.706 7  21989704.620                    21989701.360
                                        48.700          44.750



 122392728.161 7  95370940.52946  23290559.160                    23290555.000
                                        45.200          41.150



 116168043.540 8  90520539.61847  22106043.880                    22106040.180
                                        48.450          43.500



 127670986.545 6  99483866.82446  24294988.740                    24294987.420
                                        39.400          36.200



 128402078.706 7 100053588.183 7  24434099.460                    24434101.960
                                        43.450          42.550



 125724818.927 7  97967386.370 7  23924637.900                    23924639.120
                                        46.650          42.300



 23  9 10  9  9 30.0000000  0 11G02G03G04G08G14G17G19G21G22G28G32
 113195885.377 8  88204564.06847  21540459.940                    21540454.600
                                        49.250          45.200



 107022499.960 8  83394164.167 8  20365695.700                    20365694.900
                                        50.000          48.750



 124038633.245 7  96653508.492 7  23603764.880                    23603766.540
                                        43.850          44.550



 130921725.158 6 102016898.739 6  24913595.060                    24913600.880
                                        37.900          39.500



 128920593.369 6 100457573.078 6  24532789.860                    24532790.240
                                        40.950          41.600



 115504321.764 8  90003367.262 7  21979740.260                    21979736.960
                                        48.400          45.350



 122295076.388 7  95294848.28346  23271976.620                    23271972.480
                                        45.900          41.450



 116230780.868 8  90569425.76847  22117982.420                    22117978.800
                                        48.900          43.200



 127721149.485 6  99522954.72746  24304534.440                    24304533.160
                                        40.950          37.300



 128345796.396 7 100009732.044 7  24423389.160                    24423391.540
                                        42.350          42.750



 125806272.720 7  98030856.750 7  23940138.160                    23940139.340
                                        46.700          42.250



 23  9 10  9 10  0.0000000  0 11G02G03G04G08G14G17G19G21G22G28G32
 113244808.259 8  88242685.76047  21549769.680                    21549764.320
                                        49.550          45.600



 106990415.491 8  83369163.296 8  20359590.220                    20359589.400
                                        50.050          49.000



 123927779.259 7  96567128.980 7  23582669.940                    23582671.520
                                        44.250          43.850



 131035537.490 6 102105583.378 6  24935253.060                    24935258.920
                                        38.850          41.100



 129000056.657 6 100519492.376 6  24547911.300                    24547911.780
                                        41.700          41.400



 115452411.943 8  89962918.053 7  21969862.140                    21969858.820
                                        48.700          45.550



 122197748.175 7  95219008.15346  23253455.680                    23253451.540
                                        45.750          40.300



 116293747.759 8  90618490.80647  22129964.680                    22129961.080
                                        49.250          42.800



 127771684.045 7  99562332.21446  24314150.860                    24314149.620
                                        42.400          36.250



 128289919.691 7  99966191.928 7  24412756.040                    24412758.340
                                        42.800          43.800



 125888068.390 7  98094593.513 7  23955703.480                    23955704.620
                                        46.850          42.200



 23  9 10  9 10 30.0000000  0 11G02G03G04G08G14G17G19G21G22G28G32
 113294051.071 8  88281056.72247  21559140.320                    21559134.960
                                        49.350          46.100



 106958771.265 8  83344505.466 8  20353568.500                    20353567.680
                                        50.000          49.200



 123817071.601 7  96480863.481 7  23561602.880                    23561604.360
                                        43.850          43.700



 131149364.876 6 102194279.738 6  24956913.940                    24956919.820
                                        39.850          41.550



 129079739.341 6 100581582.662 7  24563074.480                    24563075.060
                                        41.150          42.700



 115400959.252 8  89922825.051 7  21960071.000                    21960067.700
                                        48.300          45.800



 122100748.377 7  95143423.93946  23234997.240                    23234993.080
                                        46.050          41.100



 116356945.593 8  90667735.80447  22141990.900                    22141987.300
                                        48.650          42.950



 127822590.186 6  99601999.21846  24323838.060                    24323836.860
                                        40.200          37.750



 128234453.259 7  99922971.535 7  24402200.960                    24402203.240
                                        42.100          44.350



 125970205.648 7  98158596.456 7  23971333.800                    23971334.900
                                        46.400          42.100



 23  9 10  9 11  0.0000000  0 10G02G03G04G08G17G19G21G22G28G32
 113343613.223 8  88319676.53447  21568571.720                    21568566.360
                                        49.400          46.650



 106927567.048 8  83320190.500 8  20347630.520                    20347629.720
                                        50.100          49.200



 123706512.559 7  96394713.783 7  23540564.100                    23540565.460
                                        43.650          42.950



 131263204.972 6 102282985.970 7  24978577.280                    24978583.200
                                        40.250          42.300



 115349965.376 8  89883089.559 7  21950367.160                    21950363.880
                                        48.250          45.750



 122004079.747 7  95068097.76346  23216601.820                    23216597.660
                                        45.300          41.350



 116420373.892 8  90717160.37347  22154060.980                    22154057.400
                                        48.100          42.500



 127873865.290 6  99641953.67746  24333595.480                    24333594.360
                                        38.300          37.500



 128179399.343 7  99880072.557 7  24391724.360                    24391726.700
                                        42.350          44.050



 126052681.759 7  98222863.441 7  23987028.600                    23987029.660
                                        46.100          42.600



 23  9 10  9 11 30.0000000  0  9G02G03G04G17G19G21G22G28G32
 113393496.001 8  88358546.18047  21578064.140                    21578058.820
                                        49.750          46.500



 106896804.333 8  83296219.567 8  20341776.560                    20341775.760
                                        50.100          48.750



 123596106.248 7  96308683.123 7  23519554.320                    23519555.600
                                        43.250          43.250



 115299433.270 7  89843713.880 7  21940751.200                    21940747.960
                                        47.850          45.400



 121907746.765 7  94993033.13046  23198270.240                    23198266.080
                                        44.850          40.600



 116484034.075 8  90766765.63747  22166175.200                    22166171.580
                                        48.200          42.300



 127925508.657 7  99682195.14345  24343422.880                    24343421.920
                                        42.200          33.900



 128124761.956 7  99837498.146 7  24381327.020                    24381329.400
                                        43.550          44.050



 126135495.850 7  98287393.782 6  24002787.720                    24002788.740
                                        46.150          41.500



 23  9 10  9 12  0.0000000  0  9G02G03G04G17G19G21G22G28G32
 113443689.267 8  88397657.77747  21587615.640                    21587610.360
                                        49.900          46.550



 106866472.970 8  83272584.731 8  20336004.700                    20336003.900
                                        50.250          48.550



 123485845.052 7  96222765.487 7  23498572.180                    23498573.400
                                        43.350          43.500



 115249354.624 7  89804691.560 7  21931221.520                    21931218.320
                                        47.950          45.500



 121811742.028 7  94918224.27346  23180001.120                    23179996.980
                                        44.600          41.250



 116547914.938 8  90816542.84646  22178331.380                    22178327.780
                                        48.550          41.950



 127977507.953 7  99722713.98345  24353318.020                    24353317.160
                                        44.350          34.800



 128070533.385 7  99795242.276 7  24371007.520                    24371009.940
                                        43.000          44.250



 126218635.227 7  98352177.584 7  24018608.720                    24018609.740
                                        45.950          42.650



 23  9 10  9 12 30.0000000  0  9G02G03G04G17G19G21G22G28G32
 113494202.928 8  88437019.02047  21597228.120                    21597222.880
                                        49.800          46.350



 106836583.274 8  83249294.046 8  20330316.900                    20330316.060
                                        50.200          48.600



 123375741.811 7  96136970.925 7  23477620.120                    23477621.280
                                        43.600          44.750



 115199741.611 8  89766032.068 7  21921780.440                    21921777.260
                                        48.050          45.500



 121716078.816 7  94843681.52646  23161796.980                    23161792.880
                                        44.800          40.850



 116612026.491 8  90866499.82747  22190531.480                    22190527.880
                                        48.650          42.500



 128029870.937 7  99763516.20746  24363282.440                    24363281.620
                                        43.950          37.800



 128016726.383 7  99753314.898 7  24360768.240                    24360770.700
                                        43.750          43.550



 126302107.756 7  98417220.983 7  24034493.120                    24034494.160
                                        45.600          42.300



 23  9 10  9 13  0.0000000  0  9G02G03G04G17G19G21G22G28G32
 113545032.952 8  88476626.78847  21606900.800                    21606895.580
                                        49.600          45.900



 106807131.373 8  83226344.515 8  20324712.380                    20324711.540
                                        50.000          48.300



 123265795.289 7  96051298.521 7  23456697.840                    23456698.960
                                        43.800          44.800



 115150592.336 8  89727733.946 7  21912427.620                    21912424.440
                                        48.300          45.000



 121620756.306 7  94769404.27246  23143657.660                    23143653.600
                                        44.500          40.750



 116676364.587 8  90916633.33946  22202774.680                    22202771.100
                                        48.350          41.700



 128082591.655 7  99804597.15146  24373315.020                    24373314.160
                                        43.950          37.550



 127963339.623 7  99711714.951 7  24350609.000                    24350611.460
                                        43.300          43.350



 126385907.187 7  98482519.116 7  24050439.680                    24050440.760
                                        45.650          42.300



 23  9 10  9 13 30.0000000  0  9G02G03G04G17G19G21G22G28G32
 113596181.059 8  88516482.39847  21616634.020                    21616628.840
                                        49.550          46.150



 106778119.615 8  83203737.954 8  20319191.620                    20319190.760
                                        50.300          48.400



 123156010.415 7  95965752.058 7  23435806.360                    23435807.440
                                        43.200          45.400



 115101910.922 8  89689800.379 7  21903163.840                    21903160.660
                                        48.050          45.950



 121525779.817 7  94695396.62546  23125584.200                    23125580.220
                                        43.900          41.050



 116740931.290 7  90966944.97947  22215061.360                    22215057.800
                                        47.750          42.000



 128135669.967 7  99845956.69746  24383415.660                    24383414.800
                                        44.250          38.250



 127910377.860 7  99670446.197 7  24340530.620                    24340533.060
                                        42.100          42.850



 126470033.368 7  98548071.866 7  24066448.440                    24066449.540
                                        45.400          42.400



 23  9 10  9 14  0.0000000  0  9G02G03G04G17G19G21G22G28G32
 113647648.534 8  88556586.88047  21626428.000                    21626422.840
                                        49.800          45.800



 106749549.140 8  83181475.247 8  20313754.860                    20313753.960
                                        50.600          48.300



 123046390.919 7  95880334.465 7  23414946.320                    23414947.360
                                        43.800          45.600



 115053700.289 8  89652233.666 7  21893989.640                    21893986.480
                                        48.750          46.050



 121431152.911 7  94621661.41046  23107577.260                    23107573.300
                                        44.100          41.500



 116805726.823 7  91017434.92547  22227391.580                    22227388.080
                                        47.950          42.450



 128189105.162 7  99887594.37446  24393584.220                    24393583.320
                                        45.250          38.050



 127857844.750 7  99629511.396 7  24330533.860                    24330536.260
                                        42.800          42.050



 126554485.025 7  98613878.219 7  24082519.120                    24082520.280
                                        45.900          43.050



 23  9 10  9 14 30.0000000  0  9G02G03G04G17G19G21G22G28G32
 113699430.847 8  88596936.68547  21636281.900                    21636276.760
                                        49.750          45.750



 106721415.709 8  83159553.088 8  20308401.260                    20308400.320
                                        50.550          48.650



 122936935.177 7  95795044.458 7  23394117.460                    23394118.480
                                        44.000          45.000



 115005957.903 8  89615031.800 7  21884904.580                    21884901.420
                                        49.000          45.800



 121336874.319 7  94548197.62746  23089636.580                    23089632.660
                                        43.950          41.850



 116870746.678 8  91068099.65747  22239764.500                    22239761.060
                                        48.550          43.000



 128242890.355 7  99929504.76546  24403819.380                    24403818.440
                                        44.950          38.300



 127805738.443 7  99588909.159 7  24320618.300                    24320620.640
                                        42.450          42.300



 126639255.487 7  98679932.985 7  24098650.480                    24098651.680
                                        46.150          43.150



 23  9 10  9 15  0.0000000  0  9G02G03G04G17G19G21G22G28G32
 113751529.130 8  88637532.69347  21646195.920                    21646190.820
                                        49.400          45.850



 106693720.618 8  83137972.507 8  20303131.100                    20303130.100
                                        50.250          48.850



 122827647.117 7  95709885.106 7  23373320.520                    23373321.500
                                        44.250          44.950



 114958686.460 8  89578196.932 7  21875909.100                    21875905.960
                                        49.050          45.850



 121242948.758 7  94475008.92647  23071763.080                    23071759.200
                                        44.300          42.750



 116935992.284 8  91118940.31447  22252180.360                    22252176.980
                                        48.700          43.350



 128297024.599 7  99971687.13046  24414120.980                    24414120.040
                                        44.800          38.100



 127754062.747 7  99548642.465 7  24310784.720                    24310786.980
                                        42.750          42.450



 126724343.636 7  98746235.296 7  24114842.320                    24114843.560
                                        45.450          43.350



 23  9 10  9 15 30.0000000  0  9G02G03G04G17G19G21G22G28G32
 113803942.549 8  88678374.26147  21656169.920                    21656164.840
                                        49.650          45.450



 106666463.217 8  83116732.985 8  20297944.200                    20297943.180
                                        50.350          49.050



 122718528.699 7  95624857.919 7  23352555.880                    23352556.800
                                        45.050          45.350



 114911887.581 8  89541730.276 7  21867003.600                    21867000.440
                                        49.150          45.700



 121149378.187 7  94402096.84046  23053957.140                    23053953.280
                                        44.600          41.400



 117001462.106 8  91169955.69647  22264638.900                    22264635.580
                                        48.850          43.500



 128351504.973 7 100014139.21646  24424488.420                    24424487.480
                                        44.850          37.050



 127702819.446 6  99508712.687 6  24301033.380                    24301035.600
                                        41.750          41.900



 126809746.442 7  98812782.799 7  24131094.020                    24131095.300
                                        45.750          43.400



 23  9 10  9 16  0.0000000  0  9G02G03G04G17G19G21G22G28G32
 113856671.685 8  88719461.84947  21666203.980                    21666198.920
                                        49.700          45.250



 106639644.559 8  83095835.325 8  20292840.800                    20292839.760
                                        50.300          48.800



 122609583.608 7  95539965.796 7  23331824.240                    23331825.100
                                        44.750          44.800



 114865564.036 8  89505634.021 7  21858188.540                    21858185.360
                                        48.650          45.650



 121056166.615 7  94329464.47646  23036219.560                    23036215.680
                                        44.500          41.500



 117067156.960 8  91221146.40347  22277140.300                    22277137.000
                                        48.250          43.750



 128406330.033 7 100056859.90546  24434921.440                    24434920.460
                                        45.250          36.750



 127652012.015 7  99469122.554 7  24291365.000                    24291367.180
                                        42.450          42.650



 126895462.476 7  98879574.385 7  24147405.340                    24147406.660
                                        45.800          43.500



 23  9 10  9 16 30.0000000  0  9G02G03G04G17G19G21G22G28G32
 113909717.991 8  88760796.59047  21676298.400                    21676293.320
                                        49.650          44.550



 106613266.246 8  83075280.802 8  20287821.180                    20287820.140
                                        50.350          48.400



 122500816.132 7  95455212.084 7  23311126.440                    23311127.200
                                        43.900          44.600



 114819718.931 8  89469910.568 7  21849464.520                    21849461.320
                                        48.450          45.400



 120963318.843 7  94257115.62147  23018551.160                    23018547.260
                                        43.900          42.400



 117133077.883 7  91272513.26847  22289684.720                    22289681.460
                                        47.850          43.900



 128461499.468 7 100099848.97146  24445419.980                    24445418.960
                                        44.550          37.100



 127601644.529 7  99429875.225 7  24281780.340                    24281782.460
                                        43.150          42.700



 126981491.019 7  98946609.483 7  24163776.140                    24163777.480
                                        45.400          42.700



 23  9 10  9 17  0.0000000  0  9G02G03G04G17G19G21G22G28G32
 113963078.478 8  88802376.15347  21686452.580                    21686447.480
                                        49.550          44.500



 106587325.444 8  83055067.184 8  20282884.840                    20282883.760
                                        50.350          48.600



 122392226.079 7  95370596.595 7  23290462.400                    23290463.100
                                        44.150          44.300



 114774351.290 8  89434559.160 7  21840831.380                    21840828.140
                                        48.650          45.400



 120870834.827 7  94185050.18746  23000952.020                    23000948.100
                                        44.300          41.350



 117199221.422 8  91324053.61047  22302271.500                    22302268.280
                                        48.400          43.350



 128517007.867 7 100143102.09945  24455983.040                    24455982.020
                                        42.650          35.800



 127551716.555 7  99390970.353 7  24272279.340                    24272281.420
                                        43.200          43.050



 127067826.820 7  99013884.010 7  24180205.400                    24180206.760
                                        45.200          42.950



 23  9 10  9 17 30.0000000  0  9G02G03G04G17G19G21G22G28G32
 114016758.190 8  88844204.44347  21696667.540                    21696662.380
                                        49.700          44.550



 106561827.211 8  83035198.435 8  20278032.700                    20278031.580
                                        50.550          48.750



 122283821.124 7  95286125.341 7  23269833.600                    23269834.200
                                        44.300          43.950



 114729468.150 8  89399585.281 7  21832290.420                    21832287.180
                                        48.400          45.650



 120778722.682 7  94113274.50346  22983423.680                    22983419.720
                                        44.000          41.400



 117265592.565 8  91375771.30247  22314901.600                    22314898.400
                                        48.750          42.800



 128572858.226 6 100186621.69346  24466611.160                    24466610.200
                                        40.150          37.600



 127502235.625 7  99352413.794 7  24262863.440                    24262865.480
                                        42.800          42.500



 127154472.517 7  99081400.000 7  24196693.680                    24196695.020
                                        44.400          43.150



 23  9 10  9 18  0.0000000  0  9G02G03G04G17G19G21G22G28G32
 114070752.767 8  88886278.09947  21706942.420                    21706937.200
                                        49.450          44.950



 106536767.407 8  83015671.324 8  20273263.980                    20273262.860
                                        50.550          48.750



 122175599.911 7  95201797.251 7  23249239.740                    23249240.300
                                        45.000          44.800



 114685066.973 8  89364986.978 7  21823841.140                    21823837.900
                                        48.750          45.600



 120686981.415 7  94041787.82946  22965965.880                    22965961.920
                                        44.400          41.950



 117332186.994 8  91427662.99747  22327574.180                    22327570.980
                                        48.400          42.300



 128629043.857 6 100230402.52045  24477303.020                    24477302.160
                                        40.500          34.300



 127453199.974 6  99314204.219 7  24253532.280                    24253534.280
                                        41.950          42.400



 127241421.690 7  99149152.455 7  24213239.720                    24213241.040
                                        44.200          43.050



 23  9 10  9 18 30.0000000  0  9G02G03G04G17G19G21G22G28G32
 114125061.391 8  88928596.44347  21717277.060                    21717271.840
                                        49.150          45.350



 106512145.517 8  82996485.441 8  20268578.600                    20268577.460
                                        50.500          48.750



 122067564.512 7  95117613.939 7  23228681.240                    23228681.760
                                        44.600          45.600



 114641148.719 8  89330764.977 7  21815483.780                    21815480.540
                                        48.850          45.700



 120595613.089 7  93970591.76746  22948579.060                    22948575.080
                                        44.650          41.350



 117399003.650 8  91479727.85347  22340289.040                    22340285.840
                                        48.200          42.250



 128685562.094 6 100274442.54946  24488058.140                    24488057.360
                                        41.350          37.050



 127404611.577 6  99276343.164 7  24244286.180                    24244288.160
                                        41.700          42.350



 127328671.401 7  99217139.090 7  24229842.940                    24229844.280
                                        43.750          43.250



 23  9 10  9 19  0.0000000  0  9G02G03G04G17G19G21G22G28G32
 114179681.166 8  88971157.24947  21727670.900                    21727665.680
                                        49.000          45.100



 106487959.148 8  82977638.922 8  20263976.100                    20263974.960
                                        50.350          48.950



 121959715.277 7  95033575.685 7  23208158.180                    23208158.640
                                        44.850          46.300



 114597713.052 8  89296918.999 7  21807218.280                    21807215.020
                                        48.950          45.600



 120504618.615 7  93899687.02146  22931263.360                    22931259.380
                                        45.000          40.650



 117466039.715 7  91531963.67047  22353045.660                    22353042.480
                                        47.800          42.000



 128742408.199 6 100318738.07045  24498875.660                    24498874.940
                                        40.750          35.450



 127356470.366 6  99238830.541 7  24235125.180                    24235127.180
                                        41.700          42.750



 127416216.890 7  99285356.204 7  24246502.460                    24246503.780
                                        43.600          43.850



 23  9 10  9 19 30.0000000  0  9G02G03G04G17G19G21G22G28G32
 114234616.560 8  89013964.00547  21738124.780                    21738119.580
                                        49.000          44.950



 106464212.714 8  82959135.213 8  20259457.320                    20259456.160
                                        50.150          48.950



 121852059.267 7  94949688.026 7  23187671.840                    23187672.260
                                        43.950          46.500



 114554766.086 8  89263453.829 7  21799045.760                    21799042.500
                                        48.800          45.800



 120414005.437 7  93829079.38547  22914020.220                    22914016.240
                                        44.400          42.200



 117533299.282 7  91584373.64647  22365844.800                    22365841.660
                                        47.350          43.050



 128799584.406 6 100363290.85246  24509755.980                    24509755.320
                                        40.050          37.200



 127308783.231 7  99201671.768 7  24226050.560                    24226052.580
                                        42.200          42.750



 127504060.231 7  99353805.413 7  24263218.640                    24263219.980
                                        43.700          43.900



 23  9 10  9 20  0.0000000  0  9G02G03G04G17G19G21G22G28G32
 114289869.062 8  89057017.85647  21748639.000                    21748633.840
                                        48.700          45.450



 106440907.704 8  82940975.475 8  20255022.520                    20255021.360
                                        50.350          48.950



 121744600.694 7  94865954.186 7  23167223.060                    23167223.480
                                        44.050          46.300



 114512311.145 8  89230372.055 7  21790966.880                    21790963.600
                                        48.200          46.100



 120323777.734 7  93758772.12146  22896850.440                    22896846.460
                                        45.250          40.750



 117600783.696 7  91636958.82646  22378686.700                    22378683.600
                                        47.400          41.800



 128857089.836 6 100408100.09645  24520698.980                    24520698.400
                                        37.900          34.600



 127261554.046 7  99164869.832 7  24217063.120                    24217065.140
                                        42.350          42.550



 127592200.547 7  99422486.026 7  24279991.340                    24279992.700
                                        43.250          43.250



 23  9 10  9 20 30.0000000  0  9G02G03G04G17G19G21G22G28G32
 114345433.487 8  89100314.74947  21759212.580                    21759207.480
                                        48.850          45.050



 106418039.253 8  82923155.905 8  20250670.780                    20250669.640
                                        50.550          48.800



 121637337.393 7  94782372.518 7  23146811.420                    23146811.860
                                        44.700          45.750



 114470344.839 8  89197671.043 7  21782980.940                    21782977.700
                                        48.100          46.050



 120233933.877 7  93688763.97047  22879753.700                    22879749.700
                                        44.850          42.550



 117668487.376 7  91689714.87746  22391570.300                    22391567.260
                                        47.550          41.400



 128914917.358 6 100453160.34145  24531703.220                    24531702.760
                                        37.050          31.500



 127214780.345 7  99128422.823 7  24208162.340                    24208164.380
                                        42.750          42.400



 127680630.692 7  99491392.478 7  24296819.140                    24296820.560
                                        43.300          43.600



 23  9 10  9 21  0.0000000  0  9G02G03G04G17G19G21G22G28G32
 114401308.246 8  89143853.46447  21769845.200                    21769840.180
                                        49.050          45.900



 106395606.011 8  82905675.453 8  20246401.880                    20246400.740
                                        50.300          48.950



 121530270.691 7  94698944.015 7  23126437.220                    23126437.680
                                        45.100          44.700



 114428867.704 8  89165351.212 7  21775088.080                    21775084.880
                                        48.750          46.000



 120144475.719 7  93619056.33447  22862730.380                    22862726.380
                                        44.500          42.650



 117736408.607 7  91742640.44046  22404495.300                    22404492.300
                                        47.750          41.650



 128973063.235 6 100498468.66545  24542768.020                    24542767.700
                                        39.600          34.250



 127168463.195 7  99092331.562 7  24199348.460                    24199350.520
                                        42.600          43.350



 127769346.973 7  99560521.892 7  24313701.400                    24313702.880
                                        43.100          43.800



 23  9 10  9 21 30.0000000  0  9G02G03G04G17G19G21G22G28G32
 114457495.844 8  89187635.95147  21780537.360                    21780532.400
                                        48.800          46.200



 106373610.740 8  82888536.283 8  20242216.320                    20242215.180
                                        50.100          49.150



 121423406.255 7  94615673.092 7  23106101.520                    23106102.000
                                        44.900          44.550



 114387884.405 8  89133416.180 7  21767289.220                    21767286.020
                                        48.500          45.700



 120055408.693 7  93549653.48647  22845781.480                    22845777.480
                                        44.000          42.750



 117804550.127 7  91795737.65847  22417462.240                    22417459.280
                                        47.250          42.000



 129031527.916 6 100544025.42045  24553893.500                    24553893.260
                                        41.150          34.400



 127122607.706 7  99056600.036 7  24190622.440                    24190624.520
                                        42.650          43.050



 127858349.830 7  99629874.618 7  24330638.140                    24330639.720
                                        42.600          44.250



 23  9 10  9 22  0.0000000  0  9G02G03G04G17G19G21G22G28G32
 114513994.833 8  89231661.07847  21791288.780                    21791283.900
                                        49.000          46.450



 106352052.312 8  82871737.515 8  20238113.880                    20238112.760
                                        50.250          49.350



 121316745.497 7  94532560.894 7  23085804.600                    23085805.060
                                        44.900          45.200



 114347395.155 8  89101866.125 7  21759584.360                    21759581.160
                                        48.600          45.900



 119966734.715 7  93480556.90447  22828907.380                    22828903.360
                                        44.800          42.650



 117872910.072 7  91849005.06247  22430470.740                    22430467.840
                                        47.100          42.200



 129090307.842 7 100589827.77445  24565079.040                    24565078.860
                                        42.300          34.550



 127077215.025 7  99021229.130 7  24181984.520                    24181986.620
                                        43.100          43.550



 127947635.691 7  99699447.863 7  24347628.740                    24347630.420
                                        42.900          44.550



 23  9 10  9 22 30.0000000  0  9G02G03G04G17G19G21G22G28G32
 114570806.196 8  89275929.62547  21802099.640                    21802094.820
                                        49.200          45.800



 106330931.488 8  82855279.731 8  20234094.720                    20234093.600
                                        50.300          48.850



 121210292.120 7  94449610.289 7  23065547.140                    23065547.560
                                        44.300          45.450



 114307402.840 8  89070703.289 7  21751974.080                    21751970.860
                                        49.000          45.250



 119878458.209 7  93411770.04946  22812108.900                    22812104.880
                                        45.400          41.800



 117941489.288 7  91902443.32646  22443520.980                    22443518.140
                                        47.300          41.950



 129149401.956 7 100635875.00446  24576324.380                    24576324.220
                                        43.900          36.650



 127032288.476 7  98986221.450 7  24173435.260                    24173437.360
                                        42.900          42.650



 128037203.275 7  99769240.624 7  24364672.960                    24364674.740
                                        42.750          43.850



 23  9 10  9 23  0.0000000  0  9G02G03G04G17G19G21G22G28G32
 114627929.703 8  89320441.38047  21812969.920                    21812965.160
                                        49.550          45.650



 106310248.218 8  82839162.899 8  20230158.820                    20230157.720
                                        50.200          48.700



 121104048.724 7  94366823.321 7  23045329.620                    23045330.020
                                        43.550          45.750



 114267908.834 8  89039928.738 7  21744458.620                    21744455.380
                                        48.800          46.050



 119790581.703 7  93343294.88247  22795386.540                    22795382.520
                                        45.650          43.150



 118010287.317 7  91956052.10046  22456612.840                    22456610.040
                                        47.250          41.800



 129208807.681 7 100682165.02646  24587629.060                    24587628.880
                                        43.850          37.250



 126987830.311 7  98951578.763 7  24164975.160                    24164977.240
                                        43.200          43.000



 128127050.106 7  99839250.980 7  24381770.300                    24381772.200
                                        43.100          43.950



 23  9 10  9 23 30.0000000  0  9G02G03G04G17G19G21G22G28G32
 114685365.738 8  89365196.67647  21823899.700                    21823894.960
                                        49.750          45.100



 106290003.252 8  82823387.597 8  20226306.320                    20226305.220
                                        50.250          48.800



 120998018.817 7  94284202.715 7  23025152.680                    23025153.080
                                        42.750          45.100



 114228915.530 8  89009544.360 7  21737038.420                    21737035.200
                                        48.700          46.050



 119703108.984 7  93275134.34346  22778741.040                    22778737.020
                                        45.600          41.800



 118079304.464 7  92009831.63046  22469746.400                    22469743.620
                                        47.600          41.050



 129268523.305 7 100728696.51746  24598992.740                    24598992.540
                                        42.900          38.150



 126943843.620 7  98917303.467 7  24156604.760                    24156606.800
                                        43.850          42.750



 128217174.679 7  99909477.756 7  24398920.480                    24398922.520
                                        42.750          43.400



 23  9 10  9 24  0.0000000  0  9G02G03G04G17G19G21G22G28G32
 114743113.643 8  89410194.98247  21834888.840                    21834884.100
                                        49.600          44.650



 106270196.153 8  82807953.492 8  20222537.160                    20222536.060
                                        50.500          48.750



 120892204.742 7  94201750.303 7  23005016.800                    23005017.220
                                        43.800          44.800



 114190424.211 8  88979551.118 7  21729713.760                    21729710.560
                                        48.700          45.800



 119616042.776 7  93207290.57746  22762172.900                    22762168.860
                                        45.400          41.550



 118148540.156 7  92063781.42746  22482921.560                    22482918.820
                                        47.150          41.900



 129328546.468 7 100775467.65945  24610414.940                    24610414.700
                                        43.000          35.750



 126900330.265 7  98883397.018 7  24148324.480                    24148326.460
                                        44.000          42.500



 128307574.259 7  99979918.827 7  24416123.020                    24416125.160
                                        43.350          43.150



 23  9 10  9 24 30.0000000  0  9G02G03G04G17G19G21G22G28G32
 114801171.703 8  89455434.96647  21845937.000                    21845932.240
                                        49.150          44.700



 106250825.401 8  82792859.406 8  20218851.020                    20218849.920
                                        50.500          48.850



 120786607.763 7  94119467.039 7  22984922.240                    22984922.660
                                        44.300          44.350



 114152435.228 8  88949949.330 7  21722484.680                    21722481.500
                                        48.350          45.300



 119529384.577 7  93139764.74646  22745682.380                    22745678.300
                                        45.550          41.450



 118217992.504 7  92117900.04047  22496137.980                    22496135.260
                                        46.800          42.600



 129388873.137 7 100822475.31045  24621894.880                    24621894.600
                                        44.400          35.700



 126857291.091 7  98849860.084 7  24140134.400                    24140136.300
                                        43.700          43.050



 128398245.042 7 100050571.218 7  24433377.160                    24433379.420
                                        43.400          43.150



 23  9 10  9 25  0.0000000  0  9G02G03G04G17G19G21G22G28G32
 114859539.435 8  89500916.24847  21857044.080                    21857039.340
                                        49.100          45.050



 106231890.597 8  82778105.019 8  20215247.840                    20215246.720
                                        50.550          48.750



 120681230.257 7  94037354.810 7  22964869.420                    22964869.860
                                        45.000          44.800



 114114950.109 8  88920740.159 7  21715351.460                    21715348.300
                                        48.400          45.650



 119443137.264 7  93072559.07646  22729270.060                    22729265.960
                                        45.350          41.850



 118287660.577 7  92172186.75646  22509395.420                    22509392.760
                                        46.950          41.850



 129449500.447 7 100869717.20246  24633432.060                    24633431.740
                                        45.350          36.100



 126814728.055 7  98816694.147 7  24132034.940                    24132036.740
                                        43.450          42.650



 128489184.409 7 100121432.915 7  24450682.420                    24450684.760
                                        44.550          43.400



 23  9 10  9 25 30.0000000  0  9G02G03G04G17G19G21G22G28G32
 114918215.958 8  89546638.14047  21868209.920                    21868205.180
                                        49.150          44.400



 106213390.857 8  82763689.629 8  20211727.480                    20211726.340
                                        50.050          48.700



 120576074.113 7  93955415.053 7  22944858.760                    22944859.200
                                        45.350          44.100



 114077969.353 8  88891923.993 7  21708314.220                    21708311.060
                                        48.400          45.550



 119357302.710 7  93005675.04347  22712936.260                    22712932.160
                                        45.400          42.600



 118357543.521 7  92226640.92646  22522693.740                    22522691.120
                                        46.750          41.000



 129510425.418 7 100917191.03445  24645025.900                    24645025.560
                                        44.550          35.800



 126772642.562 7  98783900.334 7  24124026.340                    24124028.060
                                        43.350          42.550



 128580389.209 7 100192501.449 7  24468038.200                    24468040.600
                                        44.200          42.450



 23  9 10  9 26  0.0000000  0 10G02G03G04G17G19G21G22G28G31G32
 114977203.210 8  89592602.17547  21879434.860                    21879430.140
                                        49.200          43.950



 106195328.577 8  82749615.121 8  20208290.340                    20208289.200
                                        49.950          48.800



 120471144.560 7  93873651.865 7  22924891.220                    22924891.640
                                        44.950          45.300



 114041496.992 8  88863503.967 7  21701373.760                    21701370.620
                                        48.300          45.400



 119271886.544 7  92939117.01446  22696682.080                    22696677.980
                                        45.550          41.300



 118427643.345 7  92281264.08246  22536033.340                    22536030.740
                                        46.900          40.850



 129571648.200 7 100964896.94446  24656676.380                    24656676.040
                                        44.250          36.650



 126731039.282 7  98751482.267 7  24116109.460                    24116111.120
                                        42.650          42.600



 128683837.575 7 100273133.026 6  24487720.340                    24487722.680
                                        42.600          41.950



 128671859.605 7 100263776.929 6  24485444.540                    24485446.980
                                        44.500          41.700



 23  9 10  9 26 30.0000000  0 10G02G03G04G17G19G21G22G28G31G32
 115036500.319 8  89638807.64747  21890718.800                    21890714.060
                                        49.600          43.850



 106177703.060 8  82735880.953 8  20204936.300                    20204935.180
                                        50.500          48.550



 120366443.611 7  93792066.830 7  22904967.180                    22904967.580
                                        44.750          45.850



 114005533.912 8  88835480.795 7  21694530.180                    21694527.060
                                        48.100          44.750



 119186890.762 7  92872886.56546  22680507.900                    22680503.800
                                        45.700          41.450



 118497958.912 7  92336055.35546  22549413.980                    22549411.400
                                        47.200          40.650



 129633165.647 7 101012832.45945  24668382.960                    24668382.600
                                        43.300          34.750



 126689919.848 7  98719441.222 7  24108284.660                    24108286.280
                                        42.650          42.000



 128603748.977 7 100210726.570 7  24472479.500                    24472482.580
                                        43.200          42.650



 128763592.644 7 100335257.084 6  24502900.860                    24502903.340
                                        45.300          41.750



 23  9 10  9 27  0.0000000  0 10G02G03G04G17G19G21G22G28G31G32
 115096106.820 8  89685254.19547  21902061.600                    21902056.860
                                        49.650          43.900



 106160513.678 8  82722486.632 8  20201665.260                    20201664.160
                                        50.550          48.400



 120261973.485 7  93710661.682 7  22885087.040                    22885087.440
                                        43.600          46.400



 113970081.257 8  88807855.361 7  21687783.720                    21687780.600
                                        48.400          44.600



 119102318.399 7  92806986.05246  22664414.300                    22664410.200
                                        45.800          41.400



 118568489.534 7  92391014.20146  22562835.560                    22562833.000
                                        47.400          40.950



 129694975.012 7 101060995.41045  24680145.060                    24680144.740
                                        42.600          35.200



 126649285.917 7  98687778.505 7  24100552.200                    24100553.820
                                        42.950          42.050



 128523936.565 7 100148535.346 7  24457291.420                    24457294.840
                                        42.850          42.550



 128855585.551 7 100406939.739 6  24520406.640                    24520409.120
                                        45.350          41.200



 23  9 10  9 27 30.0000000  0 10G02G03G04G17G19G21G22G28G31G32
 115156021.239 8  89731940.67247  21913463.000                    21913458.260
                                        49.750          44.200



 106143759.487 8  82709431.417 8  20198477.040                    20198475.920
                                        50.200          48.400



 120157736.026 7  93629437.849 7  22865251.160                    22865251.560
                                        43.050          46.550



 113935139.806 8  88780628.261 7  21681134.560                    21681131.440
                                        48.800          44.250



 119018171.469 7  92741417.03946  22648401.660                    22648397.540
                                        45.850          41.050



 118639233.938 7  92446139.62746  22576297.840                    22576295.260
                                        46.900          40.600



 129757072.970 7 101109383.27646  24691962.040                    24691961.740
                                        42.100          36.400



 126609138.836 7  98656495.163 7  24092912.380                    24092913.960
                                        43.350          42.850



 128444402.817 7 100086561.247 6  24442156.420                    24442159.860
                                        42.100          41.200



 128947835.081 7 100478822.355 6  24537961.300                    24537963.760
                                        44.800          40.900



 23  9 10  9 28  0.0000000  0 10G02G03G04G17G19G21G22G28G31G32
 115216242.259 8  89778866.06247  21924922.780                    21924918.000
                                        50.050          45.000



 106127439.011 8  82696714.152 8  20195371.380                    20195370.240
                                        50.300          48.550



 120053732.555 7  93548396.362 7  22845459.780                    22845460.220
                                        44.000          46.200



 113900709.442 8  88753799.403 7  21674582.660                    21674579.500
                                        48.600          44.600



 118934451.452 7  92676180.69747  22632470.260                    22632466.120
                                        45.600          42.000



 118710190.362 7  92501430.25446  22589800.460                    22589797.900
                                        46.750          41.200



 129819455.725 7 101157993.06145  24703833.200                    24703832.940
                                        42.450          35.850



 126569479.354 7  98625591.755 7  24085365.360                    24085366.920
                                        43.950          42.350



 128365149.602 7 100024805.746 6  24427074.840                    24427078.120
                                        42.800          41.200



 129040337.589 7 100550902.088 6  24555564.080                    24555566.560
                                        44.650          40.800



 23  9 10  9 28 30.0000000  0 10G02G03G04G17G19G21G22G28G31G32
 115276772.727 8  89826032.57847  21936441.440                    21936436.640
                                        49.850          45.300



 106111555.301 8  82684337.223 8  20192348.820                    20192347.660
                                        50.550          49.050



 119949969.063 7  93467541.840 7  22825714.100                    22825714.560
                                        43.700          45.600



 113866795.109 8  88727372.652 7  21668128.980                    21668125.780
                                        48.550          45.050



 118851164.531 7  92611281.84147  22616621.240                    22616617.080
                                        45.800          42.950



 118781361.333 7  92556888.06646  22603343.920                    22603341.360
                                        47.650          41.350



 129882123.998 6 101206825.30246  24715758.720                    24715758.480
                                        41.350          36.900



 126530312.837 7  98595072.509 7  24077912.140                    24077913.640
                                        43.550          42.650



 128286183.708 7  99963274.116 6  24412047.980                    24412051.040
                                        42.700          41.900



 129133094.000 7 100623179.680 6  24573215.180                    24573217.640
                                        44.950          40.950



 23  9 10  9 29  0.0000000  0 10G02G03G04G17G19G21G22G28G31G32
 115337611.589 8  89873439.39847  21948018.800                    21948014.000
                                        49.400          45.550



 106096107.546 8  82672300.005 8  20189409.220                    20189408.060
                                        50.500          48.950



 119846447.400 7  93386875.756 7  22806014.460                    22806014.920
                                        44.250          45.100



 113833397.729 8  88701348.739 7  21661773.660                    21661770.420
                                        48.350          44.850



 118768313.027 7  92546722.24847  22600855.100                    22600850.940
                                        46.200          43.200



 118852746.171 7  92612512.52947  22616928.080                    22616925.520
                                        46.950          42.300



 129945074.712 6 101255877.65246  24727737.940                    24727737.780
                                        41.150          37.750



 126491640.702 7  98564938.462 7  24070553.000                    24070554.460
                                        43.600          42.900



 128207507.489 7  99901968.216 7  24397076.220                    24397079.140
                                        42.300          42.100



 129226101.164 7 100695652.660 6  24590913.980                    24590916.460
                                        44.500          41.300



 23  9 10  9 29 30.0000000  0 10G02G03G04G17G19G21G22G28G31G32
 115398753.808 8  89921082.59547  21959653.880                    21959649.080
                                        48.950          44.650



 106081090.917 8  82660598.723 8  20186551.660                    20186550.480
                                        50.600          48.400



 119743165.629 7  93306396.592 7  22786360.500                    22786360.920
                                        44.800          44.500



 113800513.698 7  88675724.845 7  21655516.020                    21655512.720
                                        47.900          44.700



 118685894.664 7  92482500.16247  22585171.380                    22585167.220
                                        46.000          43.200



 118924339.584 7  92668299.50046  22630551.960                    22630549.400
                                        47.300          41.550



 130008301.018 6 101305144.75046  24739769.600                    24739769.520
                                        41.500          36.250



 126453460.400 7  98535187.659 7  24063287.480                    24063288.900
                                        43.350          42.950



 128129120.078 7  99840887.374 6  24382159.380                    24382162.240
                                        43.200          41.550



 129319352.239 7 100768315.690 6  24608659.200                    24608661.700
                                        44.150          40.800



 23  9 10  9 30  0.0000000  0 10G02G03G04G17G19G21G22G28G31G32
 115460200.730 8  89968963.23847  21971346.900                    21971342.100
                                        48.600          44.550



 106066506.845 8  82649234.495 8  20183776.440                    20183775.240
                                        50.400          48.650



 119640128.041 7  93226107.685 7  22766753.000                    22766753.380
                                        45.000          44.650



 113768146.151 8  88650503.386 7  21649356.660                    21649353.340
                                        48.100          45.650



 118603914.871 7  92418619.83247  22569571.120                    22569566.940
                                        46.300          42.600



 118996142.722 7  92724249.90746  22644215.740                    22644213.160
                                        47.750          41.100



 130071801.753 6 101354625.71545  24751853.480                    24751853.440
                                        40.150          34.100



 126415775.552 7  98505822.941 7  24056116.220                    24056117.600
                                        43.650          43.150



 128051026.254 7  99780035.248 6  24367298.460                    24367301.300
                                        44.000          41.250



 129412846.386 7 100841168.148 6  24626450.660                    24626453.160
                                        43.750          40.850



 23  9 10  9 30 30.0000000  0 10G02G03G04G17G19G21G22G28G31G32
 115521957.200 8  90017085.07747  21983098.820                    21983094.040
                                        48.900          43.750



 106052360.605 8  82638211.441 8  20181084.540                    20181083.300
                                        50.650          49.000



 119537342.711 7  93146015.328 7  22747193.540                    22747193.840
                                        45.400          45.250



 113736302.128 8  88625689.851 7  21643296.940                    21643293.620
                                        48.750          46.200



 118522381.760 7  92355087.56547  22554055.860                    22554051.660
                                        46.750          42.450



 119068160.403 7  92780367.48546  22657920.360                    22657917.780
                                        47.700          40.700



 130135580.171 6 101404322.98445  24763990.240                    24763990.260
                                        40.000          33.700



 126378593.657 7  98476850.123 7  24049040.640                    24049042.000
                                        44.200          43.350



 127973234.679 7  99719418.639 6  24352495.060                    24352497.860
                                        43.800          41.600



 129506586.751 7 100914212.452 6  24644288.960                    24644291.480
                                        43.550          40.100



 23  9 10  9 31  0.0000000  0 10G02G03G04G17G19G21G22G28G31G32
 115584018.050 8  90065444.10547  21994908.640                    21994903.880
                                        48.550          43.950



 106038646.794 8  82627525.354 8  20178474.900                    20178473.640
                                        50.650          48.750



 119434807.110 7  93066117.587 7  22727681.580                    22727681.800
                                        44.850          45.550



 113704977.800 8  88601281.265 7  21637336.140                    21637332.800
                                        48.750          46.000



 118441292.956 7  92291901.51447  22538625.160                    22538620.960
                                        46.400          43.150



 119140387.526 8  92836648.26946  22671664.820                    22671662.220
                                        48.100          41.400



 130199628.409 6 101454230.52046  24776178.320                    24776178.400
                                        40.350          37.300



 126341911.538 7  98448266.771 7  24042060.160                    24042061.460
                                        43.950          42.550



 127895743.569 7  99659036.177 6  24337748.800                    24337751.580
                                        42.550          41.800



 129600565.832 7 100987442.772 6  24662172.700                    24662175.220
                                        43.500          39.600



 23  9 10  9 31 30.0000000  0 10G02G03G04G17G19G21G22G28G31G32
 115646383.492 8  90114040.47147  22006776.420                    22006771.680
                                        48.600          43.800



 106025365.690 8  82617176.430 8  20175947.640                    20175946.340
                                        50.550          48.650



 119332524.309 7  92986416.827 7  22708217.720                    22708217.880
                                        44.650          45.550



 113674174.905 8  88577279.016 7  21631474.560                    21631471.220
                                        48.750          45.800



 118360651.848 7  92229064.34047  22523279.620                    22523275.420
                                        45.850          42.650



 119212823.642 8  92893091.91447  22685449.060                    22685446.420
                                        48.400          42.350



 130263944.465 6 101504346.76745  24788417.340                    24788417.500
                                        41.100          33.050



 126305731.662 7  98420074.758 7  24035175.260                    24035176.540
                                        43.650          42.800



 127818556.691 7  99598890.763 6  24323060.440                    24323063.220
                                        42.900          41.250



 129694781.713 7 101060857.619 6  24680101.460                    24680104.020
                                        43.600          40.050



 23  9 10  9 32  0.0000000  0 10G02G03G04G17G19G21G22G28G31G32
 115709051.981 8  90162872.97047  22018701.880                    22018697.180
                                        48.600          43.550



 106012516.070 8  82607163.716 8  20173502.480                    20173501.140
                                        50.550          48.750



 119230495.974 7  92906914.346 7  22688802.280                    22688802.400
                                        45.950          46.550



 113643893.735 8  88553683.320 7  21625712.240                    21625708.880
                                        48.450          46.100



 118280460.217 7  92166577.38846  22508019.620                    22508015.440
                                        46.450          41.950



 119285467.516 7  92949697.43447  22699272.860                    22699270.180
                                        47.700          42.250



 130328525.060 6 101554669.11645  24800706.740                    24800706.980
                                        41.900          34.600



 126270054.985 7  98392274.850 7  24028386.100                    24028387.340
                                        43.850          42.850



 127741676.418 7  99538984.231 6  24308430.460                    24308433.220
                                        43.850          41.700



 129789231.033 7 101134454.363 6  24698074.640                    24698077.220
                                        43.600          39.900



 23  9 10  9 32 30.0000000  0 10G02G03G04G17G19G21G22G28G31G32
 115772021.928 8  90211940.38647  22030684.680                    22030680.000
                                        48.300          42.650



 106000096.571 8  82597486.174 8  20171139.140                    20171137.800
                                        50.200          48.700



 119128723.655 7  92827611.344 7  22669435.580                    22669435.680
                                        45.950          46.850



 113614134.982 8  88530494.695 7  21620049.320                    21620045.980
                                        48.350          46.400



 118200719.862 7  92104442.07346  22492845.500                    22492841.340
                                        46.800          41.000



 119358317.657 7  93006463.66947  22713135.900                    22713133.220
                                        47.550          42.200



 130393366.257 7 101605194.53345  24813045.780                    24813046.060
                                        42.950          35.050



 126234882.339 7  98364867.684 7  24021692.860                    24021694.100
                                        43.800          42.650



 127665105.023 7  99479318.374 6  24293859.280                    24293862.000
                                        44.350          41.500



 129883910.387 7 101208230.348 6  24716091.620                    24716094.220
                                        43.150          39.750



 23  9 10  9 33  0.0000000  0 10G02G03G04G17G19G21G22G28G31G32
 115835297.537 8  90261245.97147  22042725.680                    22042721.000
                                        48.350          42.450



 105988111.651 8  82588147.259 8  20168858.500                    20168857.160
                                        50.300          48.750



 119027214.565 7  92748513.444 7  22650119.000                    22650119.060
                                        44.700          46.850



 113584904.333 8  88507717.548 7  21614486.920                    21614483.600
                                        48.450          46.200



 118121438.261 7  92042664.23546  22477758.660                    22477754.500
                                        46.300          41.700



 119431377.987 7  93063393.69846  22727038.920                    22727036.240
                                        47.700          41.550



 130458470.255 7 101655924.76445  24825434.800                    24825435.140
                                        43.700          33.500



 126200220.356 7  98337858.445 7  24015096.800                    24015098.040
                                        43.850          43.000



 127588850.165 7  99419899.180 6  24279348.360                    24279351.000
                                        43.750          41.950



 129978822.053 7 101282187.365 6  24734152.780                    24734155.420
                                        43.300          40.050



 23  9 10  9 33 30.0000000  0 10G02G03G04G17G19G21G22G28G31G32
 115898876.976 8  90310788.31547  22054824.480                    22054819.800
                                        48.900          42.100



 105976559.409 8  82579145.502 8  20166660.180                    20166658.840
                                        50.550          48.550



 118925969.748 7  92669621.490 7  22630852.680                    22630852.720
                                        44.100          46.800



 113556201.322 8  88485351.558 7  21609024.940                    21609021.620
                                        48.750          46.000



 118042616.671 7  91981244.86146  22462759.360                    22462755.200
                                        46.400          41.300



 119504646.503 8  93120485.95846  22740981.540                    22740978.860
                                        48.100          40.900



 130523833.169 7 101706856.74545  24837873.120                    24837873.480
                                        43.850          31.650



 126166069.265 7  98311247.279 7  24008597.960                    24008599.180
                                        44.150          42.400



 127512913.660 7  99360728.043 6  24264898.060                    24264900.620
                                        43.200          41.900



 130073962.069 7 101356322.313 6  24752257.400                    24752260.080
                                        43.400          39.500



 23  9 10  9 34  0.0000000  0 10G02G03G04G17G19G21G22G28G31G32
 115962759.878 8  90360567.12647  22066981.040                    22066976.320
                                        49.450          42.500



 105965439.757 8  82570480.822 8  20164544.180                    20164542.860
                                        50.650          48.750



 118824991.929 7  92590937.580 7  22611637.180                    22611637.200
                                        45.100          46.000



 113528027.321 8  88463397.800 7  21603663.600                    21603660.300
                                        48.450          46.150



 117964257.972 7  91920186.14747  22447848.180                    22447844.000
                                        46.850          42.000



 119578123.008 8  93177740.30646  22754963.740                    22754961.020
                                        48.300          40.950



 130589452.579 7 101757988.58945  24850360.260                    24850360.640
                                        44.000          34.150



 126132431.158 7  98285035.842 7  24002196.760                    24002197.980
                                        44.650          42.400



 127437299.004 7  99301807.713 6  24250508.960                    24250511.480
                                        43.550          41.650



 130169328.227 7 101430633.499 6  24770405.020                    24770407.760
                                        43.750          39.700



 23  9 10  9 34 30.0000000  0 10G02G03G04G17G19G21G22G28G31G32
 116026940.301 8  90410577.78647  22079194.220                    22079189.480
                                        49.400          42.950



 105954746.905 8  82562148.717 8  20162509.420                    20162508.080
                                        50.300          49.100



 118724278.234 7  92512459.447 7  22592471.940                    22592471.980
                                        45.550          46.250



 113500378.601 8  88441853.347 7  21598402.220                    21598398.940
                                        48.400          46.550



 117886359.802 7  91859486.31146  22433024.620                    22433020.420
                                        46.900          41.850



 119651801.440 7  93235151.99646  22768984.380                    22768981.640
                                        47.650          41.800



 130655320.308 7 101809313.91045  24862894.660                    24862895.080
                                        44.100          33.850



 126099302.324 7  98259221.238 6  23995892.500                    23995893.660
                                        44.600          41.900



 127362004.139 7  99243136.551 6  24236180.700                    24236183.220
                                        43.750          41.300



 130264912.682 7 101505114.761 6  24788594.220                    24788597.000
                                        43.950          39.800



 23  9 10  9 35  0.0000000  0 10G02G03G04G17G19G21G22G28G31G32
 116091425.593 8  90460825.99047  22091465.440                    22091460.660
                                        48.900          43.300



 105944488.017 8  82554154.766 8  20160557.200                    20160555.920
                                        50.300          49.050



 118623838.731 7  92434194.940 7  22573358.900                    22573358.960
                                        45.200          46.050



 113473263.461 8  88420724.654 7  21593242.380                    21593239.140
                                        48.400          46.150



 117808932.267 7  91799153.20147  22418290.620                    22418286.400
                                        47.500          42.000



 119725688.676 7  93292726.37746  22783044.740                    22783042.000
                                        47.550          41.100



 130721441.279 7 101860836.55845  24875477.240                    24875477.720
                                        43.950          34.900



 126066692.075 7  98233810.722 6  23989686.920                    23989688.000
                                        44.700          41.800



 127287039.410 7  99184722.626 6  24221915.280                    24221917.780
                                        43.250          41.050



 130360720.521 7 101579770.101 6  24806825.920                    24806828.740
                                        43.750          39.750



 23  9 10  9 35 30.0000000  0 11G02G03G04G09G17G19G21G22G28G31G32
 116156212.245 8  90511309.00347  22103794.020                    22103789.220
                                        48.600          43.850



 105934660.039 8  82546496.593 8  20158687.000                    20158685.740
                                        50.250          49.050



 118523673.188 7  92356143.941 7  22554297.980                    22554298.020
                                        45.200          46.400



 130036006.624 6 101326776.864 6  24745028.280                    24745033.820
                                        41.900          40.850



 113446680.244 8  88400010.461 7  21588183.740                    21588180.560
                                        48.150          45.850



 117731975.323 7  91739186.77247  22403646.200                    22403641.960
                                        47.500          42.550



 119799781.326 7  93350460.81146  22797144.200                    22797141.460
                                        47.500          41.550



 130787810.464 7 101912552.64146  24888107.020                    24888107.560
                                        42.450          36.350



 126034599.463 7  98208803.566 7  23983579.860                    23983580.860
                                        44.700          42.750



 127212405.457 7  99126566.445 6  24207712.800                    24207715.280
                                        43.400          40.750



 130456746.617 7 101654595.510 6  24825099.140                    24825102.000
                                        43.550          39.950



 23  9 10  9 36  0.0000000  0 11G02G03G04G09G17G19G21G22G28G31G32
 116221297.116 8  90562024.40347  22116179.320                    22116174.520
                                        48.550          43.800



 105925259.926 8  82539171.832 8  20156898.200                    20156896.960
                                        50.300          48.750



 118423781.514 7  92278306.337 7  22535289.180                    22535289.220
                                        45.600          46.650



 129918930.987 7 101235549.119 6  24722749.360                    24722754.760
                                        42.100          40.950



 113420627.634 8  88379709.724 7  21583226.080                    21583222.940
                                        48.650          45.800



 117655489.372 7  91679587.36147  22389091.400                    22389087.140
                                        47.100          42.900



 119874076.450 7  93408353.02846  22811282.160                    22811279.460
                                        47.350          41.700



 130854422.085 7 101964457.63246  24900782.920                    24900783.520
                                        42.100          36.350



 126003023.558 7  98184199.044 7  23977571.160                    23977572.100
                                        44.550          43.000



 127138102.990 7  99068668.551 6  24193573.440                    24193575.860
                                        43.650          40.850



 130552985.917 7 101729587.056 6  24843412.940                    24843415.840
                                        43.700          39.950



 23  9 10  9 36 30.0000000  0 11G02G03G04G09G17G19G21G22G28G31G32
 116286683.357 8  90612974.63247  22128622.000                    22128617.180
                                        48.950          43.700



 105916290.992 8  82532183.046 8  20155191.480                    20155190.240
                                        50.250          49.050



 118324169.813 7  92200686.903 7  22516333.660                    22516333.700
                                        45.700          46.750



 129801901.702 6 101144357.474 6  24700479.300                    24700484.760
                                        41.950          40.550



 113395110.259 8  88359826.040 7  21578370.280                    21578367.160
                                        48.950          46.200



 117579480.552 7  91620359.75447  22374627.380                    22374623.100
                                        46.800          43.600



 119948576.972 7  93466405.29946  22825459.240                    22825456.540
                                        47.300          41.900



 130921277.492 6 102016552.55445  24913505.220                    24913505.880
                                        41.900          32.850



 125971969.719 7  98160001.313 7  23971661.800                    23971662.680
                                        43.850          42.950



 127064138.497 7  99011034.027 6  24179498.400                    24179500.700
                                        44.250          40.400



 130649439.671 7 101804745.710 6  24861767.560                    24861770.500
                                        44.050          40.600



 23  9 10  9 37  0.0000000  0 11G02G03G04G09G17G19G21G22G28G31G32
 116352368.741 8  90664157.95647  22141121.600                    22141116.760
                                        48.350          43.700



 105907750.879 8  82525528.396 8  20153566.340                    20153565.120
                                        50.200          49.050



 118224838.712 7  92123286.117 7  22497431.520                    22497431.560
                                        45.400          46.700



 129684919.152 6 101053202.296 6  24678218.160                    24678223.600
                                        41.200          40.850



 113370127.250 8  88340358.755 7  21573616.200                    21573613.060
                                        48.550          46.350



 117503949.549 7  91561504.45547  22360254.320                    22360250.020
                                        46.350          42.900



 120023280.426 7  93524615.68546  22839674.920                    22839672.240
                                        46.950          41.350



 130988371.775 7 102068833.63545  24926272.960                    24926273.680
                                        42.850          35.600



 125941437.692 7  98136210.191 7  23965851.700                    23965852.540
                                        43.350          42.750



 126990513.416 7  98953663.944 6  24165487.980                    24165490.180
                                        43.700          40.150



 130746103.471 7 101880068.047 6  24880162.140                    24880165.120
                                        43.900          40.150



 23  9 10  9 37 30.0000000  0 10G02G03G04G09G17G19G21G28G31G32
 116418353.242 7  90715574.34447  22153678.120                    22153673.300
                                        47.550          43.700



 105899640.081 8  82519208.285 8  20152022.920                    20152021.700
                                        50.500          49.000



 118125791.570 7  92046106.618 7  22478583.420                    22478583.460
                                        45.700          46.400



 129567986.583 6 100962086.058 6  24655966.560                    24655971.980
                                        40.800          41.700



 113345680.801 8  88321309.562 7  21568964.200                    21568961.100
                                        48.000          46.250



 117428900.054 7  91503024.36447  22345972.840                    22345968.560
                                        46.700          43.000



 120098187.152 7  93582984.45046  22853929.280                    22853926.640
                                        47.300          41.100



 125911430.045 7  98112827.656 7  23960141.440                    23960142.240
                                        43.400          42.650



 126917231.894 7  98896561.568 6  24151542.940                    24151545.020
                                        42.950          40.000



 130842975.848 7 101955552.900 6  24898596.440                    24898599.440
                                        43.900          39.700



 23  9 10  9 38  0.0000000  0 10G02G03G04G09G17G19G21G28G31G32
 116484635.091 7  90767222.43047  22166291.200                    22166286.420
                                        47.950          43.150



 105891956.812 8  82513221.312 8  20150560.840                    20150559.660
                                        50.700          49.200



 118027029.521 7  91969149.243 7  22459789.600                    22459789.640
                                        45.800          46.900



 129451104.781 6 100871009.503 6  24633724.540                    24633729.940
                                        40.150          41.450



 113321770.461 8  88302678.128 7  21564414.200                    21564411.120
                                        48.350          46.650



 117354333.405 7  91444920.51547  22331783.280                    22331778.980
                                        47.050          42.750



 120173294.972 7  93641509.94146  22868221.900                    22868219.260
                                        47.700          41.300



 125881947.054 7  98089853.959 7  23954530.960                    23954531.720
                                        43.900          43.500



 126844295.459 6  98839728.138 6  24137663.520                    24137665.480
                                        41.850          39.650



 130940052.988 7 102031197.339 6  24917069.680                    24917072.700
                                        43.500          39.600



 23  9 10  9 38 30.0000000  0 10G02G03G04G09G17G19G21G28G31G32
 116551217.439 8  90819104.69347  22178961.440                    22178956.680
                                        48.650          43.450



 105884704.138 8  82507569.863 8  20149180.720                    20149179.560
                                        50.550          49.200



 117928558.538 7  91892418.672 7  22441051.160                    22441051.200
                                        46.050          46.700



 129334279.682 6 100779977.102 7  24611493.320                    24611498.720
                                        40.900          42.150



 113298400.685 8  88284467.911 7  21559967.060                    21559964.040
                                        48.400          46.300



 117280255.743 7  91387197.70247  22317686.740                    22317682.440
                                        46.950          42.250



 120248606.753 7  93700194.34747  22882553.340                    22882550.700
                                        47.300          42.250



 125852993.740 7  98067293.014 7  23949021.320                    23949022.020
                                        44.250          43.250



 126771710.834 7  98783168.876 6  24123850.960                    24123852.860
                                        43.000          40.050



 131037335.970 7 102107002.139 6  24935582.120                    24935585.160
                                        44.250          39.500



 23  9 10  9 39  0.0000000  0 10G02G03G04G09G17G19G21G28G31G32
 116618094.100 8  90871216.29747  22191687.700                    22191682.960
                                        48.700          44.050



 105877876.194 8  82502249.380 8  20147881.440                    20147880.280
                                        50.400          49.200



 117830375.602 7  91815912.568 7  22422367.540                    22422367.560
                                        45.650          47.100



 129217508.015 6 100688986.381 7  24589272.240                    24589277.600
                                        41.000          42.550



 113275567.353 8  88266675.694 7  21555622.020                    21555619.040
                                        48.550          46.200



 117206664.108 7  91329853.58547  22303682.720                    22303678.400
                                        47.000          42.450



 120324116.823 7  93759033.25047  22896922.520                    22896919.920
                                        46.850          42.700



 125824566.274 7  98045141.811 7  23943611.740                    23943612.420
                                        44.100          43.050



 126699475.686 7  98726881.910 6  24110104.900                    24110106.780
                                        43.150          39.950



 131134816.915 7 102182961.241 6  24954132.180                    24954135.220
                                        43.700          39.250



 23  9 10  9 39 30.0000000  0 10G02G03G04G09G17G19G21G28G31G32
 116685267.024 8  90923558.73747  22204470.340                    22204465.640
                                        48.950          44.200



 105871475.159 8  82497261.539 8  20146663.380                    20146662.240
                                        50.250          48.950



 117732485.834 7  91739634.923 7  22403739.680                    22403739.720
                                        46.100          47.200



 129100794.644 6 100598041.134 6  24567062.240                    24567067.520
                                        40.850          41.800



 113253273.575 8  88249303.916 7  21551379.640                    21551376.680
                                        48.350          46.050



 117133563.882 7  91272892.39846  22289772.200                    22289767.860
                                        46.900          41.800



 120399826.671 7  93818027.82447  22911329.700                    22911327.140
                                        46.900          42.050



 125796668.838 7  98023403.644 7  23938303.020                    23938303.620
                                        43.600          42.750



 126627595.669 7  98670871.701 6  24096426.400                    24096428.260
                                        43.300          40.350



 131232496.067 7 102259074.771 6  24972719.980                    24972723.040
                                        43.650          39.800



 23  9 10  9 40  0.0000000  0  9G02G03G04G09G17G19G21G28G31
 116752736.288 8  90976132.10347  22217309.380                    22217304.720
                                        48.800          43.800



 105865501.226 8  82492606.511 8  20145526.580                    20145525.480
                                        50.200          48.850



 117634892.321 7  91663588.146 7  22385168.200                    22385168.220
                                        46.450          46.700



 128984142.555 6 100507143.662 7  24544863.860                    24544869.060
                                        41.700          42.700



 113231521.275 8  88232354.058 7  21547240.320                    21547237.380
                                        48.350          45.800



 117060958.598 7  91216316.86547  22275955.860                    22275951.520
                                        46.750          42.400



 120475736.481 7  93877178.20947  22925774.940                    22925772.420
                                        46.850          42.350



 125769303.664 7  98002080.201 7  23933095.600                    23933096.140
                                        43.750          42.800



 126556074.773 7  98615141.313 6  24082816.240                    24082818.120
                                        43.100          40.050



 23  9 10  9 40 30.0000000  0  9G02G03G04G09G17G19G21G28G31
 116820500.233 8  91028935.09147  22230204.500                    22230199.880
                                        48.700          43.300



 105859952.897 8  82488283.111 8  20144470.780                    20144469.700
                                        50.050          49.000



 117537596.516 7  91587773.328 7  22366653.380                    22366653.380
                                        46.200          46.450



 128867552.919 7 100416294.895 6  24522677.300                    24522682.460
                                        42.000          41.700



 113210310.089 8  88215825.853 7  21543203.960                    21543201.020
                                        48.450          45.700



 116988849.756 7  91160128.16347  22262234.000                    22262229.640
                                        46.750          42.150



 120551844.655 7  93936483.17346  22940257.920                    22940255.440
                                        47.250          41.100



 125742471.180 7  97981171.852 7  23927989.560                    23927990.020
                                        43.100          42.900



 126484915.142 7  98559692.441 6  24069274.840                    24069276.740
                                        43.400          40.950



 23  9 10  9 41  0.0000000  0  9G02G03G04G09G17G19G21G28G31
 116888559.811 8  91081968.45747  22243155.880                    22243151.260
                                        48.750          43.650



 105854831.563 8  82484292.453 8  20143496.220                    20143495.160
                                        50.000          48.750



 117440602.658 7  91512193.788 7  22348196.020                    22348196.020
                                        45.600          45.850



 128751029.928 7 100325498.022 7  24500503.460                    24500508.540
                                        42.900          42.200



 113189643.012 8  88199721.635 7  21539271.160                    21539268.200
                                        48.400          45.600



 116917241.521 7  91104329.55146  22248607.380                    22248603.040
                                        47.400          41.300



 120628152.344 7  93995943.60846  22954778.860                    22954776.420
                                        46.750          40.500



 125716174.764 7  97960681.222 7  23922985.480                    23922985.920
                                        43.400          42.650



 126414121.338 7  98504528.634 6  24055803.060                    24055804.980
                                        44.050          39.200



 23  9 10  9 41 30.0000000  0  9G02G03G04G09G17G19G21G28G31
 116956912.995 8  91135230.58047  22256163.180                    22256158.560
                                        48.650          43.600



 105850134.706 8  82480632.546 8  20142602.400                    20142601.420
                                        50.050          48.550



 117343911.128 7  91436849.835 7  22329796.160                    22329796.140
                                        45.200          45.950



 128634573.654 7 100234753.210 6  24478342.260                    24478347.260
                                        43.150          41.650



 113169518.691 8  88184040.342 7  21535441.620                    21535438.660
                                        48.800          45.900



 116846134.732 7  91048921.69647  22235076.200                    22235071.860
                                        47.200          42.000



 120704656.990 7  94055557.49046  22969337.300                    22969334.900
                                        45.950          41.400



 125690413.816 7  97940607.817 7  23918083.300                    23918083.720
                                        43.500          42.800



 126343694.341 7  98449650.604 6  24042401.140                    24042403.060
                                        43.900          39.000



 23  9 10  9 42  0.0000000  0  9G02G03G04G09G17G19G21G28G31
 117025560.044 7  91188721.70547  22269226.360                    22269221.760
                                        47.650          43.950



 105845863.020 8  82477303.947 8  20141789.500                    20141788.560
                                        50.150          48.450



 117247525.553 7  91361744.305 7  22311454.500                    22311454.460
                                        45.100          45.750



 128518187.696 7 100144063.121 6  24456194.480                    24456199.420
                                        42.400          41.650



 113149939.351 8  88168783.699 7  21531715.800                    21531712.860
                                        49.050          46.000



 116775532.860 7  90993907.26747  22221641.100                    22221636.760
                                        47.100          43.200



 120781358.854 7  94115325.05246  22983933.260                    22983930.900
                                        45.700          41.600



 125665190.985 7  97920953.734 7  23913283.520                    23913283.920
                                        43.300          42.450



 126273638.572 7  98395061.890 6  24029069.820                    24029071.720
                                        43.950          38.050



 23  9 10  9 42 30.0000000  0  9G02G03G04G09G17G19G21G28G31
 117094500.108 7  91242441.14747  22282345.280                    22282340.740
                                        47.350          43.700



 105842015.553 8  82474305.915 8  20141057.320                    20141056.400
                                        50.100          48.700



 117151447.958 7  91286878.746 7  22293171.440                    22293171.400
                                        45.900          46.250



 128401873.789 7 100053429.217 6  24434060.420                    24434065.240
                                        42.850          41.700



 113130905.681 8  88153952.241 7  21528093.860                    21528090.900
                                        48.900          45.650



 116705438.149 7  90939288.04046  22208302.520                    22208298.160
                                        47.100          41.800



 120858257.273 7  94175245.78146  22998566.580                    22998564.280
                                        45.950          41.550



 125640507.209 7  97901719.708 7  23908586.280                    23908586.700
                                        43.650          42.800



 126203956.783 7  98340764.572 6  24015809.680                    24015811.520
                                        44.150          37.700



 23  9 10  9 43  0.0000000  0  9G02G03G04G09G17G19G21G28G31
 117163734.204 7  91296389.69847  22295520.140                    22295515.680
                                        47.500          43.800



 105838593.726 8  82471639.560 8  20140406.140                    20140405.220
                                        50.150          48.850



 117055682.590 7  91212256.503 7  22274947.780                    22274947.720
                                        46.100          46.600



 128285636.122 7  99962854.734 7  24411940.840                    24411945.580
                                        42.650          42.000



 113112420.095 8  88139547.886 7  21524576.180                    21524573.200
                                        48.600          45.300



 116635855.371 7  90885067.72047  22195061.340                    22195056.960
                                        46.950          42.550



 120935353.218 7  94235320.43546  23013237.500                    23013235.240
                                        46.600          40.050



 125616365.815 7  97882908.333 7  23903992.240                    23903992.660
                                        43.100          43.250



 126134653.906 7  98286762.502 6  24002621.640                    24002623.380
                                        43.950          37.350



 23  9 10  9 43 30.0000000  0  9G02G03G04G09G17G19G21G28G31
 117233258.723 7  91350564.56347  22308750.260                    22308745.860
                                        47.150          44.300



 105835594.044 8  82469302.134 8  20139835.300                    20139834.400
                                        50.150          48.850



 116960228.886 7  91137877.091 7  22256783.460                    22256783.380
                                        46.200          46.650



 128169474.002 6  99872339.093 6  24389835.640                    24389840.320
                                        41.050          41.700



 113094480.205 8  88125568.748 7  21521162.360                    21521159.320
                                        48.600          45.200



 116566783.757 7  90831245.69847  22181917.440                    22181913.040
                                        47.150          42.650



 121012642.827 7  94295545.99546  23027945.280                    23027943.040
                                        46.800          40.250



 125592765.167 7  97864518.297 7  23899501.100                    23899501.560
                                        43.350          42.900



 126065729.707 7  98233055.508 6  23989505.660                    23989507.300
                                        44.550          39.600



 23  9 10  9 44  0.0000000  0  9G02G03G04G09G17G19G21G28G31
 117303072.794 7  91404965.03847  22322035.480                    22322031.140
                                        47.150          44.550



 105833015.666 8  82467292.991 8  20139344.640                    20139343.760
                                        50.150          48.600



 116865088.912 7  91063742.170 7  22238678.820                    22238678.720
                                        46.650          46.550



 128053389.333 6  99781883.801 6  24367745.200                    24367749.800
                                        41.800          41.650



 113077086.884 8  88112015.475 7  21517852.560                    21517849.480
                                        48.850          45.350



 116498225.637 7  90777823.81546  22168871.260                    22168866.820
                                        47.750          41.650



 121090125.337 7  94355921.88746  23042689.760                    23042687.520
                                        46.950          41.100



 125569706.339 7  97846550.431 7  23895113.060                    23895113.580
                                        43.200          42.400



 125997186.969 7  98179645.770 6  23976462.240                    23976463.820
                                        45.350          40.350



 23  9 10  9 44 30.0000000  0  9G02G03G04G09G17G19G21G28G31
 117373178.280 8  91459592.60447  22335376.120                    22335371.880
                                        48.450          43.400



 105830860.661 8  82465613.756 8  20138934.560                    20138933.660
                                        50.250          48.400



 116770267.646 7  90989855.592 7  22220634.820                    22220634.700
                                        46.850          46.950



 127937386.992 6  99691492.690 6  24345670.380                    24345674.940
                                        41.700          41.250



 113060243.481 8  88098890.709 7  21514647.400                    21514644.300
                                        49.050          44.900



 116430185.887 7  90724805.84846  22155923.720                    22155919.260
                                        47.850          41.750



 121167802.544 7  94416449.45646  23057471.340                    23057469.120
                                        46.550          40.950



 125547193.234 7  97829007.810 7  23890828.900                    23890829.440
                                        43.900          42.900



 125929031.423 7  98126537.725 6  23963492.560                    23963494.100
                                        45.350          40.700



 23  9 10  9 45  0.0000000  0  9G02G03G04G09G17G19G21G28G31
 117443571.714 7  91514444.57147  22348771.580                    22348767.360
                                        47.900          44.250



 105829125.926 8  82464262.009 8  20138604.440                    20138603.540
                                        50.050          48.700



 116675764.911 7  90916217.210 7  22202651.460                    22202651.300
                                        47.100          47.150



 127821466.701 6  99601165.483 7  24323611.200                    24323615.720
                                        40.150          42.950



 113043947.882 8  88086192.827 7  21511546.460                    21511543.340
                                        48.750          44.750



 116362664.577 7  90672191.84246  22143074.860                    22143070.380
                                        47.500          41.800



 121245671.326 7  94477126.32746  23072289.320                    23072287.160
                                        46.500          40.900



 125525224.598 7  97811889.435 7  23886648.340                    23886648.900
                                        43.500          42.650



 125861263.327 7  98073731.578 6  23950596.620                    23950598.120
                                        45.200          41.250



 23  9 10  9 45 30.0000000  0  9G02G03G04G09G17G19G21G28G31
 117514254.708 7  91569522.15847  22362222.160                    22362217.960
                                        47.800          43.650



 105827812.911 8  82463238.886 8  20138354.560                    20138353.660
                                        50.300          48.400



 116581585.101 7  90842830.451 7  22184729.560                    22184729.380
                                        46.800          46.650



 127705632.692 6  99510905.485 7  24301568.460                    24301572.940
                                        40.500          42.200



 113028203.041 8  88073924.091 7  21508550.360                    21508547.180
                                        48.900          44.900



 116295666.356 7  90619985.45746  22130325.540                    22130321.000
                                        47.400          41.550



 121323732.768 7  94537953.33446  23087143.960                    23087141.840
                                        46.600          40.750



 125503803.699 7  97795197.879 7  23882572.040                    23882572.600
                                        43.850          42.200



 125793887.703 7  98021231.235 6  23937775.400                    23937776.860
                                        45.000          41.300



 23  9 10  9 46  0.0000000  0  9G02G03G04G09G17G19G21G28G31
 117585226.750 8  91624824.99147  22375727.720                    22375723.560
                                        48.000          42.900



 105826921.260 8  82462544.085 8  20138184.880                    20138183.980
                                        50.650          48.550



 116487730.759 7  90769697.295 7  22166869.640                    22166869.400
                                        46.700          45.950



 127589887.451 6  99420714.664 7  24279542.620                    24279547.060
                                        41.900          42.500



 113013009.803 8  88062085.193 7  21505659.200                    21505655.960
                                        49.050          45.100



 116229193.750 7  90568188.63746  22117676.240                    22117671.660
                                        47.300          40.800



 121401986.505 7  94598930.17646  23102035.200                    23102033.120
                                        46.300          40.350



 125482931.985 7  97778934.252 7  23878600.220                    23878600.820
                                        43.700          42.800



 125726907.777 7  97969039.222 6  23925029.480                    23925030.880
                                        45.550          41.100



 23  9 10  9 46 30.0000000  0  9G02G03G04G09G17G19G21G28G31
 117656487.161 7  91680352.51547  22389288.180                    22389284.040
                                        47.300          42.800



 105826450.545 8  82462177.286 8  20138095.320                    20138094.400
                                        50.550          48.450



 116394204.336 7  90696819.664 7  22149072.100                    22149071.800
                                        45.750          44.800



 127474233.354 7  99330594.850 6  24257534.140                    24257538.540
                                        42.500          41.600



 112998369.175 8  88050676.900 7  21502873.220                    21502869.900
                                        48.700          45.400



 116163249.502 7  90516803.49746  22105127.500                    22105122.840
                                        46.850          40.350



 121480432.445 7  94660056.75546  23116963.040                    23116960.980
                                        46.050          40.900



 125462610.832 7  97763099.629 7  23874733.200                    23874733.800
                                        43.200          42.250



 125660326.783 7  97917158.053 6  23912359.460                    23912360.840
                                        45.350          40.950



 23  9 10  9 47  0.0000000  0  9G02G03G04G09G17G19G21G28G31
 117728033.818 7  91736103.06247  22402903.100                    22402899.000
                                        47.200          42.650



 105826398.849 8  82462136.987 8  20138085.500                    20138084.560
                                        50.400          48.850



 116301006.823 7  90624198.330 7  22131337.140                    22131336.780
                                        45.750          45.050



 127358671.324 7  99240546.790 7  24235543.180                    24235547.500
                                        42.000          42.350



 112984280.151 8  88039698.426 7  21500192.180                    21500188.860
                                        48.250          45.950



 116097834.558 7  90465830.84046  22092679.420                    22092674.700
                                        46.800          41.150



 121559067.679 7  94721330.85146  23131926.880                    23131924.860
                                        45.750          40.300



 125442840.069 7  97747693.861 7  23870970.960                    23870971.560
                                        43.000          42.900



 125594146.051 7  97865588.762 6  23899765.640                    23899766.960
                                        45.550          40.950



 23  9 10  9 47 30.0000000  0  9G02G03G04G09G17G19G21G28G31
 117799867.683 7  91792077.42946  22416572.680                    22416568.600
                                        47.000          41.700



 105826767.209 8  82462424.028 8  20138155.600                    20138154.660
                                        50.200          48.600



 116208142.240 7  90551836.407 7  22113665.500                    22113665.140
                                        45.450          46.000



 127243205.231 6  99150573.446 7  24213570.500                    24213574.760
                                        41.200          42.350



 112970745.080 8  88029151.593 7  21497616.560                    21497613.260
                                        48.400          45.800



 116032952.887 7  90415273.71446  22080332.820                    22080328.060
                                        46.200          41.850



 121637893.381 7  94782753.35846  23146926.980                    23146924.980
                                        44.200          41.200



 125423622.536 7  97732719.190 7  23867313.960                    23867314.560
                                        42.200          42.800



 125528369.904 7  97814334.716 6  23887248.800                    23887250.060
                                        44.700          40.300



 23  9 10  9 48  0.0000000  0  9G02G03G04G09G17G19G21G28G31
 117871987.585 7  91848274.68346  22430296.660                    22430292.620
                                        47.050          41.500



 105827554.589 8  82463037.578 8  20138305.420                    20138304.480
                                        50.600          48.200



 116115612.406 7  90479735.356 7  22096057.560                    22096057.160
                                        46.700          45.950



 127127836.849 6  99060676.234 6  24191616.420                    24191620.660
                                        41.300          41.200



 112957764.186 8  88019036.602 7  21495146.360                    21495143.080
                                        48.700          45.100



 115968606.515 7  90365133.69847  22068088.060                    22068083.300
                                        45.850          42.050



 121716908.423 7  94844323.39946  23161963.080                    23161961.160
                                        44.150          41.000



 125404958.933 7  97718176.144 6  23863762.360                    23863762.960
                                        42.050          41.700



 125463001.333 7  97763398.253 6  23874809.520                    23874810.720
                                        45.300          39.100



 23  9 10  9 48 30.0000000  0  9G02G03G04G09G17G19G21G28G31
 117944390.494 7  91904692.44046  22444074.520                    22444070.480
                                        47.050          41.700



 105828757.984 8  82463975.286 8  20138534.440                    20138533.480
                                        50.600          48.400



 116023417.302 7  90407895.099 7  22078513.340                    22078512.920
                                        47.100          45.650



 127012566.086 7  98970855.056 6  24169680.960                    24169685.120
                                        42.000          41.000



 112945335.738 8  88009352.079 7  21492781.320                    21492778.040
                                        48.550          45.300



 115904795.523 7  90315410.87047  22055945.160                    22055940.460
                                        46.600          42.250



 121796109.714 7  94906038.56646  23177034.620                    23177032.800
                                        45.250          40.700



 125386847.955 6  97704063.710 7  23860315.940                    23860316.540
                                        41.950          42.850



 125398040.837 7  97712779.750 6  23862447.920                    23862449.020
                                        45.850          39.250



 23  9 10  9 49  0.0000000  0 10G02G03G04G06G09G17G19G21G28G31
 118017076.570 7  91961330.84746  22457906.280                    22457902.280
                                        47.100          41.500



 105830377.815 8  82465237.494 8  20138842.680                    20138841.720
                                        50.400          48.950



 115931560.209 7  90336318.230 7  22061033.460                    22061033.000
                                        47.350          45.400



 128926113.539 6 100461920.97216  24533824.560                    24533826.600
                                        41.900          41.450



 126897396.200 6  98881112.474 6  24147764.680                    24147768.800
                                        41.700          39.850



 112933461.113 8  88000099.132 7  21490521.640                    21490518.360
                                        48.050          46.050



 115841523.025 7  90266107.64547  22043904.720                    22043900.080
                                        46.650          42.300



 121875497.503 7  94967899.07146  23192141.660                    23192139.900
                                        46.600          39.650



 125369291.775 7  97690383.586 7  23856975.080                    23856975.660
                                        42.300          42.550



 125333491.893 7  97662481.950 6  23850164.640                    23850165.620
                                        45.750          40.650



 23  9 10  9 49 30.0000000  0 10G02G03G04G06G09G17G19G21G28G31
 118090039.059 7  92018184.65146  22471790.620                    22471786.660
                                        47.500          41.950



 105832407.464 8  82466819.051 8  20139228.920                    20139227.940
                                        50.250          48.950



 115840037.385 7  90265001.823 7  22043617.200                    22043616.660
                                        46.800          45.600



 128824271.215 6 100382563.367 6  24514444.820                    24514446.960
                                        41.850          41.700



 126782323.409 6  98791445.551 6  24125866.940                    24125870.920
                                        41.100          38.850



 112922134.930 8  87991273.531 7  21488366.340                    21488363.060
                                        48.100          46.600



 115778785.776 7  90217221.51246  22031966.140                    22031961.560
                                        46.500          41.400



 121955064.933 7  95029899.55346  23207282.920                    23207281.200
                                        46.350          39.700



 125352285.390 7  97677131.845 7  23853738.860                    23853739.460
                                        42.250          42.750



 125269351.831 7  97612502.764 6  23837959.180                    23837960.040
                                        45.200          40.950



 23  9 10  9 50  0.0000000  0 10G02G03G04G06G09G17G19G21G28G31
 118163292.848 7  92075265.44347  22485730.400                    22485726.460
                                        47.850          42.300



 105834862.099 8  82468731.738 8  20139696.040                    20139695.080
                                        50.250          48.700



 115748866.920 7  90193959.981 7  22026268.000                    22026267.400
                                        47.100          46.350



 128722464.280 6 100303233.309 6  24495071.620                    24495073.760
                                        41.750          41.700



 126667365.809 6  98701868.292 6  24103991.180                    24103995.080
                                        41.500          40.850



 112911373.324 7  87982887.840 7  21486318.460                    21486315.220
                                        47.900          46.400



 115716601.759 7  90168766.43046  22020132.880                    22020128.340
                                        47.350          41.000



 122034827.049 7  95092051.74746  23222461.220                    23222459.520
                                        45.400          40.350



 125335845.718 6  97664321.699 7  23850610.500                    23850611.100
                                        41.950          42.700



 125205639.082 7  97562856.536 6  23825835.040                    23825835.820
                                        45.000          40.950



 23  9 10  9 50 30.0000000  0 10G02G03G04G06G09G17G19G21G28G31
 118236828.764 8  92132566.06747  22499723.920                    22499719.960
                                        48.000          42.600



 105837732.589 8  82470968.481 8  20140242.280                    20140241.320
                                        50.400          48.650



 115658042.663 7  90123187.910 7  22008984.680                    22008984.000
                                        46.900          46.650



 128620685.526 7 100223925.233 6  24475703.660                    24475705.860
                                        42.100          41.150



 126552517.114 7  98612375.921 6  24082136.160                    24082139.940
                                        42.800          41.050



 112901168.652 8  87974936.133 7  21484376.580                    21484373.380
                                        48.550          46.700



 115654964.578 7  90120737.47046  22008403.680                    22008399.140
                                        47.600          41.200



 122114774.710 7  95154348.51446  23237674.840                    23237673.120
                                        45.050          38.800



 125319965.290 7  97651947.351 7  23847588.540                    23847589.140
                                        42.100          42.700



 125142348.037 7  97513538.928 6  23813791.120                    23813791.860
                                        44.950          41.000



 23  9 10  9 51  0.0000000  0 10G02G03G04G06G09G17G19G21G28G31
 118310647.424 7  92190087.00047  22513771.240                    22513767.280
                                        47.850          42.550



 105841019.551 8  82473529.747 8  20140867.760                    20140866.800
                                        50.350          48.550



 115567568.055 7  90052688.291 7  21991767.880                    21991767.180
                                        46.450          46.850



 128518937.579 6 100144641.170 6  24456341.560                    24456343.920
                                        41.850          41.550



 126437780.864 7  98522971.190 7  24060302.480                    24060306.200
                                        42.450          42.300



 112891522.509 8  87967419.649 7  21482540.960                    21482537.820
                                        48.750          46.050



 115593877.894 7  90073137.45846  21996779.260                    21996774.700
                                        47.750          41.400



 122194908.452 7  95216790.27046  23252923.860                    23252922.180
                                        44.800          39.300



 125304646.323 6  97640010.486 6  23844673.420                    23844674.040
                                        41.350          41.950



 125079482.959 7  97464553.252 6  23801828.240                    23801828.920
                                        44.350          40.650



 23  9 10  9 51 30.0000000  0 10G02G03G04G06G09G17G19G21G28G31
 118384743.188 7  92247823.85147  22527871.300                    22527867.340
                                        47.950          42.200



 105844717.703 8  82476411.425 8  20141571.500                    20141570.540
                                        50.500          48.900



 115477440.770 7  89982459.310 7  21974617.140                    21974616.440
                                        46.100          46.950



 128417217.176 6 100065378.545 6  24436984.740                    24436987.160
                                        41.900          41.550



 126323154.630 7  98433652.145 7  24038489.760                    24038493.480
                                        43.400          43.550



 112882430.811 8  87960335.200 7  21480810.880                    21480807.760
                                        48.750          46.000



 115533339.510 8  90025964.69347  21985259.220                    21985254.620
                                        48.300          42.350



 122275222.790 7  95279372.73946  23268207.220                    23268205.600
                                        45.250          39.550



 125289885.241 6  97628508.303 7  23841864.480                    23841865.120
                                        41.700          42.800



 125017041.776 7  97415897.881 6  23789945.980                    23789946.680
                                        44.950          41.000



 23  9 10  9 52  0.0000000  0 10G02G03G04G06G09G17G19G21G28G31
 118459117.968 7  92305778.12847  22542024.460                    22542020.460
                                        47.950          42.400



 105848829.169 8  82479615.165 8  20142353.880                    20142352.940
                                        50.400          49.100



 115387665.794 7  89912504.862 7  21957533.440                    21957532.760
                                        46.550          47.000



 128315528.435 7  99986140.592 6  24417633.980                    24417636.420
                                        42.400          41.300



 126208643.442 7  98344422.744 7  24016698.940                    24016702.660
                                        44.500          44.650



 112873896.537 8  87953685.111 7  21479186.860                    21479183.720
                                        48.950          46.250



 115473354.384 7  89979223.05147  21973844.440                    21973839.800
                                        47.900          42.750



 122355719.789 7  95342097.54046  23283525.340                    23283523.800
                                        44.700          40.800



 125275685.657 6  97617443.690 7  23839162.340                    23839163.020
                                        41.500          43.100



 124955030.235 7  97367577.292 6  23778145.480                    23778146.180
                                        45.250          40.950



 23  9 10  9 52 30.0000000  0 10G02G03G04G06G09G17G19G21G28G31
 118533772.202 7  92363950.15346  22556230.800                    22556226.780
                                        47.300          41.800



 105853354.293 8  82483141.227 8  20143214.980                    20143214.060
                                        50.300          49.000



 115298246.381 7  89842827.447 7  21940517.420                    21940516.780
                                        46.900          46.550



 128213873.631 7  99906929.098 6  24398289.640                    24398292.100
                                        42.900          41.350



 126094250.543 7  98255285.516 7  23994930.620                    23994934.360
                                        44.300          44.950



 112865921.061 8  87947470.441 7  21477669.200                    21477666.060
                                        48.850          46.600



 115413925.427 8  89932914.78347  21962535.520                    21962530.840
                                        48.050          42.750



 122436399.450 7  95404964.67946  23298878.220                    23298876.760
                                        43.700          40.650



 125262049.578 7  97606818.160 7  23836567.460                    23836568.160
                                        42.200          43.150



 124893451.976 7  97319594.323 6  23766427.480                    23766428.120
                                        45.350          40.700



 23  9 10  9 53  0.0000000  0 10G02G03G04G06G09G17G19G21G28G31
 118608704.733 7  92422339.02347  22570490.100                    22570486.060
                                        47.650          42.250



 105858292.098 8  82486988.859 8  20144154.600                    20144153.700
                                        50.550          49.000



 115209184.468 7  89773428.593 7  21923569.460                    21923568.840
                                        47.700          46.850



 128112253.905 7  99827744.942 6  24378952.000                    24378954.480
                                        42.550          40.700



 125979977.923 7  98166241.984 7  23973185.200                    23973188.960
                                        43.800          45.200



 112858504.706 8  87941691.432 7  21476257.940                    21476254.820
                                        48.750          46.650



 115355054.930 8  89887041.69547  21951332.860                    21951328.140
                                        48.200          43.250



 122517260.835 7  95467973.41846  23314265.680                    23314264.300
                                        45.400          39.750



 125248977.570 7  97596632.177 7  23834079.920                    23834080.640
                                        42.100          43.350



 124832309.573 7  97271950.982 6  23754792.420                    23754793.000
                                        45.300          40.000



 23  9 10  9 53 30.0000000  0 10G02G03G04G06G09G17G19G21G28G31
 118683914.333 7  92480943.80047  22584802.100                    22584798.060
                                        47.750          42.000



 105863641.748 8  82491157.425 8  20145172.600                    20145171.720
                                        50.400          48.850



 115120482.099 7  89704309.903 7  21906689.940                    21906689.300
                                        47.700          46.900



 128010670.472 7  99748589.041 6  24359621.260                    24359623.720
                                        42.650          40.600



 125865827.614 7  98077293.794 7  23951463.060                    23951466.800
                                        43.300          45.350



 112851647.749 8  87936348.326 7  21474953.140                    21474950.020
                                        48.250          46.750



 115296745.099 7  89841605.47547  21940236.880                    21940232.160
                                        47.400          43.650



 122598302.954 7  95531123.01846  23329687.540                    23329686.200
                                        45.100          39.600



 125236470.325 7  97586886.260 7  23831699.860                    23831700.600
                                        42.800          43.250



 124771605.726 7  97224649.375 6  23743240.820                    23743241.300
                                        44.600          40.700



 23  9 10  9 54  0.0000000  0 10G02G03G04G06G09G17G19G21G28G31
 118759401.830 8  92539765.11347  22599166.980                    22599162.960
                                        48.050          42.050



 105869403.963 8  82495647.461 8  20146269.140                    20146268.260
                                        50.600          48.450



 115032142.880 7  89635474.205 7  21889879.540                    21889878.860
                                        47.700          46.850



 127909126.063 7  99669463.587 6  24340297.960                    24340300.380
                                        43.150          40.300



 125751803.237 7  97988443.700 7  23929764.900                    23929768.660
                                        42.100          44.750



 112845351.673 8  87931442.274 7  21473755.040                    21473751.960
                                        48.850          46.250



 115238999.237 7  89796608.71747  21929248.220                    21929243.500
                                        47.900          43.750



 122679526.283 7  95594413.80146  23345143.940                    23345142.580
                                        45.200          40.200



 125224530.178 7  97577582.208 7  23829427.740                    23829428.500
                                        42.550          42.650



 124711344.303 7  97177692.526 6  23731773.420                    23731773.800
                                        44.300          41.500



 23  9 10  9 54 30.0000000  0 10G02G03G04G06G09G17G19G21G28G31
 118835164.911 8  92598801.17046  22613584.320                    22613580.280
                                        48.350          41.750



 105875576.845 8  82500457.497 8  20147443.800                    20147442.920
                                        50.750          48.450



 114944167.800 7  89566922.250 7  21873138.420                    21873137.720
                                        47.300          45.900



 127807620.875 7  99590368.701 6  24320982.140                    24320984.480
                                        43.250          40.500



 125637905.887 6  97899692.606 7  23908090.880                    23908094.640
                                        41.750          44.150



 112839615.478 8  87926972.496 7  21472663.500                    21472660.420
                                        48.900          46.200



 115181818.471 8  89752052.30247  21918367.080                    21918362.360
                                        48.400          42.550



 122760928.837 7  95657844.22546  23360634.440                    23360633.080
                                        45.650          39.600



 125213156.647 7  97568719.684 7  23827263.440                    23827264.180
                                        42.400          43.100



 124651527.141 7  97131081.849 6  23720390.540                    23720390.860
                                        43.850          41.250



 23  9 10  9 55  0.0000000  0 10G02G03G04G06G09G17G19G21G28G31
 118911202.733 8  92658051.32546  22628053.940                    22628049.880
                                        48.350          41.950



 105882159.536 8  82505586.863 8  20148696.460                    20148695.560
                                        50.750          48.300



 114856558.894 7  89498655.601 7  21856466.980                    21856466.260
                                        46.900          44.850



 127706156.170 7  99511305.349 6  24301674.020                    24301676.320
                                        43.000          40.950



 125524137.549 7  97811042.047 7  23886441.380                    23886445.180
                                        42.550          44.300



 112834439.578 8  87922939.309 7  21471678.580                    21471675.500
                                        49.050          46.050



 115125204.797 8  89707937.75947  21907593.860                    21907589.140
                                        48.350          42.800



 122842509.739 7  95721413.63546  23376158.880                    23376157.520
                                        46.100          40.200



 125202350.473 7  97560299.280 7  23825207.120                    23825207.840
                                        42.650          43.650



 124592156.769 7  97084819.365 6  23709092.620                    23709092.900
                                        43.350          40.600



 23  9 10  9 55 30.0000000  0 10G02G03G04G06G09G17G19G21G28G31
 118987515.893 8  92717516.00847  22642575.960                    22642571.900
                                        48.400          42.250



 105889152.651 8  82511036.035 8  20150027.240                    20150026.320
                                        50.650          48.600



 114769319.664 7  89430676.996 7  21839865.900                    21839865.120
                                        47.200          45.050



 127604734.579 7  99432275.616 6  24282374.100                    24282376.340
                                        43.050          41.350



 125410501.858 7  97722494.816 7  23864817.160                    23864820.980
                                        42.600          42.800



 112829825.841 8  87919344.158 7  21470800.640                    21470797.560
                                        48.800          45.800



 115069161.654 8  89664267.78247  21896929.200                    21896924.500
                                        48.400          42.650



 122924269.670 7  95785122.54946  23391717.420                    23391716.020
                                        45.550          40.150



 125192113.685 7  97552322.527 7  23823259.140                    23823259.880
                                        42.650          43.300



 124533237.036 7  97038907.993 6  23697880.460                    23697880.740
                                        42.900          40.000



 23  9 10  9 56  0.0000000  0 10G02G03G04G06G09G17G19G21G28G31
 119064102.142 8  92777193.49447  22657149.960                    22657145.900
                                        48.450          42.900



 105896554.450 8  82516803.664 8  20151435.780                    20151434.840
                                        50.550          48.600



 114682451.230 7  89362987.334 7  21823335.380                    21823334.520
                                        47.600          46.400



 127503356.484 7  99353279.751 7  24263082.460                    24263084.700
                                        42.600          42.050



 125296999.984 7  97634051.880 7  23843218.380                    23843222.220
                                        42.950          42.900



 112825773.058 8  87916186.125 7  21470029.440                    21470026.360
                                        48.850          46.250



 115013689.763 8  89621042.92747  21886373.280                    21886368.540
                                        48.200          43.200



 123006206.135 7  95848969.01846  23407309.540                    23407308.140
                                        45.300          38.900



 125182445.991 6  97544789.237 7  23821419.480                    23821420.200
                                        41.750          43.500



 124474769.448 7  96993348.957 6  23686754.320                    23686754.600
                                        43.650          40.850



 23  9 10  9 56 30.0000000  0 10G02G03G04G06G09G17G19G21G28G31
 119140959.889 8  92837082.54347  22671775.620                    22671771.560
                                        48.050          42.100



 105904363.454 8  82522888.596 8  20152921.800                    20152920.840
                                        50.850          48.100



 114595955.017 7  89295587.708 7  21806875.680                    21806874.760
                                        47.500          46.300



 127402022.600 7  99274318.336 6  24243799.200                    24243801.440
                                        42.200          41.600



 125183633.453 7  97545714.401 7  23821645.360                    23821649.220
                                        43.550          43.450



 112822280.551 8  87913464.680 7  21469364.860                    21469361.760
                                        48.900          45.850



 114958790.911 8  89578264.60347  21875926.380                    21875921.620
                                        48.450          43.500



 123088318.180 7  95912952.31146  23422935.060                    23422933.660
                                        45.650          38.700



 125173347.412 7  97537699.404 7  23819688.100                    23819688.800
                                        43.300          42.950



 124416756.255 7  96948143.988 6  23675714.620                    23675714.920
                                        44.200          40.550



 23  9 10  9 57  0.0000000  0 10G02G03G04G06G09G17G19G21G28G31
 119218089.261 7  92897183.22747  22686452.980                    22686448.920
                                        47.300          42.450



 105912579.988 8  82529291.086 8  20154485.380                    20154484.380
                                        50.750          48.350



 114509834.200 7  89228480.601 7  21790487.420                    21790486.460
                                        47.300          46.600



 127300735.365 6  99195393.267 6  24224524.800                    24224527.080
                                        41.600          41.600



 125070405.476 7  97457484.887 7  23800098.720                    23800102.600
                                        42.800          43.900



 112819349.849 8  87911180.982 7  21468807.180                    21468804.080
                                        48.750          45.950



 114904468.152 8  89535935.19447  21865589.120                    21865584.320
                                        48.100          43.900



 123170605.876 7  95977072.48746  23438593.980                    23438592.600
                                        45.200          38.850



 125164819.677 7  97531054.388 7  23818065.360                    23818066.040
                                        43.050          43.650



 124359201.013 7  96903295.846 6  23664762.120                    23664762.400
                                        43.650          40.850



 23  9 10  9 57 30.0000000  0 10G02G03G04G06G09G17G19G21G28G31
 119295490.424 7  92957495.69547  22701182.040                    22701178.000
                                        46.800          42.800



 105921204.303 8  82536011.332 8  20156126.540                    20156125.500
                                        50.450          48.250



 114424091.885 7  89161668.442 7  21774171.180                    21774170.200
                                        47.000          46.850



 127199497.151 7  99116506.411 6  24205259.720                    24205262.040
                                        42.050          40.750



 124957319.276 7  97369365.880 7  23778579.040                    23778582.920
                                        42.600          44.150



 112816982.140 8  87909335.985 7  21468356.640                    21468353.540
                                        48.300          46.050



 114850724.567 7  89494057.09747  21855362.040                    21855357.260
                                        47.550          44.550



 123253068.818 7  96041329.19646  23454286.280                    23454284.900
                                        45.250          38.900



 125156864.447 6  97524855.478 7  23816551.580                    23816552.240
                                        41.300          43.700



 124302107.144 7  96858807.250 6  23653897.360                    23653897.640
                                        43.350          40.600



 23  9 10  9 58  0.0000000  0 10G02G03G04G06G09G17G19G21G28G31
 119373159.314 7  93018016.79047  22715962.020                    22715958.040
                                        47.100          42.950



 105930232.191 8  82543046.037 8  20157844.500                    20157843.440
                                        50.200          48.400



 114338726.732 7  89095150.194 7  21757926.680                    21757925.680
                                        46.900          47.200



 127098305.957 7  99037656.179 6  24186003.620                    24186005.940
                                        42.600          40.850



 124844373.623 7  97281356.399 7  23757086.100                    23757090.000
                                        42.150          44.000



 112815174.038 8  87907927.035 7  21468012.620                    21468009.520
                                        48.000          45.950



 114797558.522 7  89452629.04347  21845244.840                    21845240.100
                                        47.800          43.700



 123335703.134 7  96105719.44946  23470011.180                    23470009.800
                                        45.100          39.850



 125149478.870 6  97519100.485 7  23815146.160                    23815146.820
                                        41.300          43.800



 124245474.197 7  96814677.805 6  23643120.360                    23643120.620
                                        43.750          40.550



 23  9 10  9 58 30.0000000  0 10G02G03G04G06G09G17G19G21G28G31
 119451098.656 7  93078748.62147  22730793.480                    22730789.540
                                        46.650          43.550



 105939666.927 8  82550397.763 8  20159639.880                    20159638.820
                                        50.100          48.550



 114253744.932 7  89028930.627 7  21741755.180                    21741754.160
                                        46.550          46.850



 126997167.234 7  98958846.815 6  24166757.520                    24166759.840
                                        43.300          41.500



 124731574.776 7  97193461.353 7  23735621.040                    23735624.940
                                        42.200          44.800



 112813929.627 7  87906957.328 7  21467775.840                    21467772.760
                                        47.100          46.250



 114744975.970 7  89411655.63847  21835238.680                    21835233.980
                                        46.950          44.750



 123418512.277 7  96170245.93346  23485769.360                    23485767.980
                                        44.850          39.800



 125142667.561 6  97513792.966 7  23813850.000                    23813850.700
                                        40.650          43.650



 124189308.859 7  96770912.705 6  23632432.340                    23632432.600
                                        43.950          41.150



 23  9 10  9 59  0.0000000  0 10G02G03G04G06G09G17G19G21G28G31
 119529306.020 7  93139689.31147  22745675.960                    22745672.040
                                        46.800          43.500



 105949506.263 8  82558064.760 8  20161512.280                    20161511.200
                                        50.500          48.450



 114169147.037 7  88963010.231 7  21725656.720                    21725655.680
                                        47.000          46.950



 126896080.941 7  98880078.351 6  24147521.420                    24147523.680
                                        43.850          41.800



 124618923.424 7  97105681.249 7  23714184.080                    23714187.960
                                        43.250          44.850



 112813247.670 8  87906425.925 7  21467646.080                    21467643.020
                                        48.100          46.550



 114692977.780 7  89371137.58947  21825343.700                    21825339.020
                                        47.150          43.700



 123501493.249 7  96234906.29846  23501560.240                    23501558.900
                                        44.850          40.500



 125136429.732 6  97508932.291 7  23812663.000                    23812663.720
                                        41.650          44.400



 124133611.870 7  96727512.544 6  23621833.500                    23621833.760
                                        44.600          41.550



 23  9 10  9 59 30.0000000  0 10G02G03G04G06G09G17G19G21G28G31
 119607782.449 7  93200839.64347  22760609.640                    22760605.780
                                        46.750          42.200



 105959751.265 8  82566047.866 8  20163461.860                    20163460.760
                                        50.750          48.350



 114084936.933 7  88897392.001 7  21709632.040                    21709631.000
                                        47.050          47.250



 126795050.307 7  98801353.236 6  24128295.900                    24128298.100
                                        44.000          40.850



 124506423.604 7  97018019.252 7  23692775.920                    23692779.780
                                        43.750          44.400



 112813129.908 7  87906334.139 7  21467623.680                    21467620.660
                                        47.900          46.350



 114641567.663 7  89331077.75947  21815560.660                    21815555.980
                                        47.850          42.350



 123584647.123 7  96299701.36146  23517384.060                    23517382.760
                                        44.850          40.350



 125130767.696 7  97504520.282 7  23811585.540                    23811586.320
                                        42.450          44.400



 124078387.567 7  96684480.728 6  23611324.580                    23611324.820
                                        44.600          41.800



                            4  1
RINEX FILE SPLICE; other post-header comments skipped       COMMENT
 23  9 10 10  0  0.0000000  0 10G02G03G04G06G09G17G19G21G28G31
 119686525.177 7  93262197.47446  22775593.980                    22775590.180
                                        47.950          41.700



 105970399.388 8  82574345.091 8  20165488.160                    20165487.020
                                        51.450          48.100



 114001114.916 8  88832076.174 7  21693681.220                    21693680.160
                                        48.050          47.250



 126694075.058 7  98722671.284 6  24109080.940                    24109083.080
                                        44.750          40.900



 124394075.775 7  96930475.698 7  23671396.680                    23671400.540
                                        45.200          44.250



 112813574.686 8  87906680.701 7  21467708.320                    21467705.360
                                        48.800          46.100



 114590745.516 8  89291476.09647  21805889.480                    21805884.820
                                        49.250          42.100



 123667971.533 7  96364629.33546  23533240.320                    23533239.060
                                        46.000          38.250



 125125680.181 7  97500555.964 7  23810617.400                    23810618.240
                                        43.900          44.900



 124023637.013 7  96641818.057 6  23600905.820                    23600906.080
                                        45.700          41.650



 23  9 10 10  0 30.0000000  0 10G02G03G04G06G09G17G19G21G28G31
 119765535.629 7  93323763.95547  22790629.240                    22790625.500
                                        47.250          43.350



 105981452.386 8  82582957.800 8  20167591.500                    20167590.340
                                        50.500          48.150



 113917685.647 7  88767066.393 7  21677805.120                    21677804.060
                                        46.900          47.000



 126593159.138 7  98644035.543 6  24089877.220                    24089879.320
                                        43.100          41.250



 124281884.606 7  96843054.235 7  23650047.240                    23650051.100
                                        42.550          43.750



 112814584.420 8  87907467.484 7  21467900.440                    21467897.560
                                        48.200          46.000



 114540515.946 7  89252336.17347  21796331.080                    21796326.420
                                        47.800          43.000



 123751467.979 7  96429691.34446  23549129.280                    23549128.080
                                        44.750          39.750



 125121170.246 7  97497041.705 7  23809759.220                    23809760.100
                                        42.650          44.250



 123969365.269 7  96599528.507 6  23590578.140                    23590578.420
                                        44.100          40.950



 23  9 10 10  1  0.0000000  0 10G02G03G04G06G09G17G19G21G28G31
 119844808.790 7  93385535.14147  22805714.500                    22805710.820
                                        47.500          43.250



 105992905.236 8  82591882.078 8  20169770.940                    20169769.740
                                        50.400          48.350



 113834646.909 7  88702360.916 7  21662003.340                    21662002.280
                                        47.250          46.950



 126492299.789 7  98565443.910 6  24070684.280                    24070686.340
                                        42.850          41.600



 124169848.125 7  96755753.304 7  23628727.240                    23628731.080
                                        43.050          43.700



 112816154.966 7  87908691.250 7  21468199.320                    21468196.460
                                        47.950          45.250



 114490876.691 7  89213656.23747  21786885.040                    21786880.380
                                        47.550          43.200



 123835131.712 7  96494883.72846  23565050.080                    23565048.880
                                        44.600          39.300



 125117234.170 7  97493974.610 7  23809010.200                    23809011.140
                                        42.850          44.100



 123915570.398 7  96557610.514 6  23580341.240                    23580341.520
                                        43.900          40.950



 23  9 10 10  1 30.0000000  0 10G02G03G04G06G09G17G19G21G28G31
 119924345.339 7  93447511.55447  22820849.920                    22820846.280
                                        47.250          43.300



 106004758.852 8  82601118.645 8  20172026.620                    20172025.400
                                        50.550          48.050



 113752002.427 7  88637962.653 7  21646276.600                    21646275.520
                                        47.300          46.850



 126391500.160 7  98486898.829 6  24051502.640                    24051504.680
                                        42.950          41.300



 124057970.130 7  96668575.910 7  23607437.360                    23607441.200
                                        42.650          43.300



 112818288.195 8  87910353.471 7  21468605.280                    21468602.440
                                        48.200          45.350



 114441831.338 7  89175439.08047  21777552.000                    21777547.360
                                        47.700          42.950



 123918962.902 7  96560206.60646  23581002.720                    23581001.540
                                        44.050          39.350



 125113874.071 7  97491356.330 7  23808370.820                    23808371.800
                                        43.350          44.350



 123862256.713 7  96516067.500 6  23570195.860                    23570196.140
                                        43.600          40.300



 23  9 10 10  2  0.0000000  0 10G02G03G04G06G09G17G19G21G28G31
 120004143.752 7  93509692.00847  22836035.160                    22836031.560
                                        46.750          43.800



 106017012.289 8  82610666.760 8  20174358.400                    20174357.140
                                        50.400          48.100



 113669754.064 7  88573873.055 7  21630625.220                    21630624.160
                                        46.700          47.350



 126290761.585 7  98408401.326 6  24032332.660                    24032334.640
                                        43.400          40.600



 123946252.719 7  96581523.622 7  23586178.080                    23586181.860
                                        42.700          44.250



 112820983.781 7  87912453.918 7  21469118.240                    21469115.380
                                        47.950          45.950



 114393381.569 7  89137686.02647  21768332.300                    21768327.660
                                        47.950          44.000



 124002960.437 7  96625659.07746  23596987.020                    23596985.880
                                        43.800          39.700



 125111090.279 7  97489187.119 7  23807841.080                    23807842.100
                                        43.200          44.400



 123809426.296 7  96474901.044 6  23560142.440                    23560142.740
                                        43.300          39.900



 23  9 10 10  2 30.0000000  0 10G02G03G04G06G09G17G19G21G28G31
 120084204.632 7  93572076.99347  22851270.340                    22851266.780
                                        46.250          42.800



 106029665.928 8  82620526.730 7  20176766.300                    20176765.040
                                        50.350          47.900



 113587905.056 7  88510094.639 7  21615049.820                    21615048.780
                                        47.150          47.400



 126190086.724 7  98329953.450 6  24013174.820                    24013176.720
                                        43.700          39.800



 123834699.249 7  96494599.112 7  23564949.960                    23564953.700
                                        43.250          44.550



 112824242.805 8  87914993.392 7  21469738.400                    21469735.560
                                        48.050          45.950



 114345530.340 8  89100399.36047  21759226.500                    21759221.880
                                        48.000          43.450



 124087125.067 7  96691241.76446  23613003.100                    23613002.020
                                        44.500          40.150



 125108884.352 7  97487468.186 7  23807421.320                    23807422.360
                                        43.500          44.500



 123757082.956 7  96434114.138 6  23550181.700                    23550182.000
                                        43.950          39.700



 23  9 10 10  3  0.0000000  0 10G02G03G04G06G09G17G19G21G28G31
 120164526.354 7  93634665.21747  22866555.120                    22866551.660
                                        46.150          43.400



 106042718.335 8  82630697.437 8  20179250.100                    20179248.780
                                        50.350          48.000



 113506456.751 7  88446628.450 7  21599550.700                    21599549.680
                                        47.550          47.150



 126089476.474 7  98251555.887 6  23994029.280                    23994031.100
                                        43.850          38.650



 123723311.252 7  96407803.531 7  23543753.340                    23543757.020
                                        44.100          44.800



 112828064.981 8  87917971.699 7  21470465.740                    21470462.900
                                        48.700          45.700



 114298278.877 8  89063580.04847  21750234.860                    21750230.200
                                        48.100          43.700



 124171454.962 7  96756953.23646  23629050.640                    23629049.600
                                        44.400          40.250



 125107256.037 7  97486199.368 7  23807111.460                    23807112.540
                                        43.350          44.550



 123705228.694 7  96393708.307 6  23540314.040                    23540314.340
                                        44.900          39.900



 23  9 10 10  3 30.0000000  0 10G02G03G04G06G09G17G19G21G28G31
 120245108.689 7  93697456.52247  22881889.520                    22881886.120
                                        46.500          43.700



 106056169.492 8  82641178.852 8  20181809.760                    20181808.440
                                        50.400          48.300



 113425411.920 7  88383476.687 7  21584128.340                    21584127.340
                                        47.650          47.450



 125988933.050 7  98173210.425 6  23974896.480                    23974898.160
                                        42.650          41.150



 123612091.724 7  96321139.213 7  23522588.780                    23522592.400
                                        44.250          44.400



 112832450.408 8  87921388.886 7  21471300.300                    21471297.440
                                        48.750          45.700



 114251629.872 7  89027230.17447  21741357.840                    21741353.180
                                        47.950          43.950



 124255950.086 7  96822793.46746  23645129.600                    23645128.640
                                        44.300          40.500



 125106206.496 7  97485381.552 7  23806911.740                    23806912.820
                                        43.050          44.650



 123653866.802 7  96353686.140 6  23530540.120                    23530540.380
                                        44.850          40.500



 23  9 10 10  4  0.0000000  0 10G02G03G04G06G09G17G19G21G28G31
 120325951.369 7  93760450.70547  22897273.440                    22897270.100
                                        46.200          43.900



 106070019.406 8  82651970.974 8  20184445.300                    20184444.000
                                        50.400          48.650



 113344773.404 7  88320641.516 7  21568783.320                    21568782.320
                                        47.500          47.350



 125888458.813 7  98094918.925 7  23955776.800                    23955778.400
                                        42.950          42.400



 123501043.626 7  96234608.463 7  23501456.860                    23501460.420
                                        44.300          43.700



 112837399.995 8  87925245.689 7  21472242.220                    21472239.300
                                        48.550          45.100



 114205585.953 7  88991351.81047  21732595.960                    21732591.300
                                        47.750          43.250



 124340610.587 7  96888762.54946  23661240.060                    23661239.160
                                        43.950          37.300



 125105736.872 7  97485015.594 7  23806822.380                    23806823.480
                                        43.000          44.000



 123603000.074 7  96314049.788 6  23520860.460                    23520860.660
                                        44.550          40.100



 23  9 10 10  4 30.0000000  0 10G02G03G04G06G09G17G19G21G28G31
 120407051.727 7  93823645.67547  22912706.400                    22912703.140
                                        45.450          43.900



 106084265.665 8  82663071.949 8  20187156.260                    20187154.980
                                        50.400          48.750



 113264541.580 7  88258123.259 7  21553515.700                    21553514.700
                                        47.850          47.600



 125788053.738 7  98016681.276 7  23936670.300                    23936671.840
                                        43.850          43.850



 123390167.583 7  96148211.757 7  23480357.720                    23480361.200
                                        44.250          43.350



 112842911.786 8  87929540.574 7  21473291.120                    21473288.160
                                        48.750          44.950



 114160147.027 7  88955944.88047  21723949.180                    21723944.540
                                        47.650          43.950



 124425433.528 7  96954858.19846  23677381.440                    23677380.600
                                        43.600          39.150



 125105845.901 7  97485100.550 7  23806843.100                    23806844.240
                                        43.100          44.400



 123552629.466 7  96274800.000 6  23511275.240                    23511275.380
                                        44.300          40.800



 23  9 10 10  5  0.0000000  0 10G02G03G04G06G09G17G19G21G28G31
 120488412.294 7  93887043.37547  22928188.880                    22928185.720
                                        45.600          43.350



 106098910.955 8  82674483.843 8  20189943.160                    20189941.920
                                        50.550          48.000



 113184721.874 7  88195926.149 7  21538326.500                    21538325.460
                                        47.600          47.500



 125687722.806 7  97938501.403 7  23917577.900                    23917579.460
                                        43.600          43.650



 123279469.262 7  96061953.503 6  23459292.400                    23459295.800
                                        44.050          41.850



 112848989.345 8  87934276.294 7  21474447.700                    21474444.680
                                        48.950          45.200



 114115318.456 8  88921013.53247  21715418.580                    21715413.920
                                        48.100          43.250



 124510421.524 7  97021082.47346  23693554.200                    23693553.420
                                        44.200          37.300



 125106537.348 7  97485639.315 7  23806974.680                    23806975.840
                                        44.050          44.150



 123502761.058 7  96235941.587 6  23501785.520                    23501785.640
                                        44.200          41.050



 23  9 10 10  5 30.0000000  0 10G02G03G04G06G09G17G19G21G28G31
 120570026.237 7  93950638.50647  22943719.580                    22943716.540
                                        46.100          43.550



 106113948.675 8  82686201.524 7  20192804.760                    20192803.520
                                        50.650          47.850



 113105310.471 7  88134047.197 7  21523215.000                    21523213.940
                                        47.800          47.650



 125587461.732 7  97860375.958 7  23898498.800                    23898500.380
                                        42.850          43.350



 123168945.030 7  95975830.897 7  23438260.220                    23438263.500
                                        44.700          42.900



 112855626.820 8  87939448.325 7  21475710.820                    21475707.740
                                        48.550          45.350



 114071096.463 8  88886554.84047  21707003.420                    21706998.740
                                        48.250          43.800



 124595567.976 7  97087430.22346  23709757.120                    23709756.360
                                        44.750          37.150



 125107805.737 7  97486627.658 7  23807216.040                    23807217.220
                                        44.350          44.550



 123453391.343 7  96197471.728 6  23492390.720                    23492390.840
                                        44.650          40.400



 23  9 10 10  6  0.0000000  0 10G02G03G04G06G09G17G19G21G28G31
 120651896.791 7  94014433.60847  22959299.100                    22959296.180
                                        46.850          42.650



 106129382.262 8  82698227.678 8  20195741.680                    20195740.440
                                        50.800          48.250



 113026313.601 7  88072491.260 7  21508182.360                    21508181.280
                                        47.800          47.650



 125487276.381 7  97782309.530 7  23879434.080                    23879435.740
                                        43.350          43.750



 123058601.453 7  95889849.039 7  23417262.420                    23417265.620
                                        44.900          43.950



 112862828.173 8  87945059.739 7  21477081.240                    21477078.140
                                        48.700          45.100



 114027486.747 7  88852573.25347  21698704.780                    21698700.100
                                        47.700          44.250



 124680876.130 7  97153903.98446  23725990.820                    23725990.100
                                        44.500          39.550



 125109655.505 7  97488069.027 7  23807568.060                    23807569.240
                                        44.550          44.600



 123404526.883 7  96159395.576 6  23483092.060                    23483092.200
                                        45.550          40.750



 23  9 10 10  6 30.0000000  0 10G02G03G04G06G09G17G19G21G28G31
 120734021.327 7  94078426.60847  22974926.980                    22974924.160
                                        46.650          43.200



 106145209.147 8  82710560.301 8  20198753.440                    20198752.200
                                        50.800          48.600



 112947731.424 7  88011258.477 7  21493228.620                    21493227.540
                                        47.700          47.950



 125387166.497 7  97704301.882 7  23860383.720                    23860385.500
                                        43.500          44.000



 122948438.852 7  95804008.202 7  23396299.080                    23396302.180
                                        44.500          44.750



 112870591.500 8  87951109.066 7  21478558.600                    21478555.440
                                        48.400          44.650



 113984489.264 7  88819068.73347  21690522.640                    21690517.960
                                        47.600          44.500



 124766343.278 7  97220501.61946  23742254.800                    23742254.100
                                        44.200          38.700



 125112085.120 7  97489962.222 7  23808030.420                    23808031.580
                                        44.200          44.350



 123356168.160 7  96121713.485 6  23473889.680                    23473889.820
                                        45.050          40.500



 23  9 10 10  7  0.0000000  0 10G02G03G04G06G09G17G19G21G28G31
 120816401.299 7  94142618.65147  22990603.480                    22990600.740
                                        46.150          42.650



 106161430.805 8  82723200.532 8  20201840.360                    20201839.100
                                        50.750          48.750



 112869568.224 7  87950352.153 7  21478354.620                    21478353.520
                                        47.650          47.850



 125287136.035 7  97626356.139 7  23841348.480                    23841350.340
                                        43.200          43.950



 122838461.814 7  95718311.954 7  23375371.040                    23375374.100
                                        44.300          45.400



 112878918.664 8  87957597.757 7  21480143.220                    21480140.000
                                        48.450          44.850



 113942108.004 7  88786044.37747  21682457.740                    21682453.120
                                        47.800          43.750



 124851970.883 7  97287224.26646  23758549.320                    23758548.680
                                        43.900          39.700



 125115097.162 7  97492309.253 7  23808603.600                    23808604.780
                                        44.000          44.250



 123308320.011 7  96084429.246 6  23464784.460                    23464784.560
                                        45.450          40.850



 23  9 10 10  7 30.0000000  0 10G02G03G04G06G09G17G19G21G28G31
 120899032.657 7  94207006.58447  23006327.800                    23006325.140
                                        46.300          43.000



 106178044.227 8  82736146.037 8  20205001.820                    20205000.540
                                        50.700          48.300



 112791823.721 7  87889772.094 7  21463560.280                    21463559.180
                                        47.700          47.300



 125187184.372 7  97548471.816 7  23822328.220                    23822330.160
                                        42.250          43.850



 122728670.313 7  95632760.289 7  23354478.300                    23354481.320
                                        44.300          45.800



 112887807.233 8  87964523.902 7  21481834.680                    21481831.420
                                        48.600          45.550



 113900342.398 8  88753499.75447  21674510.000                    21674505.420
                                        48.100          43.400



 124937755.743 7  97354069.46046  23774873.760                    23774873.160
                                        44.500          39.300



 125118689.570 7  97495108.524 7  23809287.240                    23809288.400
                                        43.850          44.200



 123260982.494 7  96047542.904 6  23455776.420                    23455776.480
                                        45.900          41.150



 23  9 10 10  8  0.0000000  0 10G02G03G04G06G09G17G19G21G28G31
 120981914.748 7  94271589.90347  23022099.840                    23022097.240
                                        46.400          42.200



 106195048.434 8  82749396.035 8  20208237.640                    20208236.360
                                        50.550          48.450



 112714499.626 7  87829519.618 7  21448845.960                    21448844.860
                                        47.200          47.000



 125087312.886 7  97470649.946 7  23803323.240                    23803325.260
                                        42.900          43.200



 122619066.393 7  95547354.792 7  23333621.260                    23333624.260
                                        44.200          46.150



 112897257.069 8  87971887.388 7  21483632.940                    21483629.700
                                        48.100          45.450



 113859194.005 7  88721436.08047  21666679.720                    21666675.120
                                        47.650          44.200



 125023696.577 7  97421036.20246  23791227.880                    23791227.320
                                        44.600          39.150



 125122862.341 7  97498360.008 7  23810081.320                    23810082.480
                                        43.850          44.050



 123214157.587 7  96011055.978 6  23446865.960                    23446865.980
                                        46.500          40.750



 23  9 10 10  8 30.0000000  0 10G02G03G04G06G09G17G19G21G28G31
 121065048.358 7  94336369.20247  23037919.760                    23037917.180
                                        45.700          43.500



 106212444.567 8  82762951.459 8  20211548.020                    20211546.740
                                        50.750          48.300



 112637599.841 7  87769597.788 7  21434212.340                    21434211.220
                                        46.250          46.900



 124987525.196 7  97392893.364 7  23784334.220                    23784336.260
                                        43.350          43.600



 122509654.284 7  95462098.757 7  23312800.720                    23312803.700
                                        44.000          45.600



 112907269.491 8  87979689.255 7  21485538.260                    21485535.020
                                        48.150          45.100



 113818666.157 7  88689855.94547  21658967.520                    21658962.940
                                        47.750          43.950



 125109795.007 7  97488125.78646  23807611.960                    23807611.400
                                        44.300          37.850



 125127617.623 7  97502065.410 7  23810986.240                    23810987.400
                                        43.950          44.550



 123167849.681 7  95974971.881 6  23438053.940                    23438053.880
                                        46.100          41.150



 23  9 10 10  9  0.0000000  0 10G02G03G04G06G09G17G19G21G28G31
 121148431.753 7  94401343.11447  23053787.220                    23053784.680
                                        46.050          43.350



 106230230.891 8  82776810.916 8  20214932.680                    20214931.360
                                        50.800          48.150



 112561125.310 7  87710007.303 7  21419659.640                    21419658.540
                                        46.600          47.100



 124887822.012 7  97315202.635 7  23765361.280                    23765363.340
                                        42.700          43.500



 122400435.156 7  95376993.105 7  23292016.880                    23292019.880
                                        43.600          45.750



 112917843.389 8  87987928.640 7  21487550.420                    21487547.180
                                        48.000          45.200



 113778759.856 7  88658760.12547  21651373.600                    21651369.040
                                        47.950          44.250



 125196048.632 7  97555336.25546  23824025.640                    23824025.040
                                        42.700          38.500



 125132954.574 7  97506224.048 7  23812001.860                    23812003.020
                                        43.850          44.300



 123122059.922 7  95939291.537 6  23429340.500                    23429340.400
                                        45.700          40.950



 23  9 10 10  9 30.0000000  0 10G02G03G04G06G09G17G19G21G28G31
 121232064.586 7  94466511.40447  23069702.140                    23069699.640
                                        46.150          43.350



 106248407.638 8  82790974.601 8  20218391.640                    20218390.280
                                        50.950          48.600



 112485079.053 7  87650750.558 7  21405188.420                    21405187.320
                                        46.900          46.900



 124788205.954 7  97237579.833 7  23746404.900                    23746406.940
                                        43.100          42.600



 122291412.349 7  95292040.450 7  23271270.380                    23271273.380
                                        43.900          45.850



 112928979.335 8  87996606.000 7  21489669.500                    21489666.280
                                        48.000          45.550



 113739477.623 8  88628150.58447  21643898.440                    21643893.920
                                        48.000          44.200



 125282457.585 7  97622667.75946  23840468.840                    23840468.240
                                        42.400          37.950



 125138874.329 7  97510836.820 7  23813128.360                    23813129.540
                                        43.300          44.550



 123076791.898 7  95904017.746 6  23420726.340                    23420726.180
                                        45.550          41.000



 23  9 10 10 10  0.0000000  0 10G02G03G04G06G09G17G19G21G28G31
 121315943.444 7  94531871.41047  23085663.860                    23085661.400
                                        45.900          42.850



 106266971.571 8  82805439.975 8  20221924.260                    20221922.900
                                        50.800          48.450



 112409460.461 7  87591827.054 7  21390798.580                    21390797.500
                                        47.350          46.950



 124688676.292 7  97160024.314 6  23727465.000                    23727467.000
                                        42.900          40.750



 122182585.632 7  95207240.590 7  23250561.180                    23250564.220
                                        44.400          46.200



 112940674.655 7  88005719.221 7  21491895.040                    21491891.840
                                        47.600          45.550



 113700818.452 7  88598026.56347  21636541.860                    21636537.320
                                        47.900          43.400



 125369018.634 7  97690117.76446  23856940.960                    23856940.420
                                        42.750          37.650



 125145374.588 7  97515901.950 7  23814365.320                    23814366.520
                                        43.050          44.050



 123032045.121 7  95869150.130 6  23412211.360                    23412211.160
                                        45.050          41.650



 23  9 10 10 10 30.0000000  0 10G02G03G04G06G09G17G19G21G28G31
 121400068.207 7  94597423.01547  23101672.360                    23101670.000
                                        44.600          42.050



 106285922.785 8  82820207.130 8  20225530.600                    20225529.220
                                        50.650          48.450



 112334272.391 7  87533239.015 7  21376490.680                    21376489.600
                                        47.400          46.800



 124589235.647 7  97082538.114 6  23708542.080                    23708544.000
                                        43.950          41.200



 122073958.151 7  95122595.981 7  23229889.920                    23229892.940
                                        44.150          45.950



 112952929.947 7  88015268.772 7  21494227.120                    21494223.980
                                        47.550          44.850



 113662784.947 7  88568390.08247  21629304.320                    21629299.760
                                        47.400          43.050



 125455731.993 7  97757686.46145  23873442.060                    23873441.600
                                        43.700          34.950



 125152456.310 7  97521420.155 7  23815712.940                    23815714.180
                                        42.900          44.000



 122987823.047 7  95834691.376 6  23403796.180                    23403795.980
                                        44.700          41.650



 23  9 10 10 11  0.0000000  0 10G02G03G04G06G09G17G19G21G28G31
 121484441.380 7  94663168.19847  23117728.120                    23117725.840
                                        44.900          42.050



 106305263.680 8  82835277.941 8  20229211.080                    20229209.680
                                        50.500          48.200



 112259519.930 7  87474990.415 7  21362265.680                    21362264.580
                                        47.150          47.400



 124489888.879 7  97005125.127 7  23689637.000                    23689638.820
                                        43.800          42.200



 121965535.323 7  95038110.837 7  23209257.600                    23209260.600
                                        44.150          45.650



 112965748.046 7  88025256.874 7  21496666.320                    21496663.200
                                        47.250          44.950



 113625381.769 7  88539244.75147  21622186.720                    21622182.160
                                        46.600          44.500



 125542599.495 7  97825375.27646  23889972.500                    23889972.080
                                        43.850          38.500



 125160122.761 6  97527394.000 7  23817171.820                    23817173.060
                                        41.900          43.700



 122944130.995 7  95800645.632 6  23395481.840                    23395481.660
                                        44.400          41.350



 23  9 10 10 11 30.0000000  0 10G02G03G04G06G09G17G19G21G28G31
 121569055.796 7  94729101.36847  23133829.780                    23133827.580
                                        45.050          43.400



 106324987.723 8  82850647.308 8  20232964.460                    20232963.080
                                        50.650          48.250



 112185199.156 7  87417078.205 7  21348122.840                    21348121.720
                                        47.300          47.950



 124390631.898 7  96927782.121 7  23670748.980                    23670750.720
                                        44.600          42.500



 121857313.588 7  94953782.409 7  23188663.540                    23188666.520
                                        43.750          45.450



 112979122.857 8  88035678.766 7  21499211.440                    21499208.360
                                        48.100          44.800



 113588604.756 7  88510587.34447  21615188.260                    21615183.720
                                        47.700          43.750



 125629614.687 7  97893179.18746  23906531.040                    23906530.660
                                        45.050          36.300



 125168368.253 6  97533819.041 7  23818740.880                    23818742.160
                                        41.550          43.700



 122900965.424 7  95767010.118 6  23387267.660                    23387267.560
                                        44.700          41.250



 23  9 10 10 12  0.0000000  0 10G02G03G04G06G09G17G19G21G28G31
 121653916.373 7  94795226.34247  23149978.280                    23149976.160
                                        44.750          42.050



 106345099.894 8  82866319.104 8  20236791.700                    20236790.320
                                        50.700          48.450



 112111317.743 7  87359508.363 8  21334063.580                    21334062.460
                                        47.000          48.000



 124291472.213 7  96850514.908 6  23651879.520                    23651881.180
                                        45.350          41.000



 121749300.977 7  94869616.938 7  23168109.260                    23168112.200
                                        44.850          44.850



 112993059.553 8  88046538.500 7  21501863.520                    21501860.420
                                        48.100          45.000



 113552461.000 8  88482423.37647  21608310.300                    21608305.780
                                        48.100          43.550



 125716782.259 7  97961101.82746  23923118.620                    23923118.240
                                        45.300          37.250



 125177198.552 7  97540699.789 7  23820421.200                    23820422.520
                                        42.100          43.800



 122858334.059 7  95733790.863 6  23379155.140                    23379155.100
                                        45.550          41.200



 23  9 10 10 12 30.0000000  0 10G02G03G04G06G09G17G19G21G28G31
 121739017.663 7  94861538.86946  23166172.600                    23166170.560
                                        44.650          41.400



 106365594.990 8  82882289.285 8  20240691.800                    20240690.440
                                        50.600          48.400



 112037873.178 7  87302278.908 8  21320087.460                    21320086.360
                                        46.350          48.300



 124192407.196 7  96773321.425 6  23633028.060                    23633029.620
                                        44.600          40.200



 121641495.359 7  94785612.720 7  23147594.420                    23147597.320
                                        45.800          44.350



 113007553.626 8  88057832.537 7  21504621.660                    21504618.580
                                        48.000          45.400



 113516947.825 7  88454750.75047  21601552.380                    21601547.860
                                        47.750          43.300



 125804096.991 7  98029139.14346  23939734.200                    23939733.800
                                        44.350          36.300



 125186609.259 7  97548032.807 7  23822211.940                    23822213.300
                                        42.650          43.700



 122816235.134 7  95700986.502 7  23371143.960                    23371143.940
                                        45.900          42.200



 23  9 10 10 13  0.0000000  0 10G02G03G04G06G09G17G19G21G28G31
 121824359.678 7  94928038.96747  23182412.740                    23182410.780
                                        45.000          42.750



 106386473.275 8  82898558.066 8  20244664.820                    20244663.480
                                        50.300          48.300



 111964868.354 7  87245392.131 8  21306194.980                    21306193.940
                                        46.550          48.400



 124093439.589 7  96696203.903 7  23614195.100                    23614196.560
                                        44.850          42.000



 121533899.987 7  94701772.335 7  23127119.600                    23127122.420
                                        46.050          44.100



 113022605.214 7  88069561.018 7  21507485.900                    21507482.820
                                        47.550          45.550



 113482067.685 7  88427571.40747  21594914.920                    21594910.400
                                        47.900          43.500



 125891559.166 7  98097291.29946  23956377.880                    23956377.460
                                        44.200          37.350



 125196601.385 7  97555818.872 7  23824113.360                    23824114.740
                                        42.400          43.800



 122774671.561 7  95668599.328 7  23363234.660                    23363234.640
                                        46.300          42.350



 23  9 10 10 13 30.0000000  0 10G02G03G04G06G09G17G19G21G28G31
 121909943.690 7  94994727.64347  23198698.920                    23198697.020
                                        46.050          42.700



 106407736.373 8  82915126.690 8  20248711.060                    20248709.740
                                        50.300          48.250



 111892307.529 7  87188851.315 8  21292387.000                    21292386.000
                                        47.050          48.400



 123994573.522 7  96619165.469 7  23595381.480                    23595382.840
                                        44.900          42.400



 121426519.485 7  94618099.350 7  23106685.700                    23106688.460
                                        45.450          44.050



 113038216.695 7  88081725.776 7  21510456.660                    21510453.620
                                        47.950          46.050



 113447824.599 7  88400888.50047  21588398.680                    21588394.120
                                        47.150          44.000



 125979170.048 7  98165559.35946  23973049.840                    23973049.380
                                        43.650          38.050



 125207177.291 7  97564059.860 7  23826125.840                    23826127.260
                                        42.550          43.850



 122733647.706 7  95636632.711 6  23355428.080                    23355428.040
                                        45.900          41.850



 23  9 10 10 14  0.0000000  0 10G02G03G04G06G09G17G19G21G28G31
 121995767.077 7  95061602.87546  23215030.640                    23215028.780
                                        46.800          40.850



 106429382.053 8  82931993.429 8  20252830.120                    20252828.820
                                        50.250          48.050



 111820191.103 7  87132656.782 8  21278663.600                    21278662.660
                                        47.700          48.100



 123895809.381 7  96542206.494 7  23576587.220                    23576588.520
                                        44.250          43.250



 121319354.682 7  94534594.460 7  23086292.840                    23086295.520
                                        44.800          44.650



 113054386.071 8  88094325.282 7  21513533.580                    21513530.580
                                        48.100          45.850



 113414218.138 7  88374701.63247  21582003.600                    21581999.040
                                        47.100          43.950



 126066927.401 7  98233941.54046  23989749.660                    23989749.200
                                        43.250          37.350



 125218335.513 7  97572754.597 7  23828249.160                    23828250.560
                                        42.850          43.350



 122693164.534 7  95605087.402 6  23347724.420                    23347724.340
                                        46.250          41.900



 23  9 10 10 14 30.0000000  0 10G02G03G04G06G09G17G19G21G28G31
 122081829.290 7  95128664.21046  23231407.860                    23231405.960
                                        46.350          41.100



 106451410.005 8  82949158.057 8  20257021.880                    20257020.600
                                        50.050          48.050



 111748521.411 7  87076810.354 7  21265025.260                    21265024.300
                                        47.650          47.600



 123797149.414 7  96465328.696 7  23557812.780                    23557814.060
                                        44.150          42.550



 121212408.278 7  94451259.751 7  23065941.520                    23065944.140
                                        44.650          45.150



 113071113.209 8  88107359.368 7  21516716.680                    21516713.720
                                        48.400          46.000



 113381250.507 7  88349012.56247  21575730.060                    21575725.500
                                        47.600          43.200



 126154830.765 7  98302437.49645  24006477.260                    24006476.760
                                        43.200          35.050



 125230076.434 7  97581903.395 7  23830483.360                    23830484.720
                                        43.000          42.950



 122653224.793 7  95573965.559 6  23340124.160                    23340124.020
                                        45.550          41.150



 23  9 10 10 15  0.0000000  0 10G02G03G04G06G09G17G19G21G28G31
 122168127.968 7  95195909.80746  23247830.080                    23247828.140
                                        45.450          41.800



 106473818.157 8  82966618.934 8  20261286.020                    20261284.740
                                        50.100          48.300



 111677298.932 7  87021312.409 7  21251472.020                    21251471.040
                                        47.750          47.350



 123698594.062 7  96388532.373 7  23539058.240                    23539059.520
                                        43.950          42.950



 121105681.230 7  94368095.946 7  23045631.960                    23045634.560
                                        45.350          46.000



 113088396.467 8  88120826.802 7  21520005.620                    21520002.660
                                        48.300          45.750



 113348921.687 7  88323821.28147  21569578.080                    21569573.500
                                        47.550          44.000



 126242877.954 6  98371045.55046  24023232.220                    24023231.660
                                        41.500          37.600



 125242398.628 7  97591505.121 7  23832828.200                    23832829.520
                                        43.150          43.500



 122613829.127 7  95543267.705 6  23332627.380                    23332627.200
                                        45.700          41.950



 23  9 10 10 15 30.0000000  0 10G02G03G04G06G09G17G19G21G28G31
 122254664.963 7  95263341.05547  23264297.660                    23264295.740
                                        44.900          42.350



 106496608.200 8  82984377.393 8  20265622.800                    20265621.560
                                        50.300          48.250



 111606528.014 8  86966166.297 7  21238004.740                    21238003.720
                                        48.000          46.950



 123600147.636 7  96311820.950 7  23520324.440                    23520325.680
                                        44.250          43.250



 120999178.262 7  94285106.751 7  23025365.020                    23025367.640
                                        45.650          45.800



 113106237.756 8  88134729.073 7  21523400.740                    21523397.780
                                        48.750          45.950



 113317235.307 7  88299130.59247  21563548.360                    21563543.800
                                        47.400          43.500



 126331070.844 6  98439767.07846  24040014.900                    24040014.360
                                        41.050          37.350



 125255304.509 7  97601561.686 7  23835284.120                    23835285.380
                                        43.300          43.200



 122574982.003 7  95512997.282 6  23325235.000                    23325234.740
                                        45.750          41.550



 23  9 10 10 16  0.0000000  0 10G02G03G04G06G09G17G19G21G28G31
 122341436.271 7  95330954.88147  23280809.800                    23280807.940
                                        44.900          42.000



 106519777.092 8  83002431.048 8  20270031.700                    20270030.480
                                        50.550          48.300



 111536208.190 8  86911371.684 7  21224623.300                    21224622.220
                                        48.300          47.050



 123501809.715 7  96235194.100 7  23501611.260                    23501612.500
                                        43.600          44.500



 120892899.371 7  94202292.140 7  23005140.740                    23005143.360
                                        45.800          45.950



 113124634.295 8  88149063.985 7  21526901.560                    21526898.600
                                        48.600          45.700



 113286190.634 7  88274939.92447  21557640.740                    21557636.220
                                        47.750          43.400



 126419405.628 6  98508599.17246  24056824.560                    24056824.080
                                        41.550          37.050



 125268791.647 7  97612071.179 7  23837850.620                    23837851.840
                                        42.600          44.050



 122536683.202 7  95483154.144 7  23317946.940                    23317946.620
                                        45.300          42.300



 23  9 10 10 16 30.0000000  0 10G02G03G04G06G09G17G19G21G28G31
 122428439.327 7  95398749.30247  23297366.020                    23297364.240
                                        45.100          42.550



 106543322.005 8  83020777.693 8  20274512.160                    20274510.960
                                        50.550          48.600



 111466339.188 8  86856928.357 7  21211327.660                    21211326.540
                                        48.000          47.050



 123403580.049 7  96158651.594 7  23482918.720                    23482919.920
                                        44.050          44.200



 120786844.736 7  94119652.279 7  22984959.160                    22984961.760
                                        45.350          46.400



 113143583.359 8  88163829.461 7  21530507.500                    21530504.520
                                        48.050          46.200



 113255787.029 8  88251248.79047  21551855.140                    21551850.620
                                        48.000          43.850



 126507879.928 6  98577539.99746  24073660.760                    24073660.320
                                        41.850          38.550



 125282857.808 7  97623031.847 7  23840527.300                    23840528.520
                                        42.750          44.150



 122498932.793 7  95453738.306 6  23310763.240                    23310762.860
                                        45.200          41.800



 23  9 10 10 17  0.0000000  0 10G02G03G04G06G09G17G19G21G28G31
 122515675.654 7  95466725.50347  23313966.640                    23313964.920
                                        46.050          42.300



 106567244.921 8  83039418.897 8  20279064.560                    20279063.380
                                        50.500          48.800



 111396925.574 7  86802839.901 7  21198118.660                    21198117.460
                                        47.850          47.150



 123305463.263 7  96082197.016 7  23464247.680                    23464248.860
                                        44.750          44.100



 120681019.438 7  94037191.105 7  22964821.220                    22964823.800
                                        44.900          46.550



 113163087.260 8  88179027.247 7  21534219.040                    21534216.060
                                        48.400          46.150



 113226028.389 7  88228060.25547  21546192.240                    21546187.700
                                        47.750          44.200



 126596494.982 7  98646590.52645  24090523.720                    24090523.360
                                        42.850          34.600



 125297505.597 7  97634445.735 7  23843314.660                    23843315.860
                                        42.650          44.100



 122461735.494 7  95424753.475 6  23303684.800                    23303684.340
                                        45.700          41.950



 23  9 10 10 17 30.0000000  0 10G02G03G04G06G09G17G19G21G28G31
 122603143.522 7  95534882.13247  23330611.340                    23330609.660
                                        46.250          42.400



 106591544.215 8  83058353.396 8  20283688.580                    20283687.420
                                        50.350          48.600



 111327968.282 7  86749107.011 7  21184996.500                    21184995.240
                                        47.650          46.700



 123207460.315 7  96005831.162 7  23445598.280                    23445599.460
                                        44.500          44.850



 120575424.785 7  93954909.663 7  22944727.160                    22944729.720
                                        43.950          46.350



 113183144.380 8  88194656.141 7  21538035.820                    21538032.840
                                        48.100          45.950



 113196915.211 7  88205374.66247  21540652.200                    21540647.660
                                        47.800          44.100



 126685249.239 7  98715749.54646  24107413.180                    24107412.840
                                        42.650          36.300



 125312733.928 7  97646312.008 7  23846212.460                    23846213.680
                                        42.800          43.850



 122425092.529 7  95396200.592 7  23296711.820                    23296711.320
                                        44.700          42.300



 23  9 10 10 18  0.0000000  0 10G02G03G04G06G09G17G19G21G28G31
 122690842.221 7  95603218.60547  23347300.000                    23347298.340
                                        44.400          42.350



 106616219.802 8  83077581.103 8  20288384.200                    20288383.060
                                        50.350          48.250



 111259469.725 7  86695731.569 7  21171961.620                    21171960.300
                                        47.700          46.950



 123109573.805 7  95929556.037 7  23426971.060                    23426972.240
                                        44.150          44.800



 120470063.772 7  93872810.287 7  22924677.520                    22924680.080
                                        43.650          46.500



 113203754.942 8  88210716.267 7  21541957.920                    21541954.960
                                        48.850          45.850



 113168449.709 7  88183193.72147  21535235.420                    21535230.880
                                        47.850          44.550



 126774142.791 7  98785017.09745  24124329.160                    24124328.860
                                        42.000          35.500



 125328543.284 7  97658631.013 7  23849220.860                    23849222.080
                                        42.950          44.000



 122389006.834 7  95368081.940 7  23289844.920                    23289844.360
                                        44.650          42.850



 23  9 10 10 18 30.0000000  0 10G02G03G04G06G09G17G19G21G28G31
 122778772.155 7  95671735.26847  23364032.620                    23364031.000
                                        43.550          42.300



 106641272.290 8  83097102.506 8  20293151.540                    20293150.420
                                        50.500          48.100



 111191433.114 7  86642716.076 7  21159014.680                    21159013.280
                                        47.700          47.100



 123011806.942 7  95853374.135 7  23408366.600                    23408367.780
                                        44.550          43.950



 120364940.056 7  93790895.798 7  22904673.020                    22904675.620
                                        45.500          46.200



 113224919.684 8  88227208.229 7  21545985.500                    21545982.520
                                        49.000          45.650



 113140634.052 8  88161519.18347  21529942.280                    21529937.760
                                        48.400          44.050



 126863175.612 7  98854393.16846  24141271.660                    24141271.380
                                        42.750          36.200



 125344934.820 7  97671403.683 7  23852340.020                    23852341.260
                                        42.700          44.200



 122353481.288 7  95340399.775 7  23283084.580                    23283084.020
                                        44.400          42.250



 23  9 10 10 19  0.0000000  0 10G02G03G04G06G09G17G19G21G28G31
 122866929.040 7  95740428.77946  23380808.420                    23380806.840
                                        45.200          40.750



 106666697.652 8  83116914.454 8  20297989.840                    20297988.740
                                        50.350          48.600



 111123856.897 7  86590059.338 8  21146155.300                    21146153.860
                                        47.450          48.000



 122914158.380 7  95777284.402 7  23389784.640                    23389785.840
                                        44.100          44.600



 120260052.615 7  93709165.391 7  22884713.500                    22884716.140
                                        45.200          45.900



 113246634.655 8  88244128.951 7  21550117.780                    21550114.780
                                        48.600          45.600



 113113466.315 7  88140349.51147  21524772.440                    21524767.960
                                        47.900          44.900



 126952343.834 7  98923874.72346  24158239.920                    24158239.700
                                        42.300          36.300



 125361904.998 7  97684627.238 7  23855569.320                    23855570.560
                                        42.250          44.750



 122318514.860 7  95313153.312 7  23276430.580                    23276430.040
                                        44.550          42.700



 23  9 10 10 19 30.0000000  0 10G02G03G04G06G09G17G19G21G28G31
 122955311.740 7  95809298.26846  23397627.180                    23397625.600
                                        45.800          40.750



 106692494.986 8  83137016.246 8  20302898.940                    20302897.840
                                        50.400          48.250



 111056742.729 7  86537762.638 8  21133383.860                    21133382.380
                                        47.150          48.400



 122816629.932 7  95701288.272 7  23371225.540                    23371226.760
                                        43.750          43.950



 120155403.573 7  93627620.765 7  22864799.340                    22864801.980
                                        45.650          45.050



 113268899.192 8  88261477.881 7  21554354.660                    21554351.640
                                        49.000          45.450



 113086947.743 7  88119685.66447  21519726.140                    21519721.700
                                        47.700          45.350



 127041646.501 7  98993461.05346  24175233.760                    24175233.600
                                        42.350          36.950



 125379453.453 6  97698301.379 7  23858908.640                    23858909.920
                                        41.400          45.000



 122284109.313 7  95286343.870 7  23269883.340                    23269882.800
                                        45.450          42.200



 23  9 10 10 20  0.0000000  0 10G02G03G04G06G09G17G19G21G28G31
 123043920.894 7  95878344.21547  23414489.060                    23414487.440
                                        45.000          42.100



 106718665.357 8  83157408.727 8  20307879.000                    20307877.920
                                        49.950          48.100



 110990094.110 7  86485828.710 8  21120700.980                    21120699.500
                                        47.600          48.600



 122719225.248 7  95625388.603 7  23352689.940                    23352691.200
                                        43.950          43.800



 120050997.009 7  93546265.065 7  22844931.360                    22844933.960
                                        44.900          44.700



 113291714.264 8  88279255.815 7  21558696.300                    21558693.260
                                        48.550          45.050



 113061081.016 7  88099529.76947  21514803.880                    21514799.480
                                        47.800          45.800



 127131084.222 6  99063152.60446  24192253.320                    24192253.200
                                        41.100          37.800



 125397581.607 6  97712427.269 7  23862358.260                    23862359.580
                                        41.200          44.900



 122250268.358 7  95259974.402 6  23263443.500                    23263443.000
                                        44.000          41.900



 23  9 10 10 20 30.0000000  0 10G02G03G04G06G09G17G19G21G28G31
 123132755.921 7  95947566.15046  23431393.940                    23431392.320
                                        44.950          41.300



 106745208.379 8  83178091.586 8  20312929.980                    20312928.900
                                        50.050          48.250



 110923913.171 7  86434259.196 8  21108107.100                    21108105.660
                                        47.550          49.050



 122621946.704 7  95549587.193 7  23334178.400                    23334179.680
                                        43.700          43.500



 119946835.572 7  93465100.400 7  22825110.000                    22825112.540
                                        45.750          44.650



 113315079.652 7  88297462.588 7  21563142.640                    21563139.560
                                        47.750          45.250



 113035867.897 8  88079883.19347  21510005.980                    21510001.640
                                        48.000          45.400



 127220656.649 6  99132949.14546  24209298.480                    24209298.420
                                        38.600          37.800



 125416289.583 6  97727004.937 7  23865918.220                    23865919.600
                                        41.550          44.650



 122216994.362 7  95234046.709 7  23257111.560                    23257111.080
                                        44.600          42.350



 23  9 10 10 21  0.0000000  0 10G02G03G04G06G09G17G19G21G28G31
 123221812.342 7  96016960.59847  23448340.960                    23448339.360
                                        45.750          42.000



 106772119.970 8  83199061.643 8  20318051.100                    20318050.020
                                        50.100          48.300



 110858198.359 7  86383052.892 8  21095601.940                    21095600.540
                                        47.250          48.950



 122524792.930 7  95473883.017 7  23315690.580                    23315691.860
                                        42.850          43.850



 119842918.239 7  93384125.914 7  22805335.120                    22805337.620
                                        45.800          45.100



 113338991.349 7  88316095.021 7  21567692.940                    21567689.840
                                        47.650          44.950



 113011306.255 8  88060744.25047  21505332.060                    21505327.780
                                        48.000          45.100



 127310359.592 6  99202847.37246  24226368.440                    24226368.480
                                        40.000          37.100



 125435573.766 6  97742031.587 7  23869587.840                    23869589.260
                                        41.550          44.550



 122184285.883 7  95208559.691 7  23250887.220                    23250886.760
                                        44.500          42.700



 23  9 10 10 21 30.0000000  0 10G02G03G04G06G09G17G19G21G28G31
 123311092.305 7  96086529.23446  23465330.520                    23465328.920
                                        45.050          40.650



 106799402.648 8  83220320.848 8  20323242.820                    20323241.780
                                        50.050          48.150



 110792954.571 7  86332213.624 8  21083186.420                    21083185.040
                                        47.550          48.750



 122427769.118 7  95398280.122 7  23297227.480                    23297228.760
                                        43.450          43.950



 119739250.493 7  93303345.937 7  22785607.740                    22785610.200
                                        46.200          45.450



 113363451.839 7  88335155.080 7  21572347.680                    21572344.560
                                        47.300          44.850



 112987400.468 8  88042116.34947  21500782.980                    21500778.720
                                        48.600          44.050



 127400195.453 6  99272849.15346  24243463.700                    24243463.860
                                        40.700          38.950



 125455436.965 6  97757509.423 7  23873367.660                    23873369.120
                                        41.950          44.250



 122152148.346 7  95183517.526 7  23244771.560                    23244771.160
                                        45.050          43.150



 23  9 10 10 22  0.0000000  0 10G02G03G04G06G09G17G19G21G28G31
 123400592.207 7  96156269.27646  23482361.920                    23482360.300
                                        45.250          39.400



 106827053.002 8  83241866.560 7  20328504.520                    20328503.480
                                        50.200          47.950



 110728180.875 7  86281740.649 8  21070860.360                    21070859.020
                                        47.600          48.750



 122330874.528 7  95322777.934 7  23278788.960                    23278790.260
                                        44.200          43.600



 119635831.960 7  93222760.184 7  22765927.760                    22765930.180
                                        46.700          46.150



 113388457.594 8  88354640.029 7  21577106.120                    21577103.020
                                        48.450          45.050



 112964148.670 7  88023998.05547  21496358.340                    21496354.080
                                        47.800          45.350



 127490160.328 6  99342951.51046  24260583.520                    24260583.760
                                        41.250          38.950



 125475876.207 6  97773436.132 7  23877257.120                    23877258.560
                                        41.900          44.150



 122120580.197 7  95158919.048 7  23238764.260                    23238763.900
                                        45.350          42.900



 23  9 10 10 22 30.0000000  0 10G02G03G04G06G09G17G19G21G28G31
 123490313.109 7  96226181.51846  23499435.380                    23499433.740
                                        44.800          40.750



 106855072.770 8  83263700.113 7  20333836.520                    20333835.500
                                        50.150          47.700



 110663881.467 8  86231637.255 8  21058624.540                    21058623.240
                                        48.000          48.350



 122234113.722 7  95247379.959 7  23260375.920                    23260377.240
                                        44.300          44.300



 119532667.429 7  93142372.346 7  22746296.140                    22746298.520
                                        46.250          45.550



 113414010.472 8  88374551.328 7  21581968.700                    21581965.600
                                        48.400          45.300



 112941554.661 7  88006392.32347  21492058.880                    21492054.620
                                        47.400          44.500



 127580255.933 6  99413155.70746  24277728.240                    24277728.560
                                        40.050          38.350



 125496893.569 6  97789813.324 7  23881256.580                    23881258.040
                                        41.500          44.100



 122089586.187 7  95134767.947 7  23232866.240                    23232865.900
                                        45.050          42.600



 23  9 10 10 23  0.0000000  0 10G02G03G04G06G09G17G19G21G28G31
 123580255.348 7  96296266.20746  23516550.960                    23516549.300
                                        44.650          41.750



 106883462.061 8  83285821.614 7  20339238.840                    20339237.800
                                        50.100          47.950



 110600058.870 8  86181905.379 8  21046479.480                    21046478.220
                                        48.250          48.200



 122137489.504 7  95172088.440 7  23241988.900                    23241990.200
                                        44.300          44.200



 119429759.967 7  93062184.821 7  22726713.440                    22726715.760
                                        46.400          45.250



 113440110.565 7  88394889.019 7  21586935.400                    21586932.320
                                        47.900          45.800



 112919620.083 8  87989300.44247  21487884.860                    21487880.620
                                        48.250          43.400



 127670482.485 6  99483461.88446  24294897.920                    24294898.360
                                        39.550          39.000



 125518489.505 6  97806641.354 7  23885366.120                    23885367.580
                                        41.400          43.650



 122059169.049 7  95111066.389 7  23227077.960                    23227077.620
                                        45.750          42.500



 23  9 10 10 23 30.0000000  0 10G02G03G04G06G09G17G19G21G28G31
 123670414.462 7  96366519.88747  23533707.780                    23533706.160
                                        45.000          42.650



 106912216.893 8  83308227.964 7  20344710.700                    20344709.680
                                        50.250          47.850



 110536711.519 8  86132543.828 8  21034424.880                    21034423.620
                                        48.350          48.100



 122041000.618 7  95096902.371 7  23223627.620                    23223628.920
                                        44.650          44.800



 119327108.635 7  92982196.877 7  22707179.480                    22707181.740
                                        46.150          44.750



 113466753.849 8  88415649.961 7  21592005.500                    21592002.440
                                        48.450          45.750



 112898342.912 8  87972720.81647  21483835.960                    21483831.700
                                        48.450          43.500



 127760835.586 6  99553866.74346  24312091.620                    24312092.200
                                        41.550          38.050



 125540660.379 6  97823917.405 6  23889585.080                    23889586.500
                                        41.950          41.950



 122029327.218 7  95087813.109 7  23221399.180                    23221398.840
                                        45.700          42.800



 23  9 10 10 24  0.0000000  0 10G02G03G04G06G09G17G19G21G28G31
 123760788.613 7  96436941.13147  23550905.540                    23550903.960
                                        45.700          42.400



 106941335.945 8  83330918.110 8  20350251.900                    20350250.860
                                        50.150          48.350



 110473840.424 8  86083553.389 8  21022460.920                    21022459.620
                                        48.350          48.450



 121944648.504 7  95021822.878 7  23205292.360                    23205293.660
                                        44.800          45.350



 119224715.120 7  92902409.833 7  22687694.600                    22687696.760
                                        45.900          44.900



 113493938.983 8  88436833.100 7  21597178.720                    21597175.700
                                        48.350          45.250



 112877723.477 7  87956653.71847  21479912.240                    21479907.960
                                        47.850          44.700



 127851313.757 6  99624369.00946  24329309.160                    24329309.860
                                        41.050          38.250



 125563405.150 7  97841640.626 7  23893913.260                    23893914.620
                                        42.700          42.650



 122000061.900 7  95065009.047 7  23215830.120                    23215829.760
                                        45.350          43.200



 23  9 10 10 24 30.0000000  0 10G02G03G04G06G09G17G19G21G28G31
 123851378.716 7  96507530.66847  23568144.380                    23568142.860
                                        45.300          42.200



 106970820.305 8  83353892.907 8  20355862.600                    20355861.580
                                        50.050          48.000



 110411449.104 8  86034936.798 8  21010588.240                    21010586.940
                                        48.200          48.000



 121848437.016 7  94946852.973 7  23186983.860                    23186985.160
                                        44.150          45.200



 119122583.500 7  92822826.876 7  22668259.560                    22668261.580
                                        46.400          45.000



 113521666.805 7  88458439.162 7  21602455.180                    21602452.160
                                        47.600          44.350



 112857764.671 7  87941101.38547  21476114.220                    21476109.920
                                        47.600          43.600



 127941917.934 6  99694969.51746  24346550.660                    24346551.460
                                        41.850          36.400



 125586725.084 7  97859812.013 6  23898350.880                    23898352.180
                                        42.200          41.700



 121971376.682 7  95042657.011 7  23210371.460                    23210371.080
                                        45.000          42.750



 23  9 10 10 25  0.0000000  0 10G02G03G04G06G09G17G19G21G28G31
 123942182.571 7  96578286.74847  23585423.940                    23585422.460
                                        45.000          42.250



 107000668.333 8  83377151.066 8  20361542.520                    20361541.520
                                        50.200          48.450



 110349538.304 7  85986694.639 8  20998807.020                    20998805.680
                                        47.950          48.000



 121752367.282 7  94871993.528 7  23168702.340                    23168703.640
                                        43.950          45.750



 119020715.145 7  92743449.065 7  22648874.620                    22648876.520
                                        46.250          44.900



 113549935.730 8  88480466.840 7  21607834.600                    21607831.600
                                        48.050          44.550



 112838466.525 7  87926063.85247  21472441.920                    21472437.600
                                        47.650          44.100



 128032646.292 6  99765666.76046  24363815.860                    24363816.720
                                        40.750          40.000



 125610618.929 7  97878430.594 7  23902897.740                    23902898.960
                                        42.300          43.250



 121943272.500 7  95020757.709 7  23205023.360                    23205022.980
                                        45.300          43.300



 23  9 10 10 25 30.0000000  0 10G02G03G04G06G09G17G19G21G28G31
 124033202.927 7  96649211.52846  23602744.700                    23602743.240
                                        44.300          41.350



 107030883.329 8  83400695.194 8  20367292.260                    20367291.280
                                        50.400          48.900



 110288113.692 8  85938831.328 7  20987118.300                    20987116.940
                                        48.000          47.850



 121656445.396 7  94797249.291 7  23150448.920                    23150450.260
                                        44.050          45.450



 118919116.357 7  92664281.318 7  22629540.940                    22629542.720
                                        46.150          45.100



 113578748.642 7  88502918.424 7  21613317.540                    21613314.540
                                        47.900          45.800



 112819834.214 7  87911545.16047  21468896.320                    21468891.960
                                        47.500          43.900



 128123502.011 6  99836463.22846  24381105.280                    24381106.220
                                        38.950          36.850



 125635090.126 7  97897499.082 7  23907554.460                    23907555.640
                                        42.200          43.150



 121915755.174 7  94999315.713 7  23199786.920                    23199786.560
                                        46.050          43.800



 23  9 10 10 26  0.0000000  0 10G02G03G04G06G09G17G19G21G28G31
 124124433.654 7  96720300.20346  23620105.500                    23620104.060
                                        44.250          41.650



 107061459.088 8  83424520.436 8  20373110.660                    20373109.680
                                        50.150          48.800



 110227171.398 7  85891343.840 7  20975521.380                    20975519.980
                                        47.900          47.150



 121560667.937 7  94722617.591 7  23132222.980                    23132224.360
                                        44.300          45.400



 118817783.910 7  92585321.121 7  22610257.920                    22610259.600
                                        46.300          44.250



 113608099.447 7  88525789.136 7  21618902.840                    21618899.860
                                        47.150          45.400



 112801862.907 7  87897541.51347  21465476.500                    21465472.120
                                        47.100          43.550



 128214478.454 6  99907353.78946  24398417.640                    24398418.660
                                        38.500          36.950



 125660132.677 6  97917012.766 7  23912319.880                    23912321.040
                                        41.850          43.350



 121888820.529 7  94978327.752 7  23194661.380                    23194661.000
                                        46.050          43.400



 23  9 10 10 26 30.0000000  0 10G02G03G04G06G09G17G19G21G28G31
 124215874.272 7  96791552.45446  23637506.220                    23637504.820
                                        44.600          40.700



 107092395.421 8  83448626.647 8  20378997.680                    20378996.720
                                        50.200          49.000



 110166713.589 7  85844233.886 7  20964016.620                    20964015.180
                                        47.800          47.600



 121465037.524 7  94648100.454 7  23114025.060                    23114026.460
                                        44.600          45.050



 118716720.650 7  92506570.676 7  22591026.120                    22591027.700
                                        47.100          44.500



 113637988.042 7  88549078.885 7  21624590.480                    21624587.540
                                        46.950          45.800



 112784554.092 7  87884054.09647  21462182.740                    21462178.340
                                        47.700          42.700



 128305575.742 6  99978338.50045  24415752.960                    24415754.080
                                        38.150          35.550



 125685746.587 7  97936971.682 7  23917194.040                    23917195.180
                                        42.550          42.900



 121862471.229 7  94957795.912 7  23189647.220                    23189646.820
                                        45.650          43.550



 23  9 10 10 27  0.0000000  0 10G02G03G04G06G09G17G19G21G28G31
 124307523.199 7  96862967.04746  23654946.540                    23654945.180
                                        44.850          40.600



 107123691.725 8  83473013.355 8  20384953.180                    20384952.280
                                        49.850          48.900



 110106741.895 7  85797502.732 8  20952604.340                    20952602.860
                                        47.550          48.100



 121369556.312 7  94573699.591 7  23095855.500                    23095856.920
                                        43.950          44.650



 118615928.896 7  92428031.774 7  22571846.000                    22571847.500
                                        47.000          45.350



 113668413.242 8  88572786.767 7  21630380.180                    21630377.360
                                        48.300          45.800



 112767908.507 7  87871083.49847  21459015.180                    21459010.760
                                        47.300          43.600



 128396792.929 6 100049416.63545  24433111.080                    24433112.320
                                        39.350          34.600



 125711931.425 7  97957375.453 7  23922176.860                    23922178.000
                                        42.550          43.700



 121836708.886 7  94937721.442 7  23184744.760                    23184744.340
                                        45.450          43.700



 23  9 10 10 27 30.0000000  0 10G02G03G04G06G09G17G19G21G28G31
 124399379.070 7  96934542.87246  23672426.280                    23672424.940
                                        45.050          40.700



 107155346.547 8  83497679.415 8  20390976.900                    20390976.080
                                        50.100          48.950



 110047257.205 7  85751151.051 8  20941284.740                    20941283.260
                                        47.600          48.350



 121274225.709 7  94499416.062 7  23077714.640                    23077716.060
                                        44.600          44.750



 118515410.194 7  92349705.666 7  22552717.820                    22552719.220
                                        46.200          45.800



 113699373.315 8  88596911.473 7  21636271.680                    21636268.900
                                        48.850          46.050



 112751926.299 7  87858629.81047  21455973.860                    21455969.420
                                        47.750          44.000



 128488128.162 6 100120586.76546  24450491.660                    24450493.020
                                        40.000          38.200



 125738685.875 7  97978223.083 7  23927268.060                    23927269.180
                                        43.100          43.200



 121811534.407 7  94918105.031 7  23179954.180                    23179953.760
                                        45.050          43.700



 23  9 10 10 28  0.0000000  0 10G02G03G04G06G09G17G19G21G28G31
 124491441.019 7  97006279.27846  23689945.240                    23689943.940
                                        43.750          41.100



 107187359.493 8  83522624.545 8  20397068.760                    20397068.000
                                        50.100          49.000



 109988261.458 7  85705180.361 8  20930058.180                    20930056.720
                                        47.250          48.700



 121179048.170 7  94425251.799 7  23059602.900                    23059604.320
                                        44.850          45.800



 118415167.176 7  92271594.369 7  22533642.080                    22533643.440
                                        46.450          45.700



 113730867.781 7  88621452.561 7  21642264.920                    21642262.180
                                        47.950          46.350



 112736608.777 7  87846694.04347  21453059.060                    21453054.600
                                        47.850          44.350



 128579581.027 6 100191848.57946  24467894.640                    24467896.080
                                        41.050          38.750



 125766009.655 7  97999514.334 7  23932467.600                    23932468.700
                                        43.350          43.850



 121786949.761 7  94898948.226 7  23175275.820                    23175275.400
                                        45.900          43.300



 23  9 10 10 28 30.0000000  0 10G02G03G04G06G09G17G19G21G28G31
 124583708.690 7  97078175.98046  23707503.320                    23707502.080
                                        44.750          41.900



 107219730.609 8  83547848.765 8  20403228.780                    20403228.100
                                        50.200          48.650



 109929756.948 7  85659592.446 8  20918925.100                    20918923.660
                                        47.450          48.750



 121084026.585 7  94351209.071 7  23041520.840                    23041522.280
                                        45.900          45.450



 118315202.833 7  92193700.224 7  22514619.380                    22514620.700
                                        46.450          46.450



 113762896.814 7  88646410.183 7  21648359.880                    21648357.200
                                        47.350          46.100



 112721957.538 7  87835277.48647  21450271.040                    21450266.540
                                        47.300          44.700



 128671151.163 6 100263201.71546  24485320.000                    24485321.520
                                        40.800          37.100



 125793902.908 7  98021249.350 7  23937775.520                    23937776.620
                                        42.150          44.200



 121762957.387 7  94880252.908 7  23170710.200                    23170709.780
                                        46.150          43.100



 23  9 10 10 29  0.0000000  0 10G02G03G04G06G09G17G19G21G28G31
 124676181.988 7  97150232.90547  23725100.560                    23725099.360
                                        44.650          43.000



 107252459.981 8  83573352.147 8  20409456.980                    20409456.340
                                        50.300          48.400



 109871745.981 7  85614389.119 8  20907885.920                    20907884.520
                                        47.400          48.800



 120989163.843 7  94277290.111 7  23023469.020                    23023470.460
                                        45.700          45.200



 118215520.228 7  92116025.610 7  22495650.300                    22495651.560
                                        46.950          45.750



 113795459.778 7  88671783.855 7  21654556.440                    21654553.820
                                        47.300          45.750



 112707973.936 7  87824381.16647  21447610.040                    21447605.580
                                        47.100          44.700



 128762838.678 6 100334646.33646  24502767.680                    24502769.300
                                        41.700          38.150



 125822365.796 6  98043428.238 7  23943191.820                    23943192.920
                                        41.750          44.650



 121739559.315 7  94862020.700 7  23166257.660                    23166257.220
                                        46.050          43.250



 23  9 10 10 29 30.0000000  0 10G02G03G04G06G09G17G19G21G28G31
 124768856.633 7  97222446.75046  23742736.080                    23742734.940
                                        45.250          41.650



 107285543.814 8  83599131.732 8  20415752.640                    20415752.020
                                        50.150          48.400



 109814227.064 7  85569569.200 8  20896940.380                    20896939.020
                                        47.800          48.950



 120894459.036 7  94203494.202 7  23005447.280                    23005448.700
                                        46.000          45.350



 118116118.550 7  92038569.887 7  22476734.680                    22476735.900
                                        46.650          45.750



 113828552.723 8  88697570.522 7  21660853.840                    21660851.240
                                        48.350          46.150



 112694655.950 7  87814003.49047  21445075.740                    21445071.280
                                        47.600          44.500



 128854639.699 6 100406179.41546  24520237.000                    24520238.660
                                        40.500          38.900



 125851394.622 6  98066048.109 7  23948715.800                    23948716.920
                                        41.550          44.800



 121716754.490 7  94844250.771 7  23161918.020                    23161917.540
                                        45.900          43.700



 23  9 10 10 30  0.0000000  0 10G02G03G04G06G09G17G19G21G28G31
 124861734.424 7  97294818.88546  23760410.280                    23760409.160
                                        44.250          41.050



 107318984.363 8  83625189.289 8  20422116.180                    20422115.560
                                        50.200          48.250



 109757204.635 7  85525136.165 8  20886089.340                    20886087.980
                                        47.650          49.000



 120799917.257 7  94129825.340 7  22987456.540                    22987457.940
                                        45.600          45.100



 118017003.010 7  91961337.143 7  22457873.520                    22457874.660
                                        46.600          45.550



 113862177.895 7  88723771.869 7  21667252.540                    21667250.000
                                        47.550          45.600



 112682006.993 7  87804147.14047  21442668.740                    21442664.300
                                        47.550          44.450



 128946556.037 6 100477802.30846  24537728.300                    24537730.040
                                        39.050          38.000



 125880991.584 6  98089110.685 7  23954347.900                    23954349.060
                                        41.000          44.800



 121694547.356 7  94826946.563 7  23157692.120                    23157691.620
                                        46.400          43.950



 23  9 10 10 30 30.0000000  0 10G02G03G04G06G09G17G19G21G28G31
 124954814.148 7  97367348.35146  23778122.940                    23778121.820
                                        43.000          38.800



 107352780.868 8  83651524.201 8  20428547.480                    20428546.840
                                        50.200          48.050



 109700680.144 7  85481091.132 8  20875333.060                    20875331.720
                                        47.850          49.150



 120705540.611 7  94056285.157 7  22969497.240                    22969498.640
                                        44.750          45.250



 117918175.794 7  91884329.019 7  22439067.260                    22439068.360
                                        47.250          45.500



 113896333.561 7  88750386.643 7  21673752.160                    21673749.640
                                        47.250          46.150



 112670027.730 7  87794812.61647  21440389.180                    21440384.760
                                        47.100          45.000



 129038586.866 6 100549514.43146  24555241.360                    24555243.160
                                        39.100          36.650



 125911155.989 6  98112615.421 7  23960088.000                    23960089.200
                                        41.300          44.750



 121672938.913 7  94810108.862 7  23153580.160                    23153579.640
                                        45.850          44.150



 23  9 10 10 31  0.0000000  0 10G02G03G04G06G09G17G19G21G28G31
 125048094.138 7  97440033.86446  23795873.680                    23795872.580
                                        43.000          38.500



 107386932.056 8  83678135.492 8  20435046.260                    20435045.620
                                        50.350          48.000



 109644654.595 8  85437434.876 8  20864671.740                    20864670.420
                                        48.350          49.000



 120611330.747 7  93982874.937 7  22951569.640                    22951571.040
                                        44.700          45.300



 117819638.632 7  91807546.925 7  22420316.200                    22420317.220
                                        47.300          45.750



 113931018.587 8  88777413.864 7  21680352.560                    21680350.060
                                        48.700          44.900



 112658717.940 7  87785999.75147  21438237.020                    21438232.620
                                        47.300          44.300



 129130730.652 6 100621314.56146  24572775.920                    24572777.780
                                        39.400          38.050



 125941886.599 6  98136561.350 7  23965935.840                    23965937.040
                                        41.050          43.700



 121651930.401 7  94793738.634 7  23149582.360                    23149581.840
                                        46.200          43.350



 23  9 10 10 31 30.0000000  0 10G02G03G04G06G09G17G19G21G28G31
 125141569.700 7  97512871.77846  23813661.620                    23813660.540
                                        43.400          38.550



 107421433.566 8  83705019.767 8  20441611.700                    20441611.060
                                        50.150          48.250



 109589125.767 8  85394165.674 8  20854104.960                    20854103.640
                                        48.000          49.100



 120517286.183 7  93909593.507 7  22933673.520                    22933674.940
                                        44.950          45.050



 117721390.144 7  91730989.777 7  22401620.060                    22401621.000
                                        47.350          46.350



 113966228.365 8  88804849.999 7  21687052.800                    21687050.320
                                        48.200          45.700



 112648075.058 7  87777706.57547  21436211.760                    21436207.400
                                        47.350          44.500



 129222982.905 6 100693199.21846  24590331.100                    24590333.020
                                        38.800          37.550



 125973178.953 6  98160945.019 7  23971890.580                    23971891.780
                                        41.650          43.350



 121631519.575 7  94777834.159 7  23145698.280                    23145697.740
                                        45.800          43.250



 23  9 10 10 32  0.0000000  0 10G02G03G04G06G09G17G19G21G28G31
 125235240.810 7  97585862.07346  23831486.780                    23831485.680
                                        45.000          39.550



 107456285.694 8  83732177.251 8  20448243.860                    20448243.220
                                        50.250          48.050



 109534096.097 8  85351285.436 8  20843633.160                    20843631.840
                                        48.450          49.000



 120423410.056 7  93836443.338 7  22915809.400                    22915810.840
                                        44.850          45.450



 117623433.511 7  91654660.064 7  22382979.460                    22382980.340
                                        47.250          46.250



 114001962.524 8  88832694.756 7  21693852.840                    21693850.340
                                        48.100          45.250



 112638100.536 7  87769934.18747  21434313.680                    21434309.360
                                        47.550          43.750



 129315343.519 6 100765168.35045  24607906.880                    24607908.860
                                        40.850          35.650



 126005033.267 7  98185766.575 7  23977952.280                    23977953.400
                                        42.750          43.400



 121611708.825 7  94762397.272 7  23141928.380                    23141927.840
                                        46.550          42.900



 23  9 10 10 32 30.0000000  0 10G02G03G04G06G09G17G19G21G28G31
 125329107.727 7  97659004.96646  23849349.200                    23849348.060
                                        44.700          38.800



 107491489.271 8  83759608.573 8  20454942.900                    20454942.280
                                        50.200          48.200



 109479568.588 8  85308796.495 8  20833256.920                    20833255.620
                                        48.700          49.150



 120329706.110 7  93763427.340 7  22897978.060                    22897979.520
                                        45.300          45.300



 117525772.521 7  91578560.701 7  22364395.120                    22364395.960
                                        46.950          45.700



 114038221.478 8  88860948.423 7  21700752.740                    21700750.260
                                        48.050          45.050



 112628796.598 7  87762684.33047  21432543.200                    21432538.920
                                        47.800          44.050



 129407813.207 6 100837222.43546  24625503.420                    24625505.480
                                        39.650          37.300



 126037450.372 7  98211026.677 7  23984121.100                    23984122.140
                                        42.950          43.700



 121592501.110 7  94747430.273 7  23138273.260                    23138272.700
                                        46.650          42.550



 23  9 10 10 33  0.0000000  0 10G02G03G04G06G09G17G19G21G28G31
 125423170.668 7  97732300.60046  23867248.940                    23867247.780
                                        44.800          40.050



 107527045.007 8  83787314.312 7  20461708.960                    20461708.360
                                        50.200          47.950



 109425546.119 8  85266701.106 8  20822976.800                    20822975.460
                                        48.850          48.750



 120236178.011 7  93690548.371 7  22880180.180                    22880181.680
                                        45.750          45.950



 117428410.871 7  91502694.597 7  22345867.740                    22345868.520
                                        46.300          45.350



 114075005.833 8  88889611.510 7  21707752.620                    21707750.120
                                        48.800          45.450



 112620165.039 7  87755958.40447  21430900.700                    21430896.420
                                        47.700          44.500



 129500392.581 6 100909361.95946  24643120.880                    24643122.980
                                        37.850          36.800



 126070430.836 7  98236725.754 7  23990397.120                    23990398.080
                                        42.750          44.400



 121573899.349 7  94732935.450 7  23134733.420                    23134732.840
                                        47.100          43.400



 23  9 10 10 33 30.0000000  0 10G02G03G04G06G09G17G19G21G28G31
 125517424.798 7  97805745.16546  23885185.100                    23885183.940
                                        44.150          40.850



 107562948.205 8  83815290.804 7  20468541.120                    20468540.520
                                        50.300          47.600



 109372026.069 8  85224997.186 8  20812792.280                    20812790.920
                                        48.850          48.350



 120142823.961 7  93617805.007 7  22862415.420                    22862416.960
                                        45.550          45.800



 117331346.750 7  91427060.318 7  22327396.960                    22327397.720
                                        46.750          44.750



 114112310.245 8  88918679.792 7  21714851.480                    21714848.980
                                        48.300          45.200



 112612202.494 7  87749753.79047  21429385.500                    21429381.260
                                        47.250          44.150



 129593076.734 6 100981583.14245  24660758.220                    24660760.400
                                        38.150          34.000



 126103969.867 7  98262860.050 7  23996779.440                    23996780.340
                                        42.750          44.200



 121555900.934 7  94718910.760 7  23131308.440                    23131307.820
                                        46.550          42.950



 23  9 10 10 34  0.0000000  0 10G02G03G04G06G09G17G19G21G28G31
 125611869.052 7  97879337.91346  23903157.420                    23903156.260
                                        44.550          40.950



 107599198.325 8  83843537.624 7  20475439.300                    20475438.700
                                        50.550          47.600



 109319010.044 8  85183686.009 8  20802703.700                    20802702.300
                                        48.800          48.350



 120049646.323 7  93545199.135 7  22844684.220                    22844685.820
                                        45.650          46.450



 117234582.603 7  91351659.778 7  22308983.260                    22308984.000
                                        46.950          45.450



 114150133.644 8  88948152.540 7  21722049.080                    21722046.560
                                        48.400          46.100



 112604909.477 7  87744070.88947  21427997.700                    21427993.500
                                        47.250          44.500



 129685864.811 6 101053885.27346  24678415.360                    24678417.620
                                        38.800          37.100



 126138066.826 7  98289429.094 7  24003267.940                    24003268.780
                                        42.550          44.000



 121538507.305 7  94705357.312 7  23127998.540                    23127997.900
                                        46.750          43.700



 23  9 10 10 34 30.0000000  0 10G02G03G04G06G09G17G19G21G28G31
 125706505.057 7  97953080.04546  23921166.240                    23921165.100
                                        44.600          39.800



 107635797.564 8  83872056.489 7  20482403.920                    20482403.300
                                        50.250          47.500



 109266502.311 8  85142770.910 8  20792711.820                    20792710.360
                                        48.200          48.050



 119956650.223 7  93472734.700 7  22826987.600                    22826989.220
                                        45.750          45.800



 117138123.550 7  91276496.971 7  22290627.620                    22290628.320
                                        47.250          45.400



 114188477.811 8  88978031.032 7  21729345.820                    21729343.300
                                        48.650          45.200



 112598289.491 7  87738912.40947  21426737.960                    21426733.820
                                        46.700          44.350



 129778758.772 6 101126269.92646  24696092.660                    24696094.960
                                        40.250          38.350



 126172723.654 7  98316434.406 7  24009862.940                    24009863.780
                                        42.000          43.650



 121521722.664 7  94692278.418 7  23124804.520                    23124803.860
                                        46.550          42.950



 23  9 10 10 35  0.0000000  0 10G02G03G04G06G09G17G19G21G28G31
 125801326.828 7  98026966.98646  23939210.380                    23939209.240
                                        44.100          40.650



 107672740.513 8  83900843.174 7  20489433.960                    20489433.320
                                        50.100          47.650



 109214499.525 7  85102249.280 8  20782816.000                    20782814.520
                                        47.700          48.400



 119863833.188 7  93400409.793 7  22809325.040                    22809326.700
                                        45.750          46.000



 117041967.058 7  91201569.941 7  22272329.560                    22272330.240
                                        47.550          46.200



 114227336.833 8  89008310.736 7  21736740.500                    21736737.980
                                        48.700          45.650



 112592338.294 7  87734275.09347  21425605.480                    21425601.380
                                        46.300          44.400



 129871752.915 6 101198732.67646  24713789.020                    24713791.340
                                        40.100          37.900



 126207934.808 7  98343871.658 7  24016563.420                    24016564.240
                                        42.500          43.400



 121505543.655 7  94679671.433 7  23121725.760                    23121725.080
                                        46.150          42.950



 23  9 10 10 35 30.0000000  0 10G02G03G04G06G09G17G19G21G28G31
 125896337.310 7  98101000.92746  23957290.440                    23957289.320
                                        43.900          38.550



 107710030.192 8  83929900.034 7  20496529.960                    20496529.320
                                        50.200          47.550



 109163006.781 7  85062125.090 8  20773017.220                    20773015.720
                                        47.650          48.350



 119771201.227 7  93328229.110 7  22791697.720                    22791699.400
                                        46.250          46.200



 116946119.113 7  91126883.323 7  22254090.240                    22254090.880
                                        47.650          45.800



 114266713.193 8  89038993.550 7  21744233.660                    21744231.120
                                        48.400          45.350



 112587059.882 7  87730162.01547  21424601.020                    21424596.980
                                        46.900          44.750



 129964850.383 6 101271275.89946  24731505.100                    24731507.440
                                        39.850          37.100



 126243703.126 7  98371743.057 7  24023369.920                    24023370.760
                                        42.200          43.500



 121489975.282 7  94667540.277 7  23118763.180                    23118762.500
                                        46.350          43.150



 23  9 10 10 36  0.0000000  0 10G02G03G04G06G09G17G19G21G28G31
 125991532.871 7  98175179.10046  23975405.700                    23975404.620
                                        42.800          38.900



 107747663.556 8  83959224.704 7  20503691.360                    20503690.700
                                        50.500          47.550



 109112023.068 7  85022397.531 8  20763315.320                    20763313.820
                                        47.950          48.650



 119678754.212 7  93256192.536 7  22774105.600                    22774107.280
                                        45.550          46.150



 116850579.560 7  91052437.006 7  22235909.620                    22235910.220
                                        47.900          46.600



 114306603.352 8  89070076.720 7  21751824.580                    21751822.060
                                        48.050          46.000



 112582452.227 7  87726571.61547  21423724.180                    21423720.200
                                        47.300          44.300



 130058047.845 6 101343897.03246  24749240.240                    24749242.600
                                        41.000          36.000



 126280025.361 7  98400046.083 7  24030281.780                    24030282.640
                                        42.900          43.650



 121475016.316 7  94655883.979 7  23115916.560                    23115915.880
                                        46.500          42.550



 23  9 10 10 36 30.0000000  0 10G02G03G04G06G09G17G19G21G28G31
 126086915.548 7  98249503.08646  23993556.540                    23993555.500
                                        43.150          40.500



 107785642.961 8  83988819.021 7  20510918.620                    20510917.940
                                        50.550          47.550



 109061552.801 8  84983070.069 8  20753711.100                    20753709.600
                                        48.050          48.700



 119586497.472 7  93184304.233 7  22756549.660                    22756551.380
                                        45.800          46.200



 116755353.674 7  90978235.117 7  22217788.660                    22217789.240
                                        47.300          47.100



 114347009.281 8  89101561.799 7  21759513.640                    21759511.140
                                        48.100          45.600



 112578518.899 7  87723506.65947  21422975.680                    21422971.740
                                        47.300          44.250



 130151347.072 7 101416597.54646  24766994.700                    24766997.040
                                        42.800          36.350



 126316903.581 7  98428782.359 7  24037299.480                    24037300.320
                                        42.300          44.150



 121460671.173 7  94644705.991 7  23113186.760                    23113186.060
                                        46.500          42.050



 23  9 10 10 37  0.0000000  0 10G02G03G04G06G09G17G19G21G28G31
 126182479.495 7  98323968.31346  24011741.880                    24011740.900
                                        43.800          39.000



 107823963.108 8  84018678.837 7  20518210.760                    20518210.060
                                        50.550          47.900



 109011592.663 8  84944140.116 8  20744203.960                    20744202.480
                                        48.650          48.800



 119494428.717 7  93112562.399 7  22739029.540                    22739031.240
                                        46.700          45.800



 116660439.060 7  90904275.795 7  22199726.960                    22199727.500
                                        47.350          47.100



 114387924.955 7  89133444.055 7  21767299.720                    21767297.260
                                        47.900          46.200



 112575255.601 8  87720963.79847  21422354.720                    21422350.800
                                        48.000          44.400



 130244742.810 7 101489373.21846  24784767.600                    24784769.880
                                        42.500          37.100



 126354332.272 7  98457947.574 7  24044421.920                    24044422.740
                                        42.600          44.650



 121446936.428 7  94634003.633 6  23110573.100                    23110572.360
                                        46.750          41.700



 23  9 10 10 37 30.0000000  0 10G02G03G04G06G09G17G19G21G28G31
 126278226.226 7  98398575.95946  24029962.020                    24029961.100
                                        43.750          37.950



 107862626.107 8  84048805.827 7  20525568.100                    20525567.400
                                        50.300          47.950



 108962146.731 8  84905610.850 8  20734794.680                    20734793.220
                                        48.400          48.950



 119402552.932 7  93040970.940 7  22721546.120                    22721547.800
                                        46.100          45.700



 116565840.665 7  90830562.850 7  22181725.420                    22181725.980
                                        46.600          46.750



 114429352.355 7  89165725.111 7  21775183.120                    21775180.680
                                        47.700          46.150



 112572665.289 8  87718945.35747  21421861.820                    21421857.880
                                        48.300          44.050



 130338236.838 7 101562225.50946  24802559.180                    24802561.400
                                        42.350          36.250



 126392313.248 7  98487543.132 7  24051649.480                    24051650.260
                                        42.650          44.500



 121433815.926 7  94623779.915 7  23108076.320                    23108075.540
                                        46.250          42.200



 23  9 10 10 38  0.0000000  0 10G02G03G04G06G09G17G19G21G28G31
 126374153.575 7  98473324.39446  24048216.500                    24048215.640
                                        43.550          40.150



 107901630.407 8  84079198.757 8  20532990.420                    20532989.700
                                        50.200          48.400



 108913215.451 8  84867482.602 8  20725483.340                    20725481.880
                                        48.300          49.000



 119310871.613 7  92969530.998 7  22704099.740                    22704101.380
                                        46.400          46.000



 116471559.882 7  90757097.407 7  22163784.320                    22163784.860
                                        46.900          46.650



 114471288.670 8  89198402.686 7  21783163.380                    21783161.000
                                        48.100          45.900



 112570747.240 7  87717450.73347  21421496.900                    21421492.900
                                        47.950          44.150



 130431827.136 6 101635152.81346  24820369.080                    24820371.240
                                        41.000          37.500



 126430844.642 6  98517567.601 7  24058981.780                    24058982.540
                                        41.900          44.900



 121421310.163 7  94614035.203 7  23105696.520                    23105695.720
                                        46.400          42.400



 23  9 10 10 38 30.0000000  0 10G02G03G04G06G09G17G19G21G28G31
 126470262.800 7  98548214.48346  24066505.660                    24066504.840
                                        43.200          40.550



 107940977.338 8  84109858.674 8  20540477.940                    20540477.220
                                        50.250          48.100



 108864802.131 8  84829757.947 8  20716270.580                    20716269.140
                                        48.450          48.800



 119219389.057 7  92898245.965 7  22686691.160                    22686692.780
                                        45.900          46.500



 116377600.901 7  90683882.717 7  22145904.420                    22145904.980
                                        47.200          46.550



 114513734.971 8  89231477.668 7  21791240.680                    21791238.360
                                        48.100          45.800



 112569503.938 8  87716481.88547  21421260.380                    21421256.340
                                        48.000          43.950



 130525515.078 6 101708156.13445  24838197.600                    24838199.740
                                        39.650          35.300



 126469927.453 6  98548021.737 7  24066419.000                    24066419.780
                                        41.750          44.600



 121409422.212 7  94604771.901 7  23103434.300                    23103433.460
                                        46.900          42.250



