     2.11           OBSERVATION DATA    G (GPS)             RINEX VERSION / TYPE
teqc  2019Feb25                         20230813 10:44:42UTCPGM / RUN BY / DATE
Linux 2.6.32-573.12.1.x86_64|x86_64|gcc|Linux 64|=+         COMMENT
teqc  2019Feb25                         20230813 10:44:41UTCCOMMENT
     2.11           OBSERVATION DATA    M (MIXED)           COMMENT
teqc  2019Feb25     IGN-RGP             20230809 15:02:15UTCCOMMENT
teqc  2019Feb25     Administrateur RGP  20230809 15:02:15UTCCOMMENT
teqc  2019Feb25     IGN-RGP             20230809 15:02:13UTCCOMMENT
teqc  2019Feb25     IGN-RGP             20230809 15:02:12UTCCOMMENT
BIT 2 OF LLI FLAGS DATA COLLECTED UNDER A/S CONDITION       COMMENT
IGNF                                                        MARKER NAME
10001M009                                                   MARKER NUMBER
Automatic           IGN                                     OBSERVER / AGENCY
1834194             LEICA GR50          4.51                REC # / TYPE / VERS
5000113963          TRM57971.00     NONE                    ANT # / TYPE
  4201694.1440   177888.8370  4779371.7670                  APPROX POSITION XYZ
        0.0000        0.0000        0.0000                  ANTENNA: DELTA H/E/N
     1     1                                                WAVELENGTH FACT L1/2
    21    L1    L2    C1    P1    P2    D1    D2    S1    S2# / TYPES OF OBSERV
          L5    C5    D5    S5    L7    C7    D7    S7    L8# / TYPES OF OBSERV
          C8    D8    S8                                    # / TYPES OF OBSERV
    30.0000                                                 INTERVAL
DefaultJobName                                              COMMENT
DefaultUserDiscription                                      COMMENT
Project creator:                                            COMMENT
 SNR is mapped to RINEX snr flag value [0-9]                COMMENT
  L1 & L2: min(max(int(snr_dBHz/6), 0), 9)                  COMMENT
    18                                                      LEAP SECONDS
Forced Modulo Decimation to 30 seconds                      COMMENT
teqc_2019 edited: all GLONASS satellites excluded           COMMENT
teqc_2019 edited: all SBAS satellites excluded              COMMENT
teqc_2019 edited: all Galileo satellites excluded           COMMENT
  2023     8     9    14     0    0.0000000     GPS         TIME OF FIRST OBS
                                                            END OF HEADER
 23  8  9 14  0  0.0000000  0  9G03G04G06G07G09G11G17G19G31
 116204567.891 8  90549039.49348  22112988.300                    22112988.560
     -2581.629       -2011.661          48.100          48.050    86776171.897 8
  22112991.500       -1927.933          51.300


 107355389.959 8  83653589.71348  20429033.280                    20429033.320
      -839.692        -654.306          50.050          50.100    80168036.138 9
  20429037.440        -626.869          56.250


 109092398.837 8  85007094.51048  20759585.940                    20759587.580
      1310.702        1021.327          50.850          50.450    81465143.480 9
  20759588.800         978.716          55.150


 129790161.918 6 101135231.45146  24698232.020                    24698234.540
      3350.554        2610.830          41.950          41.650



 107419735.170 8  83703740.89748  20441279.200                    20441279.520
      1233.457         961.136          51.700          51.700    80216101.277 9
  20441280.960         921.120          55.900


 125628523.190 7  97892363.16247  23906311.580                    23906311.500
      3364.184        2621.442          44.900          42.000    93813546.966 7
  23906316.520        2512.198          47.550


 124284303.662 7  96844914.49946  23650516.220                    23650518.200
     -3033.110       -2363.466          42.950          41.750



 118653194.423 7  92457037.42447  22578947.340                    22578945.240
     -2686.574       -2093.437          45.750          45.400



 125557706.326 7  97837172.11347  23892839.080                    23892839.180
     -2339.374       -1822.893          44.500          44.750



 23  8  9 14  0 30.0000000  0  9G03G04G06G07G09G11G17G19G31
 116282123.276 7  90609472.21147  22127746.760                    22127747.180
     -2588.812       -2017.259          47.400          47.600    86834086.575 8
  22127749.600       -1933.220          51.300


 107380812.018 8  83673399.09748  20433871.020                    20433871.000
      -855.483        -666.610          50.050          50.050    80187020.139 9
  20433874.760        -638.809          55.900


 109053332.088 8  84976652.89148  20752151.860                    20752153.340
      1293.772        1008.135          50.700          50.650    81435970.269 9
  20752154.520         966.059          54.950


 129689648.505 7 101056909.55147  24679104.760                    24679106.980
      3350.263        2610.601          42.250          42.100



 107382969.707 8  83675092.49748  20434282.960                    20434283.080
      1217.570         948.757          52.000          51.950    80188646.568 9
  20434284.640         909.156          55.650


 125527685.013 7  97813788.04446  23887122.580                    23887122.680
      3358.104        2616.709          44.650          41.250    93738245.811 7
  23887127.760        2507.689          47.550


 124375375.095 7  96915879.15246  23667846.760                    23667848.340
     -3038.610       -2367.752          43.650          41.100



 118733991.944 7  92519996.48947  22594322.560                    22594320.820
     -2700.062       -2103.948          45.400          45.100



 125628124.960 7  97892043.72647  23906239.520                    23906239.760
     -2355.396       -1835.375          44.700          44.650



 23  8  9 14  1  0.0000000  0  9G03G04G06G07G09G11G17G19G31
 116359901.146 7  90670078.27247  22142547.380                    22142548.220
     -2596.491       -2023.242          47.050          47.250    86892167.374 8
  22142550.440       -1938.953          52.000


 107406719.466 8  83693586.71948  20438801.020                    20438800.880
      -871.869        -679.379          50.050          49.550    80206366.609 9
  20438804.480        -651.062          56.100


 109014781.156 8  84946613.21548  20744815.940                    20744817.280
      1276.155         994.407          51.500          50.100    81407182.239 9
  20744818.420         952.967          55.200


 129589152.657 6 100978601.37746  24659980.660                    24659983.520
      3349.419        2609.946          41.950          41.800



 107346694.160 8  83646825.85248  20427379.920                    20427379.960
      1200.685         935.599          52.000          51.850    80161557.689 9
  20427381.520         896.694          55.850


 125427036.877 7  97735360.99846  23867969.700                    23867970.000
      3351.649        2611.678          44.650          40.800    93663086.574 7
  23867975.160        2502.813          47.650


 124466620.131 7  96986979.07846  23685210.580                    23685211.800
     -3044.591       -2372.410          44.950          41.400



 118815202.437 7  92583277.34347  22609776.440                    22609775.040
     -2714.048       -2114.843          46.350          44.800



 125699032.244 7  97947296.09247  23919732.860                    23919733.400
     -2372.017       -1848.327          43.900          43.900



 23  8  9 14  1 30.0000000  0  9G03G04G06G07G09G11G17G19G31
 116437895.988 7  90730853.41247  22157389.180                    22157390.320
     -2603.503       -2028.706          47.650          47.650    86950410.191 8
  22157392.640       -1944.090          52.050


 107433106.292 8  83714147.86448  20443822.160                    20443821.900
      -887.535        -691.587          49.800          49.650    80226071.037 9
  20443825.540        -662.749          56.250


 108976743.076 8  84916973.16348  20737577.600                    20737578.760
      1259.490         981.422          51.600          50.100    81378777.195 9
  20737580.040         940.481          55.600


 129488672.472 7 100900305.36047  24640859.860                    24640862.960
      3349.177        2609.758          42.500          42.650



 107310904.129 8  83618937.53248  20420569.280                    20420569.340
      1184.937         923.327          52.050          52.000    80134831.387 9
  20420570.760         884.838          55.950


 125326576.511 7  97657080.26546  23848852.520                    23848853.140
      3345.481        2606.872          45.300          40.750    93588067.552 7
  23848858.260        2498.332          47.900


 124558032.004 7  97058208.97146  23702606.080                    23702606.780
     -3049.695       -2376.388          44.950          40.800



 118896817.962 7  92646873.79947  22625307.300                    22625306.060
     -2727.248       -2125.131          46.400          45.150



 125770420.932 7  98002923.56947  23933317.760                    23933318.440
     -2387.527       -1860.414          43.750          43.600



 23  8  9 14  2  0.0000000  0  9G03G04G06G07G09G11G17G19G31
 116516107.890 7  90791797.69647  22172272.400                    22172273.720
     -2610.814       -2034.401          47.700          47.800    87008815.121 8
  22172275.920       -1949.709          51.650


 107459972.020 8  83735082.18148  20448934.420                    20448934.120
      -903.699        -704.182          49.750          49.550    80246133.093 9
  20448937.860        -674.863          56.050


 108939220.512 8  84887734.80148  20730437.400                    20730438.340
      1241.931         967.738          51.500          50.500    81350757.102 9
  20730439.820         927.411          55.400


 129388210.853 7 100822023.80047  24621742.600                    24621746.080
      3348.242        2609.026          43.700          43.950



 107275600.877 8  83591428.51548  20413851.200                    20413851.360
      1168.327         910.385          51.450          51.450    80108468.569 9
  20413852.580         872.510          55.700


 125226307.221 7  97578948.40446  23829771.860                    23829772.560
      3338.775        2601.646          45.550          41.550    93513191.201 7
  23829777.620        2493.317          47.600


 124649607.623 7  97129566.46846  23720032.640                    23720032.800
     -3055.546       -2380.948          44.700          40.750



 118978836.243 7  92710784.10347  22640914.840                    22640913.600
     -2740.742       -2135.646          45.900          44.850



 125842289.446 7  98058924.93747  23946993.860                    23946994.700
     -2403.799       -1873.092          42.400          42.500



 23  8  9 14  2 30.0000000  0 11G03G04G06G07G09G11G17G19G20G26G31
 116594536.304 7  90852910.69748  22187196.900                    22187198.140
     -2617.772       -2039.824          47.800          48.000    87067381.722 8
  22187200.400       -1954.903          51.450


 107487315.538 8  83756388.81648  20454137.700                    20454137.280
      -919.422        -716.433          49.400          49.500    80266551.950 9
  20454141.220        -686.635          55.850


 108902215.409 8  84858899.66448  20723395.580                    20723396.520
      1224.783         954.377          51.650          50.700    81323123.431 9
  20723398.020         914.566          55.150


 129287770.446 7 100743758.74047  24602629.300                    24602632.960
      3347.455        2608.413          43.350          43.300



 107240784.937 8  83564299.22348  20407225.840                    20407226.080
      1152.292         897.890          51.300          51.400    80082469.665 9
  20407227.120         860.535          55.400


 125126231.649 7  97500967.50146  23810728.160                    23810728.820
      3332.510        2596.764          45.450          41.650    93438459.520 7
  23810733.700        2488.541          47.450


 124741344.662 7  97201049.77046  23737489.760                    23737489.740
     -3060.620       -2384.904          43.200          41.700



 119061254.181 7  92775005.81747  22656598.460                    22656597.160
     -2754.022       -2145.991          46.150          44.900



 135009338.756 6 105202092.54245  25691422.380                    25691423.380
      3300.616        2571.917          39.400          33.150



 133437385.994 5 103977207.47045  25392291.280                    25392297.160
      1742.478        1357.780          34.150          34.250    99644831.113 6
  25392297.240        1301.195          38.200


 125914635.924 7  98115298.72647  23960760.860                    23960761.840
     -2419.325       -1885.190          43.200          43.200



 23  8  9 14  3  0.0000000  0 11G03G04G06G07G09G11G17G19G20G26G31
 116673184.008 7  90914194.57947  22202163.260                    22202164.240
     -2625.804       -2046.081          47.650          47.650    87126112.074 8
  22202166.780       -1960.719          51.450


 107515139.101 8  83778069.50048  20459432.380                    20459431.920
      -935.826        -729.215          49.850          49.800    80287329.278 9
  20459436.020        -698.884          55.900


 108865733.095 8  84830471.89148  20716453.240                    20716454.240
      1206.892         940.436          51.700          51.050    81295880.149 9
  20716455.560         901.265          55.050


 129187357.809 7 100665515.29847  24583521.220                    24583525.260
      3346.271        2607.489          42.400          43.050



 107206460.265 8  83537552.74248  20400694.020                    20400694.280
      1135.471         884.783          51.800          51.700    80056837.628 9
  20400695.180         847.940          55.400


 125026355.885 7  97423142.28147  23791722.480                    23791723.060
      3325.352        2591.185          45.950          42.200    93363877.035 7
  23791727.700        2483.265          47.050


 124833243.784 7  97272659.31446  23754977.620                    23754977.820
     -3066.243       -2389.286          44.200          41.800



 119144072.470 7  92839539.47347  22672358.260                    22672356.960
     -2767.725       -2156.671          46.250          44.400



 134910310.083 6 105124915.30845  25672577.060                    25672580.000
      3301.126        2572.305          39.400          33.550




                                                                  99605938.455 6
  25382386.360        1291.313          36.350


 125987461.411 7  98172045.78747  23974619.160                    23974620.100
     -2435.788       -1898.019          43.600          43.850



 23  8  9 14  3 30.0000000  0 11G03G04G06G07G09G11G17G19G20G26G31
 116752044.670 7  90975644.39047  22217169.940                    22217171.200
     -2632.126       -2051.009          47.000          46.900    87185001.470 8
  22217173.740       -1965.483          51.600


 107543435.733 8  83800118.82648  20464817.100                    20464816.660
      -951.029        -741.062          50.000          49.650    80308459.870 9
  20464820.920        -710.086          56.150


 108829769.674 8  84802448.45548  20709609.600                    20709610.660
      1190.243         927.462          51.600          50.350    81269024.355 9
  20709611.780         888.864          55.000


 129086969.444 7 100587290.76547  24564417.880                    24564422.020
      3346.044        2607.312          43.700          43.200



 107172621.533 8  83511184.91548  20394254.740                    20394254.960
      1120.013         872.737          51.700          51.700    80031568.463 9
  20394255.740         836.362          55.450


 124926676.672 7  97345470.22346  23772754.160                    23772754.740
      3319.540        2586.657          45.100          41.750    93289441.324 7
  23772759.060        2478.844          47.250


 124925296.558 7  97344388.63646  23772494.640                    23772494.920
     -3070.830       -2392.859          44.300          40.700



 119227281.992 7  92904378.00047  22688192.520                    22688190.960
     -2779.840       -2166.111          46.000          43.150



 134811244.075 6 105047721.02045  25653725.740                    25653727.100
      3303.300        2573.999          37.550          32.800



 133333606.732 6 103896350.15146  25372540.900                    25372547.720
      1716.973        1337.902          37.400          37.150    99567332.277 6
  25372548.700        1282.192          41.750


 126060757.826 7  98229159.80347  23988567.100                    23988567.860
     -2450.825       -1909.736          43.350          42.850



 23  8  9 14  4  0.0000000  0 11G03G04G06G07G09G11G17G19G20G26G31
 116831121.427 7  91037262.57547  22232217.700                    22232219.140
     -2639.192       -2056.517          46.700          46.600    87244052.221 8
  22232221.760       -1970.891          51.600


 107572208.027 8  83822538.79948  20470292.320                    20470291.940
      -966.823        -753.368          49.900          49.700    80329945.680 9
  20470296.400        -721.912          56.250


 108794330.818 8  84774833.77448  20702865.740                    20702866.780
      1172.712         913.802          51.400          50.800    81242560.288 9
  20702867.860         875.766          54.850


 128986611.702 7 100509090.07647  24545320.260                    24545324.540
      3344.946        2606.456          43.350          43.300



 107139273.018 8  83485199.07348  20387908.760                    20387908.980
      1103.785         860.093          52.050          52.100    80006665.372 9
  20387909.680         824.192          55.600


 124827200.501 7  97267956.38246  23753824.440                    23753825.060
      3312.741        2581.359          44.850          41.950    93215157.231 7
  23753828.920        2473.790          47.350


 125017504.385 6  97416238.77446  23790040.940                    23790041.620
     -3076.147       -2397.002          41.950          40.900



 119310883.374 7  92969521.87747  22704101.400                    22704099.580
     -2792.899       -2176.286          45.650          44.150



 134712145.635 6 104970501.50845  25634868.000                    25634868.680
      3304.078        2574.608          37.600          35.450



 133282297.039 5 103856368.63245  25362776.960                    25362783.360
      1703.968        1327.775          34.800          33.700    99529016.678 6
  25362784.880        1272.272          39.350


 126134526.682 7  98286641.95547  24002605.020                    24002605.600
     -2466.596       -1922.025          43.550          43.400



 23  8  9 14  4 30.0000000  0 11G03G04G06G07G09G11G17G19G20G26G31
 116910410.298 7  91099046.04747  22247305.900                    22247307.340
     -2646.307       -2062.060          47.100          47.000    87303261.362 8
  22247310.020       -1976.143          51.650


 107601451.461 8  83845325.88548  20475857.040                    20475856.860
      -982.572        -765.641          49.100          49.000    80351783.303 9
  20475861.420        -733.662          56.100


 108759415.054 8  84747626.69348  20696221.520                    20696222.440
      1155.234         900.183          51.650          50.550    81216486.840 9
  20696223.460         862.708          54.600


 128886284.243 7 100430912.99347  24526228.400                    24526232.880
      3343.797        2605.561          42.650          42.100



 107106411.831 8  83459592.96248  20381655.540                    20381655.820
      1087.404         847.328          51.650          51.600    79982126.187 9
  20381656.380         812.000          55.600


 124727926.672 7  97190600.21647  23734933.140                    23734933.740
      3305.941        2576.059          44.550          42.850    93141024.234 7
  23734937.360        2468.642          47.400


 125109861.205 6  97488204.98246  23807615.600                    23807616.920
     -3081.094       -2400.859          41.750          41.350



 119394870.507 7  93034966.30647  22720083.680                    22720081.820
     -2805.853       -2186.383          46.250          43.350



 134613011.814 6 104893254.39545  25616003.580                    25616004.460
      3305.354        2575.595          39.350          34.550



 133231375.924 5 103816689.77745  25353086.840                    25353092.900
      1691.120        1317.753          35.250          35.950    99490991.164 6
  25353095.020        1262.795          37.550


 126208762.356 7  98344487.87147  24016731.640                    24016732.380
     -2482.113       -1934.116          43.100          42.950



 23  8  9 14  5  0.0000000  0 11G03G04G06G07G09G11G17G19G20G26G31
 116989912.603 7  91160995.83447  22262434.840                    22262436.220
     -2653.403       -2067.589          47.250          47.200    87362629.903 8
  22262438.840       -1981.555          51.600


 107631166.740 8  83868480.64148  20481511.540                    20481511.520
      -998.414        -777.985          49.050          49.050    80373973.278 9
  20481516.080        -745.546          56.100


 108725026.144 8  84720830.14648  20689677.540                    20689678.440
      1137.592         886.436          51.550          50.650    81190806.813 9
  20689679.220         849.432          54.450


 128785991.334 7 100352762.82047  24507143.000                    24507147.560
      3342.418        2604.486          43.050          43.350



 107074040.313 8  83434368.40948  20375495.460                    20375495.860
      1070.920         834.482          51.850          52.000    79957952.659 9
  20375496.380         799.697          55.700


 124628859.684 7  97113405.23447  23716081.200                    23716081.760
      3298.605        2570.345          43.900          42.800    93067045.712 7
  23716085.300        2463.353          47.750


 125202366.233 7  97560286.68346  23825218.780                    23825220.380
     -3085.987       -2404.674          42.550          40.000



 119479242.240 7  93100710.45247  22736139.080                    22736137.100
     -2818.757       -2196.437          45.350          42.650



 134513845.697 5 104815982.10045  25597132.800                    25597133.600
      3305.973        2576.080          35.650          33.550



 133180848.061 6 103777317.37446  25343472.120                    25343478.080
      1677.823        1307.394          37.600          37.250    99453259.318 6
  25343479.860        1252.847          36.000


 126283464.661 7  98402697.38147  24030947.040                    24030947.980
     -2497.687       -1946.252          43.750          43.750



 23  8  9 14  5 30.0000000  0 11G03G04G06G07G09G11G17G19G20G26G31
 117069627.844 7  91223111.53447  22277604.240                    22277605.420
     -2660.790       -2073.346          46.500          46.400    87422157.442 8
  22277608.000       -1987.004          51.250


 107661352.680 8  83892002.15548  20487255.680                    20487255.700
     -1014.128        -790.229          49.000          48.950    80396514.721 9
  20487260.180        -757.268          55.850


 108691165.990 8  84694445.62148  20683234.160                    20683235.140
      1119.673         872.473          50.850          50.700    81165521.634 9
  20683235.620         836.221          54.350


 128685735.902 7 100274641.77547  24488065.000                    24488069.220
      3340.824        2603.242          43.400          43.500



 107042158.990 8  83409525.83248  20369428.700                    20369429.120
      1054.329         821.556          51.850          51.850    79934145.180 9
  20369429.680         787.408          55.600


 124530002.259 7  97036373.53547  23697269.120                    23697269.620
      3291.563        2564.857          43.550          42.450    92993223.683 8
  23697273.260        2458.047          48.200


 125295016.336 7  97632481.45846  23842849.500                    23842851.560
     -3090.986       -2408.562          42.250          41.800



 119563995.491 7  93166751.88147  22752267.020                    22752265.080
     -2831.660       -2206.491          44.550          43.900



 134414648.248 6 104738685.47845  25578256.100                    25578257.560
      3306.936        2576.840          37.400          35.850



 133130716.045 6 103738253.37346  25333932.420                    25333938.680
      1664.276        1296.834          38.250          37.800    99415822.914 6
  25333940.040        1242.902          38.550


 126358631.232 7  98461268.67247  24045250.760                    24045251.880
     -2513.338       -1958.447          42.550          42.350



 23  8  9 14  6  0.0000000  0 11G03G04G06G07G09G11G17G19G20G26G31
 117149554.395 7  91285391.89647  22292813.680                    22292814.720
     -2667.538       -2078.604          46.650          46.850    87481842.765 8
  22292817.420       -1991.979          51.100


 107692007.029 8  83915888.66348  20493089.060                    20493089.000
     -1029.494        -802.203          49.600          49.550    80419405.959 9
  20493093.360        -768.749          55.650


 108657835.373 8  84668473.72048  20676891.500                    20676892.540
      1102.398         859.012          51.050          50.900    81140631.905 9
  20676892.960         823.211          54.250


 128585519.312 7 100196551.03447  24468994.320                    24468998.500
      3339.913        2602.535          43.350          43.750



 107010767.203 8  83385064.71148  20363455.060                    20363455.440
      1038.375         809.123          52.250          52.400    79910703.277 9
  20363456.120         775.444          55.350


 124431356.050 7  96959506.41246  23678497.280                    23678497.640
      3284.858        2559.632          44.400          41.400    92919559.381 8
  23678501.580        2452.932          48.050


 125387807.879 7  97704786.44447  23860507.280                    23860509.560
     -3095.226       -2411.867          43.150          42.000



 119649126.212 7  93233087.42846  22768466.780                    22768464.940
     -2843.765       -2215.923          45.350          41.850



 134315418.971 6 104661363.94646  25559373.440                    25559374.220
      3308.277        2577.877          37.950          37.700



 133080981.549 6 103699499.24946  25324468.400                    25324474.960
      1651.329        1286.745          40.800          40.950    99378683.540 6
  25324475.980        1233.225          41.900


 126434258.905 7  98520199.23847  24059642.240                    24059643.560
     -2528.336       -1970.134          43.100          43.000



 23  8  9 14  6 30.0000000  0 11G03G04G06G07G09G11G17G19G20G26G31
 117229690.294 7  91347835.39847  22308063.000                    22308064.040
     -2674.358       -2083.918          46.350          46.550    87541684.431 8
  22308066.840       -1997.076          51.850


 107723127.199 8  83940138.15248  20499011.100                    20499010.980
     -1044.742        -814.085          49.250          49.100    80442645.051 9
  20499015.260        -780.185          56.000


 108625034.792 8  84642914.83048  20670649.640                    20670650.660
      1084.842         845.332          51.350          50.300    81116137.969 9
  20670651.340         810.076          54.750


 128485342.923 7 100118491.59847  24449931.160                    24449935.140
      3339.183        2601.964          43.600          43.900



 106979864.058 8  83360984.34848  20357574.460                    20357574.700
      1022.281         796.583          52.200          52.250    79887626.257 9
  20357575.480         763.424          55.750


 124332922.344 7  96882804.87846  23659765.940                    23659766.140
      3277.896        2554.207          44.200          41.150    92846053.773 8
  23659770.380        2447.774          48.500


 125480737.078 7  97777198.68746  23878191.460                    23878193.700
     -3099.545       -2415.234          42.900          41.900



 119734629.922 7  93299713.65947  22784737.380                    22784735.940
     -2855.915       -2225.388          44.700          42.600



 134216157.873 6 104584017.64345  25540484.760                    25540485.880
      3309.921        2579.156          36.700          33.950



 133031645.631 6 103661055.73146  25315080.120                    25315086.600
      1638.357        1276.641          37.200          36.900    99341841.840 6
  25315087.780        1223.338          41.050


 126510343.859 7  98579486.12647  24074120.840                    24074122.320
     -2543.387       -1981.863          42.300          42.200



 23  8  9 14  7  0.0000000  0 11G03G04G06G07G09G11G17G19G20G26G31
 117310034.565 7  91410441.25547  22323351.940                    22323353.240
     -2681.221       -2089.265          47.000          47.200    87601681.706 8
  22323356.020       -2002.338          52.150


 107754711.546 8  83964749.32648  20505021.500                    20505021.380
     -1060.387        -826.275          49.600          49.650    80466230.758 9
  20505025.540        -791.792          56.150


 108592765.619 8  84617770.02848  20664508.980                    20664509.960
      1066.887         831.341          51.450          50.150    81092040.871 9
  20664510.880         796.787          54.900


 128385209.049 7 100040465.32047  24430876.300                    24430879.940
      3337.122        2600.356          44.850          45.000



 106949449.549 8  83337284.73848  20351786.820                    20351786.960
      1005.910         783.827          52.250          52.000    79864914.128 9
  20351787.760         751.201          55.900


 124234703.479 7  96806270.74346  23641075.380                    23641075.580
      3270.419        2548.379          44.350          41.600    92772708.572 8
  23641080.100        2442.264          48.700


 125573801.118 7  97849716.00746  23895901.400                    23895903.540
     -3104.242       -2418.895          44.200          40.150



 119820503.305 7  93366627.94447  22801078.460                    22801077.200
     -2868.349       -2235.077          44.500          42.500



 134116865.255 6 104506646.79146  25521590.180                    25521591.300
      3310.378        2579.509          38.000          36.050



 132982710.512 6 103622924.42346  25305768.060                    25305774.500
      1624.582        1265.906          40.850          41.150    99305299.358 7
  25305775.620        1213.207          42.050


 126586883.335 7  98639127.18847  24088685.900                    24088687.560
     -2558.642       -1993.751          42.750          42.350



 23  8  9 14  7 30.0000000  0 11G03G04G06G07G09G11G17G19G20G26G31
 117390588.318 7  91473210.33747  22338680.900                    22338682.480
     -2688.641       -2095.047          47.200          47.200    87661835.400 8
  22338685.120       -2007.834          52.000


 107786760.549 8  83989722.58348  20511120.300                    20511120.220
     -1076.009        -838.448          49.950          49.600    80490163.466 9
  20511124.300        -803.629          56.000


 108561031.393 8  84593042.07148  20658470.100                    20658471.120
      1048.879         817.309          51.900          50.150    81068343.250 9
  20658472.160         783.171          54.750


 128285122.243 7  99962475.68947  24411830.420                    24411833.880
      3335.424        2599.034          44.500          44.500



 106919525.817 8  83313967.54548  20346092.560                    20346092.680
       989.215         770.817          52.400          52.450    79842568.489 9
  20346093.460         738.640          55.800


 124136703.791 7  96729907.41446  23622426.560                    23622426.780
      3262.974        2542.579          44.500          41.500    92699527.052 8
  23622431.440        2436.547          48.700


 125666998.886 7  97922337.52547  23913636.880                    23913638.760
     -3108.859       -2422.491          44.600          42.350



 119906744.940 7  93433829.14747  22817489.740                    22817488.700
     -2880.853       -2244.822          45.550          43.850



 134017543.834 6 104429253.52945  25502690.020                    25502691.260
      3310.803        2579.847          38.650          32.850



 132934180.470 6 103585108.75046  25296533.200                    25296539.280
      1610.447        1254.894          37.050          36.550    99269059.299 6
  25296540.500        1202.929          38.950


 126663876.875 7  98699122.07647  24103337.500                    24103339.300
     -2574.150       -2005.834          43.500          43.300



 23  8  9 14  8  0.0000000  0 11G03G04G06G07G09G11G17G19G20G26G31
 117471351.792 7  91536142.82647  22354049.700                    22354051.620
     -2694.913       -2099.936          46.750          46.850    87722145.690 8
  22354054.080       -2012.521          51.950


 107819273.811 8  84015057.58248  20517307.400                    20517307.300
     -1090.787        -849.965          49.400          49.350    80514442.838 9
  20517311.340        -814.623          55.600


 108529834.675 8  84568732.94948  20652533.620                    20652534.620
      1031.554         803.809          51.950          50.750    81045047.005 9
  20652535.660         770.323          54.500


 128185085.819 7  99884525.32147  24392794.100                    24392797.400
      3334.251        2598.121          43.750          43.250



 106890094.016 8  83291033.67948  20340491.900                    20340492.060
       973.521         758.588          52.200          52.150    79820590.194 9
  20340492.840         726.958          55.650


 124038926.822 7  96653717.61146  23603820.120                    23603820.300
      3256.198        2537.299          44.800          41.650    92626511.836 8
  23603825.160        2431.503          48.250


 125760328.300 7  97995061.59646  23931397.260                    23931399.060
     -3112.373       -2425.230          44.150          41.850



 119993352.541 7  93501315.54447  22833970.960                    22833969.780
     -2892.287       -2253.732          45.600          44.300



 133918195.189 6 104351839.04546  25483784.720                    25483785.420
      3312.738        2581.362          38.700          36.050



 132886058.867 6 103547611.43046  25287376.020                    25287382.140
      1597.844        1245.076          36.600          36.850    99233124.405 6
  25287383.140        1193.169          39.400


 126741323.137 7  98759469.72447  24118075.240                    24118077.140
     -2588.276       -2016.843          43.250          43.100



 23  8  9 14  8 30.0000000  0 11G03G04G06G07G09G11G17G19G20G26G31
 117552319.723 7  91599234.64647  22369457.420                    22369459.600
     -2702.247       -2105.649          46.150          46.450    87782608.669 8
  22369462.020       -2018.025          52.400


 107852245.362 8  84040749.69148  20523581.660                    20523581.620
     -1106.636        -862.314          49.550          49.600    80539064.439 9
  20523585.560        -826.455          55.750


 108499172.586 8  84544840.41648  20646698.960                    20646699.860
      1013.170         789.483          52.100          50.650    81022149.999 9
  20646700.860         756.567          54.800


 128085097.899 7  99806612.77347  24373766.920                    24373769.920
      3331.973        2596.348          43.400          43.250



 106861149.816 8  83268479.76748  20334984.000                    20334984.180
       956.750         745.520          52.300          52.150    79798976.035 9
  20334985.100         714.405          55.950


 123941370.576 7  96577699.79946  23585255.740                    23585255.920
      3248.015        2530.922          44.700          41.100    92553661.451 8
  23585260.880        2425.505          48.400


 125853782.143 7  98067882.64046  23949181.220                    23949182.760
     -3117.035       -2428.864          44.500          40.550



 120080318.549 7  93569081.19947  22850520.440                    22850519.100
     -2904.719       -2263.421          46.350          43.050



 133818815.802 6 104274400.55045  25464873.520                    25464873.840
      3313.387        2581.860          39.750          35.650



 132838343.752 6 103510430.83546  25278295.980                    25278301.960
      1583.648        1234.012          37.700          37.700    99197492.998 6
  25278303.240        1182.725          41.000


 126819214.909 7  98820164.53047  24132897.640                    24132899.740
     -2603.899       -2029.015          43.000          42.750



 23  8  9 14  9  0.0000000  0 11G03G04G06G07G09G11G17G19G20G26G31
 117633495.023 7  91662488.07847  22384904.720                    22384906.840
     -2709.051       -2110.950          46.600          46.700    87843226.508 8
  22384909.240       -2022.932          51.750


 107885677.388 8  84066800.60848  20529943.560                    20529943.620
     -1121.805        -874.134          49.450          49.250    80564029.894 9
  20529947.440        -837.718          55.300


 108469050.337 8  84521368.53148  20640966.940                    20640967.800
       995.283         775.545          51.750          50.500    80999656.107 9
  20640968.720         743.255          54.500


 127985164.658 7  99728742.80947  24354750.260                    24354752.840
      3330.427        2595.141          43.550          43.400



 106832697.094 8  83246308.82148  20329569.580                    20329569.800
       940.588         732.926          51.950          52.100    79777728.876 9
  20329570.800         702.359          55.750


 123844041.218 7  96501858.79446  23566734.500                    23566734.720
      3240.832        2525.326          44.200          41.300    92480980.490 8
  23566739.700        2420.108          48.000


 125947360.948 7  98140801.07246  23966988.860                    23966990.120
     -3120.973       -2431.930          43.950          40.100



 120167643.150 7  93637126.26947  22867138.160                    22867136.420
     -2916.402       -2272.524          45.100          43.150



 133719409.791 6 104196941.31646  25445957.180                    25445957.220
      3314.488        2582.716          39.600          36.500



 132791040.816 6 103473571.42546  25269294.540                    25269300.440
      1569.950        1223.340          37.550          37.750    99162169.419 6
  25269301.920        1172.630          39.650


 126897553.173 7  98881207.25347  24147804.860                    24147807.060
     -2618.398       -2040.314          42.600          42.800



 23  8  9 14  9 30.0000000  0 11G03G04G06G07G09G11G17G19G20G26G31
 117714876.415 7  91725902.08647  22400391.180                    22400393.200
     -2716.045       -2116.400          47.000          47.050    87903998.248 8
  22400395.380       -2028.141          51.300


 107919567.926 8  84093208.82048  20536392.720                    20536392.760
     -1137.046        -886.011          49.600          49.250    80589337.767 9
  20536396.540        -849.094          55.350


 108439468.962 8  84498318.11148  20635337.760                    20635338.660
       977.220         761.471          51.750          50.400    80977566.121 9
  20635339.500         729.806          54.650


 127885288.050 7  99650916.95747  24335744.280                    24335746.760
      3328.726        2593.816          43.250          43.150



 106804735.460 8  83224520.54748  20324248.600                    20324248.820
       924.027         720.021          51.950          51.900    79756848.447 9
  20324249.840         690.054          55.850


 123746940.798 7  96426196.16446  23548256.800                    23548256.820
      3232.993        2519.216          44.400          41.000    92408470.491 8
  23548262.100        2414.366          48.100


 126041061.691 7  98213814.49546  23984819.600                    23984820.860
     -3124.987       -2435.062          44.200          40.900



 120255322.610 7  93705447.85047  22883823.280                    22883821.300
     -2928.289       -2281.786          46.250          42.600



 133619978.066 6 104119462.12045  25427035.980                    25427036.000
      3315.089        2583.190          40.550          33.300



 132744151.929 6 103437034.59746  25260372.000                    25260377.980
      1556.440        1212.810          39.800          39.550    99127154.969 6
  25260379.200        1162.219          41.000


 126976334.892 7  98942595.52747  24162796.520                    24162798.560
     -2632.992       -2051.684          42.500          42.550



 23  8  9 14 10  0.0000000  0 11G03G04G06G07G09G11G17G19G20G26G31
 117796462.735 7  91789475.77247  22415916.560                    22415918.520
     -2722.961       -2121.790          46.500          46.500    87964923.013 8
  22415920.420       -2033.301          50.850


 107953915.109 8  84119972.85848  20542928.740                    20542928.640
     -1152.341        -897.929          48.950          48.700    80614986.639 9
  20542932.600        -860.597          55.200


 108410429.583 8  84475690.03648  20629811.600                    20629812.620
       958.939         747.226          51.150          50.600    80955880.881 9
  20629813.480         716.104          54.700


 127785470.078 7  99573136.83247  24316749.380                    24316751.960
      3326.327        2591.948          43.150          43.150



 106777264.613 8  83203114.70248  20319020.980                    20319021.240
       907.677         707.281          51.850          51.900    79736334.514 9
  20319022.240         677.781          55.800


 123650071.361 7  96350713.53746  23529823.000                    23529822.920
      3225.084        2513.055          43.900          41.100    92336132.999 8
  23529828.460        2408.423          48.050


 126134881.103 7  98286920.39146  24002672.960                    24002674.080
     -3129.291       -2438.416          43.500          41.200



 120343353.280 7  93774043.09947  22900575.020                    22900573.000
     -2940.296       -2291.143          45.550          43.150



 133520520.706 6 104041962.92345  25408109.980                    25408110.000
      3315.721        2583.683          40.050          32.650



 132697679.141 6 103400822.07446  25251528.660                    25251534.720
      1542.256        1201.760          38.050          38.100    99092451.291 6
  25251535.500        1151.675          41.250


 127055557.179 7  99004327.11847  24177872.080                    24177873.820
     -2648.051       -2063.418          42.750          42.700



 23  8  9 14 10 30.0000000  0 11G03G04G06G07G09G11G17G19G20G26G31
 117878253.395 7  91853208.67847  22431480.760                    22431482.900
     -2729.352       -2126.770          46.300          46.550    88026000.365 8
  22431484.720       -2038.185          50.800


 107988717.672 8  84147091.73848  20549551.340                    20549551.080
     -1167.247        -909.543          48.850          48.800    80640975.556 9
  20549555.340        -871.669          55.250


 108381933.914 8  84453485.62548  20624388.880                    20624389.960
       941.136         733.353          51.000          50.200    80934601.663 9
  20624390.960         702.797          54.850


 127685713.388 7  99495404.45047  24297766.340                    24297768.380
      3324.426        2590.467          43.900          43.900



 106750284.932 8  83182091.58548  20313886.820                    20313887.140
       891.555         694.719          51.700          51.500    79716187.362 9
  20313888.180         665.755          55.900


 123553435.696 7  96275413.07346  23511433.760                    23511433.740
      3217.794        2507.374          43.900          41.750    92263970.068 8
  23511439.220        2402.795          48.200


 126228816.640 7  98360116.78346  24020548.240                    24020549.180
     -3132.606       -2440.997          43.200          40.850



 120431732.072 7  93842909.61747  22917392.760                    22917390.520
     -2951.323       -2299.733          45.400          42.450



 133421038.706 6 103964444.52945  25389179.280                    25389179.300
      3316.824        2584.543          39.750          33.050



 132651624.769 6 103364935.57346  25242764.740                    25242771.120
      1528.743        1191.229          39.750          40.050    99058060.087 6
  25242771.260        1141.436          40.850


 127135217.865 7  99066400.31047  24193031.020                    24193032.540
     -2662.299       -2074.521          43.450          43.550



 23  8  9 14 11  0.0000000  0 11G03G04G06G07G09G11G17G19G20G26G31
 117960247.009 7  91917099.72247  22447083.560                    22447086.060
     -2736.274       -2132.165          46.100          46.000    88087229.267 8
  22447087.920       -2043.284          50.850


 108023973.426 8  84174563.75348  20556260.240                    20556259.800
     -1182.507        -921.434          49.250          48.800    80667302.889 9
  20556264.320        -882.969          55.300


 108353982.790 8  84431705.54948  20619069.840                    20619070.860
       922.872         719.122          51.250          50.100    80913729.085 9
  20619072.120         689.192          55.000


 127586019.821 7  99417721.28847  24278795.320                    24278797.120
      3322.395        2588.883          44.000          43.850



 106723795.820 8  83161450.72848  20308846.060                    20308846.440
       875.163         681.945          52.050          52.200    79696406.543 9
  20308847.560         653.483          56.100


 123457035.649 7  96200296.20846  23493089.420                    23493089.380
      3209.571        2500.966          44.400          41.800    92191983.082 8
  23493094.820        2396.816          48.750


 126322864.941 7  98433401.05646  24038444.780                    24038445.800
     -3136.384       -2443.938          42.050          40.700



 120520455.033 7  93912044.31046  22934276.040                    22934273.800
     -2962.825       -2308.697          44.800          41.900



 133321532.095 6 103886906.93245  25370243.720                    25370243.460
      3317.342        2584.934          38.050          32.950



 132605990.664 6 103329376.62946  25234080.720                    25234087.300
      1514.209        1179.904          38.250          39.300    99023982.736 6
  25234086.920        1130.913          40.850


 127215313.775 7  99128812.66946  24208272.920                    24208273.760
     -2676.898       -2085.896          42.550          41.750



 23  8  9 14 11 30.0000000  0 11G03G04G06G07G09G11G17G19G20G26G31
 118042442.049 7  91981147.71347  22462724.740                    22462727.560
     -2743.127       -2137.505          46.000          46.100    88148608.588 8
  22462729.440       -2048.348          50.600


 108059680.123 8  84202387.14948  20563055.080                    20563054.580
     -1197.515        -933.129          49.200          49.050    80693966.973 9
  20563059.000        -894.232          55.100


 108326576.958 8  84410350.35748  20613854.720                    20613855.500
       904.597         704.881          51.750          49.600    80893263.702 9
  20613857.020         675.505          55.000


 127486391.249 7  99340088.74947  24259836.580                    24259838.320
      3320.074        2587.074          43.850          43.750



 106697796.663 8  83141191.65148  20303898.580                    20303898.960
       858.551         669.001          52.250          52.350    79676991.590 9
  20303900.120         641.184          56.100


 123360873.009 7  96125364.34646  23474790.360                    23474790.380
      3201.506        2494.685          44.250          41.900    92120173.391 8
  23474795.620        2390.877          49.100


 126417021.660 7  98506769.77546  24056361.840                    24056363.280
     -3140.378       -2447.050          42.400          39.300



 120609517.981 7  93981443.91946  22951224.020                    22951221.820
     -2974.234       -2317.587          45.200          41.850



 133222001.266 6 103809350.44045  25351303.700                    25351303.160
      3318.171        2585.579          39.950          30.200



 132560778.173 6 103294146.18646  25225476.940                    25225483.500
      1500.028        1168.854          38.600          38.000    98990220.249 6
  25225483.180        1120.269          40.350


 127295841.345 7  99191561.35347  24223596.820                    24223597.320
     -2691.175       -2097.021          42.650          42.500



 23  8  9 14 12  0.0000000  0 11G03G04G06G07G09G11G17G19G20G26G31
 118124841.407 7  92045354.92747  22478404.800                    22478407.780
     -2749.881       -2142.768          45.700          46.000    88210140.491 8
  22478409.720       -2053.460          50.650


 108095839.977 8  84230563.65148  20569936.160                    20569935.780
     -1212.717        -944.976          49.700          49.250    80720969.464 9
  20569939.900        -905.636          55.200


 108299721.593 8  84389424.10548  20608744.420                    20608744.940
       886.064         690.440          52.050          49.850    80873209.373 9
  20608746.660         661.683          55.200


 127386833.890 7  99262511.71947  24240891.420                    24240892.800
      3317.399        2584.991          43.200          43.300



 106672291.185 8  83121317.25748  20299045.060                    20299045.440
       842.102         656.183          52.100          52.000    79657945.302 9
  20299046.520         628.785          56.250


 123264954.042 7  96050622.35647  23456537.620                    23456537.740
      3193.278        2488.271          44.300          43.200    92048545.660 8
  23456542.840        2384.678          49.550


 126511287.932 6  98580223.88546  24074299.820                    24074301.600
     -3143.629       -2449.583          41.550          40.650



 120698921.368 7  94051108.82547  22968236.840                    22968234.800
     -2985.673       -2326.501          44.850          42.000



 133122450.463 6 103731790.57645  25332359.740                    25332360.620
      3318.780        2586.072          39.250          34.000



 132515993.292 6 103259248.90446  25216954.720                    25216960.980
      1486.100        1158.001          37.700          38.000    98956777.045 6
  25216961.120        1109.476          40.650


 127376801.880 7  99254647.40847  24239003.080                    24239003.080
     -2705.713       -2108.351          42.550          42.250



 23  8  9 14 12 30.0000000  0 11G03G04G06G07G09G11G17G19G20G26G31
 118207439.726 7  92109717.18447  22494122.860                    22494125.660
     -2756.626       -2148.022          45.650          45.800    88271820.974 8
  22494127.680       -2058.461          50.050


 108132446.843 8  84259088.46148  20576902.200                    20576902.000
     -1227.768        -956.703          48.850          48.850    80748305.738 9
  20576905.840        -916.769          55.050


 108273413.506 8  84368924.29748  20603738.200                    20603738.720
       867.797         676.205          51.500          51.600    80853563.724 9
  20603740.440         648.023          55.150


 127287345.779 7  99184988.66747  24221959.420                    24221960.680
      3314.862        2583.016          43.700          43.800



 106647274.862 8  83101824.03148  20294284.600                    20294284.940
       825.707         643.408          51.750          51.800    79639264.289 9
  20294285.980         616.666          56.250


 123169276.641 7  95976068.59247  23438330.820                    23438331.080
      3185.301        2482.055          44.600          43.050    91977098.325 8
  23438336.120        2378.494          49.800


 126605656.527 6  98653757.70646  24092257.220                    24092259.360
     -3147.384       -2452.510          41.250          39.650



 120788657.287 7  94121032.83847  22985312.920                    22985311.380
     -2996.744       -2335.128          44.100          42.650



 133022876.217 6 103654200.14045  25313411.380                    25313410.660
      3319.463        2586.587          39.000          33.400



 132471633.624 6 103224682.93046  25208513.280                    25208519.580
      1471.477        1146.606          40.750          40.700    98923651.310 7
  25208520.020        1098.821          43.300


 127458187.983 7  99318065.09247  24254490.280                    24254490.020
     -2719.861       -2119.374          42.650          42.650



 23  8  9 14 13  0.0000000  0 11G03G04G06G07G09G11G17G19G20G26G31
 118290238.703 7  92174235.80247  22509879.100                    22509881.600
     -2763.156       -2153.111          46.150          46.050    88333651.310 8
  22509883.640       -2063.551          49.800


 108169501.651 8  84287962.33148  20583953.460                    20583953.300
     -1242.628        -968.282          49.000          48.850    80775976.525 9
  20583957.100        -927.949          55.250


 108247656.591 8  84348853.97848  20598836.760                    20598837.400
       849.356         661.837          51.900          51.800    80834329.666 9
  20598839.140         634.190          55.550


 127187931.467 7  99107523.08147  24203041.480                    24203042.660
      3312.643        2581.283          44.000          43.800



 106622750.174 8  83082713.88848  20289617.700                    20289618.000
       809.254         630.587          51.800          51.850    79620950.416 9
  20289619.080         604.287          56.500


 123073845.807 7  95901706.98147  23420170.900                    23420171.240
      3176.925        2475.527          45.650          42.600    91905835.123 8
  23420176.280        2372.331          50.200


 126700127.024 6  98727370.93346  24110234.000                    24110236.880
     -3150.909       -2455.258          40.900          39.550



 120878724.998 7  94191215.41447  23002452.360                    23002451.040
     -3007.797       -2343.740          44.500          42.550



 132923281.702 6 103576594.14745  25294459.140                    25294458.300
      3319.979        2586.994          39.400          33.250



 132427703.806 6 103190451.95646  25200153.740                    25200160.080
      1457.219        1135.497          38.700          38.800    98890846.632 6
  25200160.620        1088.090          40.900


 127539999.631 7  99381814.33847  24270058.540                    24270058.080
     -2734.024       -2130.410          43.300          42.700



 23  8  9 14 13 30.0000000  0 11G03G04G06G07G09G11G17G19G20G26G31
 118373234.334 7  92238907.64947  22525672.760                    22525674.980
     -2770.324       -2158.696          45.700          45.850    88395628.483 8
  22525676.920       -2068.611          49.400


 108206999.609 8  84317181.50848  20591089.120                    20591088.740
     -1257.710        -980.034          49.050          49.000    80803978.228 9
  20591092.780        -939.155          55.150


 108222448.961 8  84329211.67948  20594039.880                    20594040.660
       830.756         647.342          51.350          51.400    80815505.794 9
  20594042.380         620.343          55.450


 127088590.526 7  99030114.68847  24184137.480                    24184138.620
      3309.694        2578.986          44.100          43.950



 106598713.934 8  83063984.35648  20285043.760                    20285043.980
       792.620         617.626          52.000          52.150    79603001.282 9
  20285045.180         591.920          56.300


 122978660.819 7  95827536.92347  23402057.820                    23402058.120
      3168.318        2468.821          45.700          42.400    91834755.493 8
  23402063.240        2365.987          50.000


 126794693.146 6  98801058.71446  24128229.540                    24128232.560
     -3154.102       -2457.746          41.050          39.500



 120969117.911 7  94261651.38147  23019653.680                    23019652.680
     -3018.883       -2352.379          44.650          43.350



 132823664.522 6 103498970.41845  25275502.540                    25275501.700
      3320.535        2587.429          39.300          32.750



 132384202.825 6 103156555.10446  25191875.600                    25191882.020
      1442.544        1124.061          39.800          39.950    98858362.158 6
  25191882.540        1077.129          41.350


 127622230.757 7  99445890.44247  24285706.760                    24285706.240
     -2748.241       -2141.490          43.100          43.000



 23  8  9 14 14  0.0000000  0 11G03G04G06G07G09G11G17G19G20G26G31
 118456428.459 7  92303734.16847  22541504.180                    22541506.300
     -2776.646       -2163.622          45.900          45.700    88457753.891 8
  22541508.340       -2073.441          49.350


 108244941.800 8  84346746.85048  20598309.380                    20598308.820
     -1272.351        -991.441          48.850          48.950    80832311.675 9
  20598312.980        -950.066          54.700


 108197794.739 8  84310000.59748  20589348.280                    20589349.140
       812.348         632.998          51.350          51.300    80797095.171 9
  20589350.920         606.660          55.200


 126989327.872 7  98952767.30947  24165248.360                    24165249.600
      3307.317        2577.135          44.400          44.050



 106575168.771 8  83045637.48848  20280563.300                    20280563.400
       776.442         605.021          52.300          52.300    79585418.871 9
  20280564.660         579.841          55.850


 122883726.895 7  95753562.49347  23383992.420                    23383992.780
      3160.019        2462.354          45.900          42.250    91763863.346 8
  23383997.940        2359.816          49.550


 126889354.913 6  98874820.97246  24146243.320                    24146246.080
     -3156.965       -2459.977          40.200          39.800



 121059835.255 7  94332340.15147  23036916.920                    23036916.020
     -3029.818       -2360.898          45.100          43.000



 132724028.309 6 103421331.87645  25256542.380                    25256540.660
      3321.219        2587.969          39.750          32.600



 132341135.552 6 103122996.22546  25183680.140                    25183686.520
      1428.041        1112.757          41.300          41.100    98826201.562 6
  25183687.120        1066.539          41.750


 127704881.629 7  99510293.64147  24301434.740                    24301434.240
     -2762.187       -2152.357          42.750          43.200



 23  8  9 14 14 30.0000000  0 11G03G04G06G07G09G11G17G19G20G26G31
 118539822.275 7  92368716.28647  22557373.740                    22557375.780
     -2783.224       -2168.747          46.650          46.650    88520028.409 8
  22557378.040       -2078.416          49.950


 108283328.660 8  84376658.66947  20605614.140                    20605613.620
     -1287.217       -1003.027          48.100          47.850    80860977.162 9
  20605617.760        -961.176          54.650


 108173697.203 8  84291223.29648  20584762.600                    20584763.540
       793.784         618.533          50.750          50.650    80779100.267 9
  20584765.360         592.735          55.350


 126890147.946 7  98875484.37647  24146374.920                    24146376.320
      3304.279        2574.767          44.050          44.150



 106552116.683 8  83027674.82848  20276176.720                    20276176.660
       759.928         592.151          52.150          52.050    79568204.659 9
  20276177.880         567.457          55.850


 122789048.532 7  95679787.19847  23365975.560                    23365975.880
      3151.443        2455.673          44.950          43.350    91693162.045 8
  23365981.160        2353.357          49.350


 126984111.269 6  98948656.95546  24164275.120                    24164277.940
     -3160.181       -2462.482          41.200          40.150



 121150875.481 7  94403280.50347  23054241.500                    23054240.840
     -3040.225       -2369.010          44.500          43.200



 132624375.229 6 103343680.19945  25237578.840                    25237578.040
      3321.757        2588.389          37.650          33.800



 132298506.108 6 103089778.52746  25175568.000                    25175574.380
      1413.456        1101.396          39.100          39.600    98794367.931 6
  25175575.000        1055.565          41.150


 127787951.485 7  99575023.31147  24317242.360                    24317242.140
     -2776.486       -2163.497          42.100          42.450



 23  8  9 14 15  0.0000000  0 11G03G04G06G07G09G11G17G19G20G26G31
 118623411.055 7  92433850.32747  22573280.460                    22573282.360
     -2789.021       -2173.265          47.150          47.050    88582448.512 8
  22573284.660       -2082.705          50.000


 108322154.620 8  84406912.64548  20613002.320                    20613002.020
     -1300.940       -1013.721          48.900          48.600    80889970.552 9
  20613006.020        -971.462          54.500


 108150153.741 8  84272877.73148  20580282.320                    20580283.440
       776.198         604.830          50.700          50.700    80761519.107 9
  20580285.160         579.554          55.450


 126791049.375 7  98798264.83047  24127517.020                    24127518.180
      3302.377        2573.286          43.600          43.650



 106529553.649 8  83010093.25048  20271883.160                    20271882.980
       744.566         580.182          52.250          52.200    79551355.648 9
  20271884.120         555.948          55.850


 122694624.297 7  95606209.92747  23348006.980                    23348007.380
      3143.977        2449.854          44.000          42.100    91622650.508 8
  23348012.700        2347.671          49.150


 127078955.458 7  99022561.35846  24182323.760                    24182326.260
     -3162.265       -2464.107          43.400          38.150



 121242231.338 7  94474466.80747  23071626.240                    23071625.460
     -3049.877       -2376.529          44.800          43.550



 132524702.867 6 103266013.40945  25218611.740                    25218611.240
      3323.144        2589.465          37.250          33.000



 132256312.708 6 103056900.59646  25167538.780                    25167545.120
      1399.851        1090.796          39.300          39.900    98762859.962 6
  25167545.940        1045.269          41.900


 127871433.431 7  99640074.06746  24333128.260                    24333128.440
     -2789.079       -2173.316          42.050          41.700



 23  8  9 14 15 30.0000000  0 11G03G04G06G07G09G11G17G19G20G26G31
 118707195.123 7  92499136.53647  22589224.240                    22589226.100
     -2796.389       -2179.007          46.200          46.550    88645014.453 8
  22589228.220       -2088.282          49.950


 108361419.223 8  84437508.41748  20620474.020                    20620473.820
     -1316.569       -1025.899          49.100          48.850    80919291.502 9
  20620477.740        -983.166          54.450


 108127166.797 8  84254965.82248  20575907.920                    20575909.320
       756.404         589.405          50.750          51.000    80744353.522 9
  20575910.820         564.873          55.550


 126692035.870 7  98721111.57047  24108675.240                    24108676.360
      3298.245        2570.065          43.800          43.850



 106507480.764 8  82992893.61348  20267682.820                    20267682.600
       726.991         566.487          51.950          51.700    79534872.651 9
  20267683.700         542.963          55.950


 122600457.871 7  95532833.54546  23330087.360                    23330088.040
      3133.865        2441.975          43.600          41.800    91552331.489 8
  23330093.260        2340.345          49.050


 127173885.632 7  99096532.76246  24200388.780                    24200390.880
     -3166.312       -2467.261          43.950          39.350



 121333900.639 7  94545897.34547  23089070.480                    23089069.620
     -3061.524       -2385.605          45.000          43.600



 132425013.249 6 103188333.21445  25199641.380                    25199640.780
      3322.930        2589.290          38.800          32.450



 132214558.524 6 103024364.89946  25159593.100                    25159599.520
      1384.040        1078.473          39.700          39.550    98731679.924 7
  25159600.500        1033.532          42.100


 127955326.170 6  99705444.97746  24349092.440                    24349092.800
     -2803.642       -2184.659          41.150          41.650



 23  8  9 14 16  0.0000000  0 11G03G04G06G07G09G11G17G19G20G26G31
 118791175.277 7  92564575.54147  22605205.140                    22605207.160
     -2802.304       -2183.615          45.950          45.650    88707726.819 8
  22605209.160       -2092.683          50.150


 108401122.440 8  84468445.96648  20628029.260                    20628029.140
     -1330.597       -1036.830          49.000          48.800    80948939.987 9
  20628032.960        -993.598          54.500


 108104739.217 8  84237489.78448  20571640.040                    20571641.680
       738.268         575.273          51.300          51.100    80727605.660 9
  20571642.920         551.368          55.600


 126593111.829 7  98644027.98847  24089850.520                    24089851.680
      3296.110        2568.400          44.350          44.250



 106485899.555 8  82976077.09348  20263575.980                    20263575.800
       711.243         554.216          52.000          52.050    79518756.819 9
  20263576.940         531.181          56.100


 122506553.290 7  95459661.20447  23312217.660                    23312218.660
      3125.977        2435.827          44.050          42.850    91482208.019 8
  23312223.640        2334.282          48.950


 127268900.596 7  99170570.22146  24218470.020                    24218471.900
     -3168.443       -2468.928          42.550          39.000



 121425882.018 7  94617571.07747  23106574.160                    23106573.020
     -3071.049       -2393.027          45.400          43.100



 132325308.573 6 103110641.29145  25180668.180                    25180667.680
      3323.705        2589.902          39.700          32.900



 132173247.287 6 102992174.38246  25151731.920                    25151738.340
      1369.825        1067.398          39.750          39.850    98700830.669 7
  25151739.340        1022.802          42.300


 128039628.639 6  99771135.15446  24365134.660                    24365135.100
     -2816.702       -2194.835          41.850          41.700



 23  8  9 14 16 30.0000000  0 11G03G04G06G07G09G11G17G19G20G26G31
 118875350.640 7  92630166.64747  22621223.100                    22621225.340
     -2809.019       -2188.850          45.400          45.250    88770584.945 8
  22621227.240       -2097.745          50.250


 108441262.592 8  84499723.98648  20635667.700                    20635667.580
     -1345.080       -1048.115          48.700          48.700    80978914.760 9
  20635671.360       -1004.618          54.450


 108082872.231 8  84220450.56448  20567478.920                    20567480.660
       719.499         560.648          50.800          50.850    80711276.412 9
  20567481.660         537.286          55.600


 126494279.053 7  98567015.53147  24071043.040                    24071044.080
      3292.918        2565.913          43.700          43.950



 106464809.823 8  82959643.54848  20259562.660                    20259562.540
       694.940         541.512          51.800          51.900    79503008.011 9
  20259563.820         518.821          56.250


 122412913.107 7  95386694.88847  23294398.560                    23294399.620
      3117.023        2428.850          44.250          43.000    91412281.978 8
  23294404.320        2327.518          48.950


 127363997.458 6  99244671.54046  24236566.760                    24236568.720
     -3171.246       -2471.105          41.850          41.000



 121518171.429 7  94689484.80847  23124136.200                    23124135.140
     -3081.365       -2401.067          44.750          42.850



 132225589.916 6 103032938.47045  25161692.320                    25161691.900
      3324.080        2590.194          40.200          35.950



 132132380.963 6 102960330.52846  25143955.280                    25143961.760
      1354.966        1055.818          39.500          40.150    98670313.685 7
  25143963.000        1011.650          43.400


 128124338.072 6  99837142.41447  24381254.360                    24381254.840
     -2830.431       -2205.532          41.350          42.000



 23  8  9 14 17  0.0000000  0 11G03G04G06G07G09G11G17G19G20G26G31
 118959715.481 7  92695905.39547  22637277.040                    22637279.540
     -2815.296       -2193.740          45.400          45.450    88833584.556 8
  22637281.480       -2102.482          50.300


 108481833.150 8  84531337.37748  20643388.120                    20643387.900
     -1359.625       -1059.449          49.200          49.050    81009210.923 9
  20643391.800       -1015.389          54.600


 108061562.172 8  84203845.32548  20563423.800                    20563425.560
       700.842         546.110          50.950          50.850    80695363.056 9
  20563426.360         523.345          55.650


 126395535.024 7  98490072.22047  24052252.460                    24052253.600
      3289.879        2563.545          44.250          44.400



 106444206.592 8  82943589.09148  20255641.920                    20255641.820
       678.634         528.806          51.850          51.900    79487622.487 9
  20255643.340         506.652          56.550


 122319534.947 7  95313932.74747  23276629.520                    23276630.420
      3108.090        2421.890          45.050          43.800    91342551.589 8
  23276634.940        2320.849          49.100


 127459168.812 7  99318830.84846  24254677.460                    24254679.460
     -3173.830       -2473.120          42.000          40.750



 121610760.850 7  94761632.31747  23141755.260                    23141753.820
     -3091.264       -2408.781          44.150          43.350



 132125853.000 6 102955221.37045  25142713.020                    25142712.560
      3324.691        2590.666          40.600          33.000



 132091956.747 6 102928831.19246  25136262.880                    25136269.380
      1340.012        1044.165          38.900          38.750    98640126.834 6
  25136270.620        1000.493          41.950


 128209446.792 6  99903460.82346  24397450.000                    24397450.660
     -2843.446       -2215.675          39.100          39.000



 23  8  9 14 17 30.0000000  0 11G03G04G06G07G09G11G17G19G20G26G31
 119044275.847 7  92761796.50247  22653368.340                    22653370.780
     -2821.718       -2198.744          46.100          46.250    88896730.179 8
  22653372.880       -2107.118          50.350


 108522839.279 8  84563290.18748  20651191.480                    20651191.100
     -1373.914       -1070.583          49.350          49.050    81039832.352 9
  20651195.100       -1025.991          54.450


 108040816.992 8  84187680.24448  20559476.200                    20559477.860
       682.253         531.626          51.250          51.100    80679871.516 9
  20559478.620         509.451          55.700


 126296889.547 7  98413205.72747  24033480.820                    24033482.100
      3286.621        2561.006          43.600          43.600



 106424096.562 8  82927918.94148  20251815.040                    20251814.960
       662.275         516.060          51.900          52.050    79472605.259 9
  20251816.720         494.519          56.600


 122226428.115 7  95241382.02247  23258912.060                    23258912.820
      3099.127        2414.905          46.050          43.500    91273023.819 8
  23258917.300        2314.315          49.300


 127554417.882 7  99393050.77846  24272803.080                    24272804.540
     -3175.993       -2474.805          42.650          40.950



 121703653.899 7  94834016.43547  23159432.060                    23159430.480
     -3101.237       -2416.554          43.350          42.400



 132026105.803 6 102877496.31445  25123731.660                    25123731.200
      3325.219        2591.082          41.000          31.200



 132051983.508 6 102897683.25946  25128656.200                    25128662.580
      1325.012        1032.479          38.550          38.400    98610276.703 7
  25128663.600         989.574          42.600


 128294958.921 6  99970093.56346  24413722.540                    24413723.300
     -2856.883       -2226.147          41.650          41.750



 23  8  9 14 18  0.0000000  0 11G03G04G06G07G09G11G17G19G20G26G31
 119129026.098 7  92827835.58947  22669495.860                    22669498.040
     -2827.800       -2203.482          45.950          45.600    88960017.618 8
  22669500.540       -2111.647          50.250


 108564274.540 8  84595577.39148  20659076.500                    20659075.980
     -1387.862       -1081.452          49.100          49.100    81070774.248 9
  20659080.020       -1036.362          54.150


 108020633.304 8  84171952.69748  20555635.460                    20555636.880
       663.770         517.223          50.850          50.750    80664799.279 9
  20555637.840         495.715          55.400


 126198340.057 7  98336414.03147  24014727.260                    24014728.440
      3283.827        2558.829          43.350          43.500



 106404474.780 8  82912629.24948  20248081.080                    20248081.060
       646.350         503.649          51.700          51.650    79457952.631 9
  20248082.880         482.685          56.250


 122133590.370 7  95169040.97747  23241245.740                    23241246.360
      3090.493        2408.179          45.400          44.400    91203696.978 8
  23241250.940        2307.842          49.150


 127649737.649 6  99467325.73546  24290941.940                    24290943.140
     -3177.971       -2476.348          41.800          40.650



 121796842.607 7  94906630.91446  23177165.140                    23177163.560
     -3110.854       -2424.046          42.850          41.900



 131926344.215 6 102799760.00445  25104747.560                    25104747.220
      3326.243        2591.880          41.300          34.550



 132012458.492 6 102866884.58446  25121134.720                    25121141.060
      1310.437        1021.121          38.100          37.700    98580761.342 7
  25121141.900         978.525          42.400


 128380867.379 6 100037035.13046  24430070.460                    24430071.280
     -2869.783       -2236.198          40.300          39.750



 23  8  9 14 18 30.0000000  0 11G03G04G06G07G09G11G17G19G20G26G31
 119213971.090 7  92894026.42547  22685660.400                    22685662.380
     -2834.546       -2208.739          45.450          45.300    89023450.472 8
  22685665.180       -2116.767          50.200


 108606142.945 8  84628202.10048  20667043.900                    20667043.340
     -1402.687       -1093.004          49.250          49.000    81102039.591 9
  20667047.460       -1047.484          54.400


 108001017.868 8  84156667.93348  20551902.860                    20551904.020
       644.445         502.165          51.050          51.000    80650151.381 9
  20551905.260         481.264          55.450


 126099894.629 7  98259703.39247  23995993.520                    23995994.380
      3279.903        2555.772          44.000          43.750



 106385346.768 8  82897724.30548  20244441.100                    20244441.200
       629.438         490.472          51.450          51.600    79443668.731 9
  20244442.880         470.042          56.250


 122041029.888 7  95096915.97647  23223632.080                    23223632.580
      3080.818        2400.639          46.100          44.100    91134577.193 8
  23223637.380        2300.568          49.400


 127745130.453 6  99541657.60646  24309094.520                    24309095.720
     -3180.959       -2478.676          41.150          39.950



 121890328.411 7  94979476.90347  23194954.860                    23194953.220
     -3120.979       -2431.933          43.600          42.350



 131826574.734 6 102722017.54945  25085762.060                    25085762.060
      3325.897        2591.610          41.150          33.850



 131973389.410 6 102836441.16046  25113700.200                    25113706.280
      1294.476        1008.686          39.350          39.400    98551586.392 7
  25113707.120         967.047          42.900


 128467174.449 6 100104287.32847  24446494.140                    24446495.080
     -2883.474       -2246.864          41.700          42.200



 23  8  9 14 19  0.0000000  0 11G03G04G06G07G09G11G17G19G20G26G31
 119299102.417 7  92960362.45247  22701860.280                    22701862.360
     -2840.977       -2213.749          45.750          45.750    89087022.466 8
  22701865.040       -2121.362          50.550


 108648435.192 8  84661157.08148  20675091.900                    20675091.440
     -1416.868       -1104.054          49.500          48.950    81133621.446 9
  20675095.680       -1058.047          54.750


 107981964.228 8  84141820.93948  20548277.120                    20548278.060
       625.606         487.485          51.600          51.650    80635923.018 9
  20548279.600         467.221          55.650


 126001548.080 7  98183069.82647  23977278.660                    23977279.800
      3276.535        2553.149          44.200          44.050



 106366704.709 8  82883198.03148  20240893.620                    20240893.920
       613.085         477.729          51.600          51.450    79429747.710 9
  20240895.320         457.928          56.350


 121948741.594 7  95025003.06647  23206070.160                    23206070.640
      3071.644        2393.490          45.900          43.500    91065660.661 8
  23206075.640        2293.842          49.750


 127840585.631 6  99616038.08446  24327259.100                    24327260.680
     -3182.910       -2480.197          40.800          40.750



 121984100.147 7  95052545.68847  23212799.080                    23212797.400
     -3130.330       -2439.224          43.700          42.650



 131726790.549 6 102644263.68245  25066773.660                    25066774.160
      3326.189        2591.840          40.650          33.900



 131934770.559 6 102806348.59246  25106351.260                    25106357.480
      1279.425         996.956          37.650          37.000    98522747.687 7
  25106358.040         955.707          42.850


 128553869.689 6 100171841.95346  24462991.740                    24462992.660
     -2896.521       -2257.035          40.150          40.950



 23  8  9 14 19 30.0000000  0 11G03G04G06G07G09G11G17G19G20G26G31
 119384425.004 7  93026847.53447  22718096.800                    22718098.800
     -2847.700       -2218.988          46.350          46.450    89150737.304 8
  22718101.220       -2126.520          50.150


 108691155.485 8  84694445.59248  20683221.240                    20683220.960
     -1431.451       -1115.418          49.150          48.800    81165522.927 9
  20683225.380       -1068.960          54.750


 107963479.305 8  84127417.10948  20544759.560                    20544760.420
       606.261         472.411          51.300          51.300    80622119.353 9
  20544762.160         452.756          55.550


 125903308.855 7  98106519.85747  23958584.240                    23958585.260
      3272.445        2549.961          44.300          44.050



 106348554.245 8  82869054.81048  20237439.680                    20237440.200
       596.539         464.835          51.450          51.450    79416193.794 9
  20237441.320         445.426          56.100


 121856733.824 7  94953308.74947  23188561.560                    23188562.040
      3061.936        2385.926          46.200          43.300    90996953.609 8
  23188567.200        2286.451          49.900


 127936106.734 6  99690469.89746  24345436.100                    24345437.780
     -3185.448       -2482.177          41.550          40.350



 122078161.328 7  95125840.02046  23230698.500                    23230697.080
     -3140.472       -2447.127          42.850          41.650



 131626998.492 6 102566503.63545  25047783.820                    25047783.960
      3326.461        2592.048          39.600          34.550



 131896609.621 6 102776612.83146  25099089.320                    25099095.580
      1264.146         985.053          37.000          37.900    98494250.967 6
  25099096.140         943.903          41.650


 128640956.678 6 100239701.85046  24479563.960                    24479564.700
     -2909.871       -2267.437          40.350          40.300



 23  8  9 14 20  0.0000000  0 11G03G04G06G07G09G11G17G19G20G26G31
 119469935.588 7  93093479.10447  22734369.040                    22734371.160
     -2853.087       -2223.187          45.950          46.000    89214592.530 8
  22734373.100       -2130.656          49.950


 108734299.574 8  84728064.34048  20691431.220                    20691431.020
     -1444.758       -1125.786          49.500          49.000    81197740.891 9
  20691435.660       -1078.965          54.900


 107945561.754 8  84113455.38548  20541349.900                    20541350.880
       588.195         458.334          51.450          51.650    80608739.373 9
  20541352.720         439.181          55.850


 125805176.727 7  98030053.34347  23939910.300                    23939911.220
      3269.501        2547.664          45.000          45.600



 106330892.706 8  82855292.56448  20234078.800                    20234079.400
       581.004         452.729          51.600          51.650    79403004.987 9
  20234080.380         433.785          56.300


 121765006.573 7  94881833.00847  23171106.360                    23171106.940
      3053.190        2379.111          46.000          43.700    90928456.049 8
  23171112.100        2279.985          50.200


 128031687.908 6  99764948.52746  24363624.600                    24363626.540
     -3186.638       -2483.104          40.200          38.850



 122172505.182 7  95199354.61546  23248651.620                    23248650.440
     -3149.072       -2453.825          43.300          41.850



 131527197.234 6 102488736.46046  25028792.300                    25028792.640
      3327.192        2592.614          40.250          36.350



 131858906.263 6 102747233.62646  25091914.760                    25091920.920
      1249.233         973.430          39.000          38.500    98466095.875 7
  25091921.380         933.086          42.750


 128728429.836 6 100307862.68346  24496209.740                    24496210.500
     -2921.797       -2276.729          41.700          41.550



 23  8  9 14 20 30.0000000  0 11G03G04G06G07G09G11G17G19G20G26G31
 119555633.280 7  93160256.44247  22750676.740                    22750679.140
     -2859.823       -2228.437          44.350          44.300    89278587.459 8
  22750680.560       -2135.696          49.400


 108777865.686 8  84762011.94548  20699721.580                    20699721.400
     -1459.398       -1137.193          49.800          48.850    81230274.011 9
  20699726.060       -1089.805          54.800


 107928212.599 8  84099936.57348  20538048.440                    20538049.500
       568.533         443.013          51.600          51.650    80595783.837 9
  20538051.440         424.609          56.150


 125707154.325 7  97953672.35147  23921257.140                    23921258.200
      3265.200        2544.315          44.850          45.100



 106313719.768 8  82841911.05848  20230810.920                    20230811.500
       564.057         439.525          51.800          51.750    79390181.040 9
  20230812.420         421.249          56.450


 121673562.310 7  94810577.79447  23153704.960                    23153705.760
      3043.155        2371.293          45.850          42.600    90860169.828 8
  23153710.760        2272.489          50.450


 128127326.437 6  99839471.90946  24381824.180                    24381826.260
     -3188.950       -2484.903          41.650          38.500



 122267128.428 7  95273086.94147  23266657.920                    23266656.780
     -3158.860       -2461.451          43.200          42.100



 131427387.097 6 102410962.35446  25009798.980                    25009799.440
      3326.671        2592.216          39.800          37.500



 131821662.143 6 102718212.29246  25084827.300                    25084833.440
      1233.524         961.189          38.050          38.000    98438283.796 7
  25084834.240         921.092          42.800


 128816286.149 6 100376322.05447  24512928.520                    24512929.460
     -2935.229       -2287.192          41.850          42.050



 23  8  9 14 21  0.0000000  0 11G03G04G06G07G09G11G17G19G20G26G31
 119641518.902 7  93227180.21847  22767020.040                    22767022.740
     -2865.717       -2233.028          43.950          43.950    89342722.728 8
  22767023.680       -2140.021          49.150


 108821853.817 8  84796288.39148  20708092.340                    20708092.040
     -1473.152       -1147.911          49.750          48.700    81263122.273 9
  20708096.580       -1100.077          54.650


 107911434.555 8  84086862.78148  20534855.680                    20534856.720
       549.890         428.485          51.600          51.650    80583254.791 9
  20534858.840         410.607          56.250


 125609245.449 7  97877379.79847  23902625.700                    23902626.580
      3261.899        2541.741          44.800          44.700



 106297036.846 8  82828911.38748  20227636.360                    20227636.760
       548.110         427.100          52.100          52.200    79377723.021 9
  20227637.720         409.292          56.450


 121582405.283 7  94739546.40447  23136358.260                    23136359.180
      3033.993        2364.153          45.900          43.400    90792098.086 8
  23136364.020        2265.549          50.250


 128223021.211 7  99914039.04046  24400034.400                    24400036.920
     -3190.637       -2486.219          42.000          40.750



 122362029.415 7  95347035.65047  23284717.000                    23284716.000
     -3167.823       -2468.437          43.100          42.000



 131327570.872 6 102333183.52146  24990804.540                    24990805.080
      3327.588        2592.926          40.150          38.000



 131784880.864 5 102689551.62846  25077827.880                    25077833.940
      1219.140         949.979          35.800          36.050    98410817.373 7
  25077835.040         909.717          42.400


 128904524.655 6 100445079.25246  24529719.900                    24529720.840
     -2947.580       -2296.818          41.000          41.150



 23  8  9 14 21 30.0000000  0 11G03G04G06G07G09G11G17G19G20G26G31
 119727591.059 7  93294249.34847  22783398.960                    22783401.820
     -2872.454       -2238.279          43.950          43.650    89406997.297 8
  22783402.640       -2144.969          49.600


 108866261.623 8  84830891.86848  20716542.940                    20716542.440
     -1487.287       -1158.926          49.700          48.550    81296283.942 9
  20716546.940       -1110.707          54.600


 107895228.105 8  84074234.38448  20531771.720                    20531772.700
       530.709         413.540          51.450          51.350    80571152.579 9
  20531774.960         396.128          56.250


 125511451.893 7  97801177.13647  23884016.080                    23884017.260
      3257.699        2538.471          44.300          44.250



 106280843.094 8  82816292.88548  20224554.860                    20224555.060
       531.581         414.219          52.250          52.300    79365630.300 9
  20224556.140         396.897          56.550


 121491537.349 7  94668740.26247  23119066.640                    23119067.560
      3023.768        2356.183          45.800          43.650    90724242.216 8
  23119072.200        2258.021          49.850


 128318768.666 6  99988647.21746  24418254.820                    24418257.300
     -3192.690       -2487.821          40.750          39.500



 122457203.964 7  95421197.57746  23302828.140                    23302826.920
     -3177.150       -2475.703          43.300          40.750



 131227749.043 6 102255400.31046  24971809.220                    24971809.660
      3327.534        2592.884          40.250          37.250



 131748563.753 6 102661252.67646  25070916.700                    25070922.960
      1202.921         937.344          36.150          36.000    98383697.495 7
  25070924.100         898.227          42.350


 128993142.286 6 100514131.86346  24546583.520                    24546584.460
     -2960.121       -2306.591          41.900          41.950



 23  8  9 14 22  0.0000000  0 11G03G04G06G07G09G11G17G19G20G26G31
 119813846.689 7  93361461.43847  22799812.940                    22799815.860
     -2878.342       -2242.867          44.850          45.100    89471408.884 8
  22799816.800       -2149.427          49.900


 108911085.249 8  84865819.35948  20725072.620                    20725071.880
     -1501.125       -1169.708          49.750          48.100    81329756.117 9
  20725076.520       -1120.979          54.750


 107879592.081 8  84062050.46948  20528796.300                    20528797.240
       511.574         398.629          51.500          51.450    80559476.327 9
  20528799.500         382.026          56.300


 125413773.984 7  97725064.55547  23865428.600                    23865429.560
      3253.955        2535.553          45.200          45.100



 106265136.095 8  82804053.67348  20221565.980                    20221566.000
       515.323         401.551          52.250          52.250    79353901.050 9
  20221567.200         384.845          56.800


 121400958.869 7  94598159.67447  23101830.140                    23101830.900
      3014.364        2348.856          45.800          42.450    90656602.488 8
  23101835.360        2250.983          49.550


 128414563.638 6 100063292.44146  24436484.240                    24436486.360
     -3194.100       -2488.913          41.200          40.500



 122552646.344 7  95495568.17747  23320990.200                    23320988.880
     -3185.858       -2482.488          42.700          42.150



 131127920.080 6 102177611.61246  24952812.460                    24952812.880
      3327.387        2592.774          39.700          37.500



 131712710.588 6 102633315.20046  25064093.900                    25064100.140
      1187.016         924.950          36.700          37.100    98356924.061 7
  25064101.400         886.603          43.250


 129082133.824 6 100583475.84146  24563518.340                    24563519.280
     -2972.854       -2316.511          41.100          40.350



 23  8  9 14 22 30.0000000  0 11G03G04G06G07G09G11G17G19G20G26G31
 119900288.191 7  93428818.35947  22816262.360                    22816265.300
     -2884.084       -2247.341          45.050          45.400    89535959.247 8
  22816266.360       -2153.707          49.900


 108956326.146 8  84901071.99848  20733681.700                    20733680.740
     -1514.520       -1180.146          49.350          48.100    81363539.892 9
  20733685.500       -1131.046          54.550


 107864530.721 8  84050314.34548  20525930.240                    20525931.240
       492.757         383.967          51.600          51.650    80548229.211 9
  20525933.280         367.995          56.000


 125316217.575 7  97649046.67247  23846864.260                    23846864.980
      3249.970        2532.447          44.350          44.150



 106249918.769 8  82792196.01848  20218670.260                    20218670.140
       499.408         389.149          51.950          52.050    79342537.456 9
  20218671.480         372.975          56.750


 121310675.573 7  94527809.10146  23084649.840                    23084650.320
      3004.950        2341.522          45.450          41.550    90589183.196 8
  23084654.660        2243.943          49.250


 128510406.352 6 100137974.82746  24454722.880                    24454724.980
     -3195.236       -2489.801          41.400          37.900



 122648356.550 7  95570147.45147  23339203.380                    23339202.160
     -3194.375       -2489.128          43.400          42.900



 131028088.130 6 102099820.53546  24933815.120                    24933815.560
      3328.214        2593.414          41.150          37.550



 131677326.269 5 102605743.02245  25057360.500                    25057366.780
      1172.077         913.312          35.350          34.350    98330500.773 7
  25057367.880         875.167          42.250


 129171499.562 6 100653111.39246  24580524.240                    24580525.220
     -2984.632       -2325.690          41.450          41.500



 23  8  9 14 23  0.0000000  0 11G03G04G06G07G09G11G17G19G20G26G31
 119986911.681 7  93496317.11147  22832746.480                    22832749.220
     -2890.328       -2252.205          45.250          45.700    89600645.527 8
  22832750.620       -2158.348          49.650


 109001979.593 8  84936646.10848  20742369.280                    20742368.200
     -1528.579       -1191.102          49.400          48.100    81397631.726 9
  20742372.980       -1141.374          54.150


 107850041.944 8  84039024.39148  20523173.180                    20523174.140
       473.562         369.009          51.650          51.650    80537409.678 9
  20523175.900         353.646          55.600


 125218781.994 7  97573122.96247  23828322.800                    23828323.580
      3245.914        2529.287          44.800          44.950



 106235187.759 8  82780717.31548  20215867.060                    20215866.920
       483.085         376.431          51.800          51.800    79331537.036 9
  20215868.420         360.792          56.600


 121220687.009 7  94457688.17447  23067525.460                    23067525.860
      2994.935        2333.718          45.650          42.850    90521984.002 8
  23067530.200        2236.381          49.150


 128606291.258 7 100212690.16946  24472969.320                    24472970.540
     -3196.942       -2491.128          43.150          37.350



 122744328.012 7  95644930.33346  23357466.240                    23357464.780
     -3202.981       -2495.833          43.100          40.800



 130928251.279 6 102022025.57046  24914816.860                    24914817.320
      3327.958        2593.212          41.550          36.750



 131642409.719 6 102578535.39946  25050716.080                    25050722.360
      1156.245         900.976          36.000          36.600    98304426.788 6
  25050723.320         863.521          40.900


 129261233.862 6 100723034.12346  24597600.340                    24597601.460
     -2997.220       -2335.498          41.700          41.100



 23  8  9 14 23 30.0000000  0 11G03G04G06G07G09G11G17G19G20G26G31
 120073717.397 7  93563957.86147  22849265.400                    22849267.780
     -2896.557       -2257.060          45.650          45.900    89665467.895 8
  22849269.560       -2163.030          49.900


 109048044.861 8  84972541.10348  20751135.320                    20751134.220
     -1542.640       -1202.058          49.850          48.250    81432031.091 9
  20751138.840       -1151.919          54.500


 107836127.837 8  84028182.22848  20520525.480                    20520526.380
       453.997         353.764          52.050          52.050    80527019.274 9
  20520527.920         339.074          55.850


 125121470.868 7  97497296.17047  23809805.180                    23809805.580
      3241.399        2525.767          45.200          45.200



 106220943.861 8  82769618.18348  20213156.500                    20213156.500
       466.552         363.548          52.000          52.050    79320900.370 9
  20213158.000         348.377          56.850


 121130996.725 7  94387799.68647  23050457.820                    23050458.080
      2984.546        2325.621          45.850          42.650    90455007.531 8
  23050462.680        2228.704          49.800


 128702216.305 6 100287436.72346  24491223.380                    24491224.560
     -3198.321       -2492.211          40.800          38.150



 122840558.421 7  95719914.99946  23375778.320                    23375777.100
     -3212.141       -2502.968          42.850          41.950



 130828411.480 6 101944228.39046  24895818.020                    24895818.480
      3327.832        2593.117          41.550          37.200



 131607963.776 6 102551694.44746  25044161.380                    25044167.580
      1140.184         888.458          37.750          38.150    98278704.233 7
  25044168.500         851.358          42.200


 129351334.824 6 100793242.58147  24614746.040                    24614747.340
     -3009.263       -2344.883          41.700          42.250



 23  8  9 14 24  0.0000000  0 11G03G04G06G07G09G11G17G19G20G26G31
 120160708.082 7  93631742.72247  22865819.420                    22865821.620
     -2902.881       -2261.988          46.250          46.500    89730428.359 8
  22865823.780       -2167.706          49.650


 109094523.765 8  85008758.41348  20759980.100                    20759979.140
     -1556.351       -1212.741          50.100          48.050    81466739.352 9
  20759983.460       -1162.164          54.150


 107822792.896 8  84017791.36248  20517988.060                    20517988.900
       434.650         338.688          52.150          52.150    80517061.367 9
  20517990.360         324.597          55.700


 125024289.934 7  97421570.88347  23791312.220                    23791312.440
      3237.082        2522.406          44.900          45.050



 106207190.304 8  82758901.12948  20210539.220                    20210539.460
       450.098         350.726          51.700          51.600    79310629.858 9
  20210540.780         336.132          56.550


 121041610.808 7  94318148.36947  23033448.140                    23033448.520
      2974.288        2317.630          45.900          43.500    90388258.362 8
  23033453.300        2221.095          49.950


 128798182.334 6 100362215.20746  24509485.220                    24509486.520
     -3199.890       -2493.426          41.500          38.200



 122937047.751 6  95795101.39847  23394139.780                    23394138.880
     -3220.737       -2509.668          41.950          42.000



 130728573.198 6 101866432.37146  24876819.460                    24876819.900
      3327.747        2593.051          41.750          37.950



 131573993.813 6 102525224.38146  25037697.140                    25037703.180
      1124.295         876.075          37.850          38.150    98253337.079 6
  25037704.580         839.487          41.750


 129441803.292 6 100863737.40346  24631961.740                    24631963.060
     -3022.150       -2354.925          41.250          41.600



 23  8  9 14 24 30.0000000  0 11G03G04G06G07G09G11G17G19G20G26G31
 120247879.139 7  93699668.12947  22882407.740                    22882409.840
     -2908.422       -2266.306          46.400          46.400    89795523.535 8
  22882412.220       -2171.990          49.050


 109141410.845 8  85045293.77348  20768902.480                    20768901.720
     -1569.622       -1223.083          49.800          48.450    81501752.405 9
  20768905.780       -1172.057          54.050


 107810034.316 8  84007849.60348  20515560.240                    20515561.160
       415.906         324.082          52.100          51.950    80507533.848 9
  20515562.620         310.512          55.750


 124927238.026 7  97345946.10247  23772843.820                    23772844.020
      3232.972        2519.201          45.450          45.400



 106193922.976 8  82748562.94648  20208014.440                    20208014.920
       434.450         338.533          51.700          51.800    79300722.438 9
  20208015.980         324.358          56.300


 120952528.040 7  94248733.27947  23016496.200                    23016496.700
      2964.649        2310.119          46.050          43.150    90321735.587 8
  23016501.640        2213.767          50.050


 128894182.845 6 100437020.56146  24527753.520                    24527754.820
     -3200.242       -2493.704          40.500          39.600



 123033789.233 7  95870484.26947  23412549.180                    23412548.180
     -3228.691       -2515.865          42.750          42.300



 130628733.620 6 101788635.32146  24857820.560                    24857820.940
      3328.229        2593.421          41.900          37.200



 131540497.739 6 102499123.57146  25031323.240                    25031329.120
      1109.104         864.239          37.500          37.150    98228323.845 6
  25031330.900         827.906          41.350


 129532632.549 6 100934513.35646  24649245.940                    24649247.260
     -3033.499       -2363.769          41.650          41.200



 23  8  9 14 25  0.0000000  0 11G03G04G06G07G09G11G17G19G20G26G31
 120335229.791 7  93767733.48247  22899030.220                    22899032.360
     -2914.680       -2271.183          46.400          46.600    89860752.812 8
  22899034.660       -2176.509          48.950


 109188704.369 8  85082145.83748  20777902.120                    20777901.500
     -1583.202       -1233.665          49.500          48.200    81537068.971 9
  20777905.400       -1182.264          54.250


 107797853.004 8  83998357.66648  20513242.120                    20513243.260
       396.414         308.894          51.650          51.650    80498437.414 9
  20513244.840         296.006          55.950


 124830317.447 7  97270423.66247  23754400.420                    23754400.600
      3228.481        2515.703          44.250          44.650



 106181141.563 8  82738603.41148  20205582.220                    20205582.840
       418.023         325.732          52.100          52.100    79291177.878 9
  20205583.620         312.123          56.350


 120863751.005 7  94179556.41447  22999602.400                    22999603.120
      2954.030        2301.843          45.300          43.400    90255441.095 8
  22999608.080        2206.004          50.350


 128990214.856 6 100511850.46246  24546027.900                    24546029.640
     -3201.520       -2494.703          41.650          39.250



 123130779.040 7  95946060.64846  23431005.960                    23431004.980
     -3236.959       -2522.312          43.250          41.300



 130528893.737 6 101710838.08245  24838821.500                    24838821.760
      3327.912        2593.181          41.750          34.650



 131507477.506 6 102473393.59246  25025039.700                    25025045.760
      1092.788         851.523          36.650          36.800    98203665.934 7
  25025047.580         815.893          42.100


 129623819.937 6 101005568.39846  24666598.300                    24666599.700
     -3045.828       -2373.373          41.050          41.300



 23  8  9 14 25 30.0000000  0 12G03G04G06G07G09G11G17G19G20G26G30G31
 120422760.442 7  93835939.08847  22915686.880                    22915689.080
     -2921.171       -2276.240          47.150          46.900    89926116.514 8
  22915691.140       -2181.486          48.700


 109236403.819 8  85119314.22148  20786979.000                    20786978.320
     -1597.274       -1244.630          49.500          48.450    81572688.672 9
  20786982.440       -1192.856          54.650


 107786251.139 8  83989317.25848  20511034.240                    20511035.560
       376.427         293.320          51.450          51.550    80489773.684 9
  20511037.280         281.096          56.150


 124733532.429 7  97195006.88247  23735982.520                    23735983.040
      3223.463        2511.793          44.850          44.800



 106168846.993 8  82729023.22848  20203242.680                    20203243.320
       401.161         312.594          52.200          52.400    79281996.871 9
  20203244.040         299.478          56.550


 120775283.479 7  94110620.73847  22982767.540                    22982768.380
      2943.070        2293.305          45.300          44.400    90189377.753 8
  22982773.360        2197.759          50.750


 129086276.889 6 100586703.79546  24564307.920                    24564310.100
     -3203.156       -2495.972          39.700          37.550



 123228014.932 7  96021828.79546  23449509.540                    23449508.840
     -3245.775       -2529.180          42.650          41.950



 130429055.685 6 101633042.24046  24819822.820                    24819823.120
      3327.503        2592.861          41.500          37.050



 131474935.980 5 102448036.65745  25018847.200                    25018853.420
      1076.108         838.529          35.800          35.350    98179365.548 7
  25018855.240         803.375          42.000


                                  25989183.440
      3572.951                          39.100                   101987180.596 6
  25989198.060        2668.039          39.600


 129715363.943 6 101076901.28947  24684018.480                    24684020.160
     -3058.026       -2382.883          41.750          42.050



 23  8  9 14 26  0.0000000  0 12G03G04G06G07G09G11G17G19G20G26G30G31
 120510470.944 7  93904284.85547  22932377.920                    22932379.980
     -2926.747       -2280.585          47.200          47.350    89991614.539 8
  22932381.640       -2185.638          48.600


 109284508.172 8  85156798.11048  20796132.980                    20796132.080
     -1610.203       -1254.705          49.000          48.450    81608610.731 9
  20796136.660       -1202.495          54.850


 107775230.295 8  83980729.58548  20508936.940                    20508938.400
       357.590         278.641          51.150          50.950    80481543.834 9
  20508940.240         267.042          56.250


 124636885.640 7  97119697.79447  23717591.280                    23717591.740
      3219.076        2508.374          44.000          43.850



 106157039.585 8  82719822.64948  20200995.900                    20200996.380
       385.278         300.217          51.950          52.000    79273179.642 9
  20200997.300         287.766          56.700


 120687128.701 7  94041928.75547  22965992.220                    22965993.100
      2933.097        2285.532          44.900          44.150    90123547.949 8
  22965998.040        2190.324          51.050


 129182366.773 6 100661578.77246  24582593.240                    24582595.780
     -3203.220       -2496.024          40.650          38.900



 123325494.166 7  96097786.52346  23468059.440                    23468058.840
     -3253.535       -2535.227          43.600          41.500



 130329221.391 6 101555249.29646  24800824.920                    24800825.220
      3327.490        2592.850          40.650          36.900



 131442875.639 5 102423054.64745  25012746.260                    25012752.520
      1061.027         826.776          35.200          35.100    98155424.484 7
  25012754.300         791.982          42.050


 136466832.250 6 106337829.20056  25968773.240                    25968784.040
      3576.567        2786.936          37.350          37.600   101907092.556 6
  25968788.280        2670.831          41.400


 129807262.621 6 101148510.58146  24701506.240                    24701508.240
     -3069.212       -2391.597          40.950          41.150



 23  8  9 14 26 30.0000000  0 11G03G04G06G07G09G11G17G19G20G26G31
 120598358.429 7  93972768.53947  22949102.620                    22949104.460
     -2932.680       -2285.208          46.950          47.100    90057244.720 8
  22949105.860       -2190.060          48.550


 109333013.573 8  85194594.50647  20805363.220                    20805362.240
     -1623.643       -1265.177          49.700          47.950    81644832.269 9
  20805367.120       -1212.567          54.800


 107764789.259 8  83972593.71148  20506950.040                    20506951.580
       338.271         263.589          51.800          51.750    80473746.957 9
  20506953.440         252.568          56.100


 124540377.310 7  97044496.62947  23699226.020                    23699226.880
      3214.504        2504.813          43.550          43.100



 106145716.878 8  82710999.76048  20198841.340                    20198841.620
       369.225         287.707          52.250          52.200    79264724.377 9
  20198842.700         275.636          56.600


 120599287.126 7  93973480.83147  22949276.480                    22949277.440
      2922.669        2277.407          45.750          43.850    90057952.038 8
  22949282.340        2182.457          51.050


 129278479.506 6 100736471.50646  24600882.900                    24600885.800
     -3204.350       -2496.910          39.000          38.600



 123423211.550 7  96173929.85647  23486654.740                    23486653.980
     -3261.408       -2541.361          44.150          42.100



 130229389.588 6 101477458.34245  24781827.420                    24781827.620
      3327.689        2593.005          40.750          35.350



 131411296.244 6 102398447.36246  25006736.600                    25006743.120
      1044.711         814.059          36.000          36.350    98131842.510 7
  25006744.700         779.961          42.650


 129899510.564 6 101220391.99546  24719060.460                    24719062.760
     -3081.073       -2400.841          41.000          40.800



 23  8  9 14 27  0.0000000  0 12G03G04G06G07G09G11G17G19G20G26G30G31
 120686421.791 7  94041389.26447  22965860.600                    22965862.360
     -2938.438       -2289.695          45.950          45.950    90123006.227 8
  22965863.680       -2194.215          48.700


 109381917.974 8  85232701.81147  20814669.460                    20814668.480
     -1636.767       -1275.403          49.500          47.350    81681351.758 9
  20814673.380       -1222.224          54.750


 107754928.590 8  83964910.07548  20505073.680                    20505075.120
       318.921         248.510          51.900          52.000    80466383.464 9
  20505076.920         238.265          56.100


 124444009.834 7  96969405.20047  23680887.840                    23680889.020
      3209.783        2501.134          44.500          44.250



 106134878.186 8  82702554.03448  20196778.860                    20196778.880
       353.149         275.182          52.000          51.950    79256630.551 9
  20196780.060         263.797          56.700


 120511761.036 7  93905278.74947  22932620.740                    22932621.620
      2912.277        2269.310          45.550          43.100    89992591.716 8
  22932626.680        2174.762          51.250


 129374612.017 6 100811379.74046  24619176.580                    24619179.340
     -3204.819       -2497.270          41.550          39.950



 123521163.141 7  96250255.66047  23505294.320                    23505293.720
     -3269.009       -2547.285          43.700          43.100



 130129560.888 6 101399669.80045  24762830.580                    24762830.560
      3327.322        2592.726          40.300          34.600



 131380199.036 5 102374215.85745  25000818.760                    25000824.840
      1028.739         801.618          35.150          35.200    98108620.678 7
  25000826.740         768.069          42.400


 136252007.215 7 106170427.88047  25927896.620                    25927906.360
      3583.310        2792.212          42.700          42.400   101746664.635 6
  25927909.900        2675.995          41.800


 129992104.791 6 101292543.27346  24736680.740                    24736682.840
     -3092.026       -2409.374          41.150          40.700



 23  8  9 14 27 30.0000000  0 12G03G04G06G07G09G11G17G19G20G26G30G31
 120774663.104 7  94110148.64947  22982652.280                    22982654.140
     -2944.663       -2294.545          45.100          45.250    90188900.618 8
  22982655.360       -2198.881          48.900


 109431222.553 8  85271120.94147  20824051.840                    20824050.900
     -1650.593       -1286.177          49.600          47.550    81718170.077 9
  20824055.560       -1232.477          54.550


 107745652.002 8  83957681.56248  20503308.500                    20503309.760
       299.143         233.098          52.000          52.150    80459456.148 9
  20503311.440         223.395          55.950


 124347788.442 7  96894427.61347  23662577.460                    23662578.860
      3204.519        2497.032          44.150          43.900



 106124526.039 8  82694487.43148  20194808.940                    20194808.720
       336.673         262.343          52.000          51.950    79248900.058 9
  20194810.000         251.387          56.800


 120424555.893 7  93837326.74147  22916026.200                    22916026.880
      2901.161        2260.647          46.000          43.300    89927471.052 8
  22916032.080        2166.428          51.250


 129470764.407 6 100886303.42946  24637474.100                    24637477.000
     -3205.822       -2498.051          39.300          39.600



 123619348.355 7  96326763.51946  23523978.420                    23523977.500
     -3277.088       -2553.576          44.750          41.500



 130029739.329 6 101321886.82546  24743835.080                    24743835.220
      3326.702        2592.236          39.850          38.650



 131349588.775 6 102350363.72646  24994993.820                    24994999.660
      1012.079         788.630          36.750          37.050    98085762.388 7
  24995001.500         755.690          43.200



                                                                 101666353.460 6
  25907443.900        2677.908          37.250


 130085045.548 6 101364964.54046  24754366.880                    24754368.880
     -3104.055       -2418.747          40.300          41.100



 23  8  9 14 28  0.0000000  0 12G03G04G06G07G09G11G17G19G20G26G30G31
 120863081.306 7  94179045.84947  22999477.540                    22999479.600
     -2950.196       -2298.857          44.700          44.550    90254927.092 8
  22999480.720       -2203.040          49.200


 109480925.246 8  85309850.30047  20833509.880                    20833509.180
     -1663.318       -1296.093          49.600          47.950    81755285.722 9
  20833513.400       -1242.146          54.700


 107736960.097 8  83950908.63948  20501654.560                    20501655.640
       280.025         218.201          51.900          52.250    80452965.432 9
  20501657.160         209.113          55.900


 124251715.563 7  96819565.75847  23644295.320                    23644297.020
      3199.850        2493.394          44.950          45.000



 106114659.792 8  82686799.44448  20192931.380                    20192931.080
       320.804         249.977          51.750          51.850    79241532.401 9
  20192932.520         239.586          57.100


 120337673.987 7  93769626.60347  22899493.220                    22899493.580
      2890.636        2252.445          46.550          42.600    89862591.774 8
  22899499.020        2158.613          51.150


 129566933.729 6 100961240.26046  24655774.760                    24655777.680
     -3206.099       -2498.265          38.800          38.300



 123717763.782 7  96403450.75046  23542706.160                    23542704.640
     -3284.344       -2559.233          44.000          40.350



 129929925.730 6 101244110.03946  24724841.040                    24724841.240
      3326.881        2592.377          38.950          38.400



 131319466.662 6 102326891.98845  24989261.760                    24989267.740
       996.232         776.283          36.850          35.950    98063268.699 7
  24989269.440         743.759          42.750


 136036815.680 5 106002751.70345  25886945.040                    25886955.420
      3589.891        2797.346          32.500          31.950   101585972.470 6
  25886959.540        2680.480          40.200


 130178329.661 6 101437653.37946  24772118.280                    24772120.140
     -3115.190       -2427.425          41.200          41.250



 23  8  9 14 28 30.0000000  0 12G03G04G06G07G09G11G17G19G20G26G30G31
 120951670.216 7  94248076.07447  23016335.280                    23016337.500
     -2955.981       -2303.365          44.950          45.050    90321081.034 8
  23016338.640       -2207.358          48.950


 109531018.946 8  85348884.33347  20843042.300                    20843041.800
     -1676.508       -1306.370          49.000          47.850    81792693.320 9
  20843045.840       -1251.865          54.600


 107728848.251 8  83944587.71648  20500110.960                    20500111.960
       260.469         202.963          51.750          51.750    80446907.875 9
  20500113.280         194.571          55.600


 124155788.052 7  96744817.17347  23626041.060                    23626042.900
      3194.954        2489.578          44.850          44.850



 106105273.576 8  82679485.50748  20191145.160                    20191144.860
       304.652         237.392          51.750          51.700    79234523.210 9
  20191146.520         227.515          57.000


 120251112.465 7  93702176.10347  22883021.280                    22883021.260
      2879.854        2244.043          46.300          43.300    89797951.741 8
  22883026.940        2150.498          50.750


 129663111.441 6 101036183.69646  24674077.100                    24674079.740
     -3206.404       -2498.507          38.500          38.300



 123816400.561 7  96480310.44746  23561476.120                    23561474.300
     -3291.767       -2565.019          44.700          41.550



 129830115.622 6 101166335.97846  24705847.720                    24705847.920
      3326.567        2592.130          39.500          37.500



 131289829.158 6 102303797.90946  24983622.040                    24983628.180
       979.612         763.336          36.700          37.250    98041136.857 7
  24983629.940         731.482          42.250


 135929076.572 6 105918799.93446  25866442.760                    25866452.420
      3592.722        2799.544          38.800          38.600   101505518.856 7
  25866456.580        2682.743          42.600


 130271948.759 6 101510603.24446  24789933.380                    24789935.240
     -3126.240       -2436.033          41.150          41.150



 23  8  9 14 29  0.0000000  0 12G03G04G06G07G09G11G17G19G20G26G30G31
 121040433.659 7  94317242.30147  23033226.380                    23033228.580
     -2961.644       -2307.777          45.300          45.250    90387365.307 8
  23033229.840       -2211.572          49.000


 109581506.565 8  85388225.31047  20852649.720                    20852649.240
     -1689.454       -1316.459          49.500          47.250    81830395.082 9
  20852653.360       -1261.644          54.750


 107721321.876 8  83938723.00948  20498678.740                    20498679.780
       241.199         187.947          51.750          51.750    80441287.530 9
  20498680.840         180.013          55.600


 124060013.362 7  96670187.69047  23607815.680                    23607817.640
      3190.116        2485.810          45.100          45.400



 106096371.711 8  82672548.99348  20189451.160                    20189450.960
       288.677         224.943          52.050          52.150    79227875.720 9
  20189452.720         215.562          57.100


 120164878.597 7  93634980.92447  22866611.580                    22866611.340
      2869.009        2235.593          46.700          43.250    89733556.367 8
  22866617.160        2142.400          50.600


 129759299.665 6 101111135.28946  24692381.220                    24692384.040
     -3206.634       -2498.684          39.200          38.650



 123915259.868 7  96557343.57246  23580288.700                    23580286.400
     -3298.757       -2570.463          43.650          41.200



 129730314.687 6 101088569.09946  24686856.120                    24686856.220
      3326.969        2592.447          39.000          37.650



 131260682.458 6 102281086.24446  24978075.460                    24978081.900
       963.392         750.691          37.900          37.150    98019371.553 6
  24978083.760         719.433          40.950


 135821246.384 6 105834777.14046  25845922.960                    25845931.840
      3595.723        2801.875          37.250          37.250   101424997.215 6
  25845936.380        2685.104          40.400


 130365904.884 6 101583815.71846  24807812.560                    24807814.480
     -3137.305       -2444.655          40.900          40.900



 23  8  9 14 29 30.0000000  0 12G03G04G06G07G09G11G17G19G20G26G30G31
 121129372.475 7  94386545.19547  23050151.000                    23050153.140
     -2967.396       -2312.261          45.450          45.550    90453780.568 8
  23050154.540       -2215.997          49.200


 109632387.944 8  85427873.12047  20862332.200                    20862331.600
     -1702.585       -1326.690          49.350          47.850    81868390.884 9
  20862335.820       -1271.422          54.500


 107714383.387 8  83933316.39248  20497358.360                    20497359.420
       221.458         172.564          51.800          51.750    80436106.183 9
  20497360.340         165.379          55.350


 123964395.264 7  96595680.20447  23589620.200                    23589622.220
      3184.612        2481.521          45.250          45.550



 106087955.386 8  82665990.82248  20187849.580                    20187849.560
       272.519         212.352          51.700          51.800    79221590.799 9
  20187851.180         203.453          56.800


 120078976.544 7  93568044.28547  22850264.920                    22850264.620
      2858.039        2227.045          46.300          44.150    89669408.779 8
  22850270.460        2134.146          50.050


 129855497.645 6 101186094.49646  24710687.420                    24710689.760
     -3207.013       -2498.985          40.500          38.700



 124014339.928 7  96634548.69746  23599143.080                    23599140.300
     -3306.201       -2576.265          42.800          40.800



 129630525.562 6 101010811.40746  24667866.700                    24667866.740
      3326.353        2591.965          38.600          38.450



 131232029.869 6 102258759.64146  24972623.060                    24972629.380
       946.997         737.923          38.200          38.050    97997975.223 6
  24972630.740         707.059          39.700


 135713328.852 5 105750686.26145  25825386.400                    25825395.340
      3598.523        2804.069          32.650          33.050



 130460196.910 6 101657289.96746  24825755.620                    24825757.560
     -3148.530       -2453.403          40.800          40.800



 23  8  9 14 30  0.0000000  0 12G03G04G06G07G09G11G17G19G20G26G30G31
 121218483.286 7  94455982.10947  23067108.420                    23067110.540
     -2973.354       -2316.902          46.100          46.300    90520324.242 8
  23067112.140       -2220.313          49.150


 109683658.713 8  85467824.35047  20872088.820                    20872088.020
     -1715.554       -1336.796          49.350          47.550    81906677.468 9
  20872092.360       -1281.107          54.150


 107708030.906 8  83928366.40248  20496149.520                    20496150.520
       201.921         157.340          51.750          51.750    80431362.443 9
  20496151.560         150.747          55.200


 123868933.585 7  96521294.63647  23571454.340                    23571456.520
      3179.472        2477.516          44.950          44.750



 106080021.491 8  82659808.56048  20186339.840                    20186339.900
       256.422         199.810          51.900          51.950    79215666.134 9
  20186341.260         191.467          56.400


 119993406.264 7  93501366.19947  22833981.340                    22833981.120
      2846.785        2218.275          46.650          44.100    89605508.938 8
  22833986.760        2125.822          49.750


 129951699.462 6 101261056.77546  24728994.300                    24728996.560
     -3206.789       -2498.803          41.200          38.650



 124113634.451 7  96711920.94046  23618038.460                    23618035.340
     -3313.482       -2581.937          43.950          40.150



 129530746.801 6 100933061.77046  24648879.360                    24648879.160
      3325.924        2591.631          39.000          36.650



 131203870.338 6 102236817.22146  24967264.340                    24967270.600
       930.327         724.933          36.200          36.150    97976947.061 6
  24967271.360         694.705          39.650


 135605323.984 6 105666527.36446  25804833.100                    25804842.240
      3601.690        2806.533          38.150          37.900   101263761.128 6
  25804845.620        2689.473          40.650


 130554819.318 6 101731021.63546  24843761.620                    24843763.640
     -3159.500       -2461.949          41.800          41.700



 23  8  9 14 30 30.0000000  0 12G03G04G06G07G09G11G17G19G20G26G30G31
 121307765.834 7  94525552.82147  23084098.540                    23084100.880
     -2978.728       -2321.090          45.550          45.700    90586996.153 8
  23084102.640       -2224.487          49.800


 109735317.756 8  85508078.12947  20881919.240                    20881918.360
     -1728.376       -1346.787          49.400          47.550    81945253.988 9
  20881922.780       -1290.600          54.350


 107702265.785 8  83923874.09248  20495052.480                    20495053.340
       182.452         142.170          51.850          51.700    80427057.311 9
  20495054.720         136.275          55.650


 123773631.473 7  96447033.38547  23553318.820                    23553321.060
      3174.250        2473.447          45.200          45.750



 106072570.255 8  82654002.40248  20184921.920                    20184922.000
       240.423         187.343          51.750          51.700    79210101.899 9
  20184923.140         179.535          56.600


 119908170.955 7  93434949.11447  22817761.460                    22817761.400
      2835.585        2209.547          46.650          43.350    89541859.231 8
  22817766.680        2117.590          50.000


 130047903.320 6 101336020.53746  24747301.360                    24747303.620
     -3206.714       -2498.746          40.350          37.950



 124213140.660 7  96789458.11346  23636973.920                    23636970.900
     -3320.278       -2587.236          42.550          41.550



 129430980.241 6 100855321.69946  24629894.360                    24629893.960
      3325.361        2591.195          40.250          37.550



 131176206.126 6 102215260.69746  24961999.660                    24962006.160
       913.741         712.008          36.550          36.350    97956288.744 6
  24962006.660         682.506          41.200


 135497234.518 6 105582302.51546  25784263.700                    25784273.020
      3604.386        2808.630          40.100          39.850   101183045.794 7
  25784275.920        2691.590          43.300


 130649769.671 6 101805008.83846  24861830.080                    24861832.240
     -3170.396       -2470.442          40.550          40.550



 23  8  9 14 31  0.0000000  0 12G03G04G06G07G09G11G17G19G20G26G30G31
 121397219.586 7  94595256.93747  23101121.000                    23101123.760
     -2984.701       -2325.744          45.200          45.350    90653795.893 8
  23101125.700       -2228.753          50.350


 109787363.462 8  85548633.18847  20891823.200                    20891822.380
     -1741.249       -1356.818          49.450          47.350    81984119.263 9
  20891826.740       -1300.251          54.600


 107697088.884 8  83919840.13948  20494067.340                    20494068.140
       162.857         126.901          51.750          51.800    80423191.449 9
  20494069.880         121.589          55.950


 123678491.515 7  96372898.49647  23535214.080                    23535216.420
      3168.684        2469.108          45.250          44.850



 106065601.374 8  82648572.09548  20183595.800                    20183595.760
       224.360         174.826          51.750          51.850    79204897.861 9
  20183596.880         167.548          56.850


 119823273.389 7  93368795.21447  22801605.820                    22801606.140
      2824.289        2200.747          46.850          43.400    89478461.750 8
  22801610.860        2109.038          50.400


 130144106.456 6 101410983.77246  24765608.320                    24765610.580
     -3206.417       -2498.518          39.800          38.300



 124312855.846 7  96867158.13346  23655948.840                    23655946.000
     -3327.242       -2592.660          42.200          41.250



 129331226.980 6 100777591.93646  24610912.000                    24610911.520
      3324.883        2590.819          40.300          36.300



 131149038.896 6 102194091.49246  24956829.680                    24956836.320
       897.493         699.348          37.250          36.750    97936001.600 6
  24956836.860         670.087          41.350


 135389061.663 6 105498012.71146  25763678.640                    25763687.800
      3607.189        2810.821          36.350          36.200   101102268.223 6
  25763690.380        2693.493          41.150


 130745045.832 6 101879249.90246  24879960.640                    24879962.860
     -3181.315       -2478.953          40.250          39.900



 23  8  9 14 31 30.0000000  0 12G03G04G06G07G09G11G17G19G20G26G30G31
 121486843.086 7  94665093.33047  23118175.740                    23118178.800
     -2990.398       -2330.184          45.400          45.400    90720722.411 8
  23118180.920       -2233.034          50.050


 109839793.432 8  85589487.68947  20901800.300                    20901799.420
     -1754.098       -1366.829          49.300          47.650    82023271.497 9
  20901803.980       -1309.948          54.300


 107692500.298 8  83916264.61748  20493194.140                    20493194.980
       143.132         111.531          52.050          52.200    80419764.913 9
  20493196.960         106.843          55.650


 123583515.588 7  96298891.40347  23517140.560                    23517143.080
      3163.083        2464.744          45.400          45.350



 106059113.744 8  82643516.80548  20182361.200                    20182361.060
       208.133         162.182          51.700          51.950    79200053.208 9
  20182362.320         155.417          56.550


 119738715.478 7  93302905.97447  22785514.920                    22785515.400
      2812.894        2191.866          46.200          44.250    89415317.902 8
  22785519.700        2100.449          50.200


 130240305.637 6 101485943.90246  24783914.460                    24783917.060
     -3206.744       -2498.773          40.100          38.900



 124412775.456 7  96945017.47547  23674962.860                    23674960.420
     -3333.958       -2597.893          42.400          42.350



 129231487.429 6 100699872.88946  24591932.160                    24591931.820
      3324.346        2590.402          40.550          37.350



 131122369.599 6 102173310.25046  24951754.640                    24951760.800
       880.700         686.260          36.600          37.050    97916086.270 6
  24951761.820         657.514          39.950


 135280807.664 6 105413659.61946  25743078.120                    25743087.120
      3609.908        2812.941          36.200          36.250   101021429.969 6
  25743088.880        2695.584          39.550


 130840644.044 6 101953741.97046  24898152.500                    24898154.720
     -3191.798       -2487.120          39.800          39.250



 23  8  9 14 32  0.0000000  0 12G03G04G06G07G09G11G17G19G20G26G30G31
 121576633.980 7  94735060.17247  23135262.460                    23135265.680
     -2996.367       -2334.834          45.750          45.700    90787773.924 8
  23135267.900       -2237.499          49.550


 109892604.357 8  85630639.03947  20911849.880                    20911848.880
     -1767.031       -1376.908          49.400          47.650    82062708.202 9
  20911853.880       -1319.589          54.500


 107688499.085 8  83913146.77748  20492432.760                    20492433.600
       123.136          95.949          52.100          52.100    80416776.984 9
  20492435.660          91.940          55.650


 123488704.645 7  96225012.88947  23499098.480                    23499101.000
      3157.100        2460.082          45.750          45.750



 106053105.299 8  82638834.91248  20181217.720                    20181217.640
       191.816         149.467          51.850          51.550    79195566.396 9
  20181218.980         143.268          56.650


 119654498.246 7  93237282.20147  22769488.840                    22769489.460
      2800.970        2182.575          46.400          44.500    89352428.451 8
  22769493.540        2091.710          50.600


 130336496.418 6 101560897.53046  24802219.200                    24802221.920
     -3206.507       -2498.586          39.550          38.700



 124512894.793 6  97023032.41246  23694014.940                    23694013.120
     -3341.148       -2603.499          40.700          39.800



 129131761.118 6 100622164.11845  24572954.760                    24572954.440
      3323.480        2589.728          40.900          32.050



 131096198.222 6 102152917.01845  24946774.460                    24946780.180
       863.688         673.007          37.000          35.500    97896542.753 6
  24946781.300         644.776          40.400


 135172472.866 6 105329243.53546  25722462.020                    25722470.860
      3612.465        2814.928          36.900          36.550   100940531.429 6
  25722472.320        2697.135          37.650


 130936559.963 6 102028481.55546  24916404.800                    24916407.180
     -3203.002       -2495.850          40.700          40.500



 23  8  9 14 32 30.0000000  0 12G03G04G06G07G09G11G17G19G20G26G30G31
 121666594.635 7  94805159.30447  23152381.560                    23152384.860
     -3001.331       -2338.702          45.550          45.800    90854952.249 8
  23152386.880       -2241.200          49.050


 109945797.644 8  85672088.32647  20921972.220                    20921971.080
     -1779.216       -1386.402          49.400          46.850    82102430.426 9
  20921976.540       -1328.657          54.500


 107685089.066 8  83910489.61548  20491783.920                    20491784.740
       104.018          81.053          52.350          52.200    80414230.538 9
  20491786.720          77.684          55.600


 123394064.318 7  96151267.30347  23481088.900                    23481091.240
      3152.170        2456.240          45.850          45.550



 106047578.736 8  82634528.50548  20180165.980                    20180166.020
       176.425         137.475          51.450          51.450    79191439.413 9
  20180167.360         131.710          56.700


 119570627.446 7  93171928.37047  22753528.780                    22753529.360
      2790.142        2174.139          46.650          44.000    89289797.711 8
  22753533.480        2083.541          51.000


 130432679.151 6 101635844.89546  24820522.460                    24820525.420
     -3205.626       -2497.896          39.600          36.250



 124613213.720 6  97101202.89046  23713104.780                    23713103.480
     -3347.386       -2608.356          39.200          38.900



 129032052.574 7 100544469.18045  24553981.040                    24553980.060
      3323.541        2589.771          42.000          32.700



 131070529.470 6 102132915.43146  24941889.780                    24941895.700
       847.346         660.269          37.150          37.200    97877374.588 6
  24941896.900         632.668          40.950


 135064062.562 6 105244768.49546  25701831.760                    25701840.420
      3615.456        2817.255          37.950          38.150   100859576.289 6
  25701841.120        2699.577          39.850


 131032793.741 6 102103468.83346  24934717.760                    24934720.300
     -3212.574       -2503.307          39.600          39.000



 23  8  9 14 33  0.0000000  0 12G03G04G06G07G09G11G17G19G20G26G30G31
 121756720.777 7  94875387.36647  23169532.100                    23169535.440
     -3006.888       -2343.033          44.600          44.900    90922254.145 8
  23169536.980       -2245.560          48.850


 109999368.022 8  85713831.45547  20932166.280                    20932165.160
     -1792.003       -1396.366          49.500          46.700    82142434.249 9
  20932170.760       -1338.230          54.400


 107682267.367 8  83908290.87848  20491247.040                    20491247.860
        84.188          65.600          52.300          52.250    80412123.419 9
  20491249.600          62.779          55.600


 123299593.641 7  96077653.91147  23463111.720                    23463113.900
      3145.913        2451.364          46.350          46.100



 106042530.071 8  82630594.48148  20179205.140                    20179205.380
       160.193         124.826          51.250          51.350    79187669.310 9
  20179206.720         119.655          56.900


 119487102.173 7  93106843.76647  22737634.520                    22737634.940
      2778.345        2164.944          46.700          44.600    89227424.981 8
  22737639.240        2074.628          51.300


 130528847.863 6 101710781.29046  24838823.120                    24838826.120
     -3205.244       -2497.598          41.350          38.200



 124713725.089 6  97179523.30446  23732231.440                    23732230.220
     -3353.616       -2613.211          41.550          39.850



 128932359.343 6 100466786.16745  24535010.240                    24535009.120
      3322.982        2589.335          41.350          35.450



 131045361.329 6 102113303.95646  24937100.680                    24937106.740
       830.146         646.867          37.600          36.950    97858580.222 6
  24937107.720         620.252          41.100


 134955575.524 6 105160233.73646  25681187.000                    25681195.440
      3617.473        2818.828          37.850          37.950   100778563.858 6
  25681196.320        2701.117          40.350


 131129339.416 6 102178699.13046  24953089.860                    24953092.600
     -3223.596       -2511.898          40.300          40.650



 23  8  9 14 33 30.0000000  0 12G03G04G06G07G09G11G17G19G20G26G30G31
 121847013.067 7  94945744.89947  23186714.100                    23186717.480
     -3012.748       -2347.600          44.250          44.550    90989680.084 8
  23186718.760       -2249.715          48.300


 110053315.131 8  85755868.13647  20942432.040                    20942431.080
     -1804.606       -1406.187          49.650          47.250    82182719.400 8
  20942436.420       -1347.646          53.750


 107680036.024 8  83906552.16348  20490822.520                    20490823.380
        64.429          50.204          52.550          52.550    80410457.146 9
  20490824.740          48.063          55.200


 123205296.302 7  96004175.56847  23445167.520                    23445169.300
      3140.269        2446.966          46.300          46.500



 106037960.208 8  82627033.54448  20178335.480                    20178335.820
       144.239         112.395          51.600          51.550    79184256.746 9
  20178337.180         107.716          56.850


 119403926.425 7  93042031.53247  22721806.740                    22721806.980
      2766.403        2155.640          46.700          43.900    89165313.257 8
  22721811.500        2065.916          51.000


 130625001.176 6 101785705.67346  24857120.620                    24857123.940
     -3205.132       -2497.518          40.750          38.550



 124814427.105 6  97257992.29746  23751394.440                    23751393.560
     -3360.213       -2618.352          41.550          40.700



 128832683.628 7 100389116.80545  24516042.680                    24516041.060
      3322.102        2588.647          42.000          35.350



 131020696.747 6 102094084.80946  24932407.420                    24932413.620
       813.436         633.845          38.550          38.750    97840161.899 6
  24932414.140         607.514          40.850


 134847015.272 6 105075641.88746  25660528.280                    25660536.580
      3620.036        2820.825          36.850          36.550   100697496.825 6
  25660537.700        2703.130          39.900


 131226195.226 6 102254171.14146  24971521.080                    24971523.300
     -3233.688       -2519.757          40.850          40.550



 23  8  9 14 34  0.0000000  0 12G03G04G06G07G09G11G17G19G20G26G30G31
 121937474.180 7  95016233.97847  23203928.260                    23203931.680
     -3018.694       -2352.232          43.600          43.600    91057232.087 8
  23203933.000       -2254.140          48.350


 110107640.700 8  85798199.72847  20952769.840                    20952768.980
     -1817.412       -1416.167          49.250          47.050    82223287.171 8
  20952773.920       -1357.135          53.700


 107678399.101 8  83905276.62748  20490511.040                    20490511.940
        44.385          34.585          52.000          52.100    80409234.750 9
  20490513.000          33.138          55.200


 123111178.417 7  95930837.06647  23427257.400                    23427259.000
      3133.939        2442.035          46.000          46.300



 106033872.108 8  82623848.01248  20177557.580                    20177557.920
       127.998          99.739          51.600          51.400    79181203.944 9
  20177559.360          95.591          57.050


 119321106.241 7  92977496.36347  22706046.540                    22706046.580
      2754.398        2146.286          46.200          45.100    89103467.064 8
  22706051.340        2056.909          50.950


 130721139.664 6 101860618.58046  24875415.420                    24875418.700
     -3204.335       -2496.891          39.900          39.100



 124915319.884 7  97336609.88146  23770593.920                    23770593.320
     -3366.453       -2623.218          42.250          40.000



 128733030.254 6 100311464.86045  24497079.320                    24497077.860
      3321.030        2587.819          40.950          34.150



 130996540.631 6 102075261.89446  24927810.800                    24927817.220
       796.485         620.638          38.350          38.600    97822123.284 6
  24927817.380         594.837          41.150


 134738387.701 6 104990997.59646  25639856.800                    25639865.080
      3621.639        2822.076          39.000          39.300   100616379.473 6
  25639866.240        2704.539          40.650


 131323362.028 6 102329885.38346  24990011.440                    24990013.360
     -3244.531       -2528.209          40.550          39.900



 23  8  9 14 34 30.0000000  0 12G03G04G06G07G09G11G17G19G20G26G30G31
 122028097.017 7  95086849.07147  23221173.120                    23221176.700
     -3023.362       -2355.870          43.700          43.700    91124904.889 8
  23221177.800       -2257.794          48.350


 110162336.704 8  85840819.96447  20963178.160                    20963177.420
     -1829.326       -1425.450          49.200          47.250    82264131.558 8
  20963182.100       -1366.055          53.900


 107677350.890 8  83904459.83748  20490311.460                    20490312.340
        25.189          19.628          51.950          51.900    80408451.990 9
  20490313.340          18.708          55.350


 123017236.011 7  95857635.25947  23409380.760                    23409382.000
      3128.491        2437.787          46.250          46.350



 106030258.938 8  82621032.55248  20176870.040                    20176870.340
       112.571          87.718          51.700          51.600    79178505.795 9
  20176871.940          84.008          57.400


 119238637.900 7  92913235.35747  22690353.180                    22690353.160
      2743.029        2137.426          46.550          44.100    89041883.614 8
  22690358.020        2048.368          50.800


 130817254.528 6 101935513.00546  24893705.760                    24893709.360
     -3203.394       -2496.160          39.050          38.750



 125016393.712 6  97415368.62246  23789827.920                    23789826.840
     -3371.872       -2627.436          41.800          38.950



 128633394.062 6 100233826.29145  24478119.000                    24478117.840
      3320.991        2587.783          41.500          33.200



 130972888.179 6 102056831.41246  24923310.160                    24923316.460
       779.697         607.556          38.950          39.200    97804460.732 6
  24923315.980         582.527          40.250


 134629688.503 6 104906297.43846  25619171.720                    25619179.880
      3624.505        2824.306          40.000          39.900   100535208.632 6
  25619180.760        2706.591          41.450


 131420830.657 6 102405834.91946  25008559.060                    25008560.580
     -3253.870       -2535.486          40.800          41.000



 23  8  9 14 35  0.0000000  0 12G03G04G06G07G09G11G17G19G20G26G30G31
 122118885.905 7  95157593.56347  23238449.660                    23238453.260
     -3028.630       -2359.975          43.800          44.100    91192701.686 7
  23238454.180       -2261.875          47.500


 110217406.397 8  85883731.38847  20973657.500                    20973656.980
     -1841.903       -1435.251          48.900          47.500    82305254.997 8
  20973661.600       -1375.322          53.600


 107676896.954 8  83904106.11748  20490224.880                    20490225.800
         5.262           4.100          51.900          51.950    80408112.999 9
  20490226.840           3.984          55.000


 122923476.708 7  95784576.16147  23391538.840                    23391539.960
      3122.100        2432.808          46.500          46.200



 106027125.210 8  82618590.68148  20176273.740                    20176273.940
        96.599          75.271          51.800          51.850    79176165.664 9
  20176275.740          72.168          57.050


 119156529.038 7  92849254.46447  22674728.280                    22674728.040
      2730.957        2128.020          46.100          44.700    88980568.592 8
  22674733.060        2039.457          50.200


 130913348.143 6 102010390.83846  24911992.020                    24911996.120
     -3202.500       -2495.466          40.950          38.650



 125117650.174 7  97494269.62246  23809096.560                    23809095.420
     -3378.065       -2632.262          42.850          39.900



 128533781.228 6 100156205.92645  24459163.200                    24459162.140
      3320.231        2587.192          40.800          32.800



 130949745.833 6 102038798.44246  24918906.480                    24918912.460
       763.139         594.653          39.350          39.050    97787179.165 6
  24918911.180         569.566          38.750


 134520924.992 6 104821547.16646  25598474.140                    25598482.500
      3626.731        2826.043          38.300          37.500   100453989.759 6
  25598483.320        2708.124          40.600


 131518603.377 6 102482021.36046  25027164.500                    25027166.360
     -3264.121       -2543.475          40.300          40.100



 23  8  9 14 35 30.0000000  0 12G03G04G06G07G09G11G17G19G20G26G30G31
 122209837.692 7  95228464.97647  23255757.340                    23255760.840
     -3034.066       -2364.212          44.100          44.250    91260620.104 7
  23255761.860       -2265.785          47.350


 110272845.628 8  85926930.75948  20984207.200                    20984206.880
     -1853.812       -1444.530          48.800          48.000    82346654.391 8
  20984211.360       -1384.348          53.400


 107677035.501 8  83904214.06748  20490251.180                    20490252.000
       -14.112         -10.997          52.000          51.950    80408216.455 9
  20490253.180         -10.618          54.950


 122829900.589 7  95711659.76947  23373731.820                    23373732.820
      3116.454        2428.408          45.900          45.800



 106024468.044 8  82616520.16148  20175768.140                    20175768.300
        80.959          63.085          51.700          52.000    79174181.421 9
  20175770.200          60.438          56.950


 119074779.919 7  92785553.88147  22659171.960                    22659171.500
      2719.361        2118.983          46.550          44.250    88919522.219 8
  22659176.600        2030.588          50.000


 131009415.247 6 102085248.03246  24930273.260                    24930277.480
     -3201.408       -2494.614          40.350          37.750



 125219083.712 7  97573308.57946  23828398.860                    23828397.640
     -3383.708       -2636.662          43.950          39.700



 128434190.644 6 100078602.92746  24440211.660                    24440210.880
      3319.569        2586.677          41.250          37.300



 130927112.734 6 102021162.26546  24914599.780                    24914604.960
       746.385         581.598          38.900          39.200    97770277.802 6
  24914603.580         557.291          40.000


 134412097.023 6 104736746.71646  25577764.280                    25577773.120
      3629.002        2827.808          39.250          39.100   100372722.716 6
  25577773.860        2709.780          41.500


 131616674.954 6 102558440.70346  25045826.860                    25045828.920
     -3273.875       -2551.075          40.400          40.250



 23  8  9 14 36  0.0000000  0 12G03G04G06G07G09G11G17G19G20G26G30G31
 122300951.673 7  95299462.77147  23273095.820                    23273099.420
     -3040.156       -2368.956          44.200          44.150    91328659.647 8
  23273100.520       -2270.285          48.300


 110328652.781 8  85970416.81147  20994826.900                    20994826.760
     -1866.729       -1454.597          48.600          47.950    82388328.528 8
  20994831.000       -1394.028          53.300


 107677767.165 8  83904784.19548  20490390.460                    20490391.240
       -34.600         -26.960          52.000          51.950    80408762.822 9
  20490392.420         -25.894          55.000


 122736510.303 7  95638888.19847  23355960.040                    23355960.940
      3109.573        2423.047          45.900          45.750



 106022286.994 8  82614820.63248  20175353.220                    20175353.280
        64.590          50.329          51.850          51.800    79172552.705 9
  20175355.160          48.071          56.950


 118993393.206 7  92722135.68847  22643684.700                    22643683.980
      2706.498        2108.961          46.800          44.050    88858746.451 8
  22643689.200        2021.008          50.050


 131105453.524 6 102160082.76146  24948549.020                    24948553.060
     -3200.838       -2494.171          41.100          39.050



 125320691.058 7  97652483.01146  23847734.260                    23847733.140
     -3390.262       -2641.767          42.750          38.750



 128334623.229 6 100001018.00245  24421264.520                    24421264.100
      3317.950        2585.419          41.950          35.900



 130904990.254 6 102003924.01646  24910389.740                    24910395.020
       728.425         567.605          37.900          37.850    97753757.801 7
  24910394.180         543.970          42.100


 134303207.112 6 104651897.90846  25557042.860                    25557051.980
      3630.313        2828.834          39.550          39.050   100291409.385 7
  25557052.860        2711.086          43.200


 131715042.752 6 102635090.86546  25064545.780                    25064547.640
     -3284.193       -2559.115          39.600          39.550



 23  8  9 14 36 30.0000000  0 12G03G04G06G07G09G11G17G19G20G26G30G31
 122392228.541 7  95370587.49147  23290465.180                    23290468.960
     -3045.544       -2373.155          43.950          43.950    91396820.805 8
  23290470.220       -2274.211          48.750


 110384827.475 8  86014189.27148  21005516.680                    21005516.580
     -1878.750       -1463.962          49.000          48.350    82430277.135 8
  21005520.600       -1402.995          53.300


 107679093.825 8  83905817.94548  20490643.000                    20490643.820
       -54.345         -42.347          52.150          52.050    80409753.499 9
  20490644.880         -40.567          55.150


 122643309.910 7  95566264.58547  23338224.500                    23338225.320
      3103.405        2418.240          45.850          45.450



 106020582.914 8  82613492.77848  20175029.040                    20175028.920
        48.729          37.970          52.250          52.450    79171280.174 9
  20175030.760          36.364          57.000


 118912372.917 7  92659003.02147  22628267.140                    22628266.360
      2694.575        2099.670          47.050          44.700    88798244.320 8
  22628271.640        2012.037          50.250


 131201461.890 7 102234894.18446  24966819.160                    24966823.220
     -3199.654       -2493.247          42.050          38.100



 125422470.075 7  97731791.19946  23867102.400                    23867101.180
     -3395.616       -2645.937          43.450          39.950



 128235082.085 7  99923453.54245  24402322.540                    24402322.320
      3317.389        2584.979          42.550          34.450



 130883381.240 6 101987085.82646  24906277.380                    24906282.700
       711.855         554.691          37.500          37.950    97737621.224 7
  24906282.960         531.429          42.950


 134194258.697 6 104567003.52146  25536310.300                    25536319.260
      3632.120        2830.241          37.550          37.250   100210052.416 6
  25536320.440        2712.383          40.600


 131813705.462 6 102711970.83346  25083320.700                    25083322.520
     -3293.793       -2566.592          40.350          40.500



 23  8  9 14 37  0.0000000  0 12G03G04G06G07G09G11G17G19G20G26G30G31
 122483664.119 7  95441835.88347  23307864.700                    23307868.480
     -3050.777       -2377.232          43.600          44.100    91465100.463 8
  23307870.100       -2278.076          48.550


 110441364.555 8  86058244.11048  21016275.460                    21016275.400
     -1890.586       -1473.185          49.200          48.300    82472496.351 8
  21016279.220       -1411.856          53.200


 107681012.554 8  83907313.05348  20491008.200                    20491009.140
       -73.823         -57.525          51.750          51.800    80411186.311 9
  20491010.060         -55.227          55.200


 122550297.840 7  95493787.72147  23320524.720                    23320525.440
      3097.296        2413.479          45.900          46.250



 106019351.809 8  82612533.47548  20174794.780                    20174794.540
        33.149          25.831          51.600          51.800    79170360.840 9
  20174796.300          24.696          56.950


 118831718.246 7  92596155.25247  22612919.100                    22612918.500
      2682.260        2090.073          47.050          45.750    88738015.198 8
  22612923.660        2003.019          50.500


 131297433.793 6 102309677.16446  24985082.160                    24985086.360
     -3198.512       -2492.358          40.900          38.950



 125524414.124 7  97811227.98146  23886501.740                    23886500.360
     -3400.798       -2649.977          42.850          38.750



 128135564.674 7  99845907.54646  24383385.100                    24383384.500
      3316.886        2584.589          43.100          37.100



 130862283.676 6 101970646.17546  24902262.420                    24902267.460
       694.652         541.287          37.000          36.550    97721866.544 7
  24902268.780         518.673          42.900


 134085250.759 6 104482062.72046  25515566.600                    25515575.360
      3634.352        2831.979          37.050          38.250   100128650.900 6
  25515575.880        2714.037          40.500


 131912656.813 6 102789075.66446  25102150.460                    25102152.480
     -3303.149       -2573.886          39.800          39.750



 23  8  9 14 37 30.0000000  0 12G03G04G06G07G09G11G17G19G20G26G30G31
 122575261.862 7  95513210.63547  23325295.220                    23325298.860
     -3056.064       -2381.353          44.000          43.650    91533501.228 7
  23325300.480       -2282.136          47.700


 110498266.539 8  86102583.28348  21027103.660                    21027103.560
     -1902.853       -1482.743          49.250          48.250    82514988.059 8
  21027107.380       -1421.022          52.900


 107683528.081 8  83909273.20248  20491486.880                    20491488.040
       -94.107         -73.331          51.700          51.800    80413064.771 9
  20491488.880         -70.144          55.100


 122457481.278 7  95421463.18647  23302862.220                    23302862.860
      3090.421        2408.123          44.700          44.600



 106018597.386 8  82611945.60948  20174651.180                    20174650.920
        16.955          13.212          51.600          51.650    79169797.455 9
  20174652.620          12.729          56.850


 118751436.021 7  92533597.70347  22597641.900                    22597641.600
      2669.622        2080.227          47.450          44.200    88678064.225 8
  22597646.560        1993.551          50.550


 131393371.037 6 102384433.16146  25003338.560                    25003342.600
     -3197.571       -2491.626          40.600          38.600



 125626524.243 6  97890794.16246  23905932.740                    23905931.780
     -3406.547       -2654.461          41.250          39.900



 128036076.411 7  99768384.28445  24364453.120                    24364452.440
      3315.566        2583.563          43.800          35.150



 130841703.118 6 101954609.38946  24898345.780                    24898351.340
       677.246         527.726          37.600          37.850    97706497.949 7
  24898353.020         505.590          42.600


 133976189.876 6 104397080.66746  25494812.960                    25494821.660
      3635.856        2833.146          41.050          40.700   100047209.858 6
  25494822.060        2715.157          40.750


 132011898.200 6 102866406.58246  25121035.420                    25121037.460
     -3313.137       -2581.668          39.350          39.600



 23  8  9 14 38  0.0000000  0 12G03G04G06G07G09G11G17G19G20G26G30G31
 122667017.244 7  95584708.23247  23342755.980                    23342759.340
     -3061.207       -2385.359          44.300          44.150    91602019.757 7
  23342760.640       -2286.078          46.850


 110555527.920 8  86147202.50447  21038000.240                    21037999.980
     -1914.915       -1492.143          49.200          47.550    82557748.134 8
  21038003.940       -1429.970          52.700


 107686637.018 8  83911695.75648  20492078.380                    20492079.800
      -113.811         -88.683          51.050          51.000    80415386.394 9
  20492080.680         -84.974          55.150


 122364858.842 7  95349289.93547  23285236.600                    23285237.180
      3083.873        2403.021          45.350          45.100



 106018315.248 8  82611725.75948  20174597.440                    20174597.300
         1.195           0.932          51.900          51.950    79169586.759 9
  20174598.840           0.957          56.800


 118671525.040 7  92471329.43147  22582435.300                    22582435.340
      2657.254        2070.588          46.800          45.200    88618390.480 8
  22582440.100        1984.276          50.750


 131489267.355 6 102459157.26746  25021587.120                    25021590.800
     -3196.256       -2490.598          41.550          36.900



 125728793.276 6  97970484.21146  23925393.800                    23925393.280
     -3411.612       -2658.405          41.200          41.500



 127936615.106 7  99690882.02245  24345526.340                    24345525.500
      3314.662        2582.854          43.100          35.750



 130821637.220 6 101938973.60646  24894527.320                    24894532.960
       659.847         514.165          38.500          38.750    97691513.680 7
  24894534.620         492.902          42.550


 133867074.474 6 104312056.09246  25474048.760                    25474057.120
      3637.810        2834.674          40.250          40.350    99965728.068 7
  25474057.860        2716.490          42.900


 132111423.172 6 102943958.41846  25139974.440                    25139976.300
     -3322.481       -2588.947          39.900          39.500



 23  8  9 14 38 30.0000000  0 12G03G04G06G07G09G11G17G19G20G26G30G31
 122758932.654 7  95656330.52147  23360247.120                    23360250.260
     -3066.636       -2389.590          44.250          44.100    91670657.751 7
  23360251.240       -2290.110          46.550


 110613150.004 8  86192102.80348  21048965.460                    21048965.000
     -1926.990       -1501.552          49.250          48.100    82600777.579 8
  21048968.940       -1438.977          52.350


 107690342.956 8  83914583.50848  20492783.500                    20492784.980
      -133.646        -104.141          51.050          51.300    80418153.829 9
  20492785.980         -99.874          55.200


 122272436.166 7  95277272.34347  23267649.120                    23267649.540
      3077.254        2397.863          44.700          44.950



 106018507.935 8  82611875.91048  20174634.160                    20174634.100
       -14.533         -11.324          52.100          52.100    79169730.660 9
  20174635.420         -10.914          56.850


 118591991.064 7  92409354.94547  22567300.300                    22567300.780
      2644.654        2060.771          46.650          46.100    88558998.254 8
  22567305.320        1974.851          50.900


 131585123.471 6 102533850.06046  25039828.040                    25039831.680
     -3194.847       -2489.509          37.700          37.150



 125831220.998 6  98050297.88646  23944885.240                    23944885.200
     -3417.086       -2662.667          41.250          40.950



 127837184.974 7  99613404.04645  24326605.220                    24326604.280
      3313.832        2582.205          43.000          35.600



 130802090.403 6 101923742.31446  24890807.860                    24890813.600
       642.763         500.851          38.450          38.700    97676917.071 7
  24890815.180         479.879          42.900


 133757909.946 6 104226993.22546  25453275.140                    25453283.360
      3639.487        2835.978          38.700          38.850    99884209.563 7
  25453284.420        2717.724          42.600


 132211231.798 6 103021731.40246  25158967.580                    25158968.960
     -3331.566       -2596.027          37.100          36.600



 23  8  9 14 39  0.0000000  0 12G03G04G06G07G09G11G17G19G20G26G30G31
 122851003.952 7  95728074.28147  23377767.940                    23377770.820
     -3072.163       -2393.896          44.400          44.250    91739412.158 7
  23377771.600       -2294.073          46.600


 110671127.675 8  86237280.17847  21059998.400                    21059997.680
     -1939.031       -1510.935          49.450          47.000    82644072.558 8
  21060001.480       -1447.944          51.850


 107694642.865 8  83917934.08948  20493601.740                    20493603.060
      -153.739        -119.797          51.800          51.700    80421364.804 9
  20493604.200        -114.812          54.850


 122180212.317 7  95205409.68247  23250099.380                    23250099.840
      3070.384        2392.509          45.300          44.950



 106019171.488 8  82612392.96548  20174760.500                    20174760.440
       -30.421         -23.704          52.100          52.250    79170226.167 9
  20174761.620         -22.753          56.700


 118512833.253 7  92347673.57347  22552236.900                    22552237.640
      2631.810        2050.762          46.800          45.400    88499886.945 8
  22552242.060        1965.302          50.600


 131680933.034 6 102608506.54946  25058060.100                    25058063.660
     -3193.198       -2488.216          40.900          37.750



 125933800.778 7  98130230.05447  23964405.600                    23964405.720
     -3422.339       -2666.764          42.950          42.200



 127737783.703 6  99535948.55545  24307689.580                    24307688.540
      3312.583        2581.231          41.800          35.200



 130783060.480 6 101908913.81746  24887186.900                    24887192.520
       625.245         487.204          39.300          37.850    97662706.419 6
  24887194.020         466.813          41.600


 133648695.269 6 104141891.27646  25432492.060                    25432499.880
      3640.815        2837.013          38.900          39.850    99802653.631 7
  25432501.460        2718.816          42.450


 132311318.276 6 103099720.78546  25178013.440                    25178014.760
     -3341.265       -2603.581          40.700          40.700



 23  8  9 14 39 30.0000000  0 12G03G04G06G07G09G11G17G19G20G26G30G31
 122943230.229 7  95799938.78047  23395317.920                    23395321.000
     -3077.019       -2397.682          43.750          43.900    91808282.297 7
  23395321.520       -2297.691          47.100


 110729458.973 8  86282733.10547  21071098.520                    21071097.700
     -1950.479       -1519.854          49.700          47.700    82687631.609 8
  21071101.420       -1456.463          52.150


 107699536.937 8  83921747.65048  20494533.180                    20494534.180
      -173.331        -135.063          52.150          52.200    80425019.458 9
  20494535.360        -129.382          54.950


 122088189.680 7  95133703.81347  23232588.100                    23232588.460
      3063.742        2387.334          45.900          45.900



 106020305.096 8  82613276.28848  20174976.260                    20174976.140
       -45.842         -35.721          51.950          51.950    79171072.681 9
  20174977.360         -34.195          57.000


 118434054.034 7  92286287.21947  22537245.660                    22537246.420
      2619.353        2041.056          47.650          44.650    88441058.351 8
  22537250.720        1956.120          50.750


 131776693.375 7 102683124.66946  25076282.860                    25076286.760
     -3191.274       -2486.722          42.450          37.400



 126036528.881 7  98210277.81046  23983954.300                    23983954.500
     -3426.892       -2670.308          42.850          41.750



 127638412.231 6  99458516.32046  24288779.440                    24288778.620
      3311.819        2580.644          41.100          36.050



 130764548.579 6 101894488.93546  24883664.540                    24883669.980
       607.964         473.737          40.300          40.150    97648882.541 7
  24883671.460         454.242          42.250


 133539432.548 6 104056751.90746  25411699.700                    25411707.320
      3642.391        2838.239          38.800          38.700    99721061.765 7
  25411709.220        2720.206          43.500


 132411679.484 6 103177924.24746  25197111.540                    25197112.900
     -3350.037       -2610.422          39.250          39.600



 23  8  9 14 40  0.0000000  0 13G03G04G06G07G09G11G16G17G19G20G26G30
                                G31
 123035616.183 7  95871927.72247  23412898.500                    23412901.540
     -3082.313       -2401.807          44.500          44.150    91877271.678 7
  23412902.180       -2301.799          47.250


 110788147.661 8  86328464.52247  21082266.680                    21082265.780
     -1962.570       -1529.276          49.650          46.800    82731457.552 8
  21082269.560       -1465.464          52.200


 107705031.056 8  83926028.76148  20495578.820                    20495579.600
      -193.389        -150.693          52.000          51.950    80429122.199 9
  20495580.680        -144.407          54.900


 121996376.076 7  95062160.83047  23215116.460                    23215116.940
      3056.689        2381.839          45.050          44.650



 106021913.594 8  82614529.66348  20175282.340                    20175282.220
       -61.640         -48.030          51.850          51.750    79172273.838 9
  20175283.640         -46.062          57.000


 118355661.496 8  92225202.14747  22522328.220                    22522328.740
      2606.340        2030.915          48.400          44.950    88382518.504 8
  22522332.860        1946.281          50.650


 134190989.267 6 104564413.56645  25535696.120                    25535699.240
      2462.549        1918.873          39.950          35.850



 131872407.148 6 102757706.48046  25094496.780                    25094500.620
     -3190.143       -2485.839          39.350          36.000



 126139407.654 7  98290442.94846  24003531.700                    24003531.920
     -3432.146       -2674.403          42.550          41.250



 127539077.622 6  99381112.76445  24269876.420                    24269875.500
      3310.277        2579.440          39.750          35.500



 130746561.426 6 101880472.97946  24880241.860                    24880246.640
       590.472         460.105          40.500          40.200    97635450.587 6
  24880248.580         441.011          41.250


 133430129.576 6 103971581.10646  25390899.660                    25390906.820
      3644.050        2839.528          38.250          37.700    99639439.895 7
  25390909.400        2721.135          43.750


 132512317.920 6 103256343.76846  25216262.320                    25216263.980
     -3359.791       -2618.020          37.050          37.250



 23  8  9 14 40 30.0000000  0 13G03G04G06G07G09G11G16G17G19G20G26G30
                                G31
 123128156.170 7  95944036.70747  23430508.600                    23430511.240
     -3086.927       -2405.401          45.050          44.550    91946376.084 7
  23430512.460       -2305.317          47.150


 110847187.133 8  86374469.26447  21093501.460                    21093500.680
     -1973.668       -1537.925          48.900          47.850    82775545.436 8
  21093504.580       -1473.850          52.350


 107711120.686 8  83930773.91248  20496737.640                    20496738.480
      -212.775        -165.801          51.300          51.600    80433669.630 9
  20496739.360        -158.890          54.750


 121904769.194 7  94990778.90447  23197684.240                    23197684.740
      3050.254        2376.823          45.050          45.200



 106023991.559 8  82616148.85448  20175677.740                    20175677.700
       -76.985         -59.989          51.850          51.750    79173825.555 9
  20175679.340         -57.479          56.900


 118277653.369 8  92164416.62447  22507484.100                    22507484.160
      2594.018        2021.313          48.700          45.550    88324265.711 8
  22507488.180        1937.039          50.400


 134117252.104 5 104506956.10244  25521664.780                    25521667.160
      2452.875        1911.320          32.750          28.850



 131968067.134 6 102832246.43245  25112700.560                    25112704.280
     -3187.474       -2483.752          41.500          33.150



 126242428.909 6  98370719.11446  24023136.300                    24023136.400
     -3436.156       -2677.529          41.800          41.050



 127439776.178 6  99303735.08546  24250979.500                    24250978.800
      3309.885        2579.131          39.050          38.950



 130729095.446 6 101866863.15146  24876918.320                    24876923.020
       573.768         447.092          40.300          39.650    97622407.822 6
  24876925.220         428.478          41.950


 133320783.949 6 103886377.08246  25370091.740                    25370098.600
      3645.573        2840.718          39.250          39.350    99557786.093 7
  25370101.280        2722.410          43.150


 132613226.220 6 103334973.52646  25235464.440                    25235466.660
     -3368.120       -2624.513          38.150          38.500



 23  8  9 14 41  0.0000000  0 13G03G04G06G07G09G11G16G17G19G20G26G30
                                G31
 123220849.336 7  96016265.05847  23448147.840                    23448150.180
     -3092.160       -2409.479          45.250          45.100    92015594.878 7
  23448151.840       -2309.021          46.950


 110906575.493 8  86420745.86547  21104802.520                    21104801.960
     -1985.303       -1546.990          48.800          47.650    82819893.829 8
  21104806.220       -1482.447          53.100


 107717805.945 8  83935983.20148  20498009.700                    20498010.780
      -232.545        -181.204          51.300          51.450    80438661.865 9
  20498011.480        -173.646          54.950


 121813371.213 7  94919559.80647  23180291.640                    23180292.400
      3043.256        2371.371          45.450          45.550



 106026538.157 8  82618133.21648  20176162.280                    20176162.260
       -92.549         -72.116          51.800          51.850    79175727.230 9
  20176164.060         -69.066          56.900


 118200032.052 8  92103932.50247  22492713.520                    22492713.220
      2581.116        2011.260          48.850          45.200    88266301.760 8
  22492717.240        1927.449          50.800


 134043817.006 5 104449741.06244  25507690.080                    25507692.140
      2443.182        1903.799          32.650          28.550



 132063670.565 6 102906742.30445  25130893.880                    25130896.960
     -3185.720       -2482.390          40.550          31.350



 126345589.225 7  98451103.62046  24042767.320                    24042767.060
     -3440.715       -2681.080          43.000          39.800



 127340509.005 6  99226384.04345  24232089.560                    24232089.160
      3308.638        2578.159          40.300          35.900



 130712151.682 6 101853660.22246  24873694.020                    24873698.840
       556.060         433.291          38.800          39.400    97609755.025 7
  24873701.260         415.364          42.050


 133211397.632 6 103801141.31846  25349275.660                    25349281.980
      3647.290        2842.056          39.550          39.950    99476101.931 7
  25349285.220        2723.473          43.350


 132714401.334 6 103413811.27546  25254717.340                    25254719.860
     -3376.398       -2630.951          38.700          38.150



 23  8  9 14 41 30.0000000  0 13G03G04G06G07G09G11G16G17G19G20G26G30
                                G31
 123313695.056 7  96088612.25747  23465816.060                    23465818.220
     -3097.624       -2413.737          45.700          45.550    92084927.593 7
  23465820.160       -2313.049          46.550


 110966311.084 8  86467293.03247  21116169.720                    21116169.260
     -1996.988       -1556.096          49.050          47.550    82864501.530 8
  21116174.100       -1491.262          53.600


 107725087.277 8  83941656.96048  20499395.180                    20499396.500
      -252.774        -196.967          51.200          51.350    80444099.212 9
  20499397.120        -188.727          55.100


 121722184.818 7  94848505.54047  23162939.380                    23162940.100
      3036.052        2365.758          45.300          45.450



 106029552.874 8  82620482.33048  20176735.860                    20176735.780
      -108.315         -84.401          51.700          51.800    79177978.471 9
  20176737.660         -80.959          56.850


 118122800.264 8  92043751.91347  22478016.920                    22478016.520
      2567.824        2000.902          49.300          45.550    88208628.696 8
  22478020.580        1917.476          51.350


 133970688.006 5 104392758.30945  25493773.680                    25493777.120
      2432.330        1895.329          35.800          31.500



 132159215.234 6 102981192.28446  25149076.000                    25149079.260
     -3183.580       -2480.729          38.200          36.150



 126448885.536 7  98531594.11846  24062424.140                    24062423.320
     -3445.575       -2684.866          42.550          40.000



 127241277.579 6  99149060.90545  24213206.660                    24213206.260
      3306.880        2576.789          41.150          35.450



 130695731.449 6 101840865.26246  24870568.980                    24870574.440
       538.344         419.487          38.100          36.950    97597493.165 7
  24870576.620         402.121          42.050


 133101973.192 6 103715875.82246  25328452.700                    25328458.900
      3648.442        2842.952          39.400          39.200    99394389.266 7
  25328462.020        2724.118          42.050


 132815840.526 6 103492854.65046  25274020.540                    25274023.600
     -3386.077       -2638.513          39.000          38.850



 23  8  9 14 42  0.0000000  0 13G03G04G06G07G09G11G16G17G19G20G26G30
                                G31
 123406693.713 7  96161078.62647  23483513.360                    23483515.400
     -3102.398       -2417.457          45.950          46.300    92154374.510 7
  23483517.560       -2316.737          46.700


 111026393.315 8  86514110.31647  21127603.080                    21127602.460
     -2008.360       -1564.957          49.350          46.850    82909368.094 8
  21127607.860       -1499.849          53.650


 107732966.126 8  83947796.31748  20500894.340                    20500895.880
      -272.515        -212.350          51.450          51.400    80449982.764 9
  20500896.580        -203.518          55.050


 121631213.743 7  94777619.09147  23145628.160                    23145628.960
      3028.856        2360.150          46.200          46.100



 106033036.224 8  82623196.62748  20177398.620                    20177398.480
      -123.812         -96.478          51.600          51.600    79180579.668 9
  20177400.440         -92.479          56.600


 118045961.774 8  91983877.78747  22463395.040                    22463394.700
      2554.797        1990.751          48.750          45.000    88151249.327 8
  22463398.860        1907.725          51.450


 133897869.066 5 104336012.20145  25479916.560                    25479919.960
      2422.617        1887.747          35.650          31.300



 132254699.402 6 103055595.16045  25167246.440                    25167249.980
     -3181.690       -2479.254          39.250          32.450



 126552315.541 6  98612188.80046  24082106.420                    24082105.140
     -3449.789       -2688.150          41.950          40.100



 127142084.241 7  99071767.43846  24194331.180                    24194330.640
      3305.791        2575.944          42.350          37.250



 130679837.000 6 101828480.00646  24867544.060                    24867549.920
       521.032         405.998          38.150          37.650    97585623.963 6
  24867551.800         389.197          41.700


 132992514.261 6 103630583.49746  25307623.120                    25307629.400
      3649.208        2843.550          39.250          38.650    99312650.780 7
  25307632.080        2725.117          42.600


 132917542.223 6 103572102.68946  25293373.980                    25293376.960
     -3394.516       -2645.079          38.200          38.300



 23  8  9 14 42 30.0000000  0 13G03G04G06G07G09G11G16G17G19G20G26G30
                                G31
 123499843.124 7  96233662.47447  23501239.300                    23501241.380
     -3107.599       -2421.508          45.750          45.450    92223934.010 7
  23501243.680       -2320.598          47.100


 111086818.992 8  86561195.22647  21139101.800                    21139101.060
     -2020.248       -1574.221          49.350          46.350    82954491.108 8
  21139106.900       -1508.509          53.900


 107741441.271 8  83954400.30748  20502507.100                    20502508.680
      -292.791        -228.149          51.350          51.600    80456311.587 9
  20502509.540        -218.570          55.200


 121540459.007 7  94706901.19747  23128358.080                    23128358.780
      3021.148        2354.144          45.350          45.950



 106036986.071 8  82626274.42848  20178150.240                    20178150.060
      -139.745        -108.893          51.700          51.650    79183529.224 9
  20178152.040        -104.290          56.750


 117969517.630 7  91924310.96247  22448848.000                    22448847.960
      2541.337        1980.265          47.900          45.050    88094164.461 8
  22448852.180        1897.769          51.850


 133825361.033 5 104279508.37945  25466118.760                    25466121.400
      2411.187        1878.821          32.850          30.900



 132350119.353 6 103129948.04146  25185404.480                    25185408.220
     -3179.678       -2477.677          37.000          36.000



 126655874.547 7  98692883.93646  24101812.900                    24101811.580
     -3454.677       -2691.961          42.050          40.800



 127042928.877 6  98994503.53946  24175462.720                    24175461.940
      3304.431        2574.883          41.800          38.550



 130664468.132 6 101816504.28746  24864619.460                    24864625.100
       503.411         392.271          38.250          38.050    97574147.212 6
  24864626.640         375.910          41.350


 132883021.604 6 103545264.90546  25286787.060                    25286793.240
      3650.013        2844.174          39.800          38.750    99230887.200 7
  25286795.760        2725.688          43.950


 133019502.508 6 103651552.19046  25312776.560                    25312779.700
     -3403.254       -2651.892          37.350          37.800



 23  8  9 14 43  0.0000000  0 13G03G04G06G07G09G11G16G17G19G20G26G30
                                G31
 123593146.912 7  96306366.60047  23518994.460                    23518996.840
     -3112.743       -2425.519          44.950          45.000    92293608.777 7
  23518999.280       -2324.507          47.250


 111147590.669 8  86608549.74747  21150666.360                    21150665.520
     -2031.521       -1583.005          49.300          46.150    82999872.517 8
  21150671.640       -1517.104          53.850


 107750517.277 8  83961472.50348  20504234.340                    20504235.760
      -312.765        -243.714          51.650          51.750    80463089.112 9
  20504236.820        -233.521          55.200


 121449927.261 7  94636357.07347  23111130.460                    23111131.120
      3013.856        2348.462          46.900          47.200



 106041406.071 8  82629718.57748  20178991.420                    20178991.040
      -155.288        -121.004          51.800          51.900    79186829.861 9
  20178993.160        -116.014          56.850


 117893474.815 7  91865056.86047  22434377.220                    22434377.540
      2527.994        1969.867          47.650          44.700    88037379.293 8
  22434381.820        1887.699          52.050


 133753168.280 6                  25452381.920
      2401.077                          37.800



 132445476.783 6 103204252.22845  25203550.600                    25203554.800
     -3177.280       -2475.811          37.900          35.300



 126759563.454 7  98773680.35647  24121544.580                    24121543.160
     -3458.315       -2694.796          43.000          42.000



 126943817.208 6  98917273.72046  24156602.500                    24156601.760
      3302.919        2573.704          41.500          36.700



 130649630.281 6 101804942.34446  24861795.960                    24861801.220
       485.742         378.504          38.850          38.750    97563067.017 6
  24861802.420         362.617          41.350


 132773501.924 6 103459925.21646  25265945.860                    25265951.900
      3650.740        2844.745          38.400          39.000    99149103.426 7
  25265954.380        2726.262          44.650


 133121722.554 6 103731204.13946  25332228.600                    25332231.540
     -3411.791       -2658.539          38.150          37.900



 23  8  9 14 43 30.0000000  0 13G03G04G06G07G09G11G16G17G19G20G26G30
                                G31
 123686598.941 7  96379186.24747  23536777.540                    23536780.420
     -3117.646       -2429.338          43.850          43.700    92363394.248 7
  23536782.920       -2328.072          47.650


 111208701.305 8  86656168.38847  21162295.380                    21162294.520
     -2042.748       -1591.753          49.600          45.700    83045507.035 8
  21162300.620       -1525.372          53.800


 107760188.983 8  83969008.87948  20506074.920                    20506076.180
      -332.452        -259.055          52.000          52.000    80470311.476 9
  20506077.360        -248.201          55.300


 121359615.529 7  94565984.40447  23093944.680                    23093945.380
      3006.489        2342.723          46.400          46.400



 106046290.193 8  82633524.38948  20179921.000                    20179920.440
      -170.639        -132.966          52.750          52.700    79190477.087 9
  20179922.500        -127.342          57.100


 117817830.505 7  91806113.27947  22419982.320                    22419982.920
      2514.686        1959.496          47.900          44.650    87980891.697 8
  22419987.260        1877.928          52.300


 133681296.190 6 104167252.23445  25438705.180                    25438707.440
      2390.219        1862.503          36.900          34.500



 132540763.669 6 103278501.38346  25221683.480                    25221687.340
     -3174.964       -2474.013          39.600          38.000



 126863374.015 7  98854571.52546  24141299.200                    24141297.480
     -3462.378       -2697.965          42.600          40.150



 126844744.923 6  98840074.57146  24137749.620                    24137748.660
      3301.413        2572.532          40.800          39.000



 130635319.246 6 101793790.91446  24859072.820                    24859077.580
       468.103         364.757          40.200          39.750    97552380.221 7
  24859079.280         349.687          42.700


 132663952.255 6 103374562.15946  25245099.060                    25245104.960
      3652.079        2845.785          41.000          40.850    99067297.216 7
  25245107.520        2727.117          44.000


 133224194.332 6 103811052.15346  25351728.420                    25351731.280
     -3420.085       -2665.009          38.050          38.100



 23  8  9 14 44  0.0000000  0 13G03G04G06G07G09G11G16G17G19G20G26G30
                                G31
 123780200.924 7  96452122.72547  23554589.020                    23554592.440
     -3122.345       -2432.999          43.250          43.100    92433291.701 7
  23554594.940       -2331.676          47.100


 111270151.386 8  86704051.53047  21173988.980                    21173988.060
     -2053.864       -1600.415          49.300          45.600    83091395.045 8
  21173993.900       -1533.813          53.300


 107770458.857 8  83977011.36048  20508029.240                    20508030.440
      -352.146        -274.400          51.550          51.500    80477980.522 9
  20508031.580        -263.014          55.100


 121269528.627 7  94495786.89447  23076801.700                    23076802.240
      2999.227        2337.062          47.000          47.100



 106051640.027 8  82637693.09248  20180939.160                    20180938.640
      -185.872        -144.836          52.100          52.100    79194472.097 9
  20180940.460        -138.941          57.050


 117742589.567 7  91747484.00747  22405664.300                    22405664.960
      2501.365        1949.117          47.900          45.350    87924705.331 8
  22405669.480        1867.858          52.250


 133609746.347 6 104111499.11845  25425089.720                    25425093.040
      2380.110        1854.631          37.750          32.750



 132635980.000 6 103352695.65145  25239802.580                    25239806.520
     -3172.048       -2471.735          36.250          31.850



 126967304.951 7  98935556.52046  24161076.460                    24161074.960
     -3466.201       -2700.942          42.050          39.650



 126745715.787 6  98762909.06846  24118904.740                    24118903.960
      3300.316        2571.674          41.050          36.650



 130621538.341 6 101783052.56546  24856450.620                    24856455.120
       450.625         351.139          39.550          39.000    97542089.320 7
  24856456.960         336.467          42.250


 132554377.264 6 103289179.31946  25224247.400                    25224253.060
      3652.911        2846.433          40.200          40.100    98985472.046 7
  25224255.760        2727.794          44.900


 133326917.632 6 103891096.26046  25371276.220                    25371278.860
     -3428.192       -2671.316          39.400          39.050



 23  8  9 14 44 30.0000000  0 13G03G04G06G07G09G11G16G17G19G20G26G30
                                G31
 123873953.408 7  96525176.49047  23572429.320                    23572433.100
     -3127.367       -2436.913          44.050          44.300    92503301.551 7
  23572435.560       -2335.304          46.950


 111331940.815 8  86752199.11547  21185747.160                    21185746.080
     -2064.928       -1609.035          49.200          45.100    83137536.468 8
  21185751.580       -1542.058          53.000


 107781328.719 8  83985481.36448  20510097.640                    20510098.880
      -372.096        -289.945          51.550          51.400    80486097.607 9
  20510099.880        -277.805          54.900


 121179670.629 7  94425767.79947  23059702.280                    23059702.980
      2991.944        2331.390          47.150          47.500



 106057456.539 8  82642225.42348  20182046.000                    20182045.680
      -201.352        -156.897          51.850          51.850    79198815.577 9
  20182047.380        -150.407          57.150


 117667756.199 7  91689172.31647  22391423.900                    22391424.480
      2487.913        1938.634          47.950          45.650    87868823.309 8
  22391429.220        1857.863          52.100


 133538523.472 6 104056000.71645  25411536.620                    25411539.060
      2369.066        1846.019          36.350          33.300



 132731125.597 6 103426834.74346  25257908.360                    25257912.760
     -3169.511       -2469.753          38.100          36.850



 127071354.748 7  99016634.11646  24180876.560                    24180874.920
     -3469.802       -2703.746          43.150          38.700



 126646732.866 6  98685779.59646  24100068.580                    24100068.140
      3298.848        2570.533          40.300          38.050



 130608290.292 6 101772729.42846  24853929.720                    24853934.320
       432.896         337.323          40.000          40.400    97532196.334 6
  24853935.680         323.331          41.100


 132444780.861 6 103203779.77946  25203391.760                    25203397.220
      3653.938        2847.231          40.650          39.600    98903630.953 7
  25203400.140        2728.446          44.300


 133429891.208 6 103971335.37945  25390871.520                    25390873.600
     -3436.388       -2677.707          36.550          35.950



 23  8  9 14 45  0.0000000  0 13G03G04G06G07G09G11G16G17G19G20G26G30
                                G31
 123967850.266 7  96598342.76747  23590297.380                    23590301.060
     -3132.469       -2440.888          43.650          43.450    92573419.217 7
  23590303.480       -2339.189          47.400


 111394062.332 8  86800605.46147  21197568.440                    21197567.240
     -2076.527       -1618.074          48.200          46.850    83183925.867 8
  21197572.580       -1550.594          52.800


 107792793.191 8  83994414.69948  20512279.140                    20512280.500
      -392.302        -305.689          51.350          51.550    80494658.721 9
  20512281.340        -292.936          54.850


 121090038.587 7  94355924.73347  23042645.800                    23042646.300
      2983.662        2324.936          46.350          46.350



 106063733.435 8  82647116.50548  20183240.420                    20183240.260
      -217.252        -169.287          51.600          51.600    79203502.851 9
  20183242.040        -162.161          57.150


 117593327.421 7  91631175.89647  22377260.580                    22377261.040
      2474.021        1927.810          47.950          45.650    87813243.417 8
  22377265.960        1847.422          51.900


 133467625.712 6 104000755.74844  25398045.360                    25398048.020
      2357.828        1837.272          39.150          29.000



 132826270.531 6 103501009.72046  25275999.020                    25276003.740
     -3167.449       -2468.143          40.550          37.300



 127175514.593 7  99097797.47646  24200697.760                    24200696.080
     -3474.147       -2707.136          42.100          40.000



 126547792.004 6  98608682.89446  24081240.460                    24081240.520
      3297.117        2569.185          41.500          37.100



 130595570.610 6 101762817.95146  24851509.340                    24851513.560
       415.134         323.479          38.700          38.950    97522697.860 6
  24851515.140         309.884          41.150


 132335160.091 6 103118361.26146  25182531.460                    25182537.020
      3654.224        2847.456          39.850          39.700    98821771.593 7
  25182539.580        2728.729          43.400


 133533106.741 6 104051762.99446  25410512.940                    25410514.880
     -3444.448       -2683.981          39.400          39.800



 23  8  9 14 45 30.0000000  0 13G03G04G06G07G09G11G16G17G19G20G26G30
                                G31
 124061894.801 7  96671624.11647  23608193.560                    23608197.100
     -3137.467       -2444.782          43.850          43.400    92643647.148 7
  23608199.560       -2342.851          47.650


 111456518.189 8  86849272.33847  21209453.200                    21209452.180
     -2087.497       -1626.621          48.400          46.250    83230564.954 8
  21209457.360       -1558.900          52.850


 107804856.367 8  84003814.55948  20514574.680                    20514576.100
      -412.092        -321.111          51.900          51.800    80503666.915 9
  20514576.840        -307.816          54.850


 121000638.836 7  94286262.69647  23025633.620                    23025634.220
      2975.969        2318.939          47.650          47.500



 106070474.161 8  82652369.01648  20184523.120                    20184523.020
      -232.481        -181.154          52.100          52.150    79208536.514 9
  20184524.920        -173.638          57.250


 117519309.836 8  91573499.88347  22363175.460                    22363175.780
      2460.180        1917.023          48.350          45.300    87757970.573 8
  22363180.960        1837.191          51.750


 133397060.279 6 103945769.71845  25384617.340                    25384620.240
      2346.123        1828.155          36.100          30.650



 132921258.506 6 103575026.09946  25294074.680                    25294079.440
     -3165.450       -2466.595          38.850          38.300



 127279785.328 6  99179047.26246  24220539.960                    24220538.160
     -3477.682       -2709.886          40.900          38.850



 126448898.099 6  98531622.77945  24062421.440                    24062421.580
      3295.423        2567.866          41.500          35.000



 130583384.329 6 101753322.13646  24849190.260                    24849194.320
       397.088         309.421          39.550          39.850    97513597.722 6
  24849196.380         296.472          41.050


 132225521.235 6 103032928.74146  25161667.540                    25161673.500
      3654.769        2847.881          39.800          40.700    98739898.784 7
  25161675.860        2729.163          44.650


 133636565.365 6 104132380.03846  25430200.500                    25430202.500
     -3452.678       -2690.397          40.400          40.650



 23  8  9 14 46  0.0000000  0 13G03G04G06G07G09G11G16G17G19G20G26G30
                                G31
 124156086.474 7  96745020.12347  23626117.620                    23626121.280
     -3142.192       -2448.465          43.100          42.350    92713984.925 7
  23626123.720       -2346.471          47.500


 111519306.819 8  86898198.50047  21221401.400                    21221400.820
     -2098.548       -1635.233          48.350          46.550    83277452.522 8
  21221405.640       -1567.155          52.900


 107817518.527 8  84013681.16348  20516984.360                    20516985.680
      -432.119        -336.717          52.050          52.000    80513122.405 9
  20516986.500        -322.685          55.000


 120911474.016 7  94216783.70847  23008666.080                    23008666.520
      2968.287        2312.954          46.850          47.000



 106077677.903 8  82657982.31348  20185893.980                    20185893.820
      -247.932        -193.193          51.750          51.750    79213915.926 9
  20185895.840        -185.180          57.250


 117445706.104 7  91516146.35847  22349169.040                    22349169.220
      2446.473        1906.344          47.600          45.950    87703006.781 8
  22349174.680        1826.884          51.650


 133326830.267 6 103891045.01146  25371253.100                    25371254.920
      2335.230        1819.654          40.500          37.600



 133016166.882 6 103648980.34646  25312135.300                    25312140.440
     -3162.301       -2464.137          38.450          37.950



 127384163.898 7  99260381.01046  24240402.500                    24240400.900
     -3481.323       -2712.722          42.050          38.350



 126350053.141 7  98454600.79246  24043611.980                    24043612.460
      3293.982        2566.741          42.600          36.800



 130571732.584 6 101744242.87446  24846972.780                    24846977.040
       379.463         295.688          38.850          38.850    97504896.747 6
  24846979.020         283.213          41.200


 132115866.812 6 102947484.02046  25140800.840                    25140806.900
      3655.496        2848.448          39.950          39.400    98658014.331 7
  25140809.080        2729.625          45.300


 133740264.488 6 104213184.52946  25449933.880                    25449935.940
     -3460.514       -2696.502          38.600          39.000



 23  8  9 14 46 30.0000000  0 13G03G04G06G07G09G11G16G17G19G20G26G30
                                G31
 124250421.826 7  96818528.08747  23644069.100                    23644072.800
     -3146.773       -2452.034          43.500          43.250    92784430.029 7
  23644075.220       -2349.758          46.950


 111582423.828 8  86947380.55547  21233412.180                    21233411.840
     -2109.154       -1643.497          48.800          46.850    83324585.318 8
  21233416.540       -1575.031          52.850


 107830777.150 8  84024012.54148  20519507.560                    20519508.780
      -451.811        -352.061          52.050          52.050    80523023.299 9
  20519509.760        -337.330          54.950


 120822543.918 8  94147487.61448  22991743.340                    22991743.600
      2960.623        2306.981          48.000          48.250



 106085341.418 8  82663953.87048  20187352.260                    20187352.060
      -262.953        -204.898          51.850          51.700    79219638.661 9
  20187354.160        -196.351          57.000


 117372516.180 7  91459115.28147  22335241.360                    22335241.440
      2432.900        1895.768          47.150          46.000    87648351.998 8
  22335247.120        1816.774          51.400


 133256935.751 5 103836581.82245  25357952.580                    25357954.400
      2324.253        1811.119          35.500          33.550



 133111008.138 6 103722861.18946  25330179.900                    25330186.340
     -3159.439       -2461.909          38.900          36.750



 127488644.348 6  99341794.18546  24260284.600                    24260282.800
     -3484.216       -2714.978          41.850          39.800



 126251256.291 7  98377616.28246  24024811.880                    24024812.220
      3292.566        2565.639          43.550          37.650



 130560613.793 6 101735578.86746  24844856.680                    24844861.780
       362.021         282.097          36.850          37.300    97496593.740 6
  24844863.060         270.289          41.250


 132006196.652 6 102862027.01746  25119931.260                    25119937.100
      3656.015        2848.851          40.550          39.900    98576118.079 7
  25119939.540        2730.230          44.500


 133844199.549 6 104294172.85146  25469711.980                    25469714.080
     -3468.152       -2702.455          40.150          40.000



 23  8  9 14 47  0.0000000  0 13G03G04G06G07G09G11G16G17G19G20G26G30
                                G31
 124344902.135 7  96892148.99047  23662048.180                    23662052.120
     -3151.741       -2455.905          43.250          43.250    92854983.397 7
  23662054.340       -2353.713          46.750


 111645869.527 8  86996818.71847  21245485.540                    21245485.400
     -2120.437       -1652.290          48.600          46.450    83371963.559 8
  21245489.880       -1583.535          53.000


 107844634.229 8  84034810.25348  20522144.560                    20522145.660
      -472.043        -367.826          52.150          52.250    80533371.116 9
  20522146.900        -352.596          55.100


 120733853.037 7  94078377.94147  22974866.040                    22974866.320
      2952.162        2300.390          47.750          47.700



 106093465.979 8  82670284.68448  20188898.260                    20188898.100
      -278.671        -217.146          52.000          51.900    79225705.690 9
  20188900.080        -208.164          57.050


 117299744.612 7  91402410.19247  22321393.260                    22321393.260
      2418.493        1884.541          47.100          45.550    87594009.625 8
  22321399.160        1806.019          51.750


 133187382.380 6 103782384.35345  25344716.860                    25344718.920
      2312.739        1802.135          36.300          32.900



 133205746.251 6 103796682.82746  25348207.760                    25348213.700
     -3156.553       -2459.660          39.950          38.250



 127593225.318 6  99423285.70146  24280185.920                    24280184.380
     -3487.995       -2717.924          41.750          39.650



 126152509.913 7  98300671.10246  24006021.460                    24006021.320
      3290.606        2564.110          44.250          38.600



 130550030.840 6 101727332.45346  24842842.360                    24842848.480
       343.842         267.933          37.250          36.300    97488690.921 6
  24842849.080         256.455          41.400


 131896515.125 6 102776561.14646  25099059.320                    25099065.280
      3656.044        2848.873          40.950          40.700    98494213.371 7
  25099067.560        2730.014          45.800


 133948369.024 6 104375343.82246  25489534.660                    25489536.780
     -3476.575       -2709.023          39.700          39.850



 23  8  9 14 47 30.0000000  0 13G03G04G06G07G09G11G16G17G19G20G26G30
                                G31
 124439524.117 7  96965880.27147  23680054.280                    23680058.540
     -3156.054       -2459.268          42.600          42.400    92925642.526 7
  23680060.640       -2356.849          46.900


 111709639.527 8  87046509.59747  21257620.620                    21257620.600
     -2130.860       -1660.411          48.350          46.800    83419583.968 8
  21257624.900       -1591.197          52.900


 107859087.245 8  84046072.33348  20524894.900                    20524895.920
      -491.431        -382.934          51.750          51.850    80544163.937 9
  20524897.280        -366.995          54.950


 120645401.110 7  94009454.42347  22958034.220                    22958034.160
      2944.703        2294.575          47.800          47.800



 106102048.198 8  82676972.12748  20190531.340                    20190531.220
      -293.405        -228.628          51.750          51.600    79232114.484 9
  20190533.140        -219.122          56.900


 117227391.329 7  91346031.04547  22307624.780                    22307624.780
      2405.162        1874.153          46.600          45.900    87539979.611 8
  22307630.780        1795.972          51.900


 133118170.604 6 103728453.21845  25331546.080                    25331548.020
      2301.912        1793.697          37.500          32.350



 133300377.653 6 103870453.53646  25366218.900                    25366226.140
     -3152.986       -2456.876          41.400          36.350



 127697901.066 7  99504851.03946  24300105.120                    24300103.820
     -3490.437       -2719.824          42.450          39.350



 126053813.489 7  98223764.86145  23987240.460                    23987240.180
      3289.396        2563.166          44.700          35.750



 130539982.222 6 101719502.35146  24840929.780                    24840936.500
       326.013         254.035          36.950          37.800    97481187.047 7
  24840936.940         243.646          42.200


 131786822.111 6 102691086.30846  25078185.340                    25078191.240
      3656.768        2849.437          41.500          41.800    98412300.073 7
  25078193.660        2730.769          45.100


 134052767.637 6 104456693.38246  25509401.060                    25509402.980
     -3483.385       -2714.324          38.750          38.550



 23  8  9 14 48  0.0000000  0 13G03G04G06G07G09G11G16G17G19G20G26G30
                                G31
 124534292.066 6  97039725.30546  23698088.080                    23698092.700
     -3161.022       -2463.138          40.950          41.050    92996410.662 7
  23698094.720       -2360.608          47.150


 111773737.154 8  87096455.76747  21269818.100                    21269818.180
     -2141.812       -1668.946          48.450          46.650    83467449.038 8
  21269822.260       -1599.435          52.750


 107874141.269 8  84057802.73348  20527759.560                    20527760.520
      -511.672        -398.706          51.250          51.250    80555405.570 9
  20527761.840        -382.089          54.750


 120557195.668 7  93940723.01247  22941249.100                    22941249.320
      2936.291        2288.021          47.800          47.750



 106111092.419 8  82684019.56048  20192252.320                    20192252.200
      -308.839        -240.653          51.750          51.750    79238868.275 9
  20192254.160        -230.681          56.700


 117155463.953 7  91289983.77647  22293937.400                    22293937.440
      2390.660        1862.853          46.600          46.050    87486267.651 8
  22293943.460        1785.180          52.000


 133049308.283 6 103674794.32645  25318441.800                    25318444.440
      2289.913        1784.353          36.850          31.600



 133394938.154 6 103944140.66946  25384213.480                    25384218.860
     -3150.506       -2454.958          39.850          38.050



 127802673.559 6  99586491.72846  24320042.800                    24320041.800
     -3493.957       -2722.573          41.450          39.850



 125955173.228 7  98146902.35146  23968469.980                    23968469.480
      3287.209        2561.463          43.800          38.250



 130530473.766 6 101712093.16046  24839120.360                    24839127.160
       308.122         240.096          37.800          37.650    97474086.598 7
  24839128.100         230.077          42.800


 131677125.038 6 102605608.35546  25057310.680                    25057316.620
      3656.810        2849.473          40.950          41.000    98330383.762 7
  25057318.860        2730.663          44.350


 134157398.053 6 104538223.52146  25529311.740                    25529313.580
     -3491.068       -2720.310          41.400          41.100



 23  8  9 14 48 30.0000000  0 13G03G04G06G07G09G11G16G17G19G20G26G30
                                G31
 124629198.857 6  97113678.51346  23716148.000                    23716153.000
     -3165.535       -2466.655          40.500          39.950    93067282.462 7
  23716155.360       -2364.060          47.750


 111838154.333 8  87146650.93547  21282076.320                    21282076.400
     -2152.472       -1677.252          48.900          46.350    83515552.729 8
  21282080.560       -1607.368          53.050


 107889789.882 8  84069996.44148  20530737.360                    20530738.340
      -531.484        -414.145          51.350          51.300    80567091.195 9
  20530739.400        -396.850          54.900


 120469232.759 7  93872180.55147  22924510.160                    22924510.260
      2928.073        2281.619          46.750          47.000



 106120591.458 8  82691421.41048  20194059.900                    20194059.660
      -324.187        -252.612          51.850          51.850    79245961.708 9
  20194061.720        -242.053          56.850


 117083958.638 7  91234265.37647  22280330.440                    22280330.480
      2376.451        1851.781          46.500          46.050    87432870.850 8
  22280336.460        1774.666          52.350


 132980792.379 6 103621405.42645  25305403.260                    25305405.840
      2278.794        1775.685          36.600          35.900



 133489400.304 6 104017747.71346  25402190.060                    25402196.260
     -3147.082       -2452.294          38.750          38.100



 127907533.207 6  99668200.37446  24339996.920                    24339996.340
     -3496.689       -2724.698          40.600          40.300



 125856584.222 7  98070079.81446  23949708.900                    23949708.440
      3285.571        2560.187          43.000          37.950



 130521500.086 6 101705100.66446  24837412.920                    24837419.440
       290.085         226.039          38.450          38.950    97467385.460 6
  24837420.760         216.864          41.900


 131567419.966 6 102520124.13046  25036434.480                    25036440.080
      3657.401        2849.932          41.850          41.850    98248461.458 7
  25036442.320        2730.810          44.150


 134262250.895 6 104619927.04946  25549264.640                    25549266.500
     -3498.781       -2726.324          40.500          40.200



 23  8  9 14 49  0.0000000  0 13G03G04G06G07G09G11G16G17G19G20G26G30
                                G31
 124724248.949 7  97187743.39847  23734235.460                    23734240.420
     -3170.584       -2470.589          42.300          42.600    93138261.267 8
  23734243.080       -2367.676          48.000


 111902894.504 8  87197097.78947  21294395.980                    21294396.040
     -2163.301       -1685.689          48.750          46.500    83563897.617 8
  21294400.420       -1615.512          53.150


 107906038.262 8  84082657.50348  20533829.340                    20533830.300
      -551.530        -429.765          51.350          51.300    80579224.716 9
  20533831.200        -411.952          55.150


 120381519.961 7  93803833.01247  22907818.800                    22907819.020
      2919.715        2275.105          47.500          47.900



 106130549.768 8  82699181.12948  20195954.880                    20195954.560
      -339.529        -264.567          51.850          51.900    79253398.099 9
  20195956.660        -253.565          57.000


 117012883.090 7  91178881.86547  22266805.200                    22266805.320
      2361.936        1840.471          46.800          45.950    87379794.988 8
  22266811.240        1763.828          52.650


 132912631.821 6 103568293.41145  25292432.740                    25292435.400
      2266.461        1766.069          36.100          33.400



 133583765.325 5 104091279.48244  25420147.840                    25420152.660
     -3143.557       -2449.522          33.950          29.750



 128012482.182 6  99749978.61246  24359968.180                    24359967.980
     -3499.842       -2727.152          41.100          39.100



 125758052.667 6  97993302.04146  23930958.540                    23930958.480
      3283.334        2558.446          41.650          37.000



 130513067.252 6 101698529.61646  24835808.400                    24835814.380
       272.249         212.143          37.900          37.500    97461088.218 7
  24835816.080         203.194          42.150


 131457714.511 6 102434639.65446  25015558.200                    25015563.880
      3656.875        2849.522          40.950          41.150    98166538.834 7
  25015565.860        2730.744          45.050


 134367328.934 5 104701806.05445  25569260.280                    25569262.080
     -3506.529       -2732.364          35.500          35.850



 23  8  9 14 49 30.0000000  0 13G03G04G06G07G09G11G16G17G19G20G26G30
                                G31
 124819436.588 7  97261915.47447  23752349.380                    23752353.960
     -3175.046       -2474.065          43.050          42.700    93209342.791 7
  23752356.840       -2371.046          47.700


 111967950.882 8  87247791.03747  21306775.800                    21306776.000
     -2173.756       -1693.836          48.900          46.900    83612478.627 8
  21306780.360       -1623.224          52.850


 107922881.305 8  84095781.93748  20537034.440                    20537035.440
      -571.292        -445.163          51.600          51.400    80591802.292 9
  20537036.320        -426.580          55.200


 120294054.731 7  93735678.35747  22891174.580                    22891174.760
      2911.354        2268.590          47.300          47.250



 106140961.512 8  82707294.16248  20197936.200                    20197935.960
      -354.552        -276.274          51.850          51.750    79261173.083 9
  20197937.900        -264.737          56.900


 116942234.775 7  91123831.25247  22253361.380                    22253361.400
      2347.806        1829.460          47.400          45.250    87327038.166 8
  22253367.280        1753.269          52.450


 132844824.193 6 103515456.39746  25279529.400                    25279532.020
      2254.182        1756.508          39.000          37.050



 133678034.963 6 104164735.90846  25438087.340                    25438093.620
     -3140.562       -2447.200          40.700          39.350



 128117511.915 6  99831819.81146  24379954.980                    24379954.280
     -3502.162       -2728.959          41.200          40.250



 125659575.276 6  97916566.50746  23912218.460                    23912218.800
      3281.704        2557.175          41.700          38.300



 130505171.077 6 101692376.76746  24834305.760                    24834312.020
       254.144         198.037          38.050          37.350    97455191.718 7
  24834313.000         190.001          42.700


 131348005.992 6 102349152.76946  24994681.180                    24994686.400
      3656.978        2849.604          40.000          40.550    98084613.961 7
  24994689.060        2730.944          46.150


 134472624.753 6 104783854.75046  25589297.560                    25589299.240
     -3513.601       -2737.871          37.350          36.400



 23  8  9 14 50  0.0000000  0 13G03G04G06G07G09G11G16G17G19G20G26G30
                                G31
 124914761.132 7  97336194.23747  23770489.320                    23770493.700
     -3179.761       -2477.739          43.150          42.900    93280526.568 7
  23770496.520       -2374.498          47.550


 112033321.904 8  87298729.45547  21319215.600                    21319215.840
     -2184.164       -1701.947          48.800          46.850    83661294.603 8
  21319220.000       -1631.037          52.750


 107940319.071 8  84109369.79248  20540352.720                    20540353.780
      -591.098        -460.597          51.450          51.600    80604823.982 9
  20540354.800        -441.366          55.550


 120206839.784 7  93667718.76147  22874578.060                    22874578.240
      2903.022        2262.099          47.350          47.200



 106151826.030 8  82715759.99948  20200003.700                    20200003.660
      -369.610        -288.009          52.050          52.250    79269286.175 9
  20200005.360        -276.016          57.050


 116872016.352 7  91069115.62047  22239999.360                    22239999.160
      2333.472        1818.290          47.750          45.150    87274602.372 8
  22240005.020        1742.511          52.500


 132777372.516 5 103462896.74545  25266693.880                    25266696.500
      2242.211        1747.182          35.900          32.750



 133772201.680 5 104238112.21145  25456007.300                    25456013.940
     -3137.328       -2444.686          32.850          30.600



 128222619.479 6  99913721.62146  24399956.220                    24399955.780
     -3505.272       -2731.390          38.150          38.700



 125561153.945 7  97839874.60246  23893489.420                    23893489.760
      3280.077        2555.906          42.350          37.500



 130497812.598 6 101686642.86146  24832905.540                    24832911.740
       236.329         184.153          37.150          36.950    97449696.773 7
  24832912.840         176.481          42.950


 131238297.003 6 102263665.46646  24973803.980                    24973808.800
      3656.936        2849.568          39.800          40.000    98002688.721 7
  24973811.920        2730.838          45.400


 134578135.255 6 104866070.71646  25609375.540                    25609377.120
     -3520.398       -2743.166          41.100          41.000



 23  8  9 14 50 30.0000000  0 12G03G04G06G07G09G11G16G19G20G26G30G31
 125010228.265 7  97410584.08647  23788656.420                    23788660.600
     -3184.021       -2481.060          43.050          43.050    93351816.827 7
  23788663.340       -2377.631          46.800


 112099012.244 8  87349916.69047  21331716.140                    21331716.340
     -2194.376       -1709.904          48.450          46.700    83710349.032 8
  21331720.260       -1638.621          51.950


 107958357.921 8  84123426.02148  20543785.380                    20543786.580
      -610.687        -475.860          51.600          51.550    80618294.534 9
  20543787.720        -455.989          54.950


 120119883.782 7  93599960.91547  22858030.800                    22858030.820
      2894.873        2255.748          47.700          47.600



 106163148.939 8  82724583.02548  20202158.520                    20202158.540
      -384.441        -299.565          51.800          51.650    79277741.569 9
  20202160.080        -287.052          56.400


 116802236.786 7  91014741.94247  22226720.840                    22226720.360
      2319.460        1807.372          47.700          44.700    87222494.282 8
  22226726.200        1731.953          51.700


 132710286.738 6 103410622.22745  25253927.860                    25253930.420
      2231.195        1738.600          38.150          34.200



 128327808.221 6  99995686.66746  24419972.920                    24419973.100
     -3506.992       -2732.730          40.250          39.050



 125462796.208 7  97763232.24446  23874772.580                    23874772.900
      3278.009        2554.294          42.550          39.050



 130490998.922 6 101681333.53646  24831608.940                    24831615.000
       218.669         170.390          38.700          39.350    97444608.660 7
  24831616.500         163.428          42.900


 131128596.443 6 102178184.76246  24952928.380                    24952933.340
      3656.837        2849.489          41.300          41.150    97920769.756 7
  24952936.580        2731.036          45.500


 134683864.543 6 104948457.14546  25629494.860                    25629496.960
     -3527.430       -2748.656          40.900          40.950



 23  8  9 14 51  0.0000000  0 12G03G04G06G07G09G11G16G19G20G26G30G31
 125105833.814 7  97485081.78947  23806849.800                    23806853.600
     -3188.871       -2484.839          43.000          43.050    93423210.427 7
  23806856.340       -2381.294          46.800


 112165016.696 7  87401348.68547  21344276.260                    21344276.620
     -2204.957       -1718.150          47.950          46.600    83759638.032 8
  21344280.320       -1646.669          52.100


 107976994.181 8  84137947.76448  20547331.740                    20547333.060
      -630.823        -491.552          51.750          51.900    80632211.205 9
  20547334.260        -471.103          55.100


 120033185.624 7  93532404.01748  22841532.700                    22841532.780
      2885.891        2248.750          47.950          48.000



 106174925.936 8  82733759.89148  20204399.680                    20204399.680
      -399.872        -311.589          52.450          52.300    79286536.064 9
  20204401.240        -298.600          56.650


 116732895.048 7  90960709.44047  22213525.620                    22213524.900
      2304.438        1795.666          47.950          45.100    87170713.145 8
  22213530.640        1720.747          51.750


 132643566.291 6 103358632.25645  25241231.300                    25241234.100
      2218.662        1728.818          37.100          33.550



 128433071.200 6 100077709.57646  24440003.820                    24440004.460
     -3509.471       -2734.659          40.600          39.600



 125364500.055 7  97686637.91146  23856067.540                    23856067.800
      3275.880        2552.635          43.100          39.900



 130484727.397 6 101676446.70346  24830415.420                    24830421.640
       200.439         156.189          39.000          39.000    97439925.435 7
  24830423.260         149.521          43.100


 131018903.200 6 102092709.74746  24932054.260                    24932059.660
      3656.836        2849.492          41.450          41.850    97838856.297 7
  24932062.600        2730.564          44.250


 134789806.179 6 105031009.08246  25649654.740                    25649656.620
     -3534.379       -2754.063          39.550          39.200



 23  8  9 14 51 30.0000000  0 12G03G04G06G07G09G11G16G19G20G26G30G31
 125201573.075 7  97559683.69447  23825068.620                    23825071.960
     -3193.978       -2488.818          43.200          43.400    93494703.884 7
  23825074.800       -2385.164          46.800


 112231329.647 7  87453021.05947  21356895.120                    21356895.680
     -2215.896       -1726.675          47.900          47.100    83809157.390 8
  21356899.260       -1654.894          52.750


 107996223.835 8  84152931.88148  20550991.000                    20550992.420
      -651.356        -507.551          51.550          51.400    80646570.980 9
  20550993.620        -486.440          55.450


 119946743.588 7  93465046.64148  22825083.320                    22825083.040
      2876.522        2241.448          47.750          48.000



 106187152.299 8  82743286.90948  20206726.400                    20206726.280
      -415.457        -323.733          52.250          52.300    79295666.124 9
  20206727.980        -310.317          57.100


 116663989.738 7  90907017.00747  22200413.420                    22200412.540
      2288.994        1783.633          47.950          45.550    87119257.899 8
  22200418.180        1709.318          52.100


 132577210.839 6 103306926.81045  25228604.160                    25228606.960
      2204.993        1718.174          36.600          35.500



 128538401.458 6 100159784.96146  24460047.400                    24460048.260
     -3512.626       -2737.112          41.000          37.900



 125266262.869 7  97610089.51246  23837373.740                    23837374.120
      3273.198        2550.547          42.700          39.950



 130478994.942 6 101671979.86746  24829324.620                    24829330.720
       181.524         141.450          39.750          40.300    97435644.727 7
  24829332.760         135.556          43.750


 130909215.843 6 102007239.32146  24911181.180                    24911186.680
      3655.794        2848.679          40.400          41.500    97756947.170 7
  24911189.420        2729.707          44.550


 134895953.775 6 105113721.58046  25669853.720                    25669855.540
     -3542.176       -2760.131          38.500          38.750



 23  8  9 14 52  0.0000000  0 12G03G04G06G07G09G11G16G19G20G26G30G31
 125297450.485 7  97634393.25147  23843313.560                    23843316.640
     -3197.601       -2491.641          43.350          43.550    93566300.512 7
  23843319.560       -2387.861          46.350


 112297954.487 8  87504936.48447  21369573.500                    21369573.920
     -2225.416       -1734.091          48.600          46.400    83858909.658 8
  21369577.840       -1661.922          52.850


 108016051.851 8  84168382.25948  20554764.080                    20554765.600
      -670.295        -522.309          51.400          51.200    80661377.592 9
  20554766.740        -500.622          55.250


 119860565.412 8  93397894.92148  22808684.120                    22808683.980
      2868.904        2235.513          48.550          48.450



 106199832.371 8  82753167.46448  20209139.420                    20209139.220
      -429.651        -334.794          52.550          52.600    79305134.982 9
  20209141.040        -320.838          56.900


 116595528.497 8  90853670.60447  22187385.760                    22187384.780
      2275.197        1772.882          48.450          45.250    87068134.267 8
  22187390.340        1698.957          51.900


 132511228.054 5 103255511.72045  25216047.960                    25216051.020
      2193.720        1709.388          35.750          33.400



 128643800.921 6 100241914.25046  24480104.300                    24480105.160
     -3513.639       -2737.904          39.050          38.000



 125168091.465 7  97533592.40446  23818692.240                    23818692.780
      3272.053        2549.655          42.600          39.700



 130473807.370 6 101667937.60746  24828337.480                    24828343.120
       164.262         127.995          39.300          38.700    97431770.929 7
  24828345.700         122.692          43.850


 130799541.979 6 101921779.42746  24890310.640                    24890316.440
      3656.411        2849.161          39.800          39.850    97675048.146 7
  24890319.040        2730.223          45.700


                                  25690093.420                    25690095.240
     -3548.090       -2764.743          37.750          37.400



 23  8  9 14 52 30.0000000  0 12G03G04G06G07G09G11G16G19G20G26G30G31
 125393462.156 7  97709207.42047  23861584.040                    23861587.000
     -3202.777       -2495.674          42.850          43.150    93637997.386 7
  23861589.820       -2391.737          46.000


 112364886.352 8  87557091.15047  21382310.260                    21382310.520
     -2236.173       -1742.474          48.400          46.650    83908891.193 8
  21382314.840       -1669.904          52.950


 108036474.882 8  84184296.29248  20558650.360                    20558652.000
      -690.728        -538.229          51.200          51.200    80676628.531 9
  20558653.120        -515.814          55.250


 119774650.745 7  93330948.49747  22792335.000                    22792334.680
      2859.298        2228.026          47.350          47.300



 106212962.098 8  82763398.40648  20211637.980                    20211637.720
      -445.153        -346.874          52.450          52.300    79314939.632 9
  20211639.600        -332.470          56.950


 116527510.647 8  90800669.69447  22174442.500                    22174441.400
      2259.778        1760.867          48.450          46.250    87017341.732 8
  22174447.000        1687.530          51.800


 132445617.946 5 103204387.02644  25203562.800                    25203566.200
      2180.478        1699.074          35.300          27.900



 128749263.592 6 100324092.78046  24500173.380                    24500173.500
     -3516.516       -2740.150          38.650          37.850



 125069984.141 7  97457145.20646  23800022.920                    23800023.620
      3269.268        2547.484          42.450          39.700



 130469162.258 6 101664318.06446  24827453.580                    24827459.100
       145.610         113.464          38.050          38.550    97428302.217 7
  24827461.480         108.759          43.200


 130689880.879 6 101836329.47146  24869442.580                    24869448.320
      3655.141        2848.167          41.100          40.900    97593158.624 7
  24869450.760        2729.387          45.250


                                  25710368.560
     -3555.079                          32.850



 23  8  9 14 53  0.0000000  0 12G03G04G06G07G09G11G16G19G20G26G30G31
 125489606.556 6  97784125.00146  23879879.700                    23879882.780
     -3207.094       -2499.037          41.350          41.250    93709793.387 7
  23879885.360       -2394.824          46.050


 112432122.778 8  87609483.14147  21395104.940                    21395105.140
     -2246.272       -1750.344          48.000          46.500    83959100.168 8
  21395109.620       -1677.423          52.950


 108057491.921 8  84200673.19148  20562649.780                    20562651.480
      -710.368        -553.534          51.200          51.050    80692323.051 9
  20562652.520        -530.542          55.400


 119689000.825 8  93264208.38148  22776036.260                    22776036.000
      2850.533        2221.197          48.050          48.200



 106226539.933 8  82773978.52948  20214221.740                    20214221.440
      -460.107        -358.525          51.950          52.050    79325078.907 9
  20214223.460        -343.584          57.100


 116459937.916 8  90748015.63347  22161583.860                    22161582.760
      2244.900        1749.273          48.600          45.700    86966881.598 8
  22161588.380        1676.351          51.800


 132380382.777 5 103153554.49645  25191149.040                    25191152.040
      2168.366        1689.630          34.350          31.750



 128854785.682 6 100406317.56846  24520253.660                    24520253.740
     -3518.445       -2741.654          40.800          38.750



 124971941.638 7  97380748.54246  23781365.920                    23781366.520
      3267.070        2545.772          43.100          39.850



 130465059.547 6 101661121.18346  24826672.980                    24826678.320
       127.617          99.442          38.800          38.150    97425238.532 7
  24826680.120          95.374          42.300


 130580234.196 6 101750890.67546  24848577.420                    24848582.980
      3654.398        2847.591          41.400          41.800    97511279.880 7
  24848585.820        2729.037          46.750


                                  25730685.380                    25730687.840
     -3561.994       -2775.594          35.800          34.750



 23  8  9 14 53 30.0000000  0 12G03G04G06G07G09G11G16G19G20G26G30G31
 125585885.272 6  97859147.23446  23898200.800                    23898204.340
     -3211.950       -2502.822          40.600          40.750    93781689.666 7
  23898206.420       -2398.335          46.100


 112499664.286 7  87662112.85747  21407957.660                    21407957.940
     -2256.522       -1758.331          47.950          46.900    84009536.963 8
  21407962.280       -1685.109          52.500


 108079105.041 8  84217514.56748  20566762.680                    20566764.380
      -730.579        -569.282          52.050          51.900    80708462.697 9
  20566765.440        -545.558          55.300


 119603619.888 7  93197677.86747  22759788.660                    22759788.440
      2841.259        2213.971          47.650          47.800



 106240567.278 8  82784908.91548  20216891.000                    20216890.760
      -475.196        -370.283          52.200          52.350    79335553.857 9
  20216892.800        -354.857          56.850


 116392815.031 8  90695712.10447  22148810.780                    22148809.800
      2229.874        1737.564          48.950          46.200    86916757.386 8
  22148815.300        1665.095          51.400


 132315527.961 6 103103018.35245  25178807.280                    25178810.920
      2154.932        1679.169          36.200          33.950



 128960365.782 6 100488587.56946  24540345.180                    24540344.820
     -3520.715       -2743.421          41.700          39.050



 124873967.676 7  97304405.26946  23762722.000                    23762722.300
      3264.508        2543.776          44.200          38.750



 130461502.187 6 101658349.22446  24825996.340                    24826001.220
       109.632          85.429          39.950          40.200    97422582.097 6
  24826002.340          81.523          41.350


 130470606.665 7 101665466.79746  24827715.840                    24827721.320
      3653.862        2847.170          42.300          41.800    97429415.374 7
  24827724.140        2728.419          45.250


 135322620.815 5 105446210.50245  25751038.720                    25751041.900
     -3568.488       -2780.630          33.700          31.500



 23  8  9 14 54  0.0000000  0 11G03G04G06G07G09G11G16G19G20G26G30
 125682298.010 6  97934273.89746  23916547.420                    23916551.180
     -3215.591       -2505.659          41.150          40.900    93853686.031 7
  23916553.000       -2401.393          46.100


 112567509.694 7  87714979.37847  21420868.180                    21420868.540
     -2266.477       -1766.087          47.300          47.000    84060200.705 8
  21420872.660       -1692.408          51.900


 108101314.497 8  84234820.61448  20570989.100                    20570990.720
      -750.090        -584.486          52.150          52.250    80725047.651 9
  20570991.800        -560.088          55.100


 119518511.507 7  93131359.71347  22743593.000                    22743592.620
      2832.467        2207.120          47.700          47.500



 106255043.802 8  82796189.31148  20219645.720                    20219645.640
      -489.742        -381.617          52.050          51.950    79346364.232 9
  20219647.520        -365.769          56.450


 116326145.002 8  90643761.45147  22136123.860                    22136123.020
      2215.048        1726.012          48.400          46.400    86866971.350 8
  22136128.260        1654.001          50.900


 132251056.995 5 103052781.29745  25166538.860                    25166542.000
      2142.773        1669.701          35.650          34.150



 129066001.522 6 100570900.94146  24560447.440                    24560447.240
     -3521.775       -2744.245          40.900          39.600



 124776064.087 7  97228116.81646  23744091.600                    23744091.400
      3262.394        2542.128          44.200          37.250



 130458491.401 6 101656003.18046  24825423.640                    24825428.180
        91.423          71.239          40.300          40.550    97420333.763 6
  24825428.800          68.267          41.850


 130361001.305 7 101580060.19547  24806858.500                    24806864.100
      3653.323        2846.751          42.600          42.850    97347567.406 7
  24806866.440        2728.146          44.650


 23  8  9 14 54 30.0000000  0 11G03G04G06G07G09G11G16G19G20G26G30
 125778838.676 6  98009500.26246  23934918.440                    23934922.460
     -3219.755       -2508.902          41.650          41.350    93925777.940 7
  23934924.060       -2404.567          46.800


 112635651.936 7  87768077.18647  21433835.060                    21433835.620
     -2276.369       -1773.797          47.500          47.250    84111086.094 8
  21433839.620       -1699.792          52.250


 108124114.630 8  84252586.92948  20575327.900                    20575329.440
      -769.989        -599.993          51.950          52.150    80742073.689 9
  20575330.620        -574.850          55.650


 119433672.225 7  93065251.26648  22727448.560                    22727448.200
      2823.470        2200.107          47.950          48.200



 106269963.255 8  82807814.83548  20222484.760                    20222484.840
      -504.773        -393.330          52.350          52.500    79357505.349 9
  20222486.460        -376.841          56.900


 116259924.861 8  90592161.37147  22123522.520                    22123521.900
      2199.946        1714.245          48.600          46.800    86817521.264 8
  22123526.700        1642.850          51.350


 132186968.190 6 103002841.99345  25154343.140                    25154345.980
      2129.925        1659.682          36.800          35.900



 129171684.221 6 100653250.92646  24580558.740                    24580558.120
     -3523.510       -2745.598          39.400          37.250



 124678227.072 7  97151880.22446  23725473.960                    23725473.420
      3259.935        2540.210          44.500          38.850



 130456022.373 6 101654079.24546  24824953.960                    24824958.340
        73.354          57.160          39.250          38.850    97418490.001 6
  24824958.720          54.818          41.750


 130251415.181 7 101494668.61947  24786004.800                    24786010.540
      3652.513        2846.119          42.950          43.000    97265733.843 7
  24786012.860        2727.594          44.350


 23  8  9 14 55  0.0000000  0 11G03G04G06G07G09G11G16G19G20G26G30
 125875513.580 7  98084831.21447  23953315.300                    23953319.440
     -3224.376       -2512.505          42.850          42.650    93997970.059 7
  23953320.620       -2407.899          46.400


 112704096.303 7  87821410.42247  21446859.500                    21446860.220
     -2286.257       -1781.500          47.750          46.500    84162197.106 8
  21446864.260       -1707.307          51.900


 108147512.142 8  84270818.75048  20579780.340                    20579781.840
      -789.625        -615.292          51.450          51.550    80759545.853 9
  20579783.080        -589.706          55.450


 119349111.875 7  92999360.16447  22711357.180                    22711356.480
      2814.159        2192.854          47.800          47.600



 106285331.775 8  82819790.28648  20225409.240                    20225409.500
      -519.585        -404.872          52.000          52.000    79368981.817 9
  20225410.940        -387.990          56.800


 116194164.101 8  90540919.25547  22111008.620                    22111008.180
      2184.544        1702.244          48.850          46.850    86768414.236 8
  22111012.540        1631.291          51.100


 132123271.217 6 102953208.06245  25142222.080                    25142223.740
      2116.976        1649.592          36.950          34.850



 129277418.173 6 100735640.74446  24600679.340                    24600679.160
     -3526.086       -2747.608          38.150          37.650



 124580465.437 7  97075702.37446  23706870.640                    23706869.580
      3257.588        2538.383          44.550          38.750



 130454102.808 6 101652583.47546  24824588.780                    24824593.560
        54.979          42.838          39.600          39.750    97417056.552 6
  24824593.380          40.999          41.850


 130141857.834 6 101409299.40746  24765156.680                    24765162.320
      3651.524        2845.349          41.900          41.950    97183921.709 7
  24765164.320        2726.867          46.750


 23  8  9 14 55 30.0000000  0 11G03G04G06G07G09G11G16G19G20G26G30
 125972315.858 7  98160261.44247  23971736.380                    23971740.900
     -3229.487       -2516.486          43.150          43.150    94070257.320 7
  23971741.360       -2411.643          46.150


 112772834.997 7  87874973.00247  21459940.040                    21459940.840
     -2296.645       -1789.595          47.900          46.950    84213527.914 8
  21459944.880       -1715.046          51.700


 108171500.625 8  84289511.05848  20584345.220                    20584346.720
      -809.972        -631.146          51.650          51.750    80777459.305 9
  20584348.020        -604.855          55.550


 119264826.553 7  92933683.36347  22695318.180                    22695317.360
      2804.281        2185.156          47.500          47.500



 106301142.392 8  82832110.22748  20228417.860                    20228418.220
      -534.864        -416.777          52.150          52.100    79380788.426 9
  20228419.620        -399.464          56.800


 116128859.042 8  90490032.22747  22098581.480                    22098581.160
      2168.730        1689.921          49.100          46.800    86719647.497 8
  22098585.140        1619.492          51.200


 132059962.620 6 102903876.79644  25130174.840                    25130176.440
      2103.144        1638.831          36.350          29.700



 129383193.884 6 100818063.21046  24620807.960                    24620808.040
     -3527.102       -2748.395          40.950          37.300



 124482774.328 7  96999579.48946  23688280.620                    23688279.580
      3254.713        2536.142          44.750          37.500



 130452727.111 6 101651511.51546  24824326.860                    24824332.200
        36.405          28.369          39.200          39.700    97416029.259 6
  24824331.780          27.083          41.700


 130032325.577 6 101323949.72146  24744313.200                    24744318.500
      3650.088        2844.227          41.550          41.300    97102128.307 7
  24744320.820        2725.765          45.300


 23  8  9 14 56  0.0000000  0 11G03G04G06G07G09G11G16G19G20G26G30
 126069247.785 7  98235792.67747  23990182.060                    23990186.860
     -3233.517       -2519.628          43.650          43.100    94142641.392 7
  23990186.700       -2414.506          45.400


 112841869.334 8  87928765.95147  21473076.960                    21473077.740
     -2306.190       -1797.033          48.100          47.100    84265079.491 8
  21473081.760       -1722.151          51.600


 108196082.748 8  84308665.93348  20589023.080                    20589024.440
      -829.433        -646.312          51.500          51.600    80795816.058 9
  20589025.860        -619.402          55.450


 119180821.580 7  92868225.01847  22679332.420                    22679331.340
      2795.185        2178.068          47.800          47.600



 106317397.242 8  82844776.32548  20231511.080                    20231511.420
      -549.527        -428.204          52.150          52.150    79392926.762 9
  20231512.800        -410.280          56.650


 116064015.168 8  90439504.55847  22086242.200                    22086241.760
      2153.277        1677.879          49.200          46.700    86671225.139 8
  22086245.560        1608.238          51.000


 131997048.809 6 102854853.08045  25118202.600                    25118204.600
      2090.448        1628.929          37.050          35.150



 129489011.248 6 100900518.13546  24640944.560                    24640944.920
     -3528.247       -2749.289          41.450          39.350



 124385158.287 7  96923515.09246  23669704.900                    23669703.860
      3252.298        2534.260          44.550          38.650



 130451898.999 6 101650866.22346  24824169.160                    24824175.060
        18.195          14.180          38.650          38.100    97415410.848 6
  24824174.380          13.517          41.200


 129922823.909 6 101238623.94546  24723475.380                    24723480.760
      3649.305        2843.621          41.650          41.550    97020357.819 7
  24723483.000        2725.173          44.350


 23  8  9 14 56 30.0000000  0 11G03G04G06G07G09G11G16G19G20G26G30
 126166309.323 7  98311424.90747  24008652.600                    24008657.540
     -3237.393       -2522.648          43.800          43.900    94215122.271 7
  24008656.820       -2417.492          45.050


 112911198.292 8  87982788.48947  21486270.000                    21486270.640
     -2315.671       -1804.420          48.250          46.750    84316851.090 8
  21486274.820       -1729.214          51.700


 108221258.842 8  84328283.64248  20593813.920                    20593815.120
      -849.031        -661.583          51.500          51.700    80814616.361 9
  20593816.720        -633.916          55.350


 119097100.033 7  92802987.52147  22663400.640                    22663399.420
      2786.138        2171.020          47.200          47.000



 106334096.131 8  82857788.43548  20234688.860                    20234689.060
      -563.945        -439.437          52.450          52.450    79405396.696 9
  20234690.400        -421.021          56.500


 115999635.547 8  90389338.64247  22073991.340                    22073990.700
      2138.465        1666.337          49.300          46.700    86623149.485 8
  22073994.420        1596.920          51.050


 131934533.736 6 102806140.08545  25106306.080                    25106308.760
      2077.263        1618.649          37.100          30.650



 129594868.063 6 100983003.73146  24661088.600                    24661089.580
     -3529.096       -2749.949          40.550          40.050



 124287619.413 7  96847510.82246  23651143.840                    23651142.980
      3250.062        2532.516          44.850          39.500



 130451619.696 6 101650648.56646  24824115.560                    24824121.980
         0.286           0.223          36.800          37.300    97415202.248 6
  24824121.420           0.235          41.750


 129813356.042 6 101153324.45246  24702644.100                    24702649.400
      3648.391        2842.909          41.450          41.350    96938612.526 7
  24702651.500        2724.479          43.250


 23  8  9 14 57  0.0000000  0 11G03G04G06G07G09G11G16G19G20G26G30
 126263497.473 7  98387155.79947  24027147.140                    24027152.060
     -3241.816       -2526.094          44.000          44.150    94287697.689 7
  24027151.140       -2420.801          44.850


 112980817.924 8  88037037.51847  21499518.340                    21499518.840
     -2325.398       -1812.000          48.250          46.800    84368839.757 8
  21499523.140       -1736.655          51.850


 108247026.239 8  84348362.10048  20598717.280                    20598718.280
      -868.695        -676.906          51.300          51.350    80833858.226 9
  20598720.060        -648.805          55.350


 119013661.810 7  92737970.78547  22647522.800                    22647521.440
      2776.515        2163.521          47.750          47.550



 106351235.881 8  82871144.07248  20237950.620                    20237950.560
      -578.618        -450.871          52.750          52.700    79418195.852 9
  20237951.960        -432.189          56.550


 115935720.392 8  90339534.63747  22061828.720                    22061827.940
      2122.610        1653.982          49.200          46.550    86575420.650 8
  22061831.700        1585.068          51.200


 131872417.582 6 102757737.94545  25094485.680                    25094488.460
      2063.967        1608.288          38.150          31.700



 129700758.967 6 101065515.89346  24681239.340                    24681240.760
     -3530.116       -2750.748          40.050          40.100



 124190157.379 7  96771566.42746  23632597.360                    23632596.720
      3247.345        2530.399          45.250          38.850



 130451887.390 5 101650857.20846  24824165.980                    24824172.740
       -18.264         -14.229          35.900          36.050    97415402.191 6
  24824172.980         -13.556          40.950


 129703922.241 6 101068051.55046  24681819.360                    24681824.720
      3647.173        2841.961          41.650          41.600    96856892.684 7
  24681825.980        2723.389          45.250


 23  8  9 14 57 30.0000000  0 11G03G04G06G07G09G11G16G19G20G26G30
 126360812.768 7  98462985.76547  24045665.900                    24045670.780
     -3245.962       -2529.325          44.050          43.600    94360368.056 7
  24045669.700       -2423.934          45.400


 113050727.813 8  88091512.72747  21512821.820                    21512822.220
     -2335.127       -1819.580          48.550          46.700    84421045.156 8
  21512826.500       -1743.757          51.800


 108273385.660 8  84368901.87648  20603733.280                    20603734.240
      -888.551        -692.378          51.300          51.250    80853542.174 9
  20603735.980        -663.479          55.200


 118930510.687 7  92673177.76647  22631699.560                    22631698.040
      2766.991        2156.099          47.600          47.700



 106368816.870 8  82884843.53248  20241296.300                    20241296.120
      -593.318        -462.326          52.600          52.700    79431324.497 9
  20241297.600        -443.096          56.650


 115872273.317 8  90290095.38547  22049755.080                    22049754.180
      2107.184        1641.963          49.000          46.050    86528041.374 8
  22049758.100        1573.475          51.300


 131810704.742 6 102709649.99345  25082742.200                    25082745.060
      2050.426        1597.724          39.000          34.200



 129806682.092 6 101148053.19446  24701396.120                    24701397.880
     -3530.990       -2751.427          39.200          39.200



 124092774.824 7  96695683.98446  23614066.080                    23614065.660
      3244.785        2528.405          45.550          38.150



 130452703.836 6 101651493.41646  24824320.920                    24824328.060
       -35.942         -28.005          36.600          36.250    97416011.926 6
  24824328.660         -27.110          41.300


 129594526.165 7 100982808.01547  24661001.740                    24661006.780
      3646.094        2841.113          42.100          42.050    96775200.997 7
  24661007.860        2722.642          44.000


 23  8  9 14 58  0.0000000  0 11G03G04G06G07G09G11G16G19G20G26G30
 126458252.209 7  98538912.47047  24064208.280                    24064213.040
     -3250.787       -2533.086          43.250          43.400    94433131.124 7
  24064212.080       -2427.468          45.550


 113120923.991 8  88146211.01347  21526179.760                    21526179.940
     -2345.197       -1827.428          48.400          46.150    84473464.348 8
  21526184.200       -1751.265          51.650


 108300334.688 8  84389901.09248  20608861.420                    20608862.560
      -908.701        -708.079          51.250          51.150    80873666.417 9
  20608864.100        -678.573          55.100


 118847646.808 7  92608608.57547  22615931.020                    22615929.620
      2756.756        2148.125          47.300          47.350



 106386835.922 8  82898884.33548  20244725.260                    20244725.020
      -608.502        -474.158          52.450          52.400    79444780.257 9
  20244726.640        -454.378          56.700


 115809294.500 8  90241020.99647  22037770.480                    22037769.520
      2090.816        1629.207          48.450          45.900    86481011.751 8
  22037773.580        1561.417          51.400


 131749396.611 6 102661877.46845  25071075.900                    25071078.620
      2036.517        1586.895          39.100          31.100



 129912632.002 6 101230611.39346  24721557.660                    24721559.860
     -3532.645       -2752.715          39.900          38.050



 123995470.827 7  96619862.73346  23595549.620                    23595549.340
      3241.421        2525.783          44.850          39.000



 130454067.389 6 101652555.91446  24824580.640                    24824587.120
       -55.331         -43.117          37.500          38.100    97417030.130 6
  24824588.020         -41.248          41.400


 129485168.149 6 100897594.18347  24640191.620                    24640196.660
      3644.186        2839.630          41.700          42.050    96693537.795 7
  24640197.720        2721.070          44.550


 23  8  9 14 58 30.0000000  0 11G03G04G06G07G09G11G16G19G20G26G30
 126555817.739 7  98614937.45047  24082774.480                    24082779.320
     -3254.681       -2536.118          43.250          43.250    94505988.347 7
  24082778.480       -2430.152          45.400


 113191407.464 8  88201133.16947  21539592.360                    21539592.280
     -2354.266       -1834.494          49.100          44.800    84526098.081 8
  21539596.460       -1758.089          51.450


 108327875.396 8  84411361.34948  20614102.160                    20614103.520
      -928.080        -723.181          51.150          51.300    80894232.493 9
  20614104.800        -692.950          54.700


 118765075.163 8  92544267.08548  22600218.160                    22600216.660
      2747.428        2140.854          48.400          48.400



 106405294.744 8  82913267.82248  20248237.860                    20248237.680
      -622.755        -485.264          52.600          52.650    79458564.432 9
  20248239.360        -464.993          56.500


 115746788.995 8  90192315.43447  22025875.800                    22025875.000
      2075.474        1617.253          48.450          45.600    86434335.598 8
  22025879.080        1549.888          51.300


 131688498.598 6 102614424.55545  25059487.740                    25059490.340
      2023.236        1576.562          38.450          35.400



 130018608.344 6 101313190.21046  24741724.000                    24741726.720
     -3533.373       -2753.286          40.800          39.150



 123898249.951 7  96544106.26846  23577048.940                    23577048.960
      3239.271        2524.108          44.400          37.550



 130455980.987 6 101654047.06046  24824945.000                    24824950.800
       -72.970         -56.860          38.450          38.800    97418459.137 6
  24824952.240         -54.450          40.950


 129375853.335 7 100812414.03447  24619389.680                    24619394.760
      3643.062        2838.756          43.150          43.600    96611906.838 7
  24619395.260        2720.481          43.400


 23  8  9 14 59  0.0000000  0 11G03G04G06G07G09G11G16G19G20G26G30
 126653506.383 7  98691058.35547  24101364.040                    24101369.020
     -3258.261       -2538.908          43.300          43.550    94578937.526 7
  24101368.260       -2433.047          45.550


 113262174.310 8  88256276.14347  21553058.820                    21553058.580
     -2363.353       -1841.575          48.900          45.050    84578943.418 8
  21553062.740       -1764.913          51.500


 108356005.078 8  84433280.55548  20619455.000                    20619456.540
      -947.185        -738.067          50.850          50.800    80915238.400 9
  20619457.540        -707.364          54.450


 118682796.017 7  92480153.54047  22584560.900                    22584559.780
      2738.055        2133.553          47.700          47.800



 106424190.220 8  82927991.55548  20251833.540                    20251833.500
      -636.845        -496.243          52.200          52.250    79472674.676 9
  20251834.980        -475.629          56.350


 115684756.951 8  90143978.80347  22014071.320                    22014070.660
      2059.982        1605.183          48.400          46.050    86388013.001 8
  22014074.660        1538.281          51.300


 131628011.174 6 102567291.45045  25047977.460                    25047979.900
      2009.415        1565.775          39.350          35.850



 130124605.768 6 101395785.40746  24761894.160                    24761897.340
     -3533.344       -2753.265          40.250          38.500



 123801111.480 7  96468414.00146  23558563.760                    23558563.960
      3236.773        2522.163          43.750          37.300



 130458442.939 6 101655965.48746  24825413.620                    24825419.020
       -91.159         -71.036          38.150          39.000    97420297.621 6
  24825420.060         -67.897          39.600


 129266581.972 7 100727267.73447  24598596.000                    24598601.220
      3641.798        2837.774          43.600          43.250    96530308.322 7
  24598600.920        2719.500          44.650


 23  8  9 14 59 30.0000000  0 11G03G04G06G07G09G11G16G19G20G26G30
 126751317.618 7  98767274.78046  24119976.940                    24119981.980
     -3262.540       -2542.244          42.750          41.750    94651978.234 7
  24119981.380       -2436.266          45.600


 113333223.059 8  88311638.77547  21566578.960                    21566578.640
     -2373.002       -1849.093          48.800          44.800    84631999.253 8
  21566582.880       -1772.097          51.700


 108384723.463 8  84455658.48948  20624919.960                    20624921.540
      -967.122        -753.603          51.150          51.550    80936683.908 9
  20624922.220        -722.208          54.400


 118600811.633 8  92416269.64348  22568959.740                    22568958.680
      2727.870        2125.615          48.350          48.050



 106443521.638 8  82943054.98948  20255512.120                    20255512.220
      -651.641        -507.771          52.050          52.100    79487110.460 9
  20255513.600        -486.663          56.550


 115623200.971 8  90096013.13947  22002357.520                    22002357.040
      2043.794        1592.567          48.750          45.700    86342045.895 8
  22002360.820        1526.189          51.700


 131567937.343 6 102520480.75745  25036545.940                    25036547.960
      1995.765        1555.148          38.600          33.900



 130230621.605 6 101478395.01146  24782068.080                    24782071.840
     -3534.301       -2754.007          40.100          38.600



 123704057.296 7  96392787.42046  23540094.620                    23540095.040
      3233.713        2519.778          42.400          37.400



 130461453.862 6 101658311.69546  24825986.680                    24825991.260
      -109.591         -85.396          39.650          39.600    97422546.075 6
  24825992.540         -81.892          40.950


 129157356.782 7 100642157.39947  24577811.100                    24577815.920
      3640.021        2836.387          42.900          43.050    96448744.305 7
  24577815.440        2718.263          44.050


                            4  1
RINEX FILE SPLICE; other post-header comments skipped       COMMENT
 23  8  9 15  0  0.0000000  0 11G03G04G06G07G09G11G16G19G20G26G30
 126849253.409 7  98843588.24747  24138613.480                    24138618.540
     -3266.594       -2545.402          42.450          42.200    94725111.969 7
  24138618.220       -2439.425          45.950


 113404554.763 8  88367221.86347  21580152.820                    21580152.640
     -2382.360       -1856.387          48.350          44.200    84685266.365 8
  21580156.940       -1779.076          51.750


 108414032.724 8  84478496.84848  20630497.440                    20630498.940
      -986.727        -768.879          51.150          51.300    80958570.659 9
  20630499.320        -736.856          54.450


 118519126.802 7  92352619.19947  22553415.580                    22553414.980
      2717.889        2117.838          47.950          47.750



 106463290.753 8  82958459.47248  20259273.960                    20259274.240
      -666.224        -519.137          52.100          52.200    79501873.087 9
  20259275.520        -497.515          56.600


 115562126.095 8  90048422.34347  21990735.400                    21990734.920
      2027.850        1580.144          49.250          45.050    86296438.064 8
  21990738.680        1514.276          52.100


 131508283.016 6 102473996.87444  25025194.180                    25025196.360
      1980.955        1543.604          37.800          28.450



 130336655.553 6 101561018.63346  24802245.500                    24802249.560
     -3534.433       -2754.108          39.700          38.200



 123607091.671 7  96317229.85446  23521642.420                    23521643.140
      3230.656        2517.396          42.350          39.050



 130465016.897 6 101661088.10346  24826664.780                    24826668.640
      -127.735         -99.534          39.150          38.950    97425206.840 6
  24826669.900         -95.589          41.300


 129048182.976 7 100557087.16947  24557036.020                    24557040.640
      3638.362        2835.093          42.950          43.150    96367218.734 7
  24557040.340        2716.840          45.200


 23  8  9 15  0 30.0000000  0 11G03G04G06G07G09G11G16G19G20G26G30
 126947305.532 6  98919992.35146  24157272.200                    24157277.280
     -3270.258       -2548.258          41.800          41.700    94798332.529 7
  24157277.260       -2441.919          46.150


 113476160.242 8  88423018.28947  21593778.840                    21593778.860
     -2391.224       -1863.293          48.250          44.800    84738737.927 8
  21593783.180       -1785.589          51.700


 108443924.814 8  84501789.35448  20636185.900                    20636187.280
     -1005.794        -783.736          51.300          51.350    80980892.641 9
  20636187.440        -751.133          54.650


 118437736.797 8  92289198.46347  22537927.600                    22537926.980
      2708.412        2110.452          48.050          47.850



 106483489.120 8  82974198.44548  20263117.560                    20263117.960
      -680.239        -530.058          52.000          51.950    79516956.256 9
  20263119.000        -507.837          56.600


 115501527.233 8  90001202.46947  21979204.000                    21979203.280
      2012.240        1567.980          49.500          45.450    86251185.683 8
  21979207.360        1502.684          52.600


 131449042.565 6 102427835.33645  25013921.120                    25013923.820
      1968.694        1534.044          36.500          30.250



 130442697.177 6 101643648.28746  24822424.800                    24822428.500
     -3534.655       -2754.286          39.350          36.700



 123510208.492 6  96241736.52946  23503206.000                    23503206.880
      3228.381        2515.624          41.750          40.100



 130469124.897 6 101664289.17346  24827446.520                    24827449.980
      -145.733        -113.558          40.200          39.950    97428274.504 6
  24827451.440        -108.868          41.350


 128939055.543 7 100472053.07447  24536269.660                    24536274.380
      3637.248        2834.227          43.200          42.700    96285727.762 7
  24536273.900        2715.992          44.400


 23  8  9 15  1  0.0000000  0 11G03G04G06G07G09G11G16G19G20G26G30
 127045481.846 6  98996493.22046  24175954.580                    24175959.660
     -3274.709       -2551.727          41.850          41.850    94871645.838 7
  24175960.060       -2445.347          46.250


 113548046.381 8  88479033.41647  21607458.460                    21607458.460
     -2400.967       -1870.884          49.050          45.000    84792419.084 8
  21607462.960       -1792.912          51.400


 108474407.801 8  84525542.29448  20641986.800                    20641987.940
     -1025.847        -799.362          51.650          51.550    81003655.865 9
  20641988.240        -766.158          54.500


 118356652.214 8  92226015.74848  22522497.640                    22522497.460
      2697.686        2102.095          48.000          48.200



 106504124.386 8  82990277.85448  20267044.340                    20267044.820
      -695.130        -541.660          52.450          52.400    79532365.690 9
  20267045.760        -519.063          56.350


 115441415.303 8  89954362.01847  21967765.200                    21967764.280
      1995.480        1554.921          49.600          45.450    86206296.918 8
  21967768.820        1490.184          52.450


 131390229.690 6 102382007.21245  25002729.380                    25002732.100
      1953.440        1522.158          36.500          32.000



 130548751.814 7 101726288.08446  24842606.800                    24842609.980
     -3535.396       -2754.863          42.250          37.250



 123413417.877 7  96166315.32246  23484787.560                    23484788.180
      3224.581        2512.661          43.950          40.350



 130473786.784 6 101667921.81146  24828333.940                    24828337.300
      -164.472        -128.159          39.950          39.850    97431755.771 7
  24828338.960        -122.870          42.800


 128829985.553 7 100387063.70147  24515514.120                    24515518.940
      3634.659        2832.210          42.650          42.800    96204279.664 7
  24515518.480        2714.202          44.400


 23  8  9 15  1 30.0000000  0 11G03G04G06G07G09G11G16G19G20G26G30
 127143775.632 6  99073085.64146  24194659.420                    24194664.460
     -3278.453       -2554.645          41.550          41.250    94945046.877 7
  24194665.380       -2448.132          46.250


 113620205.630 8  88535261.36947  21621190.080                    21621190.060
     -2409.711       -1877.698          48.650          45.450    84846304.195 8
  21621194.800       -1799.479          51.600


 108505475.082 8  84549750.54148  20647898.780                    20647899.780
     -1045.138        -814.394          51.650          51.800    81026855.430 9
  20647900.500        -780.502          54.900


 118275869.557 7  92163068.27447  22507125.180                    22507125.020
      2687.822        2094.409          47.550          47.600



 106525189.647 8  83006692.33248  20271052.960                    20271053.340
      -709.132        -552.571          51.950          51.950    79548096.235 9
  20271054.500        -529.638          56.550


 115381786.668 8  89907898.15747  21956418.300                    21956417.220
      1979.568        1542.521          49.550          46.000    86161769.058 8
  21956422.260        1478.332          52.700


 131331840.499 6 102336509.29145  24991617.940                    24991621.280
      1939.202        1511.073          36.750          34.550



 130654810.325 6 101808930.92446  24862789.720                    24862791.920
     -3535.047       -2754.588          41.850          37.800



 123316715.527 7  96090962.88046  23466386.120                    23466386.380
      3222.033        2510.677          45.350          40.700



 130478996.870 6 101671981.62946  24829325.280                    24829328.900
      -182.941        -142.551          39.550          38.950    97435646.450 7
  24829331.200        -136.373          43.400


 128720969.569 7 100302116.41047  24494768.760                    24494773.480
      3633.237        2831.102          42.800          43.000    96122871.888 7
  24494773.220        2712.972          45.250


 23  8  9 15  2  0.0000000  0 11G03G04G06G07G09G11G16G19G20G26G30
 127242189.096 6  99149771.33046  24213387.020                    24213392.000
     -3282.568       -2557.849          41.400          40.850    95018537.303 7
  24213393.260       -2451.279          46.350


 113692639.221 8  88591703.08347  21634973.860                    21634973.980
     -2419.142       -1885.047          48.450          45.650    84900394.162 8
  21634978.720       -1806.488          51.400


 108537129.016 8  84574415.92048  20653922.280                    20653923.160
     -1065.002        -829.872          51.000          51.000    81050493.076 9
  20653924.520        -795.333          55.000


 118195394.076 8  92100360.17048  22491811.180                    22491811.260
      2677.219        2086.146          48.050          48.250



 106546686.873 8  83023443.40448  20275143.760                    20275143.960
      -723.907        -564.084          51.700          51.750    79564149.330 9
  20275145.420        -540.569          56.400


 115322646.585 8  89861814.98847  21945164.300                    21945163.080
      1963.100        1529.688          49.400          45.450    86117606.041 8
  21945168.520        1465.931          52.750


 131273880.388 6 102291345.63145  24980588.080                    24980591.620
      1924.648        1499.733          37.700          34.800



 130760873.060 7 101891577.07846  24882973.360                    24882974.520
     -3535.461       -2754.905          42.000          36.500



 123220106.298 7  96015683.01246  23448002.380                    23448002.120
      3218.567        2507.976          45.900          39.950



 130484758.460 6 101676471.15746  24830421.620                    24830425.060
      -201.579        -157.075          39.100          40.150    97439948.943 7
  24830428.040        -150.422          42.550


 128612013.093 7 100217215.46947  24474034.760                    24474039.360
      3630.530        2828.988          42.650          42.650    96041508.528 7
  24474039.160        2711.179          44.950


 23  8  9 15  2 30.0000000  0 11G03G04G06G07G09G11G16G19G20G26G30
 127340719.986 6  99226548.50646  24232136.860                    24232141.940
     -3286.721       -2561.085          40.350          40.300    95092115.389 7
  24232143.580       -2454.218          45.900


 113765343.971 7  88648356.08447  21648809.120                    21648809.500
     -2428.259       -1892.151          47.950          45.700    84954686.624 8
  21648814.120       -1813.263          51.450


 108569367.400 8  84599536.72048  20660056.900                    20660057.840
     -1084.471        -845.042          50.450          50.600    81074567.170 9
  20660059.780        -809.863          55.050


 118115226.300 7  92037891.82847  22476555.760                    22476555.760
      2667.027        2078.206          47.700          47.700



 106568613.553 8  83040529.10248  20279316.300                    20279316.440
      -738.163        -575.193          52.150          52.100    79580523.122 9
  20279318.060        -551.245          56.250


 115263995.859 8  89816113.13447  21934003.460                    21934002.160
      1946.674        1516.890          49.400          45.600    86073808.441 8
  21934007.740        1453.664          52.700


 131216350.979 6 102246517.60246  24969640.260                    24969643.680
      1909.879        1488.217          37.900          36.100



 130866935.610 6 101974222.96546  24903157.000                    24903157.700
     -3535.638       -2755.052          40.800          37.850



 123123590.585 7  95940476.00446  23429636.360                    23429635.740
      3215.361        2505.478          45.550          40.600



 130491070.296 6 101681389.48546  24831622.440                    24831626.120
      -219.864        -171.325          38.200          38.200    97444662.353 7
  24831629.640        -164.210          42.600


 128503117.005 6 100132361.61646  24453312.220                    24453317.100
      3628.521        2827.427          41.650          41.600    95960190.289 7
  24453317.280        2709.756          44.750


 23  8  9 15  3  0.0000000  0 11G03G04G06G07G09G11G16G19G20G26G30
 127439367.494 6  99303416.55046  24250908.780                    24250914.140
     -3290.589       -2564.100          40.700          40.500    95165780.581 7
  24250915.720       -2457.291          46.550


 113838318.205 7  88705219.07847  21662695.700                    21662696.120
     -2437.359       -1899.242          47.900          45.650    85009180.319 8
  21662700.720       -1820.102          51.850


 108602189.587 8  84625112.43248  20666302.620                    20666303.620
     -1104.151        -860.379          50.300          50.500    81099077.223 9
  20666305.960        -824.582          55.300


 118035368.695 7  91975665.16847  22461359.420                    22461359.320
      2656.401        2069.924          47.800          47.550



 106590968.694 8  83057948.67348  20283570.380                    20283570.480
      -752.731        -586.545          52.350          52.350    79597216.871 9
  20283572.060        -562.117          56.350


 115205836.727 8  89770794.32947  21922936.220                    21922934.860
      1930.019        1503.911          49.550          45.600    86030377.935 8
  21922940.360        1441.270          52.800


 131159255.008 6 102202027.29045  24958775.320                    24958778.340
      1895.409        1476.940          38.200          33.200



 130972994.816 6 102056866.26146  24923339.920                    24923340.480
     -3535.571       -2754.996          41.850          39.300



 123027169.465 7  95865342.72146  23411288.080                    23411287.200
      3212.099        2502.937          45.650          40.800



 130497932.634 6 101686736.72346  24832928.320                    24832932.260
      -238.538        -185.875          38.450          38.650    97449786.783 7
  24832936.040        -178.008          43.000


 128394283.855 7 100047556.75447  24432601.720                    24432606.480
      3626.206        2825.621          42.700          42.350    95878919.000 7
  24432606.860        2707.945          45.250


 23  8  9 15  3 30.0000000  0 11G03G04G06G07G09G11G16G19G20G26G30
 127538131.857 6  99380375.63546  24269702.880                    24269708.560
     -3293.830       -2566.625          40.900          40.400    95239532.986 7
  24269710.220       -2459.738          46.350


 113911561.198 8  88762291.50147  21676633.440                    21676633.800
     -2445.821       -1905.836          48.400          45.250    85063874.708 8
  21676638.320       -1826.403          52.000


 108635595.840 8  84651143.25548  20672659.640                    20672660.520
     -1123.206        -875.226          51.550          51.650    81124023.413 9
  20672663.200        -838.698          55.450


 117955824.479 8  91913682.71748  22446222.560                    22446222.460
      2646.195        2061.972          48.550          48.400



 106613752.203 8  83075702.03848  20287906.000                    20287906.060
      -766.529        -597.296          52.300          52.400    79614230.509 9
  20287907.600        -572.356          56.550


 115148172.437 8  89725861.13147  21911963.140                    21911961.780
      1913.940        1491.383          49.650          45.800    85987316.961 8
  21911967.000        1429.216          52.750


 131102596.209 6 102157877.69745  24947993.480                    24947996.400
      1882.190        1466.648          38.150          34.800



 131079048.424 6 102139505.23746  24943521.580                    24943522.040
     -3534.889       -2754.462          40.350          37.850



 122930845.726 7  95790285.31646  23392958.200                    23392957.140
      3209.188        2500.669          45.450          40.300



 130505346.480 6 101692513.77646  24834338.900                    24834343.100
      -255.861        -199.372          38.750          38.750    97455323.128 7
  24834346.920        -191.292          42.700


 128285517.051 7  99962803.55447  24411903.840                    24411908.340
      3624.524        2824.307          42.900          43.000    95797697.229 7
  24411908.960        2706.644          45.850


 23  8  9 15  4  0.0000000  0 11G03G04G06G07G09G11G16G19G20G26G30
 127637013.248 6  99457425.91846  24288519.380                    24288525.340
     -3297.346       -2569.367          41.750          41.650    95313372.795 7
  24288526.580       -2462.354          47.000


 113985072.281 8  88819572.82847  21690622.160                    21690622.480
     -2454.335       -1912.470          48.700          44.650    85118769.293 8
  21690627.080       -1832.769          52.200


 108669586.392 8  84677629.36548  20679127.960                    20679128.640
     -1142.152        -889.989          52.150          52.150    81149405.931 9
  20679131.480        -852.977          55.550


 117876596.784 8  91851946.89248  22431145.980                    22431145.720
      2636.155        2054.148          48.100          48.000



 106636964.112 8  83093789.21948  20292323.180                    20292323.220
      -780.369        -608.080          52.750          52.700    79631564.064 9
  20292324.760        -582.743          56.700


 115091006.235 8  89681316.04747  21901084.700                    21901083.560
      1897.784        1478.794          49.400          45.900    85944627.934 8
  21901088.320        1417.112          52.600


 131046378.859 6 102114072.01345  24937295.680                    24937298.140
      1866.870        1454.702          38.650          35.000



 131185094.711 7 102222138.40946  24963701.620                    24963701.960
     -3534.108       -2753.857          42.350          39.800



 122834621.860 7  95715305.74746  23374647.240                    23374646.080
      3206.248        2498.378          45.300          39.450



 130513313.200 6 101698721.62146  24835854.960                    24835859.120
      -274.104        -213.586          38.800          38.050    97461272.293 6
  24835862.260        -204.841          41.950


 128176820.087 7  99878104.76747  24391219.320                    24391223.640
      3623.099        2823.197          42.700          42.750    95716527.614 7
  24391224.500        2705.094          45.550


 23  8  9 15  4 30.0000000  0 12G03G04G06G07G09G11G16G19G20G26G29G30
 127736006.332 7  99534563.24647  24307357.360                    24307363.360
     -3301.873       -2572.892          42.550          42.400    95387296.043 7
  24307364.180       -2465.683          46.150


 114058845.230 8  88877058.20647  21704660.740                    21704661.080
     -2463.860       -1919.894          48.050          45.100    85173859.424 8
  21704665.820       -1839.754          52.100


 108704155.962 8  84704566.64948  20685706.520                    20685707.020
     -1162.254        -905.652          52.100          52.000    81175220.821 9
  20685709.860        -867.891          55.300


 117797683.388 8  91790455.98748  22416129.180                    22416128.860
      2625.030        2045.479          48.000          48.000



 106660598.821 8  83112205.86148  20296820.880                    20296820.860
      -795.189        -619.629          52.750          52.750    79649213.349 9
  20296822.440        -593.763          56.550


 115034335.825 8  89637157.30247  21890300.480                    21890299.720
      1880.265        1465.142          48.600          46.950    85902309.137 8
  21890304.000        1404.276          52.050


 130990600.749 6 102070608.63745  24926681.400                    24926683.820
      1851.516        1442.743          38.750          35.650



 131291125.896 7 102304759.94946  24983878.780                    24983879.060
     -3534.192       -2753.920          42.300          36.150



 122738494.878 7  95640401.67946  23356354.740                    23356353.560
      3202.411        2495.391          44.900          39.500



 130521828.313 6 101705356.76346  24837475.340                    24837479.700
      -293.588        -228.771          38.700          39.000    97467630.963 6
  24837482.240        -218.955          41.750


 135767244.857 5 105792652.74945  25835646.260                    25835645.640
      2084.528        1624.308          35.300          32.750



 128068191.050 7  99793458.92547  24370547.760                    24370552.120
      3619.123        2820.099          43.550          43.500    95635408.669 7
  24370553.100        2702.886          44.650


 23  8  9 15  5  0.0000000  0 12G03G04G06G07G09G11G16G19G20G26G29G30
 127835112.659 7  99611788.82147  24326216.980                    24326222.920
     -3305.630       -2575.822          42.750          42.600    95461303.834 7
  24326223.260       -2468.408          46.250


 114132880.616 8  88934748.08247  21718749.280                    21718749.700
     -2472.250       -1926.430          48.400          44.600    85229145.546 8
  21718754.460       -1846.166          52.300


 108739306.038 8  84731956.28248  20692395.480                    20692395.880
     -1181.399        -920.571          51.700          51.550    81201469.217 9
  20692398.660        -882.250          55.600


 117719088.857 8  91729213.53848  22401173.060                    22401172.580
      2614.254        2037.082          48.250          48.300



 106684657.564 8  83130952.92548  20301399.300                    20301399.060
      -809.114        -630.479          52.950          52.800    79667179.282 9
  20301400.800        -604.187          56.800


 114978165.649 8  89593388.36547  21879611.380                    21879611.080
      1863.925        1452.410          48.450          47.200    85860363.905 8
  21879615.000        1391.939          52.250


 130935266.683 6 102027491.25546  24916151.780                    24916154.040
      1836.924        1431.369          39.650          36.300



 131397141.286 6 102387369.13145  25004052.760                    25004053.000
     -3533.216       -2753.164          40.550          35.800



 122642468.958 7  95565576.33646  23338081.300                    23338080.380
      3199.199        2492.884          44.350          39.800



 130530894.182 6 101712421.06246  24839200.560                    24839205.340
      -311.586        -242.795          39.350          38.900    97474400.957 7
  24839207.180        -232.680          42.150


 135704927.251 6 105744101.43846  25823787.640                    25823790.460
      2069.871        1612.883          40.050          39.150



 127959634.524 7  99708869.58647  24349890.060                    24349894.380
      3617.054        2818.488          43.100          43.000    95554343.914 7
  24349895.460        2701.204          45.750


 23  8  9 15  5 30.0000000  0 12G03G04G06G07G09G11G16G19G20G26G29G30
 127934329.642 7  99689100.62247  24345097.680                    24345103.480
     -3309.128       -2578.547          42.550          42.700    95535394.269 7
  24345103.300       -2470.988          45.400


 114207175.041 8  88992639.81747  21732887.100                    21732887.520
     -2480.781       -1933.077          48.100          44.950    85284625.096 8
  21732892.260       -1852.391          51.950


 108775034.094 8  84759796.29548  20699194.360                    20699194.880
     -1200.680        -935.595          51.300          51.500    81228149.216 9
  20699197.360        -896.471          55.300


 117640813.388 8  91668219.72448  22386277.700                    22386277.160
      2603.951        2029.056          48.650          48.700



 106709137.555 8  83150028.23148  20306057.760                    20306057.300
      -823.026        -641.319          52.750          52.600    79685459.773 9
  20306059.220        -614.518          56.650


 114922496.247 8  89550009.64347  21869017.680                    21869017.660
      1847.298        1439.454          48.150          47.150    85818792.622 8
  21869021.380        1379.514          52.050


 130880378.193 6 101984721.07245  24905706.940                    24905708.920
      1822.211        1419.906          38.650          34.850



 131503136.295 6 102469962.38246  25024222.660                    25024223.220
     -3532.856       -2752.889          38.000          36.050



 122546544.158 7  95490829.80646  23319827.200                    23319826.340
      3196.021        2490.409          44.800          40.400



 130540509.223 6 101719913.29246  24841030.220                    24841035.400
      -329.396        -256.674          37.600          38.150    97481581.038 6
  24841037.040        -246.108          41.300


 135643056.836 7 105695890.76046  25812014.160                    25812017.260
      2055.025        1601.315          42.350          40.950



 127851151.314 7  99624337.33647  24329246.160                    24329250.500
      3615.201        2817.046          42.550          42.400    95473333.879 7
  24329251.680        2699.533          46.400


 23  8  9 15  6  0.0000000  0 12G03G04G06G07G09G11G16G19G20G26G29G30
 128033662.374 7  99766502.60847  24364000.300                    24364006.080
     -3313.014       -2581.574          42.600          42.400    95609571.158 7
  24364005.360       -2474.037          44.350


 114281732.657 7  89050736.61647  21747074.920                    21747075.360
     -2489.664       -1939.999          47.950          45.100    85340301.190 8
  21747079.980       -1859.121          51.700


 108811345.052 8  84788090.52348  20706104.060                    20706104.800
     -1219.955        -950.615          50.950          51.300    81255264.520 9
  20706106.960        -911.066          55.050


 117562865.157 8  91607480.88848  22371444.700                    22371443.960
      2592.747        2020.324          48.550          48.600



 106734043.533 8  83169435.47248  20310797.140                    20310796.620
      -837.209        -652.371          52.200          52.150    79704058.381 9
  20310798.680        -625.242          56.400


 114867335.561 8  89507027.31947  21858520.880                    21858521.000
      1830.125        1426.073          48.400          47.300    85777601.234 8
  21858524.660        1366.684          51.900


 130825943.908 6 101942304.81846  24895348.420                    24895349.980
      1806.565        1407.716          39.100          36.650



 131609113.730 6 102552542.01846  25044389.420                    25044390.620
     -3532.384       -2752.513          39.200          37.200



 122450727.593 7  95416167.60146  23301593.880                    23301592.920
      3191.992        2487.269          45.650          38.900



 130550679.332 6 101727838.07346  24842965.480                    24842971.160
      -348.229        -271.346          36.800          37.300    97489175.602 6
  24842972.600        -260.084          41.750


 135581641.192 6 105648034.41846  25800327.480                    25800330.380
      2039.610        1589.305          41.750          38.350



 127742749.804 7  99539868.70847  24308617.900                    24308622.180
      3611.909        2814.479          43.350          43.050    95392384.809 7
  24308623.620        2697.258          45.900


 23  8  9 15  6 30.0000000  0 12G03G04G06G07G09G11G16G19G20G26G29G30
 128133103.218 6  99843988.84547  24382923.460                    24382929.260
     -3316.530       -2584.315          41.950          42.350    95683828.781 7
  24382928.000       -2476.479          43.650


 114356544.923 7  89109031.84347  21761311.240                    21761311.620
     -2498.021       -1946.511          47.900          45.200    85396167.440 8
  21761316.180       -1865.330          52.000


 108848231.283 8  84816833.01748  20713123.220                    20713124.240
     -1239.144        -965.567          50.950          50.850    81282809.394 9
  20713126.020        -925.278          55.050


 117485239.413 8  91546993.34648  22356673.120                    22356672.260
      2581.984        2011.937          49.200          49.350



 106759367.649 8  83189168.52948  20315615.900                    20315615.660
      -851.220        -663.290          51.750          51.650    79722969.212 9
  20315617.640        -635.547          56.350


 114812678.970 8  89464437.80047  21848120.140                    21848120.280
      1813.430        1413.063          49.000          47.250    85736786.271 8
  21848123.920        1354.222          52.100


 130771959.604 6 101900239.20245  24885075.520                    24885077.140
      1791.769        1396.185          39.200          33.850



 131715063.851 6 102635100.23846  25064550.720                    25064552.840
     -3531.387       -2751.743          37.400          37.300



 122355014.032 7  95341585.64746  23283380.180                    23283379.220
      3188.558        2484.592          45.300          38.950



 130561397.713 6 101736190.04746  24845005.320                    24845011.180
      -366.210        -285.359          38.000          37.950    97497179.578 7
  24845012.560        -273.558          42.650


 135520675.755 5 105600528.87245  25788726.160                    25788729.100
      2024.560        1577.577          32.600          30.300



 127634425.606 7  99455460.36947  24288004.360                    24288008.700
      3609.365        2812.497          43.000          43.250    95311493.494 7
  24288010.260        2695.442          45.450


 23  8  9 15  7  0.0000000  0 12G03G04G06G07G09G11G16G19G20G26G29G30
 128232656.773 6  99921562.90246  24401867.900                    24401873.820
     -3320.756       -2587.607          41.450          41.900    95758170.569 7
  24401872.220       -2479.580          43.550


 114431615.591 7  89167528.41647  21775596.740                    21775597.020
     -2506.889       -1953.422          47.350          45.950    85452226.644 8
  21775601.720       -1872.010          52.300


 108885697.269 8  84846027.26048  20720252.740                    20720253.960
     -1258.685        -980.795          51.450          51.350    81310787.207 9
  20720255.480        -939.969          55.100


 117407943.829 8  91486763.07348  22341964.280                    22341963.500
      2570.778        2003.206          49.450          49.550



 106785114.177 8  83209230.73848  20320515.040                    20320515.040
      -865.510        -674.424          51.350          51.300    79742195.492 9
  20320516.900        -646.319          56.500


 114758533.983 8  89422246.92947  21837816.760                    21837816.880
      1796.032        1399.507          48.900          47.000    85696353.345 8
  21837820.560        1341.198          52.300


 130718433.384 6 101858530.51046  24874889.740                    24874892.220
      1775.859        1383.794          38.300          36.900



 131820988.712 6 102717638.82346  25084707.560                    25084710.600
     -3530.655       -2751.172          38.200          37.500



 122259410.670 7  95267089.55546  23265187.480                    23265186.520
      3184.505        2481.435          45.250          39.400



 130572669.783 6 101744973.48446  24847150.420                    24847156.660
      -385.290        -300.226          37.950          37.400    97505597.037 7
  24847158.080        -287.671          43.300


 135460167.784 5 105553379.87745  25777211.940                    25777215.040
      2009.381        1565.756          33.300          30.600



 127526186.565 7  99371118.38147  24267407.020                    24267411.240
      3606.461        2810.231          42.450          42.850    95230665.783 7
  24267412.980        2693.029          46.050


 23  8  9 15  7 30.0000000  0 12G03G04G06G07G09G11G16G19G20G26G29G30
 128332316.818 6  99999219.94546  24420832.500                    24420838.720
     -3323.297       -2589.587          41.250          40.950    95832591.898 7
  24420837.100       -2481.753          43.950


 114506937.601 8  89226220.83647  21789930.100                    21789930.280
     -2514.684       -1959.496          48.150          45.800    85508473.541 8
  21789935.200       -1877.782          52.400


 108923736.784 8  84875668.41848  20727491.460                    20727492.840
     -1277.307        -995.304          51.900          51.800    81339193.299 9
  20727494.100        -953.782          54.950


 117330975.135 8  91426787.51048  22327317.620                    22327316.860
      2560.516        1995.209          49.200          49.250



 106811276.716 8  83229617.10948  20325493.420                    20325493.520
      -878.674        -684.682          51.900          51.900    79761732.425 9
  20325495.360        -656.150          56.300


 114704897.423 8  89380452.22247  21827610.100                    21827610.140
      1779.772        1386.836          49.300          46.550    85656300.086 8
  21827613.960        1328.997          52.250


 130665362.544 6 101817176.62145  24864790.380                    24864793.380
      1761.777        1372.810          37.850          33.850



 131926880.644 6 102800151.78546  25104858.160                    25104861.580
     -3529.012       -2749.887          40.650          38.950



 122163913.948 7  95192676.56746  23247015.040                    23247014.120
      3181.728        2479.271          45.300          40.150



 130584490.152 6 101754184.17046  24849399.760                    24849406.220
      -402.387        -313.548          37.600          37.900    97514423.924 7
  24849407.700        -300.813          42.550


 135400114.545 6 105506585.09845  25765784.140                    25765787.040
      1994.864        1554.438          40.300          34.950



 127418029.879 7  99286840.56047  24246825.400                    24246829.600
      3604.005        2808.317          43.450          43.650    95149899.554 7
  24246831.760        2691.466          46.950


 23  8  9 15  8  0.0000000  0 12G03G04G06G07G09G11G16G19G20G26G29G30
 128432086.953 6 100076962.76246  24439818.220                    24439824.420
     -3327.195       -2592.625          41.500          41.250    95907095.404 7
  24439823.280       -2484.764          44.300


 114582513.574 8  89285111.15647  21804311.740                    21804312.040
     -2523.100       -1966.054          48.200          46.650    85564910.099 8
  21804317.080       -1884.231          52.450


 108962353.157 8  84905759.06648  20734840.040                    20734841.440
     -1296.668       -1010.392          52.100          52.100    81368030.158 9
  20734842.640        -968.298          54.900


 117254339.700 8  91367071.66048  22312734.360                    22312733.880
      2548.947        1986.194          49.250          49.250



 106837858.440 8  83250330.12948  20330551.680                    20330551.780
      -892.958        -695.812          51.900          51.650    79781582.396 9
  20330553.580        -666.764          56.250


 114651775.677 8  89339058.67847  21817501.440                    21817501.200
      1762.283        1373.207          49.200          46.050    85616631.276 8
  21817505.360        1315.988          52.300


 130612754.192 6 101776183.17845  24854779.260                    24854782.360
      1746.150        1360.644          37.700          32.600



 132032740.784 6 102882639.98946  25125002.880                    25125006.580
     -3527.839       -2748.974          39.400          39.450



 122068529.497 7  95118351.06046  23228863.780                    23228863.140
      3177.783        2476.196          44.250          40.750



 130596863.172 6 101763825.49146  24851754.320                    24851760.880
      -421.622        -328.539          37.550          37.650    97523663.474 6
  24851761.500        -314.769          41.500


 135340522.269 6 105460149.49345  25754444.060                    25754447.080
      1978.713        1541.844          38.600          31.000



 127309962.259 7  99202632.12747  24226260.660                    24226265.000
      3600.807        2805.828          42.450          42.250    95069199.835 7
  24226267.320        2688.964          47.000


