     2.11           OBSERVATION DATA    G (GPS)             RINEX VERSION / TYPE
teqc  2019Feb25                         20230827 15:56:42UTCPGM / RUN BY / DATE
Linux 2.6.32-573.12.1.x86_64|x86_64|gcc|Linux 64|=+         COMMENT
teqc  2019Feb25                         20230827 15:56:42UTCCOMMENT
     2.11           OBSERVATION DATA    M (MIXED)           COMMENT
teqc  2019Feb25     IGN-RGP             20230827 13:04:20UTCCOMMENT
teqc  2019Feb25     Administrateur RGP  20230827 13:04:20UTCCOMMENT
teqc  2019Feb25     IGN-RGP             20230827 13:04:19UTCCOMMENT
teqc  2019Feb25     IGN-RGP             20230827 13:04:19UTCCOMMENT
BIT 2 OF LLI FLAGS DATA COLLECTED UNDER A/S CONDITION       COMMENT
PANA                                                        MARKER NAME
10001M008                                                   MARKER NUMBER
Automatic           Lycee Dorian - Paris 11                 OBSERVER / AGENCY
1700671             LEICA GR10          2.00/4.007          REC # / TYPE / VERS
11311010            LEIAS10         NONE                    ANT # / TYPE
  4201030.6890   175603.7900  4780030.2470                  APPROX POSITION XYZ
        0.0000        0.0000        0.0000                  ANTENNA: DELTA H/E/N
     1     1                                                WAVELENGTH FACT L1/2
    21    L1    L2    C1    P1    P2    D1    D2    S1    S2# / TYPES OF OBSERV
          L5    C5    D5    S5    L7    C7    D7    S7    L8# / TYPES OF OBSERV
          C8    D8    S8                                    # / TYPES OF OBSERV
    30.0000                                                 INTERVAL
DefaultJobName                                              COMMENT
DefaultUserDiscription                                      COMMENT
Project creator:                                            COMMENT
 SNR is mapped to RINEX snr flag value [0-9]                COMMENT
  L1 & L2: min(max(int(snr_dBHz/6), 0), 9)                  COMMENT
    18                                                      LEAP SECONDS
Forced Modulo Decimation to 30 seconds                      COMMENT
teqc_2019 edited: all GLONASS satellites excluded           COMMENT
teqc_2019 edited: all SBAS satellites excluded              COMMENT
teqc_2019 edited: all Galileo satellites excluded           COMMENT
  2023     8    27    12     0    0.0000000     GPS         TIME OF FIRST OBS
                                                            END OF HEADER
 23  8 27 12  0  0.0000000  0  7G03G04G06G09G17G19G31
 110158482.141 8  85837777.786 7  20962455.940                    20962454.700
                                        49.250          47.350



 107192103.229 8  83526337.549 8  20397965.940                    20397963.320
                                        49.400          49.400



 114867789.349 8  89507381.077 7  21858608.460                    21858607.900
                                        48.450          44.700



 112520218.755 8  87678115.103 7  21411874.280                    21411873.160
                                        49.300          47.550



 117065883.873 7  91220160.271 7  22276896.180                    22276892.640
                                        46.100          43.350



 113315060.414 8  88297442.72047  21563135.780                    21563130.500
                                        48.550          43.250



 121517490.243 7  94688976.305 6  23124001.580                    23123999.100
                                        45.650          41.350



 23  8 27 12  0 30.0000000  0  7G03G04G06G09G17G19G31
 110212823.577 8  85880121.730 7  20972796.800                    20972795.560
                                        49.300          47.200



 107169521.685 8  83508741.555 8  20393668.820                    20393666.180
                                        49.600          49.100



 114789356.965 8  89446264.967 7  21843683.260                    21843682.580
                                        48.650          44.800



 112443136.069 8  87618050.711 8  21397205.940                    21397204.740
                                        49.300          48.050



 117130287.020 7  91270344.479 7  22289151.700                    22289148.200
                                        45.450          43.750



 113346267.113 8  88321759.59247  21569074.280                    21569068.960
                                        48.350          43.400



 121535892.885 7  94703316.021 7  23127503.460                    23127500.980
                                        45.850          42.050



 23  8 27 12  1  0.0000000  0  7G03G04G06G09G17G19G31
 110267462.719 8  85922697.647 7  20983194.300                    20983193.060
                                        49.200          47.100



 107147485.742 8  83491570.699 8  20389475.520                    20389472.840
                                        49.600          49.150



 114711237.534 8  89385392.713 7  21828817.620                    21828816.820
                                        48.850          45.550



 112366457.261 8  87558301.040 8  21382614.440                    21382613.180
                                        49.600          48.400



 117195104.866 7  91320851.803 7  22301486.140                    22301482.700
                                        46.650          43.900



 113378111.443 8  88346573.32947  21575134.120                    21575128.760
                                        48.450          43.550



 121554922.575 7  94718144.346 7  23131124.660                    23131122.220
                                        45.700          42.200



 23  8 27 12  1 30.0000000  0  7G03G04G06G09G17G19G31
 110322388.831 8  85965497.178 7  20993646.420                    20993645.160
                                        48.950          47.750



 107125985.658 8  83474817.411 8  20385384.180                    20385381.460
                                        49.050          49.600



 114633423.451 8  89324758.390 7  21814010.100                    21814009.180
                                        48.400          46.350



 112290174.018 8  87498859.601 8  21368098.220                    21368096.920
                                        49.600          48.450



 117260325.209 7  91371672.786 7  22313897.160                    22313893.780
                                        47.050          44.150



 113410582.273 8  88371875.26047  21581313.160                    21581307.740
                                        48.600          43.050



 121574569.255 7  94733453.450 7  23134863.260                    23134860.860
                                        45.900          42.000



 23  8 27 12  2  0.0000000  0  7G03G04G06G09G17G19G31
 110377606.757 8  86008524.093 7  21004154.060                    21004152.800
                                        48.700          47.750



 107105027.229 8  83458486.202 8  20381395.900                    20381393.160
                                        48.700          49.750



 114555922.714 8  89264368.248 7  21799262.180                    21799261.180
                                        48.650          46.750



 112214293.563 8  87439732.035 8  21353658.640                    21353657.320
                                        48.550          48.400



 117325951.542 7  91422810.158 7  22326385.440                    22326382.100
                                        47.300          43.900



 113443683.566 8  88397668.45247  21587612.180                    21587606.680
                                        48.000          43.400



 121594837.869 7  94749247.194 6  23138720.200                    23138717.840
                                        45.100          41.300



 23  8 27 12  2 30.0000000  0  7G03G04G06G09G17G19G31
 110433121.222 8  86051782.073 8  21014718.140                    21014716.880
                                        48.700          48.250



 107084616.153 8  83442581.491 8  20377511.760                    20377509.040
                                        48.900          49.800



 114478743.248 8  89204228.427 7  21784575.400                    21784574.380
                                        48.300          47.550



 112138822.995 8  87380923.856 8  21339297.020                    21339295.700
                                        48.250          48.700



 117391986.998 7  91474266.304 7  22338951.600                    22338948.320
                                        47.100          43.900



 113477419.892 7  88423956.45047  21594032.040                    21594026.520
                                        47.850          43.650



 121615733.919 7  94765529.821 6  23142696.560                    23142694.240
                                        45.100          41.450



 23  8 27 12  3  0.0000000  0  7G03G04G06G09G17G19G31
 110488931.110 8  86095270.239 7  21025338.440                    21025337.220
                                        49.200          47.950



 107064752.298 8  83427103.184 8  20373731.760                    20373729.060
                                        49.600          49.550



 114401887.143 8  89144340.588 7  21769950.140                    21769949.120
                                        48.550          47.100



 112063763.660 8  87322436.132 8  21325013.640                    21325012.360
                                        48.400          48.450



 117458429.323 7  91526039.505 7  22351595.200                    22351591.920
                                        47.050          44.150



 113511789.248 7  88450737.73047  21600572.360                    21600566.800
                                        47.750          44.350



 121637256.087 7  94782300.332 6  23146792.080                    23146789.760
                                        45.400          40.600



 23  8 27 12  3 30.0000000  0  7G03G04G06G09G17G19G31
 110545034.610 8  86138987.211 7  21036014.600                    21036013.420
                                        49.500          47.950



 107045434.756 8  83412050.570 8  20370055.740                    20370053.040
                                        49.700          49.650



 114325355.747 8  89084705.760 7  21755386.680                    21755385.660
                                        48.300          47.150



 111989116.113 7  87264269.267 8  21310808.600                    21310807.380
                                        47.900          48.450



 117525275.008 7  91578126.995 7  22364315.560                    22364312.320
                                        47.500          44.150



 113546789.001 8  88478010.23147  21607232.620                    21607227.060
                                        48.050          44.250



 121659403.101 7  94799557.735 6  23151006.500                    23151004.200
                                        45.350          41.500



 23  8 27 12  4  0.0000000  0  7G03G04G06G09G17G19G31
 110601426.669 8  86182929.032 7  21046745.680                    21046744.540
                                        49.250          47.800



 107026659.392 8  83397420.435 8  20366482.900                    20366480.180
                                        49.400          49.650



 114249147.170 8  89025322.474 7  21740884.640                    21740883.640
                                        48.300          46.950



 111914877.690 8  87206421.199 8  21296681.400                    21296680.240
                                        48.300          48.000



 117592517.743 7  91630523.874 7  22377111.500                    22377108.260
                                        47.600          44.150



 113582413.441 7  88505769.49447  21614011.760                    21614006.200
                                        47.750          43.850



 121682170.035 7  94817298.178 6  23155338.880                    23155336.620
                                        45.700          40.900



 23  8 27 12  4 30.0000000  0  7G03G04G06G09G17G19G31
 110658107.641 8  86227095.997 7  21057531.740                    21057530.620
                                        49.300          47.500



 107008427.493 8  83383213.791 8  20363013.480                    20363010.720
                                        49.400          49.750



 114173264.973 8  88966193.524 7  21726444.680                    21726443.720
                                        48.400          47.150



 111841051.058 8  87148893.996 8  21282632.560                    21282631.460
                                        49.150          48.450



 117660155.951 7  91683228.912 7  22389982.700                    22389979.480
                                        46.800          43.700



 113618662.363 8  88534015.37747  21620909.740                    21620904.180
                                        48.400          43.100



 121705557.812 7  94835522.398 6  23159789.440                    23159787.180
                                        46.050          40.950



 23  8 27 12  5  0.0000000  0  7G03G04G06G09G17G19G31
 110715080.587 8  86271490.451 7  21068373.360                    21068372.260
                                        49.250          47.350



 106990742.940 8  83369433.624 8  20359648.220                    20359645.440
                                        49.100          49.850



 114097715.395 8  88907323.752 7  21712068.040                    21712067.080
                                        48.850          47.350



 111767641.647 8  87091691.888 8  21268663.160                    21268662.080
                                        49.200          48.750



 117728191.406 7  91736243.474 7  22402929.500                    22402926.300
                                        46.400          44.650



 113655538.190 8  88562749.74847  21627927.000                    21627921.460
                                        48.300          43.750



 121729569.619 7  94854232.883 6  23164358.740                    23164356.480
                                        45.900          41.350



 23  8 27 12  5 30.0000000  0  7G03G04G06G09G17G19G31
 110772340.281 8  86316108.372 7  21079269.540                    21079268.460
                                        49.550          47.600



 106973601.401 8  83356076.599 8  20356386.280                    20356383.500
                                        49.250          49.950



 114022496.371 8  88848711.562 7  21697754.280                    21697753.340
                                        48.700          47.250



 111694646.548 8  87034812.654 8  21254772.580                    21254771.540
                                        48.800          48.600



 117796617.288 7  91789562.282 7  22415950.560                    22415947.400
                                        46.850          43.600



 113693034.662 8  88591967.75647  21635062.380                    21635056.820
                                        48.400          43.750



 121754200.414 7  94873425.694 6  23169045.840                    23169043.560
                                        45.750          41.400



 23  8 27 12  6  0.0000000  0  7G03G04G06G09G17G19G31
 110829887.486 8  86360950.305 8  21090220.440                    21090219.360
                                        49.300          48.000



 106957004.454 8  83343143.919 8  20353227.980                    20353225.200
                                        49.150          49.950



 113947611.834 8  88790359.999 7  21683504.200                    21683503.280
                                        48.650          47.550



 111622068.885 8  86978258.686 8  21240961.440                    21240960.400
                                        49.150          48.050



 117865433.194 7  91843184.994 7  22429045.840                    22429042.720
                                        47.400          44.100



 113731151.710 7  88621669.31147  21642315.880                    21642310.300
                                        47.600          43.700



 121779451.173 7  94893101.611 6  23173850.920                    23173848.600
                                        46.150          41.600



 23  8 27 12  6 30.0000000  0  7G03G04G06G09G17G19G31
 110887721.017 8  86406015.357 8  21101225.820                    21101224.780
                                        49.550          48.050



 106940951.731 8  83330635.319 8  20350173.220                    20350170.440
                                        49.350          50.050



 113873063.812 8  88732270.664 7  21669318.140                    21669317.220
                                        48.650          47.650



 111549909.739 8  86922030.827 7  21227229.980                    21227228.920
                                        49.350          47.800



 117934635.829 7  91897109.074 7  22442214.700                    22442211.620
                                        47.900          43.250



 113769887.533 7  88651853.05147  21649687.100                    21649681.500
                                        47.500          43.600



 121805320.561 7  94913259.552 6  23178773.740                    23178771.400
                                        45.950          41.500



 23  8 27 12  7  0.0000000  0  7G03G04G06G09G17G19G31
 110945841.415 8  86451303.930 8  21112285.820                    21112284.800
                                        49.350          48.100



 106925444.518 8  83318551.786 8  20347222.280                    20347219.520
                                        49.400          49.900



 113798855.963 8  88674446.410 7  21655196.800                    21655195.920
                                        48.400          47.550



 111478171.944 8  86866131.287 8  21213578.700                    21213577.600
                                        49.150          48.400



 118004224.419 7  91951333.886 7  22455457.040                    22455453.960
                                        47.750          43.500



 113809241.398 7  88682518.36547  21657175.900                    21657170.320
                                        47.350          44.100



 121831809.403 7  94933900.181 6  23183814.440                    23183812.080
                                        46.150          41.200



 23  8 27 12  7 30.0000000  0  7G03G04G06G09G17G19G31
 111004247.153 8  86496814.850 8  21123400.120                    21123399.140
                                        49.550          48.250



 106910482.127 8  83306892.798 8  20344375.020                    20344372.260
                                        49.750          50.100



 113724990.000 8  88616888.561 7  21641140.520                    21641139.640
                                        48.800          47.700



 111406856.322 8  86810560.730 8  21200007.780                    21200006.620
                                        49.450          48.600



 118074195.937 7  92005857.091 7  22468772.260                    22468769.160
                                        47.850          44.400



 113849211.342 7  88713663.73747  21664781.940                    21664776.400
                                        47.700          44.100



 121858916.363 7  94955022.472 6  23188972.760                    23188970.380
                                        46.250          41.500



 23  8 27 12  8  0.0000000  0  7G03G04G06G09G17G19G31
 111062939.654 8  86542549.219 7  21134568.960                    21134568.040
                                        49.550          47.650



 106896066.721 8  83295660.035 8  20341631.860                    20341629.100
                                        49.650          50.050



 113651470.482 8  88559600.658 7  21627150.180                    21627149.340
                                        48.600          47.550



 111335966.482 8  86755321.943 8  21186517.900                    21186516.700
                                        49.600          48.150



 118144550.076 7  92060678.412 7  22482160.320                    22482157.200
                                        47.800          43.850



 113889797.694 7  88745289.44247  21672505.260                    21672499.740
                                        47.900          44.250



 121886642.790 7  94976627.448 6  23194248.960                    23194246.560
                                        46.600          41.400



 23  8 27 12  8 30.0000000  0  7G03G04G06G09G17G19G31
 111121912.405 8  86588501.973 7  21145791.160                    21145790.260
                                        49.350          47.500



 106882192.502 8  83284848.978 8  20338991.680                    20338988.900
                                        49.400          50.050



 113578294.050 8  88502580.090 7  21613225.120                    21613224.320
                                        48.800          47.350



 111265498.233 8  86700411.650 8  21173108.240                    21173106.980
                                        49.050          48.100



 118215279.214 7  92115791.955 7  22495619.720                    22495616.580
                                        47.900          43.250



 113930992.853 7  88777389.53547  21680344.440                    21680338.960
                                        47.200          43.750



 121914982.053 7  94998709.958 6  23199641.780                    23199639.380
                                        46.750          41.450



 23  8 27 12  9  0.0000000  0  7G03G04G06G09G17G19G31
 111181169.646 8  86634676.400 7  21157067.480                    21157066.600
                                        49.350          46.950



 106868864.424 8  83274463.475 8  20336455.440                    20336452.640
                                        49.100          50.050



 113505468.169 8  88445832.654 7  21599366.800                    21599366.020
                                        48.850          47.150



 111195458.027 8  86645834.915 8  21159780.000                    21159778.700
                                        48.700          48.300



 118286385.054 7  92171199.027 7  22509150.820                    22509147.620
                                        47.800          43.350



 113972800.013 7  88809966.49747  21688300.060                    21688294.660
                                        47.050          43.850



 121943938.612 7  95021273.499 7  23205152.060                    23205149.640
                                        46.650          42.500



 23  8 27 12  9 30.0000000  0  7G03G04G06G09G17G19G31
 111240705.522 8  86681067.950 7  21168396.820                    21168395.940
                                        49.250          46.900



 106856077.448 8  83264499.608 8  20334022.140                    20334019.360
                                        49.300          49.850



 113432990.112 8  88389356.261 7  21585574.680                    21585573.900
                                        49.000          47.200



 111125842.302 8  86591588.965 8  21146532.520                    21146531.200
                                        49.100          48.550



 118357860.825 7  92226894.376 7  22522752.280                    22522749.040
                                        47.200          43.550



 114015213.107 7  88843015.62547  21696371.000                    21696365.640
                                        47.750          42.550



 121973507.196 7  95044313.934 7  23210778.780                    23210776.380
                                        46.600          42.700



 23  8 27 12 10  0.0000000  0  7G03G04G06G09G17G19G31
 111300523.951 8  86727679.672 7  21179779.940                    21179779.020
                                        49.250          46.550



 106843836.048 8  83254960.871 8  20331692.660                    20331689.900
                                        49.600          49.850



 113360866.976 8  88333156.443 7  21571850.080                    21571849.320
                                        48.650          47.300



 111056657.125 8  86537678.481 8  21133366.980                    21133365.660
                                        49.100          48.400



 118429708.514 7  92282879.536 7  22536424.520                    22536421.240
                                        47.000          42.900



 114058234.280 7  88876538.60847  21704557.620                    21704552.320
                                        47.550          43.750



 122003690.636 7  95067833.482 7  23216522.520                    23216520.160
                                        46.350          42.300



 23  8 27 12 10 30.0000000  0  7G03G04G06G09G17G19G31
 111360623.230 8  86774510.246 7  21191216.480                    21191215.540
                                        49.250          46.250



 106832139.212 8  83245846.459 8  20329466.840                    20329464.060
                                        49.350          49.750



 113289100.273 8  88277234.362 7  21558193.300                    21558192.540
                                        48.850          47.200



 110987903.026 8  86484103.876 8  21120283.460                    21120282.140
                                        49.100          48.250



 118501925.258 7  92339152.240 7  22550166.980                    22550163.700
                                        45.700          43.050



 114101860.796 8  88910533.25747  21712859.480                    21712854.200
                                        48.350          43.100



 122034487.587 7  95091831.088 6  23222383.000                    23222380.660
                                        46.500          41.650



 23  8 27 12 11  0.0000000  0  7G03G04G06G09G17G19G31
 111421001.832 8  86821558.477 7  21202706.180                    21202705.220
                                        49.300          46.550



 106820986.048 8  83237155.701 8  20327344.440                    20327341.660
                                        49.350          49.850



 113217691.564 8  88221591.236 7  21544604.640                    21544603.920
                                        48.750          47.500



 110919580.660 8  86430865.714 8  21107282.080                    21107280.780
                                        49.100          48.650



 118574507.356 7  92395709.651 7  22563978.900                    22563975.680
                                        45.350          42.650



 114146090.375 7  88944997.80947  21721276.120                    21721270.820
                                        47.700          42.800



 122065896.369 7  95116305.452 7  23228359.920                    23228357.580
                                        46.100          42.350



 23  8 27 12 11 30.0000000  0  7G03G04G06G09G17G19G31
 111481656.852 8  86868822.084 7  21214248.480                    21214247.480
                                        49.050          46.750



 106810374.310 8  83228886.831 8  20325325.080                    20325322.300
                                        49.250          50.050



 113146641.183 8  88166227.321 7  21531084.180                    21531083.460
                                        48.900          47.850



 110851689.343 8  86377963.432 8  21094362.720                    21094361.460
                                        49.200          48.950



 118647450.580 7  92452548.452 7  22577859.540                    22577856.400
                                        45.450          43.000



 114190918.920 7  88979929.13347  21729806.720                    21729801.380
                                        47.650          42.400



 122097913.931 7  95141254.181 7  23234452.660                    23234450.360
                                        46.400          42.600



 23  8 27 12 12  0.0000000  0  7G03G04G06G09G17G19G31
 111542588.373 8  86916301.148 7  21225843.400                    21225842.360
                                        48.950          46.250



 106800304.659 8  83221040.365 8  20323408.880                    20323406.100
                                        49.500          49.850



 113075952.322 8  88111145.115 7  21517632.520                    21517631.820
                                        48.750          47.750



 110784231.325 8  86325398.792 8  21081525.840                    21081524.580
                                        49.750          48.700



 118720753.232 7  92509667.342 7  22591808.540                    22591805.480
                                        45.350          42.850



 114236345.451 8  89015326.39747  21738451.140                    21738445.740
                                        48.350          42.600



 122130540.434 7  95166677.403 7  23240661.300                    23240659.040
                                        45.950          42.200



 23  8 27 12 12 30.0000000  0  7G03G04G06G09G17G19G31
 111603796.065 8  86963995.415 7  21237490.840                    21237489.800
                                        48.950          46.300



 106790777.329 8  83213616.480 8  20321595.880                    20321593.100
                                        49.600          50.000



 113005627.803 8  88056346.809 7  21504250.200                    21504249.500
                                        49.100          47.400



 110717208.390 8  86273173.167 8  21068771.760                    21068770.520
                                        49.400          48.750



 118794412.981 7  92567064.469 7  22605825.520                    22605822.540
                                        46.400          42.450



 114282368.421 7  89051188.39847  21747209.080                    21747203.640
                                        47.100          42.650



 122163775.291 7  95192574.659 7  23246985.700                    23246983.460
                                        45.950          42.000



 23  8 27 12 13  0.0000000  0  7G03G04G06G09G17G19G31
 111665276.081 8  87011901.890 7  21249190.100                    21249189.060
                                        48.800          46.350



 106781789.027 8  83206612.617 8  20319885.460                    20319882.700
                                        49.600          50.350



 112935666.925 8  88001831.881 7  21490937.060                    21490936.360
                                        49.100          47.650



 110650618.809 8  86221285.241 8  21056100.160                    21056098.900
                                        49.300          48.800



 118868424.298 7  92624735.572 7  22619909.380                    22619906.500
                                        46.200          42.300



 114328982.586 7  89087511.10747  21756079.480                    21756074.020
                                        46.900          44.300



 122197614.332 7  95218942.717 7  23253425.060                    23253422.860
                                        46.000          42.600



 23  8 27 12 13 30.0000000  0  7G03G04G06G09G17G19G31
 111727032.464 8  87060023.690 7  21260941.980                    21260940.920
                                        48.700          46.250



 106773344.393 8  83200032.386 8  20318278.500                    20318275.740
                                        49.700          50.400



 112866076.899 8  87947605.912 7  21477694.520                    21477693.800
                                        49.200          47.400



 110584468.800 8  86169739.823 8  21043512.200                    21043510.940
                                        49.150          48.600



 118942789.835 7  92682682.696 6  22634060.640                    22634057.820
                                        46.050          41.800



 114376190.889 7  89124296.74147  21765062.940                    21765057.520
                                        47.550          43.800



 122232061.316 7  95245784.514 7  23259980.100                    23259977.920
                                        46.150          42.400



 23  8 27 12 14  0.0000000  0  7G03G04G06G09G17G19G31
 111789059.766 8  87108356.619 7  21272745.360                    21272744.300
                                        48.750          46.250



 106765438.486 8  83193871.964 8  20316774.060                    20316771.300
                                        49.700          50.350



 112796855.431 8  87893667.130 7  21464522.140                    21464521.380
                                        48.950          47.900



 110518755.044 8  86118534.352 8  21031007.260                    21031005.980
                                        49.600          48.350



 119017502.592 7  92740900.374 6  22648278.000                    22648275.220
                                        46.850          41.350



 114423986.927 7  89161540.37247  21774158.240                    21774152.860
                                        47.650          43.800



 122267110.702 7  95273095.714 7  23266649.780                    23266647.600
                                        46.050          42.750



 23  8 27 12 14 30.0000000  0  7G03G04G06G09G17G19G31
 111851358.600 8  87156901.130 7  21284600.460                    21284599.380
                                        49.000          46.150



 106758072.422 8  83188132.188 8  20315372.340                    20315369.600
                                        49.700          50.350



 112728006.260 8  87840018.461 8  21451420.580                    21451419.780
                                        48.850          48.000



 110453480.236 8  86067670.894 8  21018585.860                    21018584.560
                                        49.650          48.350



 119092561.207 7  92799387.565 6  22662561.200                    22662558.400
                                        47.650          41.700



 114472370.038 7  89199241.47347  21783365.240                    21783359.880
                                        47.800          43.900



 122302762.702 7  95300876.481 6  23273434.160                    23273431.980
                                        45.900          41.750



 23  8 27 12 15  0.0000000  0  7G03G04G06G09G17G19G31
 111913929.785 8  87205657.865 7  21296507.380                    21296506.280
                                        49.000          45.950



 106751247.518 8  83182814.089 8  20314073.620                    20314070.860
                                        49.650          50.200



 112659533.387 8  87786662.990 7  21438390.640                    21438389.820
                                        48.850          47.900



 110388647.277 8  86017151.748 8  21006248.560                    21006247.220
                                        49.700          48.750



 119167965.246 7  92858143.888 7  22676910.160                    22676907.340
                                        47.650          42.550



 114521339.698 8  89237399.62347  21792683.900                    21792678.540
                                        48.350          43.050



 122339018.043 7  95329127.382 6  23280333.340                    23280331.140
                                        45.800          41.950



 23  8 27 12 15 30.0000000  0  7G03G04G06G09G17G19G31
 111976770.203 8  87254624.394 7  21308465.540                    21308464.420
                                        49.000          46.400



 106744961.087 8  83177915.592 8  20312877.360                    20312874.600
                                        49.750          50.200



 112591436.764 8  87733600.719 7  21425432.280                    21425431.460
                                        49.050          47.900



 110324255.104 8  85966976.068 8  20993995.120                    20993993.760
                                        49.700          48.600



 119243708.970 7  92917164.904 7  22691323.780                    22691320.940
                                        47.550          43.200



 114570891.322 8  89276011.22947  21802113.300                    21802107.960
                                        48.300          42.300



 122375873.047 7  95357845.540 6  23287346.660                    23287344.420
                                        45.900          41.950



 23  8 27 12 16  0.0000000  0  7G03G04G06G09G17G19G31
 112039882.793 8  87303802.988 7  21320475.520                    21320474.360
                                        48.850          46.350



 106739216.595 8  83173439.379 8  20311784.200                    20311781.440
                                        49.600          50.150



 112523722.555 8  87680836.410 7  21412546.700                    21412545.880
                                        49.100          47.850



 110260308.787 8  85917147.804 8  20981826.520                    20981825.140
                                        49.700          48.400



 119319793.983 7  92976451.847 7  22705802.360                    22705799.520
                                        47.950          43.400



 114621026.852 7  89315077.85347  21811653.820                    21811648.460
                                        47.400          43.000



 122413330.753 7  95387033.363 7  23294474.640                    23294472.360
                                        45.050          42.150



 23  8 27 12 16 30.0000000  0  7G03G04G06G09G17G19G31
 112103266.547 8  87353192.894 7  21332537.060                    21332535.920
                                        48.400          46.350



 106734013.387 8  83169384.950 8  20310794.060                    20310791.300
                                        49.400          50.100



 112456392.787 8  87628371.678 7  21399734.260                    21399733.440
                                        48.850          47.750



 110196809.264 8  85867667.693 8  20969742.940                    20969741.560
                                        49.600          48.450



 119396217.659 7  93036002.679 7  22720345.420                    22720342.560
                                        47.300          42.950



 114671743.719 7  89354597.45547  21821304.960                    21821299.620
                                        47.100          43.600



 122451389.084 7  95416689.203 7  23301716.880                    23301714.600
                                        45.050          42.450



 23  8 27 12 17  0.0000000  0  7G03G04G06G09G17G19G31
 112166916.575 8  87402790.275 7  21344649.300                    21344648.140
                                        48.400          46.600



 106729347.071 8  83165748.873 8  20309906.060                    20309903.320
                                        49.650          50.250



 112389445.834 8  87576205.232 7  21386994.660                    21386993.860
                                        48.800          47.700



 110133753.770 8  85818533.581 8  20957743.840                    20957742.460
                                        49.900          48.650



 119472973.072 7  93095812.025 7  22734951.600                    22734948.700
                                        47.100          42.800



 114723035.782 7  89394565.25147  21831065.560                    21831060.220
                                        46.800          43.150



 122490042.878 7  95446809.026 7  23309072.460                    23309070.180
                                        45.600          42.950



 23  8 27 12 17 30.0000000  0  7G03G04G06G09G17G19G31
 112230835.290 8  87452597.025 7  21356812.660                    21356811.520
                                        48.700          46.500



 106725220.410 8  83162533.285 8  20309120.780                    20309118.040
                                        49.700          50.100



 112322887.129 8  87524341.334 7  21374328.940                    21374328.140
                                        49.000          47.350



 110071146.675 8  85769748.856 8  20945830.100                    20945828.700
                                        49.800          48.450



 119550060.984 7  93155880.440 7  22749621.060                    22749618.140
                                        46.650          42.050



 114774904.127 7  89434982.09547  21840935.820                    21840930.500
                                        47.750          42.850



 122529294.504 7  95477394.688 7  23316541.800                    23316539.540
                                        45.350          42.500



 23  8 27 12 18  0.0000000  0  7G03G04G06G09G17G19G31
 112295021.486 8  87502612.204 7  21369026.920                    21369025.780
                                        48.950          46.100



 106721632.584 8  83159737.593 8  20308438.020                    20308435.300
                                        49.800          50.050



 112256718.604 8  87472781.478 7  21361737.460                    21361736.660
                                        49.050          47.050



 110008988.831 8  85721314.209 8  20934001.820                    20934000.420
                                        49.750          48.750



 119627478.298 7  93216205.573 6  22764353.160                    22764350.200
                                        46.650          41.900



 114827345.939 8  89475845.82047  21850915.180                    21850909.860
                                        48.250          42.450



 122569142.121 7  95508444.757 7  23324124.540                    23324122.320
                                        45.550          42.750



 23  8 27 12 18 30.0000000  0  7G03G04G06G09G17G19G31
 112359470.744 8  87552832.362 7  21381291.240                    21381290.120
                                        48.850          45.600



 106718579.519 8  83157358.588 8  20307857.040                    20307854.320
                                        49.800          50.000



 112190938.987 8  87421524.668 7  21349219.980                    21349219.160
                                        48.950          47.700



 109947277.778 8  85673227.719 8  20922258.560                    20922257.160
                                        49.850          48.800



 119705219.131 7  93276782.763 7  22779146.860                    22779143.860
                                        46.650          42.450



 114880355.542 8  89517151.96747  21861002.640                    21860997.260
                                        48.150          42.500



 122609580.812 7  95539955.411 7  23331819.780                    23331817.560
                                        44.850          42.900



 23  8 27 12 19  0.0000000  0  7G03G04G06G09G17G19G31
 112424187.415 8  87603260.914 7  21393606.440                    21393605.300
                                        49.000          45.800



 106716065.959 8  83155399.972 8  20307378.720                    20307376.000
                                        49.800          50.000



 112125555.759 8  87370576.741 8  21336777.940                    21336777.100
                                        48.650          48.000



 109886019.858 8  85625494.318 8  20910601.520                    20910600.120
                                        49.800          49.250



 119783285.733 7  93337613.808 7  22794002.520                    22793999.500
                                        46.300          43.150



 114933935.742 7  89558902.74347  21871198.660                    21871193.220
                                        47.850          42.600



 122650614.609 7  95571929.788 7  23339628.220                    23339626.040
                                        45.300          43.250



 23  8 27 12 19 30.0000000  0  7G03G04G06G09G17G19G31
 112489167.019 8  87653894.345 7  21405971.680                    21405970.520
                                        48.800          46.150



 106714087.693 8  83153858.484 8  20307002.260                    20306999.520
                                        49.400          50.100



 112060567.495 8  87319936.564 8  21324411.040                    21324410.220
                                        49.000          48.250



 109825212.526 8  85578112.033 8  20899030.240                    20899028.840
                                        49.850          49.100



 119861671.955 7  93398693.900 7  22808919.000                    22808916.000
                                        46.300          43.650



 114988080.606 7  89601093.50347  21881502.140                    21881496.680
                                        47.650          43.450



 122692238.127 7  95604363.700 7  23347548.900                    23347546.740
                                        45.050          43.050



 23  8 27 12 20  0.0000000  0  7G03G04G06G09G17G19G31
 112554408.381 8  87704731.746 7  21418386.740                    21418385.580
                                        48.150          46.150



 106712643.865 8  83152733.429 8  20306727.500                    20306724.760
                                        49.300          50.150



 111995976.104 8  87269605.639 7  21312119.680                    21312118.880
                                        48.850          47.900



 109764856.563 8  85531081.455 8  20887544.860                    20887543.460
                                        49.750          48.700



 119940374.637 7  93460020.545 7  22823895.740                    22823892.760
                                        45.350          43.000



 115042787.433 7  89643722.16747  21891912.540                    21891907.080
                                        47.800          42.300



 122734449.809 7  95637255.897 7  23355581.520                    23355579.400
                                        44.950          42.700



 23  8 27 12 20 30.0000000  0  7G03G04G06G09G17G19G31
 112619912.406 8  87755773.817 7  21430851.780                    21430850.640
                                        48.250          46.650



 106711735.713 8  83152025.799 8  20306554.660                    20306551.920
                                        49.450          50.100



 111931785.607 8  87219587.092 7  21299904.600                    21299903.820
                                        48.600          47.800



 109704954.836 8  85484404.836 8  20876145.900                    20876144.500
                                        49.750          48.650



 120019392.813 7  93521593.070 7  22838932.480                    22838929.520
                                        46.050          43.250



 115098055.857 7  89686788.44747  21902429.820                    21902424.320
                                        47.550          42.650



 122777250.160 7  95670606.824 7  23363726.140                    23363724.040
                                        45.350          42.850



 23  8 27 12 21  0.0000000  0  7G03G04G06G09G17G19G31
 112685682.236 8  87807022.980 7  21443367.380                    21443366.300
                                        48.300          46.600



 106711366.618 8  83151738.200 8  20306484.420                    20306481.680
                                        49.650          50.000



 111868002.275 8  87169885.809 7  21287767.000                    21287766.240
                                        48.850          47.700



 109645512.427 8  85438086.106 8  20864834.380                    20864832.960
                                        49.950          48.550



 120098728.118 7  93583412.694 7  22854029.580                    22854026.640
                                        46.850          43.000



 115153887.374 8  89730293.51947  21913054.220                    21913048.720
                                        48.050          42.600



 122820641.721 7  95704418.412 7  23371983.300                    23371981.220
                                        45.450          42.050



 23  8 27 12 21 30.0000000  0  7G03G04G06G09G17G19G31
 112751706.602 8  87858470.482 7  21455931.440                    21455930.400
                                        48.300          47.000



 106711525.564 8  83151862.069 8  20306514.640                    20306511.920
                                        49.550          50.150



 111804617.900 8  87120495.407 7  21275705.320                    21275704.580
                                        49.000          47.800



 109586519.908 8  85392117.942 8  20853608.460                    20853607.020
                                        50.150          48.600



 120178367.363 7  93645469.175 7  22869184.500                    22869181.560
                                        47.050          43.050



 115210269.236 7  89774227.41147  21923783.380                    21923777.840
                                        47.550          42.850



 122864612.279 7  95738681.190 7  23380350.620                    23380348.520
                                        45.200          42.600



 23  8 27 12 22  0.0000000  0  8G03G04G06G09G11G17G19G31
 112817993.112 8  87910122.255 7  21468545.380                    21468544.380
                                        48.250          46.850



 106712220.351 8  83152403.482 8  20306646.840                    20306644.100
                                        49.400          50.050



 111741643.137 8  87071424.179 7  21263721.600                    21263720.860
                                        48.900          47.650



 109527986.780 8  85346507.739 8  20842469.980                    20842468.500
                                        50.150          48.600



 130385902.078 6 101599401.970 7  24811611.720                    24811610.400
                                        39.150          44.000



 120258315.870 7  93707766.645 7  22884398.260                    22884395.340
                                        46.850          43.200



 115267206.967 7  89818594.45847  21934618.280                    21934612.760
                                        46.950          43.200



 122909168.829 7  95773400.572 7  23388829.460                    23388827.360
                                        44.400          42.650



 23  8 27 12 22 30.0000000  0  8G03G04G06G09G11G17G19G31
 112884540.001 8  87961976.947 7  21481208.860                    21481207.900
                                        48.400          47.000



 106713449.456 8  83153361.247 8  20306880.700                    20306877.980
                                        49.650          50.050



 111679079.338 8  87022673.174 7  21251816.080                    21251815.360
                                        48.900          47.550



 109469913.180 8  85301255.629 8  20831418.940                    20831417.400
                                        49.950          48.900



 130279022.000 6 101516118.877 7  24791273.020                    24791272.120
                                        40.150          44.700



 120338570.102 7  93770302.314 7  22899670.220                    22899667.340
                                        46.850          44.250



 115324697.694 7  89863392.39247  21945558.420                    21945552.940
                                        47.000          43.300



 122954309.166 7  95808574.872 7  23397419.380                    23397417.260
                                        44.650          42.850



 23  8 27 12 23  0.0000000  0  8G03G04G06G09G11G17G19G31
 112951341.237 7  88014029.819 7  21493920.740                    21493919.860
                                        47.950          46.950



 106715207.100 8  83154730.856 8  20307215.160                    20307212.440
                                        49.650          50.050



 111616923.551 8  86974240.117 7  21239988.200                    21239987.480
                                        48.600          47.650



 109412294.959 8  85256358.336 8  20820454.560                    20820453.000
                                        49.800          48.650



 130172222.262 6 101432898.375 7  24770949.620                    24770948.720
                                        41.000          44.250



 120419122.544 7  93833070.358 7  22914998.940                    22914996.100
                                        46.650          43.900



 115382733.735 7  89908615.23647  21956602.320                    21956596.880
                                        46.700          42.400



 123000026.626 7  95844198.872 7  23406119.120                    23406117.020
                                        45.000          42.750



 23  8 27 12 23 30.0000000  0  8G03G04G06G09G11G17G19G31
 113018401.013 7  88066284.135 7  21506681.820                    21506681.020
                                        47.600          46.600



 106717497.586 8  83156515.666 8  20307651.020                    20307648.300
                                        49.700          50.100



 111555183.017 8  86926130.629 8  21228239.340                    21228238.640
                                        48.800          48.000



 109355138.132 8  85211820.561 8  20809577.980                    20809576.420
                                        49.650          48.850



 130065509.922 6 101349745.969 7  24750642.880                    24750641.960
                                        41.200          44.150



 120499975.324 7  93896072.420 7  22930384.800                    22930382.020
                                        46.100          44.350



 115441317.357 7  89954264.77446  21967750.420                    21967745.000
                                        47.550          41.550



 123046324.540 7  95880275.162 7  23414929.320                    23414927.240
                                        44.500          43.150



 23  8 27 12 24  0.0000000  0  8G03G04G06G09G11G17G19G31
 113085717.957 7  88118738.833 7  21519491.820                    21519491.080
                                        47.350          46.050



 106720319.711 8  83158714.751 8  20308188.040                    20308185.300
                                        49.850          49.950



 111493859.407 8  86878346.008 8  21216569.820                    21216569.160
                                        49.000          48.050



 109298443.136 8  85167642.679 8  20798789.240                    20798787.700
                                        49.700          49.100



 129958886.572 6 101266662.912 7  24730353.080                    24730352.180
                                        40.550          43.800



 120581125.321 7  93959306.076 7  22945827.220                    22945824.500
                                        45.700          43.500



 115500445.823 7  90000338.86147  21979002.220                    21978996.800
                                        46.950          42.650



 123093201.164 7  95916802.381 6  23423849.640                    23423847.600
                                        44.050          41.950



 23  8 27 12 24 30.0000000  0  8G03G04G06G09G11G17G19G31
 113153291.047 7  88171393.127 7  21532350.560                    21532349.880
                                        47.850          45.900



 106723672.660 8  83161327.445 8  20308826.100                    20308823.340
                                        50.000          49.600



 111432954.812 8  86830887.904 7  21204980.040                    21204979.400
                                        49.100          47.650



 109242210.838 8  85123825.339 8  20788088.560                    20788087.040
                                        50.100          49.100



 129852354.088 6 101183650.657 7  24710080.560                    24710079.660
                                        40.550          42.800



 120662569.676 7  94022769.138 7  22961325.600                    22961322.940
                                        45.450          42.900



 115560116.259 7  90046835.27446  21990357.140                    21990351.680
                                        47.500          41.150



 123140654.155 7  95953778.711 7  23432879.640                    23432877.620
                                        44.200          42.200



 23  8 27 12 25  0.0000000  0  8G03G04G06G09G11G17G19G31
 113221117.101 7  88224244.541 7  21545257.440                    21545256.780
                                        47.900          46.100



 106727553.307 8  83164351.332 8  20309564.580                    20309561.760
                                        49.650          49.850



 111372469.057 8  86783756.180 7  21193469.960                    21193469.320
                                        49.400          47.400



 109186439.777 8  85080367.402 8  20777475.640                    20777474.140
                                        50.050          49.100



 129745912.234 6 101100709.003 7  24689825.280                    24689824.380
                                        41.000          42.100



 120744302.883 7  94086457.234 7  22976878.960                    22976876.380
                                        45.450          42.750



 115620323.942 7  90093750.30247  22001814.340                    22001808.840
                                        47.800          42.650



 123188679.562 7  95991201.088 7  23442018.560                    23442016.560
                                        43.350          42.100



 23  8 27 12 25 30.0000000  0  8G03G04G06G09G11G17G19G31
 113289194.288 7  88277291.653 7  21558212.120                    21558211.480
                                        47.950          46.300



 106731959.964 8  83167785.091 8  20310403.160                    20310400.300
                                        49.250          50.150



 111312403.376 8  86736951.768 7  21182039.820                    21182039.160
                                        49.250          47.100



 109131129.985 8  85037268.885 8  20766950.520                    20766949.040
                                        49.900          49.000



 129639562.197 6 101017838.876 7  24669587.500                    24669586.580
                                        41.950          42.650



 120826321.287 7  94150367.585 7  22992486.560                    22992484.080
                                        44.950          42.650



 115681065.212 7  90141081.12147  22013373.080                    22013367.540
                                        47.550          42.850



 123237275.066 7  96029067.690 6  23451265.940                    23451264.000
                                        43.200          41.900



 23  8 27 12 26  0.0000000  0  8G03G04G06G09G11G17G19G31
 113357524.414 8  88330535.855 7  21571214.940                    21571214.300
                                        48.100          46.000



 106736894.550 8  83171630.233 8  20311342.160                    20311339.300
                                        49.100          50.000



 111252762.557 8  86690478.431 7  21170690.540                    21170689.840
                                        49.200          47.050



 109076284.980 8  84994532.556 8  20756513.840                    20756512.360
                                        49.750          48.450



 129533308.667 6 100935043.970 7  24649368.060                    24649367.160
                                        41.700          42.250



 120908625.198 7  94214500.421 7  23008148.480                    23008146.100
                                        44.650          43.850



 115742339.966 7  90188827.64447  22025033.340                    22025027.780
                                        47.350          42.950



 123286441.622 7  96067379.286 6  23460621.980                    23460620.080
                                        43.600          41.200



 23  8 27 12 26 30.0000000  0  8G03G04G06G09G11G17G19G31
 113426105.716 8  88383975.776 7  21584265.580                    21584264.960
                                        48.250          46.350



 106742355.312 8  83175885.384 8  20312381.300                    20312378.440
                                        49.500          50.000



 111193547.851 8  86644337.113 7  21159422.360                    21159421.620
                                        49.400          46.950



 109021904.806 8  84952158.419 8  20746165.620                    20746164.120
                                        50.050          48.850



 129427152.928 7 100852325.223 6  24629167.260                    24629166.400
                                        42.350          41.650



 120991210.574 7  94278852.547 7  23023863.980                    23023861.740
                                        43.900          43.600



 115804144.896 7  90236987.28446  22036794.480                    22036788.940
                                        47.100          41.950



 123336176.626 7  96106133.813 6  23470086.220                    23470084.340
                                        44.400          41.600



 23  8 27 12 27  0.0000000  0  8G03G04G06G09G11G17G19G31
 113494939.471 8  88437612.406 7  21597364.260                    21597363.640
                                        48.000          47.050



 106748343.662 8  83180551.649 8  20313520.820                    20313517.960
                                        49.350          50.050



 111134763.605 8  86598531.232 7  21148236.080                    21148235.300
                                        49.500          47.100



 108967992.428 8  84910148.817 8  20735906.420                    20735904.900
                                        50.100          49.200



 129321099.194 7 100769685.991 7  24608985.860                    24608984.980
                                        42.350          42.600



 121074076.821 7  94343423.538 7  23039632.940                    23039630.800
                                        44.800          43.350



 115866479.664 7  90285559.80447  22048656.420                    22048650.880
                                        47.200          43.150



 123386480.284 7  96145331.468 6  23479658.640                    23479656.800
                                        44.800          41.350



 23  8 27 12 27 30.0000000  0  8G03G04G06G09G11G17G19G31
 113564021.537 7  88491442.518 7  21610510.200                    21610509.600
                                        47.950          46.850



 106754855.457 8  83185625.794 8  20314759.940                    20314757.100
                                        49.600          50.050



 111076408.712 8  86553059.907 7  21137131.500                    21137130.660
                                        49.450          46.950



 108914545.503 8  84868501.894 8  20725735.800                    20725734.260
                                        50.100          49.100



 129215146.310 6 100687125.359 6  24588823.640                    24588822.780
                                        41.700          41.800



 121157218.346 7  94408209.056 7  23055454.280                    23055452.220
                                        45.550          43.650



 115929338.199 7  90334540.42647  22060618.040                    22060612.520
                                        46.700          42.850



 123437347.798 7  96184968.463 6  23489338.420                    23489336.560
                                        44.650          41.250



 23  8 27 12 28  0.0000000  0  8G03G04G06G09G11G17G19G31
 113633354.775 8  88545468.370 7  21623703.920                    21623703.360
                                        48.250          46.750



 106761893.584 8  83191110.061 8  20316099.240                    20316096.380
                                        49.850          50.200



 111018488.954 8  86507927.649 7  21126109.720                    21126108.840
                                        49.750          47.350



 108861568.500 8  84827221.149 8  20715654.580                    20715653.040
                                        49.950          48.900



 129109300.084 6 100604647.826 7  24568681.700                    24568680.880
                                        41.650          42.150



 121240635.318 7  94473209.183 7  23071328.040                    23071326.060
                                        46.300          43.800



 115992721.221 7  90383929.74847  22072679.460                    22072673.960
                                        47.150          43.050



 123488780.825 7  96225046.103 6  23499125.820                    23499123.980
                                        44.600          41.250



 23  8 27 12 28 30.0000000  0  8G03G04G06G09G11G17G19G31
 113702936.045 7  88599687.495 7  21636944.840                    21636944.320
                                        47.900          46.800



 106769454.968 8  83197002.059 8  20317538.100                    20317535.260
                                        49.750          50.150



 110961004.249 8  86463134.389 7  21115170.740                    21115169.800
                                        49.800          47.600



 108809060.104 8  84786305.551 8  20705662.540                    20705661.000
                                        49.600          49.000



 129003560.426 6 100522253.342 7  24548560.040                    24548559.240
                                        40.650          42.950



 121324322.911 7  94538420.221 7  23087253.320                    23087251.320
                                        46.250          43.400



 116056624.228 7  90433724.22647  22084839.820                    22084834.360
                                        47.050          43.300



 123540775.465 7  96265561.368 6  23509020.100                    23509018.280
                                        44.750          41.600



 23  8 27 12 29  0.0000000  0  8G03G04G06G09G11G17G19G31
 113772763.506 7  88654098.475 7  21650232.600                    21650232.120
                                        47.750          46.650



 106777537.719 8  83203300.323 8  20319076.180                    20319073.340
                                        49.550          49.850



 110903955.721 8  86418681.015 7  21104314.760                    21104313.760
                                        49.600          47.150



 108757020.092 8  84745754.915 8  20695759.620                    20695758.100
                                        49.950          48.650



 128897928.469 6 100439942.808 7  24528458.840                    24528458.060
                                        38.500          43.100



 121408277.323 7  94603839.168 7  23103229.360                    23103227.380
                                        46.050          42.700



 116121043.244 7  90483920.81447  22097098.360                    22097092.960
                                        47.150          42.300



 123593329.132 7  96306512.253 6  23519020.760                    23519018.940
                                        45.050          40.600



 23  8 27 12 29 30.0000000  0  8G03G04G06G09G11G17G19G31
 113842842.166 7  88708705.177 7  21663568.160                    21663567.740
                                        47.850          46.800



 106786146.773 8  83210008.673 8  20320714.420                    20320711.600
                                        49.300          49.600



 110847351.332 8  86374573.707 7  21093543.300                    21093542.280
                                        49.850          47.600



 108705455.104 8  84705574.421 8  20685947.080                    20685945.580
                                        50.250          49.250



 128792412.192 6 100357722.447 7  24508379.600                    24508378.860
                                        39.000          43.700



 121492501.385 7  94669468.231 7  23119256.740                    23119254.740
                                        46.100          42.000



 116185981.351 7  90534521.86747  22109455.700                    22109450.340
                                        47.650          42.050



 123646445.691 7  96347901.744 6  23529128.540                    23529126.720
                                        45.350          40.900



 23  8 27 12 30  0.0000000  0  8G03G04G06G09G11G17G19G31
 113913161.311 8  88763499.256 7  21676949.480                    21676949.120
                                        48.600          46.650



 106795271.454 8  83217118.815 8  20322450.780                    20322447.940
                                        49.300          49.550



 110791183.398 8  86330806.498 8  21082854.900                    21082853.840
                                        49.550          48.100



 108654356.148 8  84665757.073 8  20676223.240                    20676221.780
                                        50.600          49.550



 128687003.947 6 100275586.232 7  24488320.940                    24488320.260
                                        39.900          44.300



 121576982.901 7  94735297.888 7  23135333.140                    23135331.100
                                        45.400          42.100



 116251425.808 7  90585517.49247  22121909.400                    22121904.060
                                        47.600          42.200



 123700113.269 7  96389720.610 6  23539341.200                    23539339.340
                                        45.400          39.950



 23  8 27 12 30 30.0000000  0  8G03G04G06G09G11G17G19G31
 113983725.160 8  88818484.020 7  21690377.400                    21690377.040
                                        48.750          46.800



 106804915.937 8  83224634.003 8  20324286.040                    20324283.200
                                        49.600          49.650



 110735459.091 8  86287384.979 8  21072250.900                    21072249.840
                                        49.550          48.400



 108603729.066 8  84626307.431 8  20666589.220                    20666587.760
                                        50.350          49.100



 128581711.011 6 100193539.881 7  24468284.220                    24468283.580
                                        40.650          44.850



 121661724.368 7  94801330.130 6  23151458.960                    23151456.900
                                        45.450          41.300



 116317379.729 7  90636910.12047  22134460.020                    22134454.700
                                        47.300          42.700



 123754335.663 7  96431971.799 6  23549659.440                    23549657.520
                                        45.600          39.700



 23  8 27 12 31  0.0000000  0  8G03G04G06G09G11G17G19G31
 114054535.439 8  88873660.817 7  21703852.200                    21703851.860
                                        48.650          47.050



 106815081.837 8  83232555.484 8  20326220.540                    20326217.680
                                        49.650          49.750



 110680183.094 8  86244312.785 8  21061732.220                    21061731.180
                                        49.650          48.250



 108553577.209 8  84587228.099 8  20657045.620                    20657044.160
                                        50.000          48.700



 128476538.126 6 100111587.028 7  24448270.420                    24448269.800
                                        40.550          45.200



 121746724.675 7  94867564.055 7  23167634.060                    23167631.980
                                        45.650          42.350



 116383842.362 7  90688699.12347  22147107.500                    22147102.160
                                        46.800          42.950



 123809112.820 7  96474655.251 6  23560083.260                    23560081.300
                                        45.450          40.250



 23  8 27 12 31 30.0000000  0  8G03G04G06G09G11G17G19G31
 114125588.563 8  88929026.851 7  21717373.220                    21717372.880
                                        48.450          47.350



 106825765.503 8  83240880.422 8  20328253.560                    20328250.680
                                        49.600          49.600



 110625354.758 8  86201589.439 8  21051298.720                    21051297.700
                                        49.750          48.200



 108503898.579 8  84548517.519 8  20647592.080                    20647590.580
                                        50.250          48.650



 128371484.636 6 100029727.277 7  24428279.300                    24428278.680
                                        38.500          45.350



 121831978.860 7  94933995.810 7  23183857.500                    23183855.400
                                        45.850          42.800



 116450808.328 7  90740880.36647  22159850.700                    22159845.380
                                        47.100          42.400



 123864440.259 7  96517767.519 6  23570611.760                    23570609.760
                                        45.550          39.750



 23  8 27 12 32  0.0000000  0  8G03G04G06G09G11G17G19G31
 114196885.046 8  88984582.507 7  21730940.580                    21730940.240
                                        48.300          47.500



 106836967.270 8  83249609.064 8  20330385.200                    20330382.300
                                        49.550          49.900



 110570977.532 8  86159217.593 8  21040951.060                    21040950.080
                                        49.650          48.500



 108454695.295 8  84510177.325 8  20638228.980                    20638227.460
                                        50.400          48.850



 128266554.116 6  99947963.329 7  24408311.580                    24408310.980
                                        37.850          44.200



 121917485.455 7  95000624.240 7  23200128.980                    23200126.860
                                        46.250          43.200



 116518276.033 7  90793452.56147  22172689.400                    22172684.060
                                        47.150          42.900



 123920317.550 7  96561308.234 6  23581244.900                    23581242.860
                                        45.300          40.000



 23  8 27 12 32 30.0000000  0  8G03G04G06G09G11G17G19G31
 114268422.141 8  89040325.655 7  21744553.700                    21744553.380
                                        48.000          46.850



 106848684.339 8  83258739.241 8  20332614.880                    20332611.980
                                        49.400          49.800



 110517051.617 8  86117197.408 8  21030689.300                    21030688.360
                                        49.550          48.300



 108405966.171 8  84472206.605 8  20628956.120                    20628954.560
                                        50.400          48.850



 128161746.888 6  99866295.441 7  24388367.300                    24388366.780
                                        40.250          43.950



 122003239.275 7  95067445.319 7  23216447.520                    23216445.360
                                        45.950          43.200



 116586240.589 7  90846411.91047  22185622.660                    22185617.340
                                        47.800          42.000



 123976740.895 7  96605274.430 6  23591981.960                    23591979.900
                                        45.900          39.750



 23  8 27 12 33  0.0000000  0  8G03G04G06G09G11G17G19G31
 114340200.846 7  89096257.066 7  21758212.780                    21758212.480
                                        47.950          46.300



 106860917.565 8  83268271.643 8  20334942.780                    20334939.880
                                        49.550          49.750



 110463580.929 8  86075531.939 7  21020514.160                    21020513.260
                                        49.750          47.850



 108357713.771 8  84434607.357 8  20619773.980                    20619772.380
                                        50.300          48.700



 128057067.072 7  99784726.815 7  24368447.300                    24368446.820
                                        42.400          43.750



 122089239.536 7  95134458.431 7  23232812.960                    23232810.780
                                        45.400          43.800



 116654701.137 7  90899757.74446  22198650.320                    22198645.000
                                        47.400          41.850



 124033710.406 7  96649666.216 6  23602822.920                    23602820.880
                                        46.050          40.950



 23  8 27 12 33 30.0000000  0  8G03G04G06G09G11G17G19G31
 114412219.586 7  89152375.522 7  21771917.540                    21771917.260
                                        47.700          46.150



 106873665.235 8  83278204.897 8  20337368.560                    20337365.680
                                        49.600          49.850



 110410566.831 8  86034222.264 8  21010425.900                    21010425.040
                                        49.900          48.050



 108309938.084 8  84397379.596 8  20610682.540                    20610680.900
                                        50.300          48.750



 127952516.140 7  99703258.619 7  24348551.840                    24348551.400
                                        42.050          44.150



 122175482.690 7  95201660.770 7  23249224.660                    23249222.460
                                        44.600          44.250



 116723654.283 7  90953487.43646  22211771.700                    22211766.380
                                        47.150          41.300



 124091222.933 7  96694481.150 6  23613767.240                    23613765.160
                                        46.200          41.050



 23  8 27 12 34  0.0000000  0  8G03G04G06G09G11G17G19G31
 114484478.142 7  89208680.835 7  21785667.920                    21785667.640
                                        47.600          46.250



 106886926.927 8  83288538.689 8  20339892.180                    20339889.300
                                        49.550          49.700



 110358012.017 8  85993270.472 7  21000425.020                    21000424.200
                                        49.950          47.800



 108262640.457 8  84360524.331 8  20601682.060                    20601680.400
                                        50.200          48.700



 127848096.930 6  99621893.068 7  24328681.460                    24328681.040
                                        41.500          43.300



 122261966.732 7  95269050.822 7  23265682.140                    23265680.020
                                        44.700          44.500



 116793097.606 7  91007599.08646  22224986.380                    22224981.040
                                        47.300          41.450



 124149277.204 7  96739718.199 6  23624814.660                    23624812.580
                                        45.550          40.800



 23  8 27 12 34 30.0000000  0  8G03G04G06G09G11G17G19G31
 114556977.202 7  89265173.556 7  21799464.060                    21799463.800
                                        47.500          46.550



 106900703.202 8  83299273.445 8  20342513.720                    20342510.860
                                        49.550          49.750



 110305920.046 8  85952679.348 7  20990512.240                    20990511.420
                                        49.950          47.750



 108215823.055 8  84324043.263 8  20592773.000                    20592771.300
                                        50.050          48.950



 127743813.126 7  99540633.046 7  24308836.840                    24308836.420
                                        42.000          42.950



 122348690.175 7  95336627.416 7  23282185.180                    23282183.120
                                        44.500          44.950



 116863029.850 7  91062091.68846  22238294.140                    22238288.760
                                        47.100          41.200



 124207872.842 7  96785377.092 6  23635965.080                    23635963.040
                                        45.350          41.000



 23  8 27 12 35  0.0000000  0  8G03G04G06G09G11G17G19G31
 114629710.327 7  89321848.673 7  21813304.740                    21813304.500
                                        47.750          47.000



 106914987.371 8  83310403.952 8  20345231.940                    20345229.060
                                        49.450          49.800



 110254287.326 8  85912446.078 7  20980686.860                    20980686.040
                                        50.000          47.900



 108169480.928 8  84287932.543 8  20583954.340                    20583952.640
                                        50.050          48.950



 127639661.471 7  99459475.963 7  24289017.420                    24289017.000
                                        42.800          42.650



 122435644.559 7  95404383.960 7  23298732.120                    23298730.200
                                        45.250          44.950



 116933442.202 7  91116958.41946  22251693.240                    22251687.840
                                        46.900          41.400



 124267002.083 7  96831451.752 6  23647217.080                    23647215.040
                                        45.250          41.050



 23  8 27 12 35 30.0000000  0  8G03G04G06G09G11G17G19G31
 114702679.671 7  89378707.851 7  21827190.380                    21827190.160
                                        47.400          47.300



 106929781.423 8  83321931.784 8  20348047.160                    20348044.280
                                        49.300          49.700



 110203118.975 8  85872574.676 8  20970949.840                    20970948.980
                                        49.900          48.750



 108123617.777 8  84252195.070 8  20575226.820                    20575225.120
                                        49.850          48.950



 127535647.158 7  99378425.917 7  24269224.120                    24269223.680
                                        43.050          42.850



 122522829.720 7  95472320.328 7  23315322.960                    23315321.200
                                        44.550          44.750



 117004335.210 7  91172199.66147  22265183.820                    22265178.440
                                        45.900          42.050



 124326665.964 7  96877943.032 6  23658570.800                    23658568.780
                                        44.950          41.800



 23  8 27 12 36  0.0000000  0  8G03G04G06G09G11G17G19G31
 114775887.983 7  89435753.228 7  21841121.500                    21841121.320
                                        47.750          47.400



 106945087.891 8  83333858.896 8  20350959.900                    20350957.000
                                        49.650          49.600



 110152420.578 8  85833069.451 8  20961302.260                    20961301.420
                                        49.900          48.800



 108078237.776 8  84216834.053 8  20566591.260                    20566589.560
                                        50.400          49.100



 127431776.062 7  99297487.451 7  24249458.080                    24249457.620
                                        42.250          43.200



 122610247.214 7  95540437.721 7  23331958.040                    23331956.420
                                        44.350          44.250



 117075709.725 7  91227816.09046  22278766.020                    22278760.680
                                        45.750          41.100



 124386866.357 7  96924852.370 6  23670026.600                    23670024.600
                                        45.400          41.550



 23  8 27 12 36 30.0000000  0  8G03G04G06G09G11G17G19G31
 114849329.293 8  89492980.171 7  21855096.980                    21855096.820
                                        48.050          47.200



 106960900.545 8  83346180.443 8  20353968.960                    20353966.040
                                        49.700          49.450



 110102189.003 8  85793927.984 8  20951743.500                    20951742.680
                                        49.750          48.700



 108033336.451 8  84181846.036 8  20558046.800                    20558045.060
                                        50.600          48.850



 127328045.314 7  99216658.381 7  24229718.700                    24229718.220
                                        42.350          43.400



 122697888.462 7  95608729.488 7  23348635.680                    23348634.180
                                        44.150          43.750



 117147557.179 7  91283801.08446  22292438.160                    22292432.860
                                        46.050          41.200



 124447595.631 7  96972173.835 6  23681583.060                    23681581.040
                                        45.600          41.950



 23  8 27 12 37  0.0000000  0  8G03G04G06G09G11G17G19G31
 114923001.795 7  89550387.254 7  21869116.440                    21869116.320
                                        47.800          47.400



 106977217.283 8  83358894.776 8  20357073.940                    20357071.000
                                        49.350          49.600



 110052425.262 8  85755151.066 8  20942273.760                    20942272.980
                                        49.650          48.450



 107988913.348 8  84147230.649 8  20549593.340                    20549591.600
                                        50.350          48.800



 127224456.126 7  99135939.617 7  24210006.280                    24210005.760
                                        42.550          43.950



 122785749.612 7  95677192.589 7  23365355.180                    23365353.780
                                        44.550          43.900



 117219873.798 7  91340151.64546  22306199.580                    22306194.360
                                        45.700          41.150



 124508850.692 7  97019904.984 6  23693239.580                    23693237.540
                                        45.300          41.600



 23  8 27 12 37 30.0000000  0  8G03G04G06G09G11G17G19G31
 114996909.509 7  89607977.638 7  21883180.660                    21883180.580
                                        47.750          47.500



 106994041.899 8  83372004.854 8  20360275.560                    20360272.600
                                        49.500          49.900



 110003136.256 8  85716744.072 8  20932894.340                    20932893.600
                                        49.850          48.450



 107944973.963 8  84112992.188 8  20541231.960                    20541230.160
                                        50.500          48.850



 127121015.685 7  99055336.748 7  24190322.160                    24190321.620
                                        42.500          44.650



 122873832.562 7  95745828.527 7  23382116.900                    23382115.580
                                        45.250          43.400



 117292661.294 7  91396869.11747  22320050.580                    22320045.440
                                        45.000          42.350



 124570634.454 7  97068048.087 6  23704996.760                    23704994.700
                                        44.800          41.550



 23  8 27 12 38  0.0000000  0  8G03G04G06G09G11G17G19G31
 115071050.606 7  89665749.878 7  21897289.300                    21897289.240
                                        47.550          47.250



 107011372.249 8  83385509.021 8  20363573.440                    20363570.460
                                        49.650          49.750



 109954322.967 8  85678707.760 8  20923605.460                    20923604.740
                                        49.750          48.050



 107901517.881 8  84079130.334 8  20532962.520                    20532960.700
                                        50.350          48.900



 127017725.272 7  98974850.786 7  24170666.560                    24170666.020
                                        42.450          44.400



 122962133.664 7  95814634.455 7  23398920.160                    23398918.860
                                        45.550          42.750



 117365915.908 7  91453950.59847  22333990.420                    22333985.440
                                        45.250          42.550



 124632943.688 7  97116600.698 6  23716853.880                    23716851.780
                                        43.850          40.400



 23  8 27 12 38 30.0000000  0  8G03G04G06G09G11G17G19G31
 115145424.087 8  89723703.195 7  21911442.120                    21911442.120
                                        48.000          47.350



 107029207.054 8  83399406.261 8  20366967.300                    20366964.320
                                        49.750          49.850



 109905987.188 8  85641043.539 7  20914407.440                    20914406.740
                                        50.050          47.950



 107858545.485 8  84045645.392 8  20524785.140                    20524783.260
                                        50.400          48.950



 126914586.979 7  98894483.383 7  24151039.900                    24151039.360
                                        42.350          45.250



 123050649.778 7  95883607.934 7  23415764.360                    23415763.040
                                        46.350          43.400



 117439634.568 7  91511393.66447  22348018.580                    22348013.740
                                        46.100          42.300



 124695776.089 7  97165560.941 6  23728810.540                    23728808.420
                                        43.850          41.100



 23  8 27 12 39  0.0000000  0  8G03G04G06G09G11G17G19G31
 115220026.626 7  89781835.004 7  21925638.560                    21925638.580
                                        47.950          47.300



 107047542.708 8  83413693.772 8  20370456.480                    20370453.500
                                        49.650          49.650



 109858128.450 8  85603751.026 7  20905300.220                    20905299.500
                                        50.250          47.900



 107816054.884 8  84012535.855 8  20516699.440                    20516697.540
                                        50.500          49.250



 126811600.652 7  98814234.381 7  24131442.160                    24131441.620
                                        43.300          45.650



 123139375.566 7  95952744.791 7  23432648.460                    23432647.120
                                        46.150          42.850



 117513811.653 7  91569193.94746  22362133.980                    22362129.260
                                        46.250          41.950



 124759127.224 7  97214925.386 6  23740865.900                    23740863.800
                                        43.800          41.200



 23  8 27 12 39 30.0000000  0  8G03G04G06G09G11G17G19G31
 115294857.963 7  89840145.094 7  21939878.520                    21939878.600
                                        47.650          47.250



 107066378.605 8  83428371.092 8  20374040.840                    20374037.860
                                        49.600          49.650



 109810749.242 8  85566832.195 7  20896284.240                    20896283.480
                                        50.100          47.950



 107774047.124 8  83979802.566 8  20508705.600                    20508703.700
                                        50.550          49.250



 126708769.161 7  98734106.020 7  24111873.900                    24111873.360
                                        42.950          45.550



 123228308.935 7  96022043.399 7  23449572.060                    23449570.720
                                        46.100          43.350



 117588444.552 7  91627349.40447  22376336.160                    22376331.520
                                        46.700          42.800



 124822995.485 7  97264692.790 6  23753019.660                    23753017.580
                                        43.300          41.100



 23  8 27 12 40  0.0000000  0  8G03G04G06G09G11G17G19G31
 115369919.465 7  89898634.538 7  21954162.280                    21954162.400
                                        47.350          47.350



 107085715.735 8  83443438.989 8  20377720.580                    20377717.600
                                        49.450          49.800



 109763853.710 8  85530290.237 7  20887360.300                    20887359.540
                                        50.100          47.850



 107732524.908 8  83947447.625 8  20500804.160                    20500802.260
                                        50.700          49.150



 126606096.972 7  98654101.823 7  24092335.940                    24092335.400
                                        42.950          45.400



 123317448.943 7  96091503.043 7  23466534.960                    23466533.620
                                        45.750          43.000



 117663532.611 7  91685859.51246  22390624.980                    22390620.380
                                        46.550          40.400



 124887380.366 7  97314862.797 6  23765271.720                    23765269.640
                                        43.600          41.250



 23  8 27 12 40 30.0000000  0  8G03G04G06G09G11G17G19G31
 115445210.665 7  89957302.954 7  21968489.740                    21968489.900
                                        47.300          47.700



 107105553.297 8  83458896.824 8  20381495.540                    20381492.580
                                        49.750          49.950



 109717444.188 8  85494126.983 8  20878528.860                    20878528.080
                                        50.150          48.000



 107691489.134 8  83915471.712 8  20492995.320                    20492993.400
                                        50.700          49.000



 126503586.817 7  98574223.844 7  24072828.840                    24072828.300
                                        43.350          44.650



 123406792.957 7  96161121.594 7  23483536.720                    23483535.400
                                        45.050          42.700



 117739072.973 7  91744722.04646  22404999.900                    22404995.300
                                        46.800          41.150



 124952280.154 7  97365434.001 6  23777621.780                    23777619.720
                                        43.750          41.500



 23  8 27 12 41  0.0000000  0  8G03G04G06G09G11G17G19G31
 115520728.823 7  90016148.237 7  21982860.380                    21982860.600
                                        47.000          47.750



 107125888.190 8  83474742.191 8  20385365.160                    20385362.200
                                        49.700          49.700



 109671520.669 8  85458342.447 7  20869789.900                    20869789.080
                                        50.300          47.950



 107650938.377 8  83883873.742 8  20485278.760                    20485276.840
                                        50.900          49.000



 126401239.084 7  98494472.417 7  24053352.660                    24053352.120
                                        43.150          43.550



 123496336.178 7  96230895.393 7  23500576.340                    23500575.060
                                        44.800          42.350



 117815060.744 7  91803933.21846  22419459.940                    22419455.320
                                        47.150          40.850



 125017690.891 7  97416403.343 6  23790069.100                    23790067.020
                                        43.650          41.300



 23  8 27 12 41 30.0000000  0  8G03G04G06G09G11G17G19G31
 115596472.670 7  90075169.380 7  21997273.960                    21997274.240
                                        47.050          47.550



 107146718.741 8  83490973.785 8  20389329.080                    20389326.140
                                        49.750          49.750



 109626084.618 8  85422937.745 7  20861143.700                    20861142.880
                                        50.250          47.850



 107610872.631 8  83852653.701 8  20477654.500                    20477652.560
                                        51.050          48.900



 126299055.615 7  98414848.990 7  24033907.760                    24033907.200
                                        43.500          44.050



 123586075.812 7  96300822.264 7  23517653.300                    23517652.040
                                        44.900          42.250



 117891492.413 7  91863490.28146  22434004.480                    22433999.820
                                        47.400          41.200



 125083610.062 7  97467768.875 6  23802613.160                    23802611.080
                                        43.800          41.200



 23  8 27 12 42  0.0000000  0  8G03G04G06G09G11G17G19G31
 115672441.431 7  90134365.780 7  22011730.340                    22011730.680
                                        47.250          47.250



 107168043.793 8  83507590.723 8  20393387.100                    20393384.160
                                        49.750          49.400



 109581138.029 8  85387914.443 7  20852590.640                    20852589.800
                                        50.250          47.600



 107571292.442 8  83821812.008 8  20470122.640                    20470120.680
                                        50.900          49.200



 126197038.873 7  98335355.482 7  24014494.600                    24014493.980
                                        44.500          43.850



 123676008.616 7  96370899.630 6  23534767.020                    23534765.800
                                        44.100          41.250



 117968365.263 7  91923391.12446  22448632.980                    22448628.260
                                        47.200          40.200



 125150035.436 7  97519528.862 6  23815253.560                    23815251.480
                                        42.600          41.550



 23  8 27 12 42 30.0000000  0  8G03G04G06G09G11G17G19G31
 115748636.500 7  90193738.522 7  22026229.800                    22026230.180
                                        47.050          46.750



 107189864.316 8  83524593.724 8  20397539.400                    20397536.460
                                        49.650          49.300



 109536685.017 8  85353275.750 7  20844131.520                    20844130.620
                                        50.050          47.350



 107532200.462 8  83791350.755 8  20462683.680                    20462681.700
                                        50.750          49.150



 126095193.359 7  98255995.405 7  23995114.000                    23995113.340
                                        44.050          43.850



 123766134.090 7  96441127.137 6  23551917.400                    23551916.200
                                        43.850          41.700



 118045678.515 7  91983635.16046  22463345.260                    22463340.500
                                        46.850          40.700



 125216966.816 7  97571683.116 6  23827990.240                    23827988.160
                                        42.600          41.600



 23  8 27 12 43  0.0000000  0  8G03G04G06G09G11G17G19G31
 115825054.874 7  90253285.280 7  22040771.760                    22040772.120
                                        47.500          46.250



 107212176.913 8  83541980.169 8  20401785.360                    20401782.400
                                        49.700          49.250



 109492725.321 8  85319021.458 7  20835766.260                    20835765.320
                                        50.150          47.700



 107493595.001 8  83761268.610 8  20455337.300                    20455335.300
                                        50.550          49.050



 125993519.298 7  98176768.943 7  23975766.040                    23975765.300
                                        43.500          43.800



 123856446.769 7  96511500.535 6  23569103.400                    23569102.240
                                        44.150          41.900



 118123426.454 7  92044217.90546  22478140.280                    22478135.460
                                        47.250          40.700



 125284399.675 7  97624228.159 6  23840822.320                    23840820.280
                                        42.950          41.550



 23  8 27 12 43 30.0000000  0  8G03G04G06G09G11G17G19G31
 115901696.305 7  90313005.860 7  22055356.160                    22055356.480
                                        47.200          45.250



 107234980.887 8  83559749.496 8  20406124.820                    20406121.860
                                        49.450          49.100



 109449261.309 8  85285153.403 7  20827495.320                    20827494.360
                                        50.050          47.850



 107455476.963 8  83731566.271 8  20448083.640                    20448081.660
                                        50.450          49.200



 125892019.617 7  98097678.347 7  23956451.240                    23956450.480
                                        43.800          43.050



 123946944.768 7  96582018.302 7  23586324.680                    23586323.580
                                        43.750          42.050



 118201606.652 7  92105137.47846  22493017.540                    22493012.700
                                        47.050          41.000



 125352332.386 7  97677162.685 6  23853749.500                    23853747.500
                                        42.550          41.400



 23  8 27 12 44  0.0000000  0  8G03G04G06G09G11G17G19G31
 115978560.740 7  90372900.204 7  22069983.020                    22069983.260
                                        47.200          45.250



 107258275.829 8  83577901.392 8  20410557.700                    20410554.720
                                        49.450          49.250



 109406295.705 8  85251673.710 7  20819319.240                    20819318.260
                                        49.900          47.800



 107417847.622 8  83702244.734 8  20440922.980                    20440921.000
                                        50.150          49.150



 125790697.465 7  98018726.080 7  23937170.240                    23937169.440
                                        43.700          43.200



 124037626.524 7  96652679.259 7  23603580.920                    23603579.900
                                        44.400          42.800



 118280217.072 7  92166392.30346  22507976.680                    22507971.780
                                        46.700          40.400



 125420763.544 7  97730485.606 6  23866771.520                    23866769.620
                                        42.250          41.900



 23  8 27 12 44 30.0000000  0  8G03G04G06G09G11G17G19G31
 116055644.380 7  90432965.333 7  22084651.600                    22084651.760
                                        47.200          45.250



 107282057.342 8  83596432.435 8  20415083.180                    20415080.180
                                        49.200          49.450



 109363827.338 8  85218581.484 7  20811237.760                    20811236.780
                                        49.750          47.800



 107380704.274 8  83673301.894 8  20433854.800                    20433852.820
                                        50.050          49.100



 125689552.210 7  97939911.653 7  23917922.920                    23917922.040
                                        44.550          44.400



 124128485.599 7  96723478.389 7  23620870.920                    23620869.960
                                        44.600          42.950



 118359251.586 7  92227977.57246  22523016.520                    22523011.600
                                        45.850          41.550



 125489687.583 7  97784192.592 6  23879887.340                    23879885.500
                                        42.250          41.900



 23  8 27 12 45  0.0000000  0  8G03G04G06G09G11G17G19G31
 116132950.697 7  90493204.003 7  22099362.540                    22099362.600
                                        47.600          45.400



 107306328.530 8  83615345.051 8  20419701.820                    20419698.800
                                        49.400          49.550



 109321862.383 8  85185881.539 7  20803252.080                    20803251.080
                                        49.950          47.850



 107344051.681 8  83644741.465 8  20426880.000                    20426878.020
                                        50.300          48.950



 125588590.506 7  97861240.293 7  23898710.500                    23898709.560
                                        44.750          44.650



 124219522.793 7  96794416.321 7  23638194.820                    23638193.900
                                        44.750          42.900



 118438710.749 7  92289893.73546  22538137.160                    22538132.220
                                        46.000          41.100



 125559106.617 6  97838285.316 6  23893097.320                    23893095.560
                                        41.800          41.600



 23  8 27 12 45 30.0000000  0  9G03G04G06G07G09G11G17G19G31
 116210477.287 7  90553614.300 7  22114115.440                    22114115.400
                                        47.900          45.450



 107331086.434 8  83634636.918 8  20424413.100                    20424410.080
                                        49.700          49.800



 109280401.015 8  85153573.996 7  20795362.220                    20795361.200
                                        50.100          47.900



 130131495.511 6 101401169.876 6  24763200.120                    24763201.460
                                        41.550          39.250



 107307888.566 8  83616562.429 8  20419998.340                    20419996.380
                                        50.250          49.100



 125487813.133 7  97782712.574 7  23879533.140                    23879532.140
                                        44.700          45.300



 124310734.062 7  96865489.882 7  23655551.880                    23655551.000
                                        44.900          43.650



 118518590.037 7  92352137.25847  22553337.740                    22553332.800
                                        46.250          42.250



 125629016.653 6  97892760.619 6  23906400.780                    23906399.060
                                        41.700          41.550



 23  8 27 12 46  0.0000000  0  9G03G04G06G07G09G11G17G19G31
 116288221.201 7  90614193.949 7  22128909.700                    22128909.540
                                        47.500          45.450



 107356327.644 8  83654305.393 8  20429216.360                    20429213.340
                                        49.600          49.800



 109239443.006 8  85121658.689 7  20787568.140                    20787567.100
                                        50.300          47.400



 130030871.508 6 101322761.825 6  24744051.360                    24744052.940
                                        41.800          39.500



 107272213.184 8  83588763.452 8  20413209.500                    20413207.540
                                        50.150          48.900



 125387220.445 7  97704328.735 7  23860390.960                    23860389.900
                                        44.300          44.700



 124402114.484 7  96936695.272 7  23672941.120                    23672940.260
                                        44.800          42.750



 118598884.425 7  92414704.27147  22568617.300                    22568612.360
                                        46.200          42.100



 125699413.135 6  97947614.987 6  23919796.780                    23919795.100
                                        41.700          41.600



 23  8 27 12 46 30.0000000  0  9G03G04G06G07G09G11G17G19G31
 116366184.213 7  90674944.301 7  22143745.640                    22143745.380
                                        47.400          46.300



 107382053.444 8  83674351.467 8  20434111.820                    20434108.840
                                        49.300          49.850



 109198992.699 8  85090138.992 7  20779870.680                    20779869.600
                                        50.250          47.850



 129930255.675 6 101244360.157 6  24724904.640                    24724906.380
                                        41.550          38.050



 107237028.457 8  83561346.796 8  20406514.020                    20406512.080
                                        50.300          49.200



 125286817.315 7  97626092.620 7  23841284.820                    23841283.720
                                        44.050          44.350



 124493663.660 7  97008032.129 7  23690362.500                    23690361.640
                                        44.300          42.850



 118679593.199 7  92477594.14047  22583975.740                    22583970.840
                                        46.050          43.100



 125770296.369 6  98002848.615 6  23933285.460                    23933283.800
                                        41.600          41.350



 23  8 27 12 47  0.0000000  0  9G03G04G06G07G09G11G17G19G31
 116444366.705 7  90735865.676 7  22158623.320                    22158623.020
                                        47.550          46.650



 107408263.627 8  83694774.989 8  20439099.460                    20439096.500
                                        49.350          49.550



 109159053.107 8  85059017.247 8  20772270.420                    20772269.300
                                        50.600          48.300



 129829651.497 6 101165967.537 6  24705760.160                    24705761.800
                                        41.200          38.650



 107202335.884 8  83534313.653 8  20399912.200                    20399910.280
                                        50.600          49.250



 125186607.372 7  97548007.026 7  23822215.460                    23822214.300
                                        45.000          44.100



 124585380.081 7  97079499.307 6  23707815.700                    23707814.860
                                        44.750          41.850



 118760714.222 7  92540805.26847  22599412.600                    22599407.740
                                        45.900          42.600



 125841665.332 6  98058460.751 6  23946866.540                    23946864.900
                                        41.400          41.450



 23  8 27 12 47 30.0000000  0  9G03G04G06G07G09G11G17G19G31
 116522766.038 7  90796956.012 7  22173542.280                    22173541.960
                                        47.350          47.000



 107434955.037 8  83715573.494 8  20444178.660                    20444175.720
                                        49.150          49.650



 109119624.145 8  85028293.401 8  20764767.360                    20764766.200
                                        50.300          48.850



 129729059.353 6 101087584.325 6  24686617.920                    24686619.500
                                        39.700          39.100



 107168133.935 8  83507662.814 8  20393403.740                    20393401.840
                                        50.500          49.550



 125086591.227 7  97470072.436 7  23803183.000                    23803181.760
                                        44.650          44.850



 124677258.979 7  97151093.103 7  23725299.840                    23725298.980
                                        44.350          42.000



 118842242.556 7  92604333.76247  22614926.960                    22614922.200
                                        45.350          42.900



 125913515.214 6  98114447.619 6  23960539.120                    23960537.540
                                        40.350          41.650



 23  8 27 12 48  0.0000000  0  9G03G04G06G07G09G11G17G19G31
 116601381.382 7  90858214.660 7  22188502.340                    22188502.000
                                        47.400          46.650



 107462126.345 8  83736745.934 8  20449349.200                    20449346.260
                                        49.550          49.300



 109080707.623 8  84997968.840 8  20757361.800                    20757360.640
                                        50.600          48.700



 129628482.107 6 101009212.758 6  24667478.420                    24667480.000
                                        40.750          39.100



 107134422.880 8  83481394.488 8  20386988.720                    20386986.840
                                        50.700          49.250



 124986771.240 7  97392290.701 7  23784187.840                    23784186.540
                                        44.600          44.500



 124769297.420 7  97222811.219 6  23742814.340                    23742813.420
                                        44.100          40.900



 118924175.272 7  92668177.36746  22630518.280                    22630513.580
                                        45.900          41.800



 125985843.985 6  98170807.661 6  23974302.820                    23974301.280
                                        41.300          41.300



 23  8 27 12 48 30.0000000  0  9G03G04G06G07G09G11G17G19G31
 116680212.237 7  90919641.223 7  22203503.400                    22203503.080
                                        46.800          46.600



 107489776.437 8  83758291.458 8  20454610.840                    20454607.900
                                        49.300          49.250



 109042305.526 8  84968045.130 8  20750054.140                    20750052.980
                                        50.300          48.100



 129527922.222 6 100930854.694 6  24648342.180                    24648343.840
                                        40.800          38.850



 107101203.265 8  83455509.089 8  20380667.220                    20380665.340
                                        50.500          49.550



 124887150.077 7  97314663.874 7  23765230.560                    23765229.180
                                        44.600          44.350



 124861492.813 7  97294651.634 6  23760358.700                    23760357.740
                                        44.550          40.250



 119006509.313 7  92732333.69746  22646185.940                    22646181.320
                                        45.750          41.300



 126058649.517 6  98227539.201 6  23988157.240                    23988155.760
                                        41.800          41.600



 23  8 27 12 49  0.0000000  0  9G03G04G06G07G09G11G17G19G31
 116759255.375 7  90981233.215 7  22218544.840                    22218544.560
                                        46.250          46.800



 107517901.558 8  83780207.138 8  20459962.840                    20459959.920
                                        48.950          49.300



 109004417.236 8  84938521.797 8  20742844.240                    20742843.080
                                        50.150          48.250



 129427379.638 6 100852510.117 6  24629209.220                    24629210.940
                                        41.000          39.300



 107068472.986 8  83430004.998 8  20374438.840                    20374436.980
                                        50.400          49.300



 124787727.841 7  97237192.077 7  23746311.100                    23746309.640
                                        44.300          44.600



 124953839.701 7  97366610.082 6  23777931.900                    23777930.880
                                        44.300          40.150



 119089239.005 7  92796798.32946  22661928.880                    22661924.340
                                        46.350          41.450



 126131926.850 6  98284638.388 6  24002101.440                    24002100.000
                                        41.650          41.150



 23  8 27 12 49 30.0000000  0  9G03G04G06G07G09G11G17G19G31
 116838512.437 7  91042991.899 7  22233626.980                    22233626.740
                                        46.000          46.650



 107546502.735 8  83802493.768 8  20465405.440                    20465402.540
                                        48.950          48.850



 108967046.923 8  84909402.081 8  20735732.920                    20735731.720
                                        50.300          48.350



 129326859.341 6 100774182.895 6  24610080.540                    24610082.300
                                        40.550          39.450



 107036234.742 8  83404884.312 8  20368304.080                    20368302.240
                                        50.650          48.950



 124688509.353 7  97159879.043 7  23727430.420                    23727428.900
                                        44.350          43.850



 125046337.806 7  97438686.369 6  23795533.860                    23795532.760
                                        43.900          38.950



 119172363.668 7  92861570.74546  22677747.000                    22677742.500
                                        46.150          41.250



 126205675.905 7  98342105.157 6  24016135.420                    24016134.000
                                        43.000          40.550



 23  8 27 12 50  0.0000000  0  9G03G04G06G07G09G11G17G19G31
 116917980.482 7  91104914.981 7  22248749.260                    22248749.080
                                        46.250          46.550



 107575576.494 8  83825148.635 8  20470937.980                    20470935.060
                                        49.200          49.050



 108930194.192 8  84880685.666 8  20728720.080                    20728718.880
                                        50.250          48.600



 129226361.678 6 100695873.308 6  24590956.180                    24590957.920
                                        40.300          37.650



 107004486.605 8  83380145.515 8  20362262.600                    20362260.760
                                        50.550          49.000



 124589494.949 7  97082724.989 7  23708588.620                    23708587.020
                                        44.150          43.150



 125138982.013 7  97510876.534 6  23813163.560                    23813162.360
                                        43.800          38.650



 119255877.964 7  92926646.75646  22693639.260                    22693634.820
                                        46.400          41.050



 126279892.388 7  98399936.133 6  24030258.380                    24030256.980
                                        43.400          40.850



 23  8 27 12 50 30.0000000  0  9G03G04G06G07G09G11G17G19G31
 116997660.979 7  91167003.627 7  22263911.960                    22263911.840
                                        46.950          46.100



 107605123.646 8  83848172.383 8  20476560.600                    20476557.680
                                        49.550          49.050



 108893862.976 8  84852375.623 8  20721806.460                    20721805.280
                                        50.450          48.650



 129125891.201 6 100617584.899 6  24571837.020                    24571838.740
                                        40.600          38.550



 106973231.099 8  83355790.602 8  20356314.860                    20356312.980
                                        50.900          49.150



 124490689.378 7  97005733.680 7  23689786.540                    23689784.860
                                        44.200          44.550



 125231771.895 7  97583180.178 6  23830821.000                    23830819.720
                                        44.650          39.300



 119339780.719 7  92992025.45846  22709605.460                    22709601.040
                                        46.750          40.950



 126354575.893 7  98458131.035 6  24044470.220                    24044468.800
                                        44.150          40.750



 23  8 27 12 51  0.0000000  0  9G03G04G06G07G09G11G17G19G31
 117077552.364 7  91229256.623 7  22279114.760                    22279114.700
                                        47.200          45.700



 107635142.069 8  83871563.362 8  20482272.920                    20482269.960
                                        49.200          49.200



 108858054.290 8  84824472.752 8  20714992.300                    20714991.100
                                        50.300          48.550



 129025449.677 6 100539319.041 6  24552723.400                    24552725.060
                                        40.600          40.350



 106942467.709 8  83331819.149 8  20350460.760                    20350458.880
                                        50.800          49.550



 124392094.377 7  96928906.486 7  23671024.500                    23671022.740
                                        44.600          44.650



 125324703.629 7  97655594.351 6  23848505.440                    23848504.080
                                        44.250          39.900



 119424068.225 7  93057703.98346  22725644.880                    22725640.480
                                        45.750          40.200



 126429723.312 7  98516687.419 6  24058770.380                    24058768.920
                                        43.800          41.100



 23  8 27 12 51 30.0000000  0  9G03G04G06G07G09G11G17G19G31
 117157651.792 7  91291671.722 7  22294357.180                    22294357.160
                                        47.650          45.600



 107665628.211 8  83895318.804 8  20488074.240                    20488071.260
                                        49.150          49.100



 108822767.688 8  84796976.708 8  20708277.480                    20708276.260
                                        50.100          48.250



 128925037.558 6 100461076.097 6  24533615.400                    24533616.980
                                        40.300          38.300



 106912194.509 8  83308229.667 8  20344699.960                    20344698.060
                                        50.700          49.250



 124293710.165 7  96852243.503 7  23652302.600                    23652300.780
                                        43.950          44.750



 125417772.094 7  97728115.103 6  23866215.860                    23866214.420
                                        45.200          40.600



 119508734.744 7  93123677.86046  22741756.420                    22741752.000
                                        45.700          40.100



 126505330.164 7  98575601.796 6  24073157.960                    24073156.480
                                        43.950          40.650



 23  8 27 12 52  0.0000000  0  9G03G04G06G07G09G11G17G19G31
 117237964.024 7  91354252.646 7  22309640.120                    22309640.100
                                        47.550          45.800



 107696586.306 8  83919441.999 8  20493965.360                    20493962.360
                                        49.350          49.250



 108788010.442 8  84769893.158 8  20701663.380                    20701662.140
                                        50.100          48.500



 128824663.230 6 100382862.603 6  24514514.640                    24514516.140
                                        40.250          38.100



 106882417.292 8  83285026.657 8  20339033.540                    20339031.620
                                        50.600          49.150



 124195544.930 7  96775751.170 7  23633622.360                    23633620.480
                                        43.950          45.050



 125510980.474 7  97800744.832 6  23883952.940                    23883951.460
                                        45.150          40.700



 119593782.887 7  93189949.07246  22757940.620                    22757936.180
                                        45.350          40.600



 126581399.154 7  98634876.299 6  24087633.460                    24087631.980
                                        43.650          40.550



 23  8 27 12 52 30.0000000  0  9G03G04G06G07G09G11G17G19G31
 117318483.372 7  91416994.938 7  22324962.500                    22324962.480
                                        47.400          46.300



 107728009.926 8  83943927.926 8  20499945.100                    20499942.080
                                        49.250          49.300



 108753779.309 8  84743219.560 8  20695149.420                    20695148.160
                                        50.150          49.000



 128724323.493 6 100304676.035 6  24495420.460                    24495421.880
                                        41.500          38.650



 106853131.307 8  83262206.426 8  20333460.600                    20333458.680
                                        50.700          49.600



 124097596.211 7  96699427.558 7  23614983.300                    23614981.380
                                        44.000          45.450



 125604320.751 7  97873477.365 6  23901715.100                    23901713.580
                                        45.400          41.050



 119679204.561 7  93256511.33246  22774195.900                    22774191.480
                                        45.000          40.650



 126657922.910 7  98694505.164 6  24102195.500                    24102194.020
                                        43.550          40.300



 23  8 27 12 53  0.0000000  0  9G03G04G06G07G09G11G17G19G31
 117399210.507 7  91479899.152 7  22340324.420                    22340324.420
                                        46.750          45.800



 107759899.131 8  83968776.647 8  20506013.420                    20506010.420
                                        48.950          49.100



 108720077.385 8  84716958.338 8  20688736.140                    20688734.880
                                        49.900          48.800



 128624022.644 7 100226519.697 6  24476333.740                    24476335.080
                                        42.250          39.250



 106824338.175 8  83239770.243 8  20327981.440                    20327979.520
                                        50.600          49.400



 123999867.949 7  96623275.747 7  23596386.180                    23596384.220
                                        44.850          45.250



 125697791.562 7  97946311.614 6  23919502.100                    23919500.560
                                        45.300          41.750



 119764998.107 7  93323363.34346  22790521.940                    22790517.560
                                        44.350          41.000



 126734900.706 7  98754487.832 6  24116843.940                    24116842.460
                                        43.700          41.200



 23  8 27 12 53 30.0000000  0  9G03G04G06G07G09G11G17G19G31
 117480144.428 7  91542964.496 7  22355725.700                    22355725.700
                                        46.300          45.900



 107792252.230 8  83993986.856 8  20512170.000                    20512167.000
                                        49.150          49.450



 108686906.090 8  84691110.593 8  20682423.820                    20682422.580
                                        50.300          49.000



 128523762.850 7 100148395.364 6  24457254.840                    24457256.080
                                        42.300          39.400



 106796037.799 8  83217718.025 8  20322596.040                    20322594.140
                                        50.650          49.550



 123902362.445 7  96547297.486 7  23577831.500                    23577829.500
                                        45.100          45.300



 125791389.879 7  98019245.186 6  23937313.400                    23937311.880
                                        45.100          41.200



 119851159.745 7  93390502.24146  22806917.960                    22806913.620
                                        44.800          41.850



 126812329.554 7  98814821.954 6  24131578.200                    24131576.740
                                        44.100          41.100



 23  8 27 12 54  0.0000000  0  9G03G04G06G07G09G11G17G19G31
 117561284.995 7  91606190.866 7  22371166.280                    22371166.280
                                        46.200          46.100



 107825068.455 8  84019557.939 8  20518414.720                    20518411.740
                                        49.250          49.600



 108654267.706 8  84665678.106 8  20676212.920                    20676211.680
                                        50.300          48.950



 128423547.329 6 100070305.518 6  24438184.340                    24438185.520
                                        41.750          40.650



 106768231.049 8  83196050.436 8  20317304.580                    20317302.720
                                        50.700          49.350



 123805082.799 7  96471495.261 7  23559319.740                    23559317.700
                                        44.550          45.650



 125885113.358 7  98092276.294 6  23955148.520                    23955147.000
                                        44.700          41.200



 119937686.981 7  93457925.98546  22823383.600                    22823379.280
                                        45.850          41.350



 126890207.795 7  98875506.253 6  24146397.980                    24146396.540
                                        44.000          41.050



 23  8 27 12 54 30.0000000  0  9G03G04G06G07G09G11G17G19G31
 117642629.861 7  91669576.418 7  22386645.740                    22386645.740
                                        45.400          46.200



 107858344.711 8  84045487.493 8  20524746.960                    20524744.000
                                        49.450          49.250



 108622162.269 8  84640660.887 8  20670103.460                    20670102.240
                                        50.000          48.950



 128323376.883 6  99992250.810 6  24419122.420                    24419123.540
                                        41.850          40.200



 106740916.436 8  83174766.316 8  20312106.780                    20312104.940
                                        50.850          49.000



 123708029.935 7  96395869.732 7  23540851.160                    23540849.080
                                        44.800          45.650



 125978957.377 7  98165401.325 6  23973006.580                    23973005.100
                                        44.150          41.200



 120024574.917 7  93525630.78246  22839917.880                    22839913.560
                                        46.050          41.300



 126968531.319 7  98936537.531 6  24161302.500                    24161301.080
                                        44.250          39.950



 23  8 27 12 55  0.0000000  0  9G03G04G06G07G09G11G17G19G31
 117724182.237 7  91733123.633 7  22402164.680                    22402164.720
                                        45.650          45.950



 107892083.557 8  84071777.491 8  20531167.260                    20531164.320
                                        49.100          49.100



 108590595.360 8  84616063.310 8  20664096.440                    20664095.240
                                        50.200          48.750



 128223258.155 6  99914236.433 6  24400070.300                    24400071.380
                                        41.200          41.950



 106714098.062 8  83153868.899 8  20307003.400                    20307001.560
                                        50.650          48.950



 123611210.323 7  96320425.952 7  23522426.960                    23522424.840
                                        44.250          45.050



 126072923.278 7  98238621.320 6  23990887.820                    23990886.400
                                        43.550          40.800



 120111824.386 7  93593617.33346  22856520.940                    22856516.620
                                        45.800          40.300



 127047301.392 7  98997916.760 6  24176292.000                    24176290.580
                                        43.850          40.300



 23  8 27 12 55 30.0000000  0  9G03G04G06G07G09G11G17G19G31
 117805935.980 7  91796827.777 7  22417721.940                    22417722.000
                                        46.400          46.050



 107926278.181 8  84098422.640 8  20537674.280                    20537671.360
                                        49.150          49.050



 108559563.202 8  84591882.423 8  20658191.200                    20658190.000
                                        50.100          48.400



 128123188.191 6  99836260.024 7  24381027.480                    24381028.540
                                        41.700          42.600



 106687770.662 8  83133354.059 8  20301993.420                    20301991.580
                                        50.550          48.750



 123514621.171 7  96245161.744 7  23504046.620                    23504044.480
                                        44.750          44.750



 126167002.754 7  98311929.844 6  24008790.640                    24008789.300
                                        42.600          40.300



 120199426.414 7  93661878.58747  22873191.100                    22873186.780
                                        46.150          42.250



 127126509.916 7  99059637.645 6  24191364.920                    24191363.500
                                        43.650          41.050



 23  8 27 12 56  0.0000000  0  9G03G04G06G07G09G11G17G19G31
 117887891.137 7  91860688.877 7  22433317.520                    22433317.580
                                        46.600          45.800



 107960927.877 8  84125422.381 8  20544267.920                    20544265.000
                                        49.250          49.050



 108529068.186 8  84568120.071 8  20652388.180                    20652386.980
                                        50.000          48.350



 128023170.212 6  99758324.146 6  24361994.520                    24361995.580
                                        40.550          41.850



 106661935.121 8  83113222.493 8  20297077.060                    20297075.180
                                        50.700          48.600



 123418265.839 7  96170079.726 7  23485710.760                    23485708.600
                                        44.250          44.650



 126261194.018 7  98385325.448 6  24026714.740                    24026713.500
                                        42.100          39.600



 120287378.889 7  93730412.90946  22889927.960                    22889923.660
                                        45.750          40.850



 127206155.373 7  99121698.987 6  24206520.980                    24206519.580
                                        43.650          40.200



 23  8 27 12 56 30.0000000  0  9G03G04G06G07G09G11G17G19G31
 117970049.605 7  91924708.386 7  22448951.820                    22448951.880
                                        47.150          45.600



 107996033.850 8  84152777.676 8  20550948.360                    20550945.440
                                        49.200          49.350



 108499114.552 8  84544779.585 8  20646688.180                    20646686.960
                                        50.100          48.400



 127923209.621 6  99680432.952 6  24342972.500                    24342973.580
                                        41.800          41.750



 106636594.273 8  83093476.390 8  20292254.820                    20292252.920
                                        50.900          48.250



 123322149.507 7  96095183.940 7  23467420.400                    23467418.220
                                        44.500          45.450



 126355496.909 7  98458808.040 6  24044660.060                    24044658.920
                                        42.850          39.650



 120375681.052 7  93799219.74946  22906731.320                    22906727.040
                                        45.000          40.400



 127286237.847 7  99184100.877 6  24221760.200                    24221758.800
                                        44.050          40.500



 23  8 27 12 57  0.0000000  0  9G03G04G06G07G09G11G17G19G31
 118052407.926 7  91988883.624 7  22464624.160                    22464624.180
                                        47.300          45.800



 108031591.861 8  84180485.207 8  20557714.840                    20557711.940
                                        49.200          49.650



 108469701.086 8  84521860.006 8  20641090.960                    20641089.720
                                        49.900          48.600



 127823305.869 6  99602586.057 6  24323961.320                    24323962.380
                                        41.050          41.850



 106611745.397 8  83074113.654 8  20287526.220                    20287524.260
                                        51.000          48.350



 123226271.965 7  96020474.261 7  23449175.440                    23449173.240
                                        44.100          45.600



 126449905.623 7  98532373.084 6  24062625.540                    24062624.480
                                        42.100          38.750



 120464327.039 7  93868294.48146  22923600.120                    22923595.860
                                        44.700          40.500



 127366752.037 7  99246839.154 6  24237081.600                    24237080.180
                                        44.500          40.750



 23  8 27 12 57 30.0000000  0  9G03G04G06G07G09G11G17G19G31
 118134967.537 7  92053215.716 7  22480334.820                    22480334.800
                                        47.400          45.950



 108067602.622 8  84208545.546 8  20564567.440                    20564564.560
                                        49.150          49.550



 108440831.582 8  84499364.296 8  20635597.260                    20635596.000
                                        50.100          48.750



 127723463.913 7  99524787.287 6  24304961.920                    24304962.980
                                        42.000          41.100



 106587390.790 8  83055136.078 8  20282891.700                    20282889.640
                                        50.950          48.550



 123130637.997 7  95945954.358 7  23430976.860                    23430974.660
                                        44.150          45.700



 126544419.619 6  98606020.171 6  24080611.060                    24080610.060
                                        41.750          38.600



 120553315.757 7  93937636.26346  22940534.140                    22940529.920
                                        43.650          39.300



 127447697.794 7  99309913.715 6  24252485.140                    24252483.720
                                        44.000          40.550



 23  8 27 12 58  0.0000000  0  9G03G04G06G07G09G11G17G19G31
 118217726.466 7  92117703.117 7  22496083.400                    22496083.360
                                        46.850          45.800



 108104063.438 8  84236956.569 8  20571505.700                    20571502.860
                                        49.150          49.300



 108412506.328 8  84477292.672 8  20630207.140                    20630205.880
                                        50.000          48.700



 127623685.230 7  99447037.804 6  24285974.560                    24285975.600
                                        42.550          40.350



 106563529.267 8  83036542.711 8  20278351.000                    20278348.860
                                        50.850          48.900



 123035248.953 7  95871625.286 7  23412824.880                    23412822.680
                                        45.350          45.650



 126639034.980 6  98679746.267 6  24098615.840                    24098614.900
                                        41.250          39.800



 120642642.753 7  94007241.66146  22957532.500                    22957528.320
                                        42.200          39.950



 127529070.941 7  99373321.300 6  24267970.000                    24267968.580
                                        43.450          40.300



 23  8 27 12 58 30.0000000  0  9G03G04G06G07G09G11G17G19G31
 118300683.995 7  92182345.295 7  22511869.760                    22511869.700
                                        46.000          45.650



 108140972.773 8  84265717.088 8  20578529.320                    20578526.480
                                        49.050          49.300



 108384726.784 8  84455646.272 8  20624920.860                    20624919.580
                                        50.150          48.600



 127523972.159 6  99369339.422 6  24266999.720                    24267000.740
                                        41.950          40.300



 106540160.870 8  83018333.602 8  20273904.120                    20273901.940
                                        50.900          49.600



 122940107.353 7  95797489.040 7  23394720.000                    23394717.800
                                        45.000          45.950



 126733748.531 7  98753548.852 6  24116639.340                    24116638.460
                                        42.700          39.200



 120732304.517 7  94077107.89146  22974594.560                    22974590.500
                                        43.100          41.750



 127610869.032 7  99437059.996 6  24283535.740                    24283534.340
                                        43.500          40.100



 23  8 27 12 59  0.0000000  0  9G03G04G06G07G09G11G17G19G31
 118383840.546 7  92247142.524 7  22527693.980                    22527693.940
                                        45.300          45.400



 108178330.355 8  84294826.892 8  20585638.220                    20585635.420
                                        49.200          49.200



 108357495.747 8  84434427.293 8  20619738.940                    20619737.660
                                        50.000          48.350



 127424328.142 7  99291694.903 6  24248037.980                    24248038.940
                                        42.050          39.700



 106517286.873 8  83000509.716 8  20269551.340                    20269549.140
                                        50.800          50.000



 122845217.010 7  95723548.580 7  23376662.920                    23376660.720
                                        44.750          46.200



 126828558.767 7  98827426.777 6  24134681.220                    24134680.400
                                        42.650          38.700



 120822298.976 7  94147233.34746  22991719.940                    22991716.000
                                        43.550          41.650



 127693090.825 7  99501128.852 6  24299182.100                    24299180.700
                                        42.950          40.900



 23  8 27 12 59 30.0000000  0  9G03G04G06G07G09G11G17G19G31
 118467193.031 7  92312092.438 7  22543555.480                    22543555.460
                                        44.600          45.200



 108216132.295 8  84324282.946 8  20592831.700                    20592828.920
                                        49.100          49.100



 108330812.267 8  84413634.972 8  20614661.240                    20614659.920
                                        49.900          48.150



 127324753.562 6  99214104.495 6  24229089.460                    24229090.380
                                        41.400          39.800



 106494904.872 8  82983069.196 8  20265292.180                    20265290.020
                                        50.750          50.200



 122750578.101 7  95649804.031 7  23358653.700                    23358651.500
                                        44.950          45.400



 126923460.953 7  98901376.328 6  24152740.660                    24152739.860
                                        43.300          38.850



 120912620.515 7  94217613.68647  23008907.560                    23008903.740
                                        43.750          42.350



 127775731.129 7  99565523.788 6  24314908.120                    24314906.760
                                        43.100          40.500



                            4  1
RINEX FILE SPLICE; other post-header comments skipped       COMMENT
 23  8 27 13  0  0.0000000  0  9G03G04G06G07G09G11G17G19G31
 118550743.158 7  92377196.349 7  22559454.560                    22559454.600
                                        44.100          45.350



 108254379.515 8  84354085.964 8  20600109.920                    20600107.160
                                        49.350          49.100



 108304680.313 8  84393272.409 8  20609688.480                    20609687.160
                                        50.050          48.550



 127225253.415 6  99136572.077 6  24210155.080                    24210155.940
                                        41.550          40.000



 106473017.345 8  82966013.978 8  20261127.120                    20261125.020
                                        51.150          50.200



 122656195.670 7  95576259.329 7  23340693.280                    23340691.080
                                        44.550          45.850



 127018454.282 7  98975396.917 6  24170817.420                    24170816.620
                                        43.050          38.850



 121003268.400 7  94288248.31947  23026157.280                    23026153.600
                                        44.150          42.650



 127858789.889 7  99630244.818 6  24330713.740                    24330712.420
                                        43.050          39.850



 23  8 27 13  0 30.0000000  0  9G03G04G06G07G09G11G17G19G31
 118634489.474 7  92442453.126 7  22575390.960                    22575391.060
                                        43.650          44.900



 108293069.709 8  84384234.169 8  20607472.420                    20607469.680
                                        49.250          48.900



 108279100.534 8  84373340.122 8  20604820.800                    20604819.460
                                        49.950          48.750



 127125829.605 6  99059099.199 6  24191235.200                    24191236.000
                                        41.200          39.250



 106451623.536 8  82949343.496 8  20257056.000                    20257053.960
                                        51.300          50.000



 122562071.587 7  95502915.947 7  23322782.020                    23322779.800
                                        45.050          45.500



 127113535.284 7  99049485.836 6  24188910.860                    24188910.080
                                        43.500          39.050



 121094238.503 7  94359134.03247  23043468.320                    23043464.760
                                        44.650          42.700



 127942263.941 7  99695289.446 6  24346598.360                    24346597.100
                                        43.000          39.800



 23  8 27 13  1  0.0000000  0  9G03G04G06G07G09G11G17G19G31
 118718427.906 7  92507859.564 7  22591363.900                    22591364.120
                                        44.000          44.950



 108332198.059 8  84414723.786 8  20614918.300                    20614915.560
                                        49.350          48.700



 108254071.116 8  84353836.664 8  20600057.840                    20600056.520
                                        50.050          48.950



 127026481.191 7  98981685.008 6  24172329.700                    24172330.460
                                        42.050          40.500



 106430720.122 8  82933055.135 8  20253078.220                    20253076.240
                                        51.050          49.650



 122468205.097 7  95429773.293 7  23304919.760                    23304917.540
                                        45.000          45.550



 127208697.938 7  99123638.346 6  24207019.860                    24207019.100
                                        43.750          39.100



 121185524.363 7  94430265.78546  23060839.480                    23060836.000
                                        44.400          41.950



 128026146.956 7  99760652.728 6  24362560.840                    24362559.600
                                        43.100          39.100



 23  8 27 13  1 30.0000000  0  9G03G04G06G07G09G11G17G19G31
 118802559.770 7  92573416.793 7  22607373.640                    22607373.900
                                        45.050          45.200



 108371765.032 8  84445555.185 8  20622447.640                    20622444.900
                                        48.850          48.550



 108229595.457 8  84334764.733 8  20595400.260                    20595398.960
                                        50.150          48.950



 126927212.767 7  98904333.209 6  24153439.380                    24153440.080
                                        42.850          40.050



 106410309.091 8  82917150.465 8  20249194.120                    20249192.160
                                        50.850          48.850



 122374600.805 7  95356834.935 7  23287107.420                    23287105.180
                                        44.750          44.750



 127303941.462 7  99197853.903 6  24225144.220                    24225143.480
                                        42.750          39.300



 121277124.434 7  94501642.38646  23078270.440                    23078267.020
                                        44.700          40.700



 128110438.589 7  99826334.442 6  24378601.040                    24378599.820
                                        43.150          38.650



 23  8 27 13  2  0.0000000  0  9G03G04G06G07G09G11G17G19G31
 118886885.572 7  92639125.130 7  22623420.320                    22623420.620
                                        45.950          45.750



 108411770.429 8  84476728.214 8  20630060.420                    20630057.680
                                        49.200          48.700



 108205676.333 8  84316126.458 8  20590848.580                    20590847.300
                                        50.250          48.950



 126828028.195 7  98827046.748 6  24134565.020                    24134565.660
                                        44.100          39.850



 106390391.731 8  82901630.471 8  20245403.960                    20245402.000
                                        50.950          48.850



 122281262.668 7  95284103.976 7  23269345.700                    23269343.460
                                        45.000          45.550



 127399264.345 7  99272131.264 6  24243283.700                    24243282.980
                                        42.350          39.450



 121369036.923 7  94573262.41047  23095760.900                    23095757.520
                                        43.800          42.650



 128195137.617 7  99892333.602 6  24394718.740                    24394717.540
                                        43.200          38.900



 23  8 27 13  2 30.0000000  0  9G03G04G06G07G09G11G17G19G31
 118971403.566 7  92704983.230 7  22639503.580                    22639503.940
                                        46.000          46.300



 108452211.624 8  84508240.827 8  20637756.100                    20637753.380
                                        49.450          48.700



 108182314.069 8  84297922.103 8  20586402.880                    20586401.600
                                        50.100          48.950



 126728928.949 7  98749826.749 6  24115706.920                    24115707.460
                                        43.850          39.150



 106370966.903 8  82886494.265 8  20241707.520                    20241705.540
                                        51.000          49.150



 122188192.238 7  95211581.612 7  23251634.940                    23251632.680
                                        45.200          45.450



 127494662.456 7  99346467.231 6  24261437.500                    24261436.820
                                        42.050          39.300



 121461257.154 7  94645122.24146  23113309.900                    23113306.560
                                        44.400          40.150



 128280240.144 7  99958647.168 6  24410913.240                    24410912.060
                                        43.000          39.300



 23  8 27 13  3  0.0000000  0  9G03G04G06G07G09G11G17G19G31
 119056113.516 7  92770990.917 7  22655623.400                    22655623.800
                                        46.250          46.650



 108493087.568 8  84540092.206 8  20645534.540                    20645531.820
                                        49.800          48.900



 108159510.515 8  84280153.100 8  20582063.500                    20582062.240
                                        50.400          48.850



 126629918.019 7  98672675.561 6  24096865.640                    24096866.080
                                        43.400          39.700



 106352035.036 8  82871742.173 8  20238104.900                    20238102.880
                                        50.950          49.600



 122095392.636 7  95139270.271 7  23233975.740                    23233973.480
                                        44.700          46.100



 127590133.931 6  99420860.395 6  24279605.180                    24279604.600
                                        41.750          40.250



 121553782.595 7  94717219.90946  23130917.000                    23130913.660
                                        44.800          40.950



 128365744.028 7 100025273.495 6  24427184.120                    24427182.940
                                        42.850          39.300



 23  8 27 13  3 30.0000000  0  9G03G04G06G07G09G11G17G19G31
 119141012.883 7  92837146.201 7  22671779.280                    22671779.720
                                        45.750          47.000



 108534394.842 8  84572279.678 8  20653395.080                    20653392.340
                                        49.800          49.200



 108137265.172 8  84262819.079 8  20577830.360                    20577829.080
                                        50.350          49.100



 126530996.291 7  98595593.928 6  24078041.280                    24078041.620
                                        42.750          39.200



 106333594.244 8  82857372.723 8  20234595.720                    20234593.720
                                        50.900          49.900



 122002864.576 7  95067170.543 7  23216368.160                    23216365.940
                                        44.550          46.650



 127685674.033 7  99495307.013 6  24297785.940                    24297785.460
                                        42.200          41.000



 121646608.198 7  94789551.45647  23148581.220                    23148577.920
                                        45.000          42.350



 128451645.139 7 100092209.325 6  24443530.600                    24443529.460
                                        43.350          39.700



 23  8 27 13  4  0.0000000  0  9G03G04G06G07G09G11G17G19G31
 119226101.640 7  92903449.055 7  22687971.180                    22687971.720
                                        45.400          46.650



 108576132.573 8  84604802.566 8  20661337.540                    20661334.800
                                        49.600          48.950



 108115580.074 8  84245921.604 8  20573703.820                    20573702.560
                                        50.500          49.100



 126432167.437 7  98518584.602 6  24059234.620                    24059234.900
                                        42.450          40.800



 106315645.089 8  82843386.369 8  20231180.100                    20231178.120
                                        50.800          49.900



 121910611.422 7  94995285.032 7  23198812.880                    23198810.720
                                        45.200          46.500



 127781280.903 6  99569805.658 6  24315979.400                    24315979.060
                                        41.850          40.200



 121739731.126 7  94862114.69146  23166302.020                    23166298.760
                                        44.900          41.750



 128537941.321 7 100159453.030 6  24459952.280                    24459951.120
                                        43.700          39.100



 23  8 27 13  4 30.0000000  0  9G03G04G06G07G09G11G17G19G31
 119311379.150 7  92969898.982 7  22704199.020                    22704199.640
                                        45.200          46.150



 108618299.316 8  84637659.747 8  20669361.640                    20669358.900
                                        49.250          48.800



 108094456.671 8  84229461.817 8  20569684.180                    20569682.920
                                        50.400          49.250



 126333433.356 7  98441649.200 6  24040445.960                    24040446.180
                                        42.150          41.550



 106298187.588 8  82829783.140 8  20227858.040                    20227856.080
                                        50.950          49.600



 121818635.849 7  94923615.812 7  23181310.440                    23181308.320
                                        45.350          46.000



 127876951.654 7  99644354.091 6  24334185.020                    24334184.800
                                        42.300          40.350



 121833148.596 7  94934907.45747  23184078.860                    23184075.640
                                        45.950          42.700



 128624629.832 7 100227002.470 6  24476448.600                    24476447.420
                                        43.250          39.250



 23  8 27 13  5  0.0000000  0  9G03G04G06G07G09G11G17G19G31
 119396844.290 7  93036495.116 7  22720462.560                    22720463.240
                                        45.000          45.250



 108660893.055 8  84670849.651 8  20677467.000                    20677464.260
                                        49.450          48.700



 108073895.853 8  84213440.391 8  20565771.620                    20565770.360
                                        50.250          49.300



 126234796.019 7  98364789.163 7  24021675.720                    24021675.900
                                        43.050          42.250



 106281221.202 8  82816562.601 8  20224629.440                    20224627.500
                                        51.000          49.350



 121726940.065 7  94852164.607 7  23163861.260                    23163859.180
                                        45.750          46.000



 127972682.953 6  99718949.697 6  24352402.180                    24352402.080
                                        41.800          39.250



 121926856.646 7  95007926.59846  23201911.060                    23201907.880
                                        45.300          41.500



 128711707.885 7 100294855.402 6  24493019.100                    24493017.900
                                        43.300          38.900



 23  8 27 13  5 30.0000000  0  9G03G04G06G07G09G11G17G19G31
 119482496.000 7  93103236.634 7  22736761.600                    22736762.340
                                        44.300          44.500



 108703911.879 8  84704370.790 8  20685653.240                    20685650.480
                                        49.400          48.350



 108053898.578 8  84197858.104 8  20561966.260                    20561965.020
                                        50.150          48.900



 126136258.227 7  98288006.654 7  24002924.460                    24002924.600
                                        43.250          42.650



 106264745.465 8  82803724.379 8  20221494.220                    20221492.260
                                        50.950          49.300



 121635526.485 7  94780933.297 7  23146465.780                    23146463.720
                                        45.350          46.000



 128068472.034 6  99793590.339 6  24370630.340                    24370630.340
                                        40.950          38.800



 122020851.474 7  95081169.25946  23219797.780                    23219794.600
                                        46.250          40.750



 128799172.017 7 100363009.179 6  24509663.060                    24509661.860
                                        42.100          38.100



 23  8 27 13  6  0.0000000  0  9G03G04G06G07G09G11G17G19G31
 119568338.523 7  93170126.824 7  22753096.920                    22753097.700
                                        43.800          44.950



 108747359.159 8  84738225.797 8  20693921.000                    20693918.240
                                        49.600          48.100



 108034471.058 8  84182719.794 8  20558269.320                    20558268.080
                                        50.500          49.050



 126037827.269 7  98211307.431 7  23984193.500                    23984193.600
                                        43.350          42.700



 106248765.191 8  82791272.240 8  20218453.260                    20218451.300
                                        50.950          49.450



 121544402.590 7  94709927.726 7  23129125.420                    23129123.380
                                        45.200          46.000



 128164321.261 6  99868277.829 6  24388869.940                    24388870.040
                                        40.150          39.300



 122115135.289 7  95154637.05346  23237739.560                    23237736.360
                                        44.600          41.500



 128887024.849 7 100431465.822 6  24526381.000                    24526379.800
                                        42.200          38.600



 23  8 27 13  6 30.0000000  0  9G03G04G06G07G09G11G17G19G31
 119654364.187 7  93237159.694 7  22769467.120                    22769467.940
                                        43.600          45.050



 108791226.380 8  84772408.032 8  20702268.660                    20702265.880
                                        49.700          48.250



 108015607.635 8  84168021.023 8  20554679.720                    20554678.520
                                        50.400          49.100



 125939498.747 7  98134687.999 7  23965482.080                    23965482.120
                                        43.150          42.050



 106233273.318 8  82779200.659 8  20215505.240                    20215503.280
                                        50.850          49.500



 121453564.079 7  94639144.526 7  23111839.360                    23111837.360
                                        45.950          45.650



 128260220.380 6  99943004.214 6  24407119.000                    24407119.200
                                        39.700          39.700



 122209696.886 7  95228321.31346  23255734.180                    23255730.980
                                        45.300          40.350



 128975256.892 6 100500217.949 6  24543171.080                    24543169.920
                                        41.950          37.750



 23  8 27 13  7  0.0000000  0  9G03G04G06G07G09G11G17G19G31
 119740576.594 7  93304338.095 7  22785872.800                    22785873.700
                                        44.200          45.250



 108835516.228 8  84806919.592 8  20710696.760                    20710693.960
                                        49.350          48.600



 107997313.893 8  84153766.162 8  20551198.520                    20551197.340
                                        50.300          48.900



 125841279.241 7  98058153.530 6  23946791.400                    23946791.380
                                        42.800          41.950



 106218273.954 8  82767512.859 8  20212650.920                    20212648.980
                                        50.650          49.500



 121363017.947 7  94568589.174 7  23094608.940                    23094606.940
                                        45.850          46.200



 128356170.769 6 100017770.553 6  24425377.820                    24425378.160
                                        39.050          40.250



 122304537.438 7  95302222.93846  23273781.900                    23273778.680
                                        44.350          41.600



 129063870.082 6 100569267.100 6  24560033.680                    24560032.520
                                        41.950          37.550



 23  8 27 13  7 30.0000000  0  9G03G04G06G07G09G11G17G19G31
 119826970.010 7  93371657.541 7  22802312.960                    22802313.900
                                        44.650          44.950



 108880222.110 8  84841755.320 8  20719204.040                    20719201.220
                                        49.150          48.800



 107979585.936 8  84139952.182 8  20547825.000                    20547823.820
                                        50.150          48.850



 125743166.949 7  97981702.579 6  23928121.120                    23928121.080
                                        43.100          40.750



 106203761.898 8  82756204.780 8  20209889.340                    20209887.400
                                        50.650          49.350



 121272761.767 7  94498259.732 7  23077433.740                    23077431.700
                                        45.850          46.200



 128452165.122 6 100092571.092 6  24443645.040                    24443645.560
                                        39.000          40.800



 122399648.790 7  95376335.55146  23291881.140                    23291877.960
                                        45.000          41.050



 129152856.023 6 100638606.684 6  24576967.200                    24576966.060
                                        41.100          37.700



 23  8 27 13  8  0.0000000  0  9G03G04G06G07G09G11G17G19G31
 119913548.527 7  93439121.229 7  22818788.360                    22818789.320
                                        45.150          45.000



 108925347.245 8  84876917.744 8  20727791.080                    20727788.260
                                        49.400          48.550



 107962429.869 8  84126583.827 8  20544560.320                    20544559.120
                                        50.200          49.200



 125645168.917 7  97905340.678 6  23909472.580                    23909472.480
                                        44.150          40.000



 106189741.802 8  82745280.053 8  20207221.380                    20207219.460
                                        51.000          49.200



 121182803.030 7  94428162.064 7  23060315.140                    23060313.080
                                        45.800          46.550



 128548205.667 6 100167407.667 6  24461921.040                    24461921.720
                                        39.700          39.750



 122495032.936 7  95450660.77546  23310032.260                    23310029.080
                                        44.200          41.350



 129242216.847 6 100708238.419 6  24593972.020                    24593970.880
                                        41.400          38.200



 23  8 27 13  8 30.0000000  0  8G03G04G06G07G09G11G19G31
 120000306.653 7  93506724.892 7  22835297.940                    22835298.880
                                        45.900          44.900



 108970885.209 8  84912401.864 8  20736456.700                    20736453.860
                                        49.550          48.100



 107945842.074 8  84113658.278 8  20541403.780                    20541402.580
                                        50.300          49.350



 125547283.069 7  97829066.141 6  23890845.460                    23890845.280
                                        44.650          40.500



 106176208.706 8  82734734.797 8  20204646.120                    20204644.160
                                        51.050          49.300



 121093139.625 7  94358294.528 7  23043252.740                    23043250.660
                                        46.150          46.400



 122590681.639 7  95525192.13646  23328233.700                    23328230.560
                                        44.900          41.900



 129331945.606 6 100778156.861 6  24611046.860                    24611045.720
                                        41.400          38.500



 23  8 27 13  9  0.0000000  0  8G03G04G06G07G09G11G19G31
 120087248.128 7  93574471.420 7  22851842.440                    22851843.360
                                        46.000          45.350



 109016838.831 8  84948209.873 7  20745201.400                    20745198.540
                                        49.550          47.700



 107929828.131 8  84101179.889 8  20538356.440                    20538355.220
                                        50.250          49.250



 125449516.019 7  97752884.184 6  23872240.940                    23872240.680
                                        44.850          40.850



 106163166.770 8  82724572.260 8  20202164.320                    20202162.340
                                        50.800          49.050



 121003778.599 7  94288662.612 7  23026247.880                    23026245.780
                                        46.600          46.050



 122686595.719 7  95599930.25747  23346485.620                    23346482.560
                                        43.900          42.400



 129422043.554 6 100848362.942 6  24628192.000                    24628190.880
                                        41.050          39.050



 23  8 27 13  9 30.0000000  0  8G03G04G06G07G09G11G19G31
 120174370.657 7  93642359.027 7  22868421.400                    22868422.300
                                        46.150          44.850



 109063204.881 8  84984339.240 7  20754024.600                    20754021.700
                                        49.500          47.550



 107914387.586 8  84089148.304 8  20535418.200                    20535417.000
                                        50.250          49.200



 125351868.989 7  97676795.747 6  23853659.260                    23853658.900
                                        44.800          41.600



 106150614.177 8  82714791.012 8  20199775.660                    20199773.660
                                        50.750          48.900



 120914721.024 7  94219267.134 7  23009300.780                    23009298.640
                                        47.250          45.850



 122782770.159 7  95674871.28346  23364787.060                    23364784.100
                                        44.050          40.700



 129512506.530 7 100918853.472 6  24645406.600                    24645405.500
                                        42.000          39.850



 23  8 27 13 10  0.0000000  0  7G03G04G06G07G09G11G19
 120261672.603 7  93710386.433 7  22885034.520                    22885035.400
                                        46.050          44.800



 109109980.816 8  85020788.008 7  20762925.800                    20762922.860
                                        49.250          47.700



 107899520.681 8  84077563.707 8  20532589.120                    20532587.920
                                        50.350          48.950



 125254343.718 7  97600802.187 6  23835100.760                    23835100.320
                                        44.650          41.500



 106138549.756 8  82705390.189 8  20197479.860                    20197477.840
                                        50.850          48.800



 120825968.598 7  94150109.467 7  22992411.740                    22992409.540
                                        47.150          46.050



 122879200.636 7  95750011.81446  23383137.200                    23383134.340
                                        42.250          41.650



 23  8 27 13 10 30.0000000  0  7G03G04G06G07G09G11G19
 120349157.903 7  93778556.705 7  22901682.560                    22901683.400
                                        45.850          45.050



 109157169.695 8  85057558.538 7  20771905.560                    20771902.620
                                        48.950          47.800



 107885233.151 8  84066430.579 8  20529870.300                    20529869.100
                                        50.350          48.900



 125156947.090 7  97524908.887 6  23816566.680                    23816566.200
                                        43.950          41.700



 106126977.910 8  82696373.185 8  20195277.800                    20195275.760
                                        51.000          49.100



 120737528.648 7  94081195.274 7  22975582.160                    22975579.920
                                        46.950          46.100



 122975888.688 6  95825352.97346  23401536.380                    23401533.640
                                        40.200          40.100



 23  8 27 13 11  0.0000000  0  7G03G04G06G07G09G11G19
 120436821.729 7  93846866.073 7  22918364.560                    22918365.400
                                        45.200          44.750



 109204765.781 8  85094646.363 7  20780962.820                    20780959.900
                                        49.000          47.500



 107871522.015 8  84055746.564 8  20527261.160                    20527259.960
                                        50.200          48.950



 125059677.950 7  97449114.905 6  23798056.860                    23798056.340
                                        43.700          41.900



 106115894.326 8  82687736.628 8  20193168.660                    20193166.600
                                        50.900          49.500



 120649399.740 7  94012523.445 7  22958811.800                    22958809.500
                                        47.000          46.650



 123072827.173 6  95900889.31446  23419983.180                    23419980.540
                                        38.950          39.500



 23  8 27 13 11 30.0000000  0  7G03G04G06G07G09G11G19
 120524662.485 7  93915313.317 7  22935080.180                    22935081.060
                                        44.550          44.300



 109252766.405 8  85132049.434 7  20790097.040                    20790094.100
                                        49.100          47.550



 107858387.332 8  84045511.763 8  20524761.720                    20524760.480
                                        50.350          48.900



 124962537.715 7  97373421.386 6  23779571.540                    23779571.020
                                        43.750          41.550



 106105297.717 8  82679479.551 8  20191152.180                    20191150.100
                                        50.750          49.650



 120561583.563 7  93944095.326 7  22942100.900                    22942098.560
                                        46.850          46.350



 123170011.671 6  95976617.33646  23438476.760                    23438474.240
                                        38.250          37.900



 23  8 27 13 12  0.0000000  0  7G03G04G06G07G09G11G19
 120612679.355 7  93983897.818 7  22951829.300                    22951830.200
                                        44.650          44.350



 109301169.911 8  85169766.433 7  20799307.900                    20799304.980
                                        49.100          47.500



 107845830.120 8  84035726.933 8  20522372.140                    20522370.900
                                        50.150          49.100



 124865528.917 7  97297830.291 6  23761111.220                    23761110.680
                                        44.250          41.150



 106095187.762 8  82671601.670 8  20189228.320                    20189226.240
                                        50.750          49.300



 120474082.750 7  93875912.934 7  22925450.040                    22925447.660
                                        46.400          46.100



 123267438.704 6  96052534.35246  23457016.480                    23457014.120
                                        41.900          41.550



 23  8 27 13 12 30.0000000  0  7G03G04G06G07G09G11G19
 120700869.534 7  94052617.382 7  22968611.360                    22968612.280
                                        44.650          44.250



 109349972.598 8  85207794.478 7  20808594.760                    20808591.820
                                        49.000          47.600



 107833849.359 8  84026391.269 8  20520092.280                    20520091.020
                                        49.950          49.150



 124768651.986 7  97222341.906 7  23742676.040                    23742675.460
                                        44.900          42.200



 106085562.064 8  82664101.130 8  20187396.600                    20187394.520
                                        50.800          49.250



 120386897.810 7  93807976.662 7  22908859.300                    22908856.880
                                        46.600          46.200



 123365102.861 7  96128636.17346  23475601.340                    23475599.060
                                        42.400          41.350



 23  8 27 13 13  0.0000000  0  7G03G04G06G07G09G11G19
 120789233.155 7  94121472.098 7  22985426.420                    22985427.360
                                        44.150          44.850



 109399173.563 8  85246132.877 7  20817957.400                    20817954.460
                                        48.950          47.600



 107822446.802 8  84017506.155 8  20517922.460                    20517921.180
                                        50.200          48.900



 124671910.440 7  97146959.062 6  23724266.620                    23724265.980
                                        44.750          41.950



 106076421.050 8  82656978.279 8  20185657.100                    20185655.020
                                        50.750          49.200



 120300032.207 7  93740289.220 7  22892329.300                    22892326.860
                                        46.850          45.950



 123463001.507 7  96204920.67946  23494230.880                    23494228.640
                                        43.900          41.550



 23  8 27 13 13 30.0000000  0  7G03G04G06G07G09G11G19
 120877774.165 7  94190464.985 7  23002275.260                    23002276.260
                                        43.800          45.300



 109448775.954 8  85284784.070 7  20827396.420                    20827393.500
                                        49.000          47.500



 107811628.210 8  84009076.080 8  20515863.740                    20515862.460
                                        50.300          49.100



 124575311.398 7  97071687.234 7  23705884.340                    23705883.640
                                        44.800          43.050



 106067769.197 8  82650236.587 8  20184010.680                    20184008.620
                                        50.850          49.550



 120213493.384 7  93672856.412 7  22875861.500                    22875859.020
                                        46.950          46.100



 123561136.084 7  96281389.05746  23512905.320                    23512903.120
                                        42.400          39.300



 23  8 27 13 14  0.0000000  0  7G03G04G06G07G09G11G19
 120966488.717 7  94259593.109 7  23019157.100                    23019158.200
                                        44.500          45.600



 109498774.831 8  85323744.217 7  20836910.900                    20836907.960
                                        48.750          47.550



 107801391.328 8  84001099.290 8  20513915.720                    20513914.420
                                        50.200          49.450



 124478854.066 7  96996525.871 7  23687529.020                    23687528.240
                                        44.300          43.250



 106059602.911 8  82643873.260 8  20182456.680                    20182454.600
                                        50.900          49.250



 120127280.736 7  93605677.764 7  22859455.760                    22859453.240
                                        47.200          46.200



 123659500.253 7  96358036.35946  23531623.420                    23531621.260
                                        44.000          37.800



 23  8 27 13 14 30.0000000  0  8G03G04G06G07G09G11G19G20
 121055375.690 7  94328855.577 7  23036071.780                    23036072.960
                                        45.200          45.650



 109549168.212 8  85363011.762 7  20846500.440                    20846497.520
                                        48.950          47.700



 107791736.755 8  83993576.234 8  20512078.540                    20512077.220
                                        50.200          49.350



 124382540.896 7  96921476.819 7  23669201.140                    23669200.320
                                        44.200          42.750



 106051921.526 8  82637887.761 8  20180994.960                    20180992.880
                                        50.900          49.200



 120041396.645 7  93538755.131 7  22843112.540                    22843110.000
                                        47.500          46.350



 123758090.118 7  96434859.51246  23550384.520                    23550382.360
                                        42.700          37.400



 129584053.964 6 100974578.04446  24659025.420                    24659023.900
                                        41.200          36.900



 23  8 27 13 15  0.0000000  0  8G03G04G06G07G09G11G19G20
 121144431.793 7  94398249.859 7  23053018.620                    23053019.880
                                        44.950          45.400



 109599951.797 8  85402583.359 7  20856164.260                    20856161.340
                                        48.700          47.850



 107782662.778 8  83986505.601 8  20510351.820                    20510350.500
                                        50.200          49.350



 124286371.776 7  96846540.015 7  23650900.660                    23650899.780
                                        44.200          43.050



 106044721.980 8  82632277.731 8  20179624.940                    20179622.840
                                        51.050          49.100



 119955841.047 7  93472088.456 7  22826831.860                    22826829.300
                                        47.550          46.400



 123856899.914 7  96511854.00546  23569187.520                    23569185.340
                                        43.050          37.000



 129484407.698 6 100896931.67646  24640063.260                    24640061.940
                                        40.900          37.200



 23  8 27 13 15 30.0000000  0  8G03G04G06G07G09G11G19G20
 121233660.354 7  94467778.528 7  23069998.340                    23069999.620
                                        45.250          45.100



 109651127.918 8  85442460.845 8  20865902.760                    20865899.840
                                        48.650          48.250



 107774174.340 8  83979891.246 8  20508736.520                    20508735.180
                                        50.300          49.350



 124190353.499 7  96771720.763 7  23632628.840                    23632627.960
                                        43.500          42.750



 106038007.958 8  82627046.032 8  20178347.340                    20178345.180
                                        50.900          48.950



 119870620.681 7  93405683.023 7  22810614.940                    22810612.360
                                        47.000          46.700



 123955930.421 7  96589020.58945  23588032.460                    23588030.240
                                        42.350          35.450



 129384774.872 6 100819295.74045  24621103.760                    24621102.220
                                        40.800          33.950



 23  8 27 13 16  0.0000000  0  8G03G04G06G07G09G11G19G20
 121323058.313 7  94537439.173 7  23087010.300                    23087011.600
                                        46.000          44.700



 109702692.596 8  85482641.102 7  20875715.180                    20875712.280
                                        48.550          47.700



 107766270.050 8  83973732.052 8  20507232.420                    20507231.040
                                        50.450          49.200



 124094486.108 7  96697019.047 6  23614385.760                    23614384.880
                                        43.750          41.750



 106031776.773 8  82622190.563 8  20177161.600                    20177159.380
                                        50.750          48.900



 119785735.854 7  93339539.047 7  22794461.880                    22794459.280
                                        47.050          46.650



 124055175.818 6  96666354.49045  23606918.400                    23606916.140
                                        41.850          35.650



 129285154.476 6 100741669.52945  24602146.580                    24602144.900
                                        41.550          34.950



 23  8 27 13 16 30.0000000  0  8G03G04G06G07G09G11G19G20
 121412625.497 7  94607231.690 7  23104054.500                    23104055.760
                                        46.100          44.850



 109754644.676 8  85523123.223 7  20885601.340                    20885598.460
                                        48.650          47.850



 107758951.220 8  83968029.084 8  20505839.700                    20505838.280
                                        50.700          49.400



 123998772.558 7  96622437.207 7  23596171.900                    23596171.040
                                        43.300          42.350



 106026028.524 8  82617711.424 8  20176067.760                    20176065.480
                                        50.900          49.100



 119701189.795 7  93273659.036 7  22778373.280                    22778370.660
                                        47.150          46.750



 124154633.352 7  96743853.75546  23625844.680                    23625842.380
                                        42.400          36.600



 129185548.329 7 100664054.40945  24583192.180                    24583190.320
                                        42.100          35.700



 23  8 27 13 17  0.0000000  0  8G03G04G06G07G09G11G19G20
 121502362.814 7  94677156.796 7  23121131.060                    23121132.280
                                        45.450          44.550



 109806984.093 8  85563907.166 7  20895561.220                    20895558.340
                                        48.450          47.500



 107752220.360 8  83962784.261 8  20504558.880                    20504557.420
                                        50.400          49.450



 123903217.292 7  96547978.743 7  23577988.120                    23577987.300
                                        43.500          42.600



 106020764.347 8  82613609.480 8  20175066.000                    20175063.720
                                        50.900          49.200



 119616986.717 7  93208046.284 7  22762349.940                    22762347.340
                                        47.150          46.800



 124254301.206 6  96821516.89946  23644810.980                    23644808.620
                                        41.900          37.050



 129085959.424 7 100586452.73146  24564241.120                    24564239.100
                                        42.550          36.200



 23  8 27 13 17 30.0000000  0  8G03G04G06G07G09G11G19G20
 121592268.882 7  94747213.389 7  23138239.720                    23138240.900
                                        44.500          44.100



 109859708.534 8  85604991.128 7  20905594.340                    20905591.480
                                        48.350          47.250



 107746077.605 8  83957997.702 8  20503389.960                    20503388.480
                                        50.400          49.400



 123807821.755 7  96473644.741 7  23559834.720                    23559833.940
                                        43.350          43.000



 106015983.224 8  82609883.936 8  20174156.180                    20174153.880
                                        50.900          49.150



 119533128.656 7  93142702.392 7  22746392.240                    22746389.660
                                        47.050          46.800



 124354175.646 7  96899340.97646  23663816.620                    23663814.180
                                        42.200          38.950



 128986387.779 7 100508864.47545  24545293.360                    24545291.220
                                        42.650          33.900



 23  8 27 13 18  0.0000000  0  8G03G04G06G07G09G11G19G20
 121682343.419 7  94817401.254 7  23155380.420                    23155381.580
                                        43.900          44.250



 109912816.661 8  85646374.075 7  20915700.460                    20915697.640
                                        48.550          47.600



 107740524.170 8  83953670.346 8  20502333.200                    20502331.700
                                        50.600          49.650



 123712589.325 7  96399437.838 7  23541712.360                    23541711.620
                                        44.550          43.250



 106011685.128 8  82606534.778 8  20173338.280                    20173335.960
                                        50.800          49.100



 119449618.672 7  93077629.724 7  22730500.780                    22730498.220
                                        46.650          46.350



 124454253.624 7  96977323.64246  23682860.960                    23682858.520
                                        42.250          40.200



 128886834.808 7 100431290.82146  24526349.100                    24526346.880
                                        42.400          36.200



 23  8 27 13 18 30.0000000  0  8G03G04G06G07G09G11G19G20
 121772584.315 7  94887718.728 7  23172552.760                    23172553.940
                                        44.350          43.800



 109966305.412 8  85688053.616 7  20925879.020                    20925876.220
                                        48.350          47.750



 107735559.444 8  83949801.718 8  20501388.460                    20501386.980
                                        50.300          49.600



 123617520.904 7  96325358.717 7  23523621.240                    23523620.540
                                        44.400          42.850



 106007868.170 8  82603560.525 8  20172611.920                    20172609.620
                                        50.650          49.100



 119366458.028 7  93012829.263 7  22714675.800                    22714673.240
                                        46.600          45.650



 124554530.558 7  97055461.37346  23701943.100                    23701940.700
                                        43.300          40.300



 128787300.810 6 100353731.93445  24507408.400                    24507406.160
                                        41.850          34.100



 23  8 27 13 19  0.0000000  0  8G03G04G06G07G09G11G19G20
 121862988.280 7  94958163.317 7  23189756.100                    23189757.280
                                        45.300          43.650



 110020170.493 8  85730026.400 7  20936129.200                    20936126.420
                                        48.650          47.950



 107731181.584 8  83946390.393 8  20500555.400                    20500553.920
                                        50.250          49.600



 123522616.545 7  96251407.428 7  23505561.380                    23505560.700
                                        44.400          42.200



 106004529.293 8  82600958.802 8  20171976.540                    20171974.260
                                        50.900          49.050



 119283646.759 7  92948301.022 7  22698917.320                    22698914.760
                                        47.150          45.900



 124655000.535 7  97133749.53846  23721061.960                    23721059.600
                                        45.450          41.000



 128687784.317 7 100276186.67245  24488470.960                    24488468.760
                                        42.000          33.850



 23  8 27 13 19 30.0000000  0  8G03G04G06G07G09G11G19G20
 121953556.047 7  95028735.504 7  23206990.640                    23206991.820
                                        45.350          43.750



 110074411.752 8  85772292.290 7  20946450.980                    20946448.220
                                        48.450          47.600



 107727392.822 8  83943438.098 8  20499834.420                    20499832.960
                                        50.600          49.650



 123427880.339 7  96177587.129 7  23487533.560                    23487532.880
                                        44.100          42.000



 106001669.550 8  82598730.437 8  20171432.340                    20171430.060
                                        50.950          48.950



 119201189.025 7  92884048.296 7  22683226.080                    22683223.500
                                        47.100          45.950



 124755661.625 7  97212186.61046  23740217.220                    23740214.900
                                        45.950          41.300



 128588287.580 7 100198656.80045  24469537.260                    24469535.040
                                        42.200          33.700



 23  8 27 13 20  0.0000000  0  8G03G04G06G07G09G11G19G20
 122044285.958 7  95099434.048 7  23224256.060                    23224257.200
                                        45.250          43.550



 110129026.480 8  85814849.206 7  20956843.820                    20956841.080
                                        48.200          47.250



 107724192.949 8  83940944.674 8  20499225.520                    20499224.080
                                        50.400          49.650



 123333313.643 7  96103898.950 6  23469537.980                    23469537.260
                                        43.500          41.150



 105999287.490 8  82596874.284 8  20170979.060                    20170976.740
                                        51.000          48.800



 119119086.571 7  92820072.413 7  22667602.460                    22667599.840
                                        47.250          45.600



 124856509.516 7  97290769.24746  23759408.040                    23759405.740
                                        46.450          39.350



 128488811.482 7 100121143.02345  24450607.520                    24450605.180
                                        42.700          34.900



 23  8 27 13 20 30.0000000  0  8G03G04G06G07G09G11G19G20
 122135179.453 7  95170260.079 7  23241552.600                    23241553.700
                                        45.300          43.750



 110184015.055 8  85857697.424 7  20967307.800                    20967305.080
                                        48.100          47.650



 107721584.694 8  83938912.268 8  20498729.180                    20498727.760
                                        50.350          49.850



 123238921.335 7  96030346.672 7  23451575.580                    23451574.820
                                        44.050          43.050



 105997384.658 8  82595391.569 8  20170616.960                    20170614.620
                                        51.000          49.150



 119037344.032 7  92756376.971 7  22652047.340                    22652044.700
                                        46.950          46.450



 124957543.064 7  97369496.58146  23778634.180                    23778631.880
                                        47.000          39.300



 128389359.166 7 100043647.76545  24431682.360                    24431679.900
                                        42.750          34.850



 23  8 27 13 21  0.0000000  0  8G03G04G06G07G09G11G19G20
 122226234.666 7  95241212.101 7  23258879.940                    23258881.020
                                        44.750          44.200



 110239374.673 8  85900834.776 7  20977842.400                    20977839.660
                                        48.150          47.500



 107719567.656 8  83937340.550 8  20498345.340                    20498343.940
                                        50.350          49.650



 123144704.660 7  95956931.233 7  23433646.620                    23433645.820
                                        44.800          42.050



 105995959.434 8  82594281.003 8  20170345.740                    20170343.400
                                        50.850          49.200



 118955963.000 7  92692963.214 7  22636561.000                    22636558.360
                                        47.050          46.750



 125058758.187 7  97448365.38146  23797894.940                    23797892.560
                                        46.600          39.650



 128289930.795 7  99966171.18445  24412761.740                    24412759.160
                                        42.300          34.250



 23  8 27 13 21 30.0000000  0  8G03G04G06G07G09G11G19G20
 122317454.260 7  95312292.187 7  23276238.560                    23276239.640
                                        44.750          44.500



 110295107.033 8  85944262.577 7  20988447.920                    20988445.200
                                        48.700          47.550



 107718145.898 8  83936232.693 8  20498074.780                    20498073.400
                                        50.300          49.550



 123050669.747 7  95883657.414 7  23415752.280                    23415751.420
                                        45.900          42.900



 105995014.757 8  82593544.900 8  20170165.980                    20170163.620
                                        50.850          49.100



 118874949.500 7  92629835.867 7  22621144.600                    22621141.960
                                        47.150          46.650



 125160154.391 7  97527375.25646  23817190.180                    23817187.740
                                        45.800          38.650



 128190530.438 6  99888716.44046  24393846.440                    24393843.820
                                        41.800          37.500



 23  8 27 13 22  0.0000000  0  8G03G04G06G07G09G11G19G20
 122408832.561 7  95383495.949 7  23293627.360                    23293628.480
                                        45.450          44.500



 110351205.480 8  85987975.640 7  20999123.100                    20999120.400
                                        48.600          47.550



 107717315.064 8  83935585.277 8  20497916.680                    20497915.320
                                        50.450          49.400



 122956813.949 7  95810523.167 7  23397892.060                    23397891.100
                                        46.450          42.300



 105994545.073 8  82593178.922 8  20170076.580                    20170074.220
                                        51.000          48.950



 118794301.169 7  92566993.051 7  22605797.700                    22605795.080
                                        46.900          46.400



 125261723.693 7  97606520.05445  23836518.360                    23836515.800
                                        44.800          34.500



 128091155.147 7  99811281.22045  24374935.900                    24374933.300
                                        42.600          35.050



 23  8 27 13 22 30.0000000  0  8G03G04G06G07G09G11G19G20
 122500372.793 7  95454825.894 7  23311046.980                    23311048.160
                                        44.950          44.900



 110407672.213 8  86031975.677 7  21009868.380                    21009865.680
                                        48.400          47.500



 107717079.673 8  83935401.858 8  20497871.880                    20497870.540
                                        50.450          49.450



 122863143.917 7  95737533.644 7  23380067.220                    23380066.160
                                        46.650          42.250



 105994553.783 8  82593185.713 8  20170078.220                    20170075.860
                                        51.000          49.200



 118714024.646 7  92504439.961 7  22590521.540                    22590518.920
                                        46.650          46.800



 125363466.918 7  97685800.36245  23855879.640                    23855876.940
                                        43.250          35.550



 127991809.530 7  99733869.13045  24356030.980                    24356028.420
                                        43.700          34.200



 23  8 27 13 23  0.0000000  0  8G03G04G06G07G09G11G19G20
 122592069.407 7  95526277.685 7  23328496.360                    23328497.580
                                        45.200          44.950



 110464500.529 8  86076257.460 7  21020682.480                    21020679.780
                                        48.450          47.200



 107717435.391 8  83935679.031 8  20497939.580                    20497938.220
                                        50.300          49.400



 122769657.290 7  95664687.019 6  23362277.280                    23362276.120
                                        46.500          41.900



 105995035.368 8  82593560.982 8  20170169.860                    20170167.500
                                        51.000          49.400



 118634117.585 7  92442174.764 7  22575315.680                    22575313.100
                                        46.700          46.950



 125465375.705 7  97765209.62145  23875272.440                    23875269.620
                                        42.650          35.150



 127892490.095 7  99656477.41645  24337131.080                    24337128.500
                                        44.050          35.050



 23  8 27 13 23 30.0000000  0  8G03G04G06G07G09G11G19G20
 122683924.101 7  95597852.666 7  23345975.820                    23345977.080
                                        44.250          44.850



 110521691.335 8  86120821.708 7  21031565.560                    21031562.840
                                        48.300          47.250



 107718385.281 8  83936419.206 8  20498120.340                    20498118.980
                                        50.050          49.700



 122676359.028 7  95591987.195 6  23344523.180                    23344521.900
                                        45.350          41.650



 105995991.834 8  82594306.297 8  20170351.880                    20170349.500
                                        50.800          49.550



 118554585.159 7  92380201.486 7  22560181.120                    22560178.560
                                        46.500          47.100



 125567449.178 6  97844747.25946  23894696.520                    23894693.560
                                        40.950          37.200



 127793200.688 7  99579109.10045  24318236.900                    24318234.260
                                        43.850          33.950



 23  8 27 13 24  0.0000000  0  8G03G04G06G07G09G11G19G20
 122775938.477 7  95669552.051 7  23363485.680                    23363486.960
                                        44.100          44.600



 110579245.132 8  86165668.790 7  21042517.720                    21042515.000
                                        48.600          47.150



 107719932.206 8  83937624.602 8  20498414.720                    20498413.360
                                        50.250          49.350



 122583253.831 7  95519437.819 7  23326805.800                    23326804.420
                                        44.750          42.400



 105997424.811 8  82595422.895 8  20170624.560                    20170622.200
                                        50.950          49.400



 118475432.283 7  92318523.942 7  22545118.800                    22545116.280
                                        46.400          47.200



 125669686.576 6  97924412.58446  23914151.780                    23914148.740
                                        40.300          37.300



 127693944.926 7  99501767.00345  24299349.120                    24299346.400
                                        43.400          33.500



 23  8 27 13 24 30.0000000  0  8G03G04G06G07G09G11G19G20
 122868110.498 7  95741374.274 7  23381025.520                    23381026.840
                                        43.500          44.300



 110637158.873 8  86210796.366 7  21053538.380                    21053535.620
                                        48.650          47.000



 107722075.285 8  83939294.522 8  20498822.540                    20498821.180
                                        50.550          49.400



 122490343.009 7  95447039.891 7  23309125.360                    23309123.900
                                        44.700          42.600



 105999332.408 8  82596909.323 8  20170987.580                    20170985.220
                                        50.950          49.150



 118396660.184 7  92257143.131 7  22530128.920                    22530126.420
                                        46.750          46.900



 125772082.782 6  98004201.68746  23933637.220                    23933634.120
                                        41.850          36.900



 127594722.433 6  99424450.84345  24280467.660                    24280464.860
                                        41.850          35.550



 23  8 27 13 25  0.0000000  0  8G03G04G06G07G09G11G19G20
 122960436.264 7  95813316.310 7  23398594.600                    23398595.960
                                        43.700          44.350



 110695427.663 8  86256200.607 7  21064626.580                    21064623.800
                                        48.650          47.050



 107724811.863 8  83941426.913 8  20499343.300                    20499341.960
                                        50.600          49.600



 122397626.111 7  95374793.091 7  23291481.800                    23291480.280
                                        44.400          42.950



 106001710.829 8  82598762.649 8  20171440.160                    20171437.820
                                        51.050          49.400



 118318268.395 7  92196058.657 7  22515211.420                    22515208.940
                                        47.050          47.000



 125874631.759 7  98084109.84446  23953151.720                    23953148.560
                                        42.800          37.400



 127495531.616 6  99347159.36646  24261592.200                    24261589.380
                                        41.950          36.750



 23  8 27 13 25 30.0000000  0  8G03G04G06G07G09G11G19G20
 123052915.426 7  95885377.874 7  23416192.860                    23416194.280
                                        43.100          43.750



 110754050.106 8  86301880.408 7  21075782.100                    21075779.300
                                        48.600          46.950



 107728142.760 8  83944022.398 8  20499977.180                    20499975.840
                                        50.250          49.150



 122305105.242 7  95302699.056 7  23273875.520                    23273874.000
                                        44.300          42.750



 106004559.780 8  82600982.621 8  20171982.300                    20171979.960
                                        51.000          49.150



 118240259.834 7  92135272.800 7  22500366.860                    22500364.400
                                        47.550          46.350



 125977330.602 7  98164134.76345  23972694.760                    23972691.560
                                        43.300          34.450



 127396374.020 7  99269893.78346  24242723.040                    24242720.220
                                        42.650          37.500



 23  8 27 13 26  0.0000000  0  8G03G04G06G07G09G11G19G20
 123145547.064 7  95957558.254 7  23433820.160                    23433821.600
                                        43.350          43.700



 110813024.408 8  86347834.381 7  21087004.580                    21087001.760
                                        48.450          47.300



 107732068.303 8  83947081.261 8  20500724.180                    20500722.840
                                        50.100          49.350



 122212783.124 7  95230759.870 7  23256307.080                    23256305.520
                                        44.350          43.150



 106007878.580 8  82603568.703 8  20172613.840                    20172611.500
                                        50.850          49.200



 118162636.999 7  92074787.513 7  22485595.720                    22485593.260
                                        47.550          46.750



 126080175.873 7  98244273.78445  23992265.680                    23992262.420
                                        44.000          35.850



 127297250.793 7  99192654.97546  24223860.400                    24223857.640
                                        43.300          38.150



 23  8 27 13 26 30.0000000  0  8G03G04G06G07G09G11G19G20
 123238329.345 7  96029856.033 7  23451476.100                    23451477.540
                                        43.400          43.150



 110872347.623 8  86394060.226 7  21098293.440                    21098290.620
                                        48.250          46.950



 107736587.694 8  83950602.852 8  20501584.200                    20501582.860
                                        50.100          49.000



 122120661.282 7  95158976.738 7  23238776.740                    23238775.180
                                        45.750          43.100



 106011665.343 8  82606519.417 8  20173334.440                    20173332.120
                                        50.850          49.000



 118085401.325 7  92014603.904 7  22470898.260                    22470895.780
                                        47.600          46.800



 126183163.021 7  98324523.36646  24011863.600                    24011860.320
                                        44.400          37.400



 127198161.805 7  99115442.83546  24205004.320                    24205001.600
                                        43.650          36.150



 23  8 27 13 27  0.0000000  0  8G03G04G06G07G09G11G19G20
 123331265.792 7  96102273.940 7  23469161.400                    23469162.840
                                        43.600          42.900



 110932022.274 8  86440559.924 7  21109649.180                    21109646.360
                                        48.450          47.300



 107741705.623 8  83954590.838 8  20502558.100                    20502556.780
                                        50.250          49.400



 122028746.787 7  95087355.158 7  23221285.920                    23221284.320
                                        46.100          42.300



 106015923.705 8  82609837.626 8  20174144.760                    20174142.440
                                        51.050          49.450



 118008559.721 8  91954727.364 7  22456275.800                    22456273.300
                                        48.000          46.250



 126286293.044 7  98404884.26146  24031488.740                    24031485.440
                                        43.300          38.650



 127099112.957 7  99038261.95246  24186155.920                    24186153.220
                                        44.250          36.500



 23  8 27 13 27 30.0000000  0  8G03G04G06G07G09G11G19G20
 123424354.140 7  96174810.218 7  23486875.600                    23486877.020
                                        43.350          42.550



 110992045.121 8  86487330.947 7  21121071.180                    21121068.340
                                        48.250          47.350



 107747420.970 8  83959044.335 8  20503645.700                    20503644.400
                                        50.050          49.600



 121937040.117 7  95015895.515 6  23203834.640                    23203833.000
                                        45.750          41.950



 106020651.487 8  82613521.618 8  20175044.420                    20175042.100
                                        50.950          49.650



 117932113.217 7  91895158.691 7  22441728.520                    22441725.980
                                        47.950          45.800



 126389561.394 7  98485352.92345  24051140.220                    24051136.920
                                        42.400          35.750



 127000104.058 7  98961112.20045  24167315.140                    24167312.400
                                        43.900          34.650



 23  8 27 13 28  0.0000000  0  8G03G04G06G07G09G11G19G20
 123517593.719 7  96247464.344 7  23504618.600                    23504619.980
                                        43.550          42.350



 111052414.440 8  86534371.938 7  21132559.100                    21132556.280
                                        48.400          47.650



 107753734.044 8  83963963.603 8  20504847.040                    20504845.760
                                        50.200          49.400



 121845543.867 7  94944599.861 7  23186423.420                    23186421.700
                                        45.050          42.650



 106025847.982 8  82617570.834 8  20176033.280                    20176030.960
                                        50.900          49.600



 117856064.391 8  91835899.904 7  22427256.900                    22427254.340
                                        48.050          46.250



 126492964.398 7  98565926.56245  24070817.280                    24070813.980
                                        43.000          35.100



 126901136.440 7  98883994.61045  24148482.240                    24148479.400
                                        43.900          33.800



 23  8 27 13 28 30.0000000  0  8G03G04G06G07G09G11G19G20
 123610985.043 7  96320236.712 7  23522390.440                    23522391.800
                                        43.700          42.850



 111113129.783 8  86581682.570 7  21144112.860                    21144110.060
                                        48.300          47.500



 107760646.476 8  83969349.907 8  20506162.440                    20506161.160
                                        50.300          49.400



 121754261.822 7  94873471.144 7  23169052.900                    23169051.160
                                        45.300          42.900



 106031513.845 8  82621985.793 8  20177111.460                    20177109.160
                                        50.950          49.400



 117780417.165 7  91776954.068 7  22412861.680                    22412859.080
                                        47.900          45.750



 126596500.255 6  98646603.66946  24090519.640                    24090516.380
                                        41.500          36.900



 126802212.549 7  98806911.10046  24129657.640                    24129654.700
                                        43.750          36.950



 23  8 27 13 29  0.0000000  0  8G03G04G06G07G09G11G19G20
 123704526.201 7  96393125.817 7  23540190.820                    23540192.180
                                        43.350          43.050



 111174188.203 8  86629260.535 7  21155731.920                    21155729.120
                                        48.300          47.200



 107768157.398 8  83975202.568 8  20507591.720                    20507590.460
                                        50.400          49.300



 121663195.655 7  94802510.611 7  23151723.500                    23151721.720
                                        46.150          43.300



 106037647.155 8  82626764.993 8  20178278.580                    20178276.320
                                        51.050          49.100



 117705172.934 7  91718322.243 7  22398543.160                    22398540.500
                                        47.850          45.250



 126700164.280 7  98727380.63645  24110246.380                    24110243.160
                                        42.400          35.900



 126703332.441 7  98729861.72645  24110841.360                    24110838.320
                                        43.750          35.900



 23  8 27 13 29 30.0000000  0  8G03G04G06G07G09G11G19G20
 123798212.694 7  96466128.171 7  23558018.840                    23558020.240
                                        43.450          43.500



 111235584.222 8  86677101.556 7  21167415.200                    21167412.440
                                        48.100          47.600



 107776263.303 8  83981518.844 8  20509134.240                    20509133.000
                                        50.400          49.400



 121572343.609 7  94731716.948 7  23134434.840                    23134433.040
                                        46.650          43.350



 106044243.433 8  82631904.962 8  20179533.800                    20179531.560
                                        51.300          49.250



 117630330.448 7  91660003.454 7  22384301.100                    22384298.400
                                        47.600          45.700



 126803949.809 7  98808252.33246  24129996.200                    24129993.000
                                        42.450          37.550



 126604493.884 7  98652844.74546  24092032.960                    24092029.860
                                        43.850          37.100



 23  8 27 13 30  0.0000000  0  8G03G04G06G07G09G11G19G20
 123892048.316 7  96539246.737 7  23575875.240                    23575876.680
                                        43.250          43.300



 111297320.610 8  86725207.799 7  21179163.240                    21179160.520
                                        48.050          47.700



 107784968.966 8  83988302.464 8  20510790.880                    20510789.640
                                        50.600          49.300



 121481712.884 7  94661095.752 7  23117188.280                    23117186.440
                                        46.750          43.050



 106051306.521 8  82637408.684 8  20180877.860                    20180875.600
                                        51.200          49.200



 117555896.799 7  91602003.279 7  22370136.780                    22370134.040
                                        47.600          46.000



 126907858.235 7  98889219.74846  24149769.440                    24149766.280
                                        42.650          37.000



 126505702.778 7  98575864.71546  24073233.580                    24073230.500
                                        43.900          37.700



 23  8 27 13 30 30.0000000  0  8G03G04G06G07G09G11G19G20
 123986028.492 7  96612477.915 7  23593759.160                    23593760.680
                                        42.550          43.000



 111359391.720 7  86773574.859 7  21190975.000                    21190972.320
                                        47.800          47.900



 107794270.731 8  83995550.583 8  20512560.980                    20512559.720
                                        50.100          49.300



 121391301.743 7  94590645.623 7  23099983.560                    23099981.680
                                        46.100          42.650



 106058831.756 8  82643272.497 8  20182309.860                    20182307.620
                                        50.950          49.200



 117481870.691 7  91544320.639 7  22356050.040                    22356047.280
                                        47.650          46.550



 127011882.232 7  98970277.24246  24169564.660                    24169561.540
                                        42.700          37.100



 126406956.715 7  98498919.80046  24054442.780                    24054439.740
                                        43.000          37.650



 23  8 27 13 31  0.0000000  0  8G03G04G06G07G09G11G19G20
 124080152.886 6  96685821.469 7  23611670.500                    23611672.100
                                        41.950          43.250



 111421796.304 8  86822201.779 8  21202850.200                    21202847.580
                                        48.100          48.200



 107804169.318 8  84003263.751 8  20514444.640                    20514443.380
                                        49.850          49.350



 121301113.550 7  94520369.223 7  23082821.240                    23082819.320
                                        45.950          43.000



 106066818.887 8  82649496.233 8  20183829.760                    20183827.520
                                        51.050          49.350



 117408255.227 7  91486957.948 7  22342041.460                    22342038.720
                                        47.700          46.900



 127116018.850 6  99051422.47746  24189381.340                    24189378.240
                                        41.900          36.550



 126308256.946 7  98422010.95946  24035660.780                    24035657.800
                                        42.700          37.200



 23  8 27 13 31 30.0000000  0  8G03G04G06G07G09G11G19G20
 124174423.905 7  96759279.269 7  23629609.760                    23629611.420
                                        42.250          43.350



 111484535.721 8  86871089.614 8  21214789.120                    21214786.540
                                        48.300          48.100



 107814667.936 8  84011444.496 8  20516442.440                    20516441.180
                                        49.800          49.350



 121211153.665 7  94450270.726 7  23065702.380                    23065700.400
                                        46.150          43.000



 106075270.237 8  82656081.697 8  20185438.020                    20185435.760
                                        51.250          49.250



 117335055.967 7  91429919.584 7  22328112.080                    22328109.360
                                        47.500          47.200



 127220268.055 7  99132655.46546  24209219.420                    24209216.360
                                        43.050          36.200



 126209608.169 7  98345141.87545  24016888.440                    24016885.540
                                        43.250          35.450



 23  8 27 13 32  0.0000000  0  8G03G04G06G07G09G11G19G20
 124268839.511 7  96832849.732 7  23647576.520                    23647578.260
                                        42.550          43.200



 111547606.919 8  86920235.965 8  21226791.200                    21226788.640
                                        48.550          48.050



 107825765.517 8  84020091.933 8  20518554.240                    20518553.000
                                        49.900          49.400



 121121423.388 7  94380351.132 7  23048627.220                    23048625.180
                                        46.100          43.700



 106084183.778 8  82663027.307 8  20187134.220                    20187131.960
                                        51.200          49.350



 117262274.215 7  91373206.565 7  22314262.120                    22314259.440
                                        47.400          47.050



 127324625.455 7  99213972.75245  24229078.100                    24229075.080
                                        43.350          35.650



 126111010.782 7  98268312.78745  23998125.920                    23998123.060
                                        44.150          35.750



 23  8 27 13 32 30.0000000  0  8G03G04G06G07G09G11G19G20
 124363396.515 7  96906530.385 7  23665570.160                    23665571.980
                                        42.850          43.300



 111611005.672 8  86969637.564 8  21238855.600                    21238853.080
                                        48.400          48.000



 107837459.679 8  84029204.255 8  20520779.540                    20520778.340
                                        50.200          49.450



 121031922.590 7  94310610.396 7  23031595.700                    23031593.620
                                        46.250          44.250



 106093556.242 8  82670330.530 8  20188917.760                    20188915.460
                                        51.050          49.550



 117189909.983 7  91316818.888 7  22300491.620                    22300488.980
                                        47.800          46.650



 127429085.284 7  99295369.88245  24248956.260                    24248953.260
                                        42.850          33.150



 126012463.446 7  98191522.73946  23979372.900                    23979370.020
                                        44.550          36.550



 23  8 27 13 33  0.0000000  0  8G03G04G06G07G09G11G19G20
 124458093.584 7  96980320.220 7  23683590.480                    23683592.340
                                        42.700          43.200



 111674729.666 8  87019292.584 7  21250981.920                    21250979.400
                                        48.100          47.850



 107849749.964 8  84038781.088 8  20523118.300                    20523117.120
                                        50.150          49.200



 120942653.114 7  94241049.888 7  23014608.200                    23014606.120
                                        45.600          43.750



 106103386.277 8  82677990.293 8  20190788.360                    20190786.080
                                        50.850          49.350



 117117965.257 8  91260758.096 7  22286800.960                    22286798.320
                                        48.000          46.150



 127533643.692 7  99376843.77046  24268853.240                    24268850.260
                                        43.350          36.300



 125913967.105 7  98114772.40745  23960629.620                    23960626.680
                                        45.050          35.350



 23  8 27 13 33 30.0000000  0  8G03G04G06G07G09G11G19G20
 124552934.674 7  97054222.267 7  23701638.200                    23701640.080
                                        43.050          43.150



 111738781.854 8  87069203.347 8  21263170.700                    21263168.180
                                        48.400          48.000



 107862641.181 8  84048826.174 8  20525571.420                    20525570.260
                                        50.250          49.100



 120853621.822 7  94171674.991 7  22997666.000                    22997663.900
                                        45.300          43.400



 106113677.752 8  82686009.624 8  20192746.760                    20192744.480
                                        50.850          49.200



 117046447.249 7  91205029.833 7  22273191.480                    22273188.840
                                        47.550          46.450



 127638302.193 7  99458395.63846  24288769.260                    24288766.320
                                        43.950          36.900



 125815527.826 7  98038066.54845  23941897.220                    23941894.160
                                        45.800          34.200



 23  8 27 13 34  0.0000000  0  8G03G04G06G07G09G11G19G20
 124647929.943 7  97128244.455 7  23719715.280                    23719717.180
                                        43.000          42.850



 111803171.428 7  87119377.010 8  21275423.660                    21275421.160
                                        47.950          48.100



 107876144.294 8  84059348.078 8  20528140.960                    20528139.820
                                        50.000          49.450



 120764842.517 7  94102496.442 7  22980771.720                    22980769.640
                                        45.300          43.000



 106124440.813 8  82694396.427 8  20194794.880                    20194792.620
                                        50.650          49.450



 116975369.457 7  91149644.570 7  22259665.800                    22259663.140
                                        47.150          46.550



 127743068.579 7  99540031.57046  24308705.820                    24308702.940
                                        43.050          36.850



 125717157.968 7  97961414.78545  23923178.060                    23923174.840
                                        45.050          34.500



 23  8 27 13 34 30.0000000  0  8G03G04G06G07G09G11G19G20
 124743024.773 7  97202344.247 7  23737811.320                    23737813.220
                                        43.050          42.900



 111867842.777 8  87169770.236 8  21287730.260                    21287727.760
                                        48.250          48.000



 107890205.518 8  84070304.860 8  20530816.720                    20530815.600
                                        49.900          49.300



 120676263.768 7  94033474.172 7  22963915.620                    22963913.540
                                        46.100          42.850



 106135620.806 8  82703108.100 8  20196922.340                    20196920.120
                                        50.950          49.600



 116904680.499 7  91094562.279 7  22246214.100                    22246211.460
                                        47.600          46.600



 127847885.814 7  99621707.15545  24328652.020                    24328649.200
                                        44.000          33.750



 125618804.808 7  97884776.00446  23904462.120                    23904458.760
                                        45.000          36.850



 23  8 27 13 35  0.0000000  0  8G03G04G06G07G09G11G19G20
 124838292.362 7  97276578.634 7  23755940.240                    23755942.140
                                        42.300          43.100



 111932868.007 8  87220439.208 7  21300104.180                    21300101.700
                                        48.300          47.900



 107904898.715 8  84081754.084 8  20533612.760                    20533611.640
                                        50.000          49.000



 120587961.323 7  93964667.150 7  22947112.160                    22947110.060
                                        46.900          42.700



 106147290.737 8  82712201.542 8  20199143.060                    20199140.860
                                        51.050          49.350



 116834456.740 8  91039842.479 7  22232850.920                    22232848.320
                                        48.400          46.350



 127952824.153 7  99703477.11145  24348621.260                    24348618.460
                                        43.700          35.500



 125520543.630 7  97808208.90846  23885763.640                    23885760.220
                                        44.800          37.350



 23  8 27 13 35 30.0000000  0  8G03G04G06G07G09G11G19G20
 124933694.996 7  97350918.261 7  23774094.860                    23774096.740
                                        42.400          43.300



 111998208.519 8  87271353.858 7  21312538.100                    21312535.640
                                        48.200          47.700



 107920186.964 8  84093666.991 8  20536522.020                    20536520.900
                                        50.350          48.900



 120499901.291 7  93896049.016 7  22930354.840                    22930352.680
                                        47.550          42.850



 106159412.893 8  82721647.376 8  20201449.840                    20201447.640
                                        50.950          49.200



 116764663.768 8  90985458.353 7  22219569.740                    22219567.140
                                        48.350          46.900



 128057843.651 7  99785310.29245  24368605.960                    24368603.200
                                        42.900          35.550



 125422339.277 7  97731686.12346  23867075.940                    23867072.500
                                        44.400          38.600



 23  8 27 13 36  0.0000000  0  8G03G04G06G07G09G11G19G20
 125029232.134 6  97425362.678 7  23792275.080                    23792276.960
                                        40.900          43.250



 112063862.686 7  87322512.902 7  21325031.720                    21325029.280
                                        47.850          47.700



 107936070.380 8  84106043.668 8  20539544.540                    20539543.380
                                        50.250          49.050



 120412085.996 7  93827621.618 7  22913644.100                    22913641.880
                                        46.850          43.850



 106171986.572 8  82731445.041 8  20203842.520                    20203840.340
                                        50.950          49.150



 116695304.276 8  90931412.031 7  22206371.020                    22206368.420
                                        48.550          47.250



 128162941.475 7  99867204.48146  24388605.560                    24388602.860
                                        42.200          36.600



 125324193.066 7  97655208.64646  23848399.280                    23848395.860
                                        44.100          38.350



 23  8 27 13 36 30.0000000  0  8G03G04G06G07G09G11G19G20
 125124907.604 6  97499914.873 7  23810481.620                    23810483.540
                                        39.400          43.400



 112129833.366 7  87373918.588 7  21337585.540                    21337583.100
                                        47.850          47.750



 107952553.566 8  84118887.701 8  20542681.180                    20542680.020
                                        50.000          49.200



 120324522.354 7  93759390.318 7  22896981.240                    22896978.960
                                        46.000          44.200



 106185015.560 8  82741597.498 8  20206321.860                    20206319.680
                                        51.100          49.200



 116626385.337 8  90877708.988 7  22193256.160                    22193253.560
                                        48.650          47.350



 128268118.985 6  99949160.78945  24408620.320                    24408617.700
                                        41.850          35.850



 125226110.990 7  97578781.13646  23829734.800                    23829731.460
                                        44.550          37.150



 23  8 27 13 37  0.0000000  0  8G03G04G06G07G09G11G19G20
 125220717.723 6  97574571.941 7  23828713.740                    23828715.760
                                        40.400          43.350



 112196115.940 8  87425567.308 7  21350198.720                    21350196.300
                                        48.100          47.950



 107969633.527 8  84132196.747 8  20545931.400                    20545930.220
                                        50.150          49.600



 120237210.027 7  93691354.875 7  22880366.160                    22880363.860
                                        46.000          44.500



 106198496.074 8  82752101.794 8  20208887.120                    20208884.940
                                        51.300          49.250



 116557906.539 8  90824348.929 8  22180225.060                    22180222.440
                                        48.650          48.050



 128373370.064 7 100031174.41346  24428649.100                    24428646.540
                                        42.800          37.800



 125128091.806 7  97502402.60946  23811082.300                    23811079.040
                                        45.250          37.100



 23  8 27 13 37 30.0000000  0  7G03G04G06G07G09G11G20
 125316659.555 6  97649331.658 7  23846970.880                    23846973.040
                                        40.750          43.350



 112262706.452 8  87477455.985 7  21362870.500                    21362868.080
                                        48.400          47.800



 107987307.948 8  84145969.009 8  20549294.740                    20549293.580
                                        50.050          49.550



 120150149.310 7  93623515.454 7  22863798.980                    22863796.700
                                        46.550          43.750



 106212425.065 8  82762955.552 8  20211537.740                    20211535.540
                                        51.400          49.200



 116489868.116 8  90771332.018 8  22167277.760                    22167275.140
                                        48.750          48.100



 125030134.831 7  97426072.52945  23792441.700                    23792438.460
                                        45.550          34.600



 23  8 27 13 38  0.0000000  0  7G03G04G06G07G09G11G20
 125412733.569 6  97724194.362 7  23865253.200                    23865255.480
                                        40.750          43.250



 112329604.388 8  87529584.208 7  21375600.800                    21375598.360
                                        48.350          47.650



 108005577.961 8  84160205.348 8  20552771.440                    20552770.300
                                        49.650          49.600



 120063343.718 7  93555874.816 7  22847280.360                    22847278.080
                                        46.500          43.600



 106226802.863 8  82774159.021 8  20214273.780                    20214271.560
                                        51.150          49.300



 116422273.792 8  90718661.152 8  22154415.000                    22154412.380
                                        48.650          48.200



 124932242.478 7  97349792.81046  23773813.380                    23773810.120
                                        45.350          36.600



 23  8 27 13 38 30.0000000  0  7G03G04G06G07G09G11G20
 125508941.481 6  97799161.387 7  23883561.020                    23883563.420
                                        41.550          43.350



 112396810.451 8  87581952.538 7  21388389.740                    21388387.260
                                        48.450          47.550



 108024445.785 8  84174907.535 8  20556361.860                    20556360.760
                                        50.150          49.850



 119976798.299 7  93488436.920 7  22830811.240                    22830808.960
                                        46.700          43.400



 106241631.021 8  82785713.419 8  20217095.520                    20217093.280
                                        51.250          49.300



 116355128.423 8  90666340.128 7  22141637.660                    22141635.020
                                        48.700          47.900



 124834418.581 7  97273566.46746  23755198.080                    23755194.780
                                        45.050          36.550



 23  8 27 13 39  0.0000000  0  8G03G04G06G07G09G11G20G30
 125605283.176 6  97874232.672 7  23901894.320                    23901896.800
                                        41.900          42.300



 112464323.589 8  87634560.158 7  21401237.080                    21401234.580
                                        48.350          47.050



 108043911.987 8  84190075.993 8  20560066.160                    20560065.080
                                        50.050          49.650



 119890515.804 7  93421203.891 7  22814392.180                    22814389.900
                                        46.500          43.450



 106256909.287 8  82797618.562 8  20220002.900                    20220000.640
                                        51.000          49.100



 116288435.160 8  90614371.386 7  22128946.340                    22128943.700
                                        48.450          47.250



 124736665.389 7  97197395.21446  23736596.240                    23736592.880
                                        44.850          37.900



 130983682.077 6 102065226.775 6  24925365.740                    24925370.160
                                        40.300          39.000



 23  8 27 13 39 30.0000000  0  8G03G04G06G07G09G11G20G30
 125701754.009 6  97949404.583 7  23920252.220                    23920254.740
                                        41.850          42.100



 112532138.101 7  87687402.604 7  21414141.800                    21414139.260
                                        47.900          47.100



 108063972.441 8  84205707.487 8  20563883.560                    20563882.500
                                        50.050          49.650



 119804494.570 7  93354174.438 7  22798022.800                    22798020.520
                                        46.150          44.250



 106272632.834 8  82809870.664 8  20222995.020                    20222992.720
                                        50.900          49.250



 116222192.487 8  90562753.737 7  22116340.760                    22116338.120
                                        48.750          47.500



 124638980.612 7  97121277.27146  23718007.420                    23718004.000
                                        44.850          38.000



 130873903.813 6 101979685.658 6  24904475.260                    24904479.520
                                        38.900          40.150



 23  8 27 13 40  0.0000000  0  8G03G04G06G07G09G11G20G30
 125798355.426 7  98024678.230 7  23938635.000                    23938637.520
                                        42.850          42.050



 112600254.535 8  87740480.318 7  21427103.940                    21427101.400
                                        48.250          47.250



 108084629.168 8  84221803.612 8  20567814.440                    20567813.400
                                        50.100          49.550



 119718739.493 7  93287352.392 7  22781704.080                    22781701.820
                                        46.050          44.250



 106288803.049 8  82822470.835 8  20226072.120                    20226069.820
                                        51.000          49.200



 116156405.131 8  90511490.889 7  22103821.820                    22103819.160
                                        49.100          47.550



 124541367.897 7  97045215.46946  23699432.300                    23699428.860
                                        44.500          36.700



 130764138.159 6 101894154.381 6  24883587.140                    24883591.480
                                        40.350          39.750



 23  8 27 13 40 30.0000000  0  8G03G04G06G07G09G11G20G30
 125895086.467 6  98100052.918 7  23957042.440                    23957044.980
                                        41.700          42.950



 112668670.840 8  87793791.698 7  21440123.140                    21440120.600
                                        48.450          47.250



 108105881.625 8  84238363.953 8  20571858.660                    20571857.620
                                        50.050          49.400



 119633252.495 7  93220739.245 7  22765436.360                    22765434.120
                                        46.200          45.050



 106305418.667 8  82835418.076 8  20229233.960                    20229231.660
                                        51.050          49.050



 116091075.153 8  90460584.440 7  22091389.920                    22091387.240
                                        49.150          47.800



 124443828.093 7  96969210.50546  23680871.020                    23680867.560
                                        43.650          38.950



 130654387.302 6 101808634.591 6  24862702.040                    24862706.320
                                        40.200          40.100



 23  8 27 13 41  0.0000000  0  8G03G04G06G07G09G11G20G30
 125991950.457 6  98175531.184 7  23975475.200                    23975477.760
                                        41.900          42.800



 112737389.370 8  87847338.574 7  21453199.860                    21453197.320
                                        48.650          46.900



 108127733.689 8  84255391.503 8  20576016.980                    20576015.980
                                        49.950          49.600



 119548040.084 7  93154340.054 7  22749220.900                    22749218.680
                                        46.350          44.650



 106322482.871 8  82848714.854 8  20232481.180                    20232478.860
                                        50.900          49.250



 116026209.129 8  90410039.496 7  22079046.340                    22079043.660
                                        48.950          47.300



 124346367.365 7  96893267.17646  23662324.760                    23662321.320
                                        42.950          40.000



 130544657.777 6 101723131.445 6  24841820.980                    24841825.200
                                        39.650          41.350



 23  8 27 13 41 30.0000000  0  8G03G04G06G07G09G11G20G30
 126088940.437 7  98251107.624 6  23993931.920                    23993934.540
                                        42.400          41.650



 112806402.277 8  87901114.830 7  21466332.580                    21466330.060
                                        48.800          46.750



 108150178.833 8  84272881.209 8  20580288.160                    20580287.180
                                        50.100          49.350



 119463098.511 7  93088151.907 7  22733056.980                    22733054.800
                                        46.550          44.650



 106339988.576 8  82862355.649 8  20235812.400                    20235810.100
                                        51.050          49.200



 115961803.304 8  90359853.165 7  22066790.300                    22066787.620
                                        49.050          47.200



 124248980.674 7  96817381.55246  23643792.560                    23643789.180
                                        44.000          37.750



 130434945.760 6 101637641.878 6  24820943.260                    24820947.500
                                        40.250          41.400



 23  8 27 13 42  0.0000000  0  8G03G04G06G07G09G11G20G30
 126186057.846 7  98326783.386 6  24012412.860                    24012415.500
                                        42.700          41.600



 112875709.965 8  87955120.792 7  21479521.420                    21479518.880
                                        48.600          46.500



 108173218.953 8  84290834.525 8  20584672.560                    20584671.600
                                        50.100          49.200



 119378432.737 7  93022178.663 7  22716945.540                    22716943.400
                                        46.100          44.300



 106357936.937 8  82876341.381 8  20239227.860                    20239225.560
                                        51.050          49.300



 115897862.174 8  90310028.937 7  22054622.700                    22054620.000
                                        49.000          46.950



 124151671.853 7  96741556.57446  23625275.200                    23625271.880
                                        44.750          37.150



 130325255.878 6 101552169.533 6  24800069.740                    24800074.020
                                        38.550          40.950



 23  8 27 13 42 30.0000000  0  8G03G04G06G07G09G11G20G30
 126283301.145 7  98402557.238 6  24030917.740                    24030920.420
                                        42.200          41.550



 112945309.965 8  88009354.532 7  21492765.880                    21492763.340
                                        48.350          46.400



 108196852.960 8  84309250.616 8  20589169.980                    20589169.020
                                        50.400          49.550



 119294043.752 7  92956421.102 7  22700886.740                    22700884.660
                                        45.250          44.350



 106376326.311 8  82890670.771 8  20242727.220                    20242724.960
                                        51.000          49.400



 115834387.381 8  90260568.084 7  22042543.820                    22042541.100
                                        48.750          47.300



 124054441.687 7  96665792.90046  23606772.820                    23606769.540
                                        44.600          38.150



 130215589.907 6 101466715.890 7  24779200.680                    24779205.040
                                        38.300          42.900



 23  8 27 13 43  0.0000000  0  8G03G04G06G07G09G11G20G30
 126380667.446 7  98478426.919 6  24049446.060                    24049448.760
                                        42.000          41.100



 113015198.415 8  88063813.038 7  21506065.240                    21506062.660
                                        48.400          46.250



 108221078.364 8  84328127.529 8  20593779.940                    20593779.000
                                        50.350          49.200



 119209931.885 7  92890879.476 7  22684880.680                    22684878.640
                                        45.900          43.800



 106395153.613 8  82905341.388 8  20246309.940                    20246307.700
                                        51.100          49.400



 115771379.214 8  90211470.833 7  22030553.760                    22030551.020
                                        48.950          47.050



 123957289.615 7  96590090.04746  23588285.360                    23588282.100
                                        44.850          37.050



 130105948.122 6 101381281.054 7  24758336.240                    24758340.720
                                        38.300          42.200



 23  8 27 13 43 30.0000000  0  8G03G04G06G07G09G11G20G30
 126478157.826 6  98554393.307 6  24067997.960                    24068000.680
                                        41.700          41.000



 113085375.391 8  88118496.367 7  21519419.500                    21519416.900
                                        48.300          46.200



 108245896.616 8  84347466.405 8  20598502.740                    20598501.760
                                        50.200          49.550



 119126101.145 7  92825556.891 7  22668928.140                    22668926.140
                                        46.350          44.350



 106414419.661 8  82920353.889 8  20249976.140                    20249973.920
                                        51.100          49.350



 115708841.785 8  90162740.392 7  22018653.240                    22018650.500
                                        49.000          47.300



 123860218.760 7  96514450.47946  23569813.380                    23569810.080
                                        43.950          37.350



 129996334.798 6 101295868.398 7  24737477.260                    24737481.800
                                        38.400          42.800



 23  8 27 13 44  0.0000000  0  8G03G04G06G07G09G11G20G30
 126575773.179 6  98630457.061 6  24086573.660                    24086576.380
                                        40.850          41.500



 113155840.911 8  88173404.525 7  21532828.680                    21532826.060
                                        48.250          46.350



 108271308.977 8  84367268.218 8  20603338.600                    20603337.600
                                        50.000          49.700



 119042555.745 7  92760456.634 7  22653029.920                    22653027.960
                                        46.900          44.250



 106434125.185 8  82935708.830 8  20253725.980                    20253723.780
                                        51.250          49.450



 115646779.233 8  90114379.986 7  22006843.120                    22006840.340
                                        48.700          47.100



 123763232.666 7  96438876.96946  23551357.500                    23551354.160
                                        44.550          38.000



 129886754.144 6 101210481.173 7  24716624.560                    24716629.080
                                        40.250          43.000



 23  8 27 13 44 30.0000000  0  8G03G04G06G07G09G11G20G30
 126673511.476 6  98706616.611 6  24105172.780                    24105175.500
                                        40.200          41.850



 113226591.963 8  88228535.193 7  21546292.200                    21546289.520
                                        48.050          46.400



 108297313.757 8  84387531.660 8  20608287.180                    20608286.180
                                        49.850          49.450



 118959296.553 7  92695579.407 7  22637186.180                    22637184.200
                                        46.950          44.200



 106454267.883 8  82951404.437 8  20257559.020                    20257556.820
                                        51.250          49.250



 115585192.574 8  90066390.421 7  21995123.520                    21995120.700
                                        49.050          47.000



 123666331.384 7  96363369.56846  23532917.740                    23532914.360
                                        44.800          38.000



 129777207.218 6 101125120.251 7  24695778.300                    24695782.780
                                        40.150          42.800



 23  8 27 13 45  0.0000000  0  8G03G04G06G07G09G11G20G30
 126771372.565 6  98782871.853 6  24123795.220                    24123797.980
                                        40.550          41.950



 113297627.420 7  88283887.462 7  21559809.820                    21559807.140
                                        47.750          47.000



 108323911.107 8  84408256.862 8  20613348.500                    20613347.500
                                        49.950          49.250



 118876326.750 7  92630927.662 7  22621397.540                    22621395.540
                                        46.100          43.200



 106474847.390 8  82967440.409 8  20261475.200                    20261472.980
                                        51.100          49.100



 115524084.749 8  90018773.962 7  21983495.080                    21983492.200
                                        49.350          47.600



 123569516.998 7  96287929.86346  23514494.500                    23514491.100
                                        44.300          37.150



 129667697.195 6 101039788.050 7  24674939.120                    24674943.480
                                        41.900          42.900



 23  8 27 13 45 30.0000000  0  8G03G04G06G07G09G11G20G30
 126869353.573 6  98859220.536 6  24142440.460                    24142443.280
                                        39.800          41.850



 113368943.464 7  88339458.364 7  21573380.820                    21573378.160
                                        47.350          47.150



 108351098.443 8  84429441.770 8  20618522.100                    20618521.100
                                        49.600          49.150



 118793646.318 7  92566501.413 7  22605663.920                    22605661.900
                                        45.750          43.150



 106495860.629 8  82983814.351 8  20265473.920                    20265471.660
                                        50.750          48.800



 115463456.001 8  89971530.799 7  21971957.820                    21971954.900
                                        48.950          47.400



 123472789.061 7  96212557.53446  23496087.700                    23496084.280
                                        43.700          38.850



 129558224.427 6 100954484.898 7  24654107.040                    24654111.260
                                        41.550          43.100



 23  8 27 13 46  0.0000000  0  8G03G04G06G07G09G11G20G30
 126967453.072 6  98935661.534 6  24161108.300                    24161111.140
                                        39.700          41.550



 113440537.807 7  88395246.115 7  21587004.800                    21587002.140
                                        47.400          47.100



 108378874.711 8  84451085.588 8  20623807.760                    20623806.760
                                        49.850          48.900



 118711256.842 7  92502301.874 7  22589985.680                    22589983.620
                                        46.650          43.300



 106517305.964 8  83000524.993 8  20269554.820                    20269552.560
                                        50.700          48.800



 115403308.014 8  89924662.255 7  21960512.040                    21960509.100
                                        48.900          47.150



 123376148.785 7  96137253.48446  23477697.580                    23477694.180
                                        44.900          37.850



 129448790.699 7 100869212.125 7  24633282.380                    24633286.480
                                        42.600          42.850



 23  8 27 13 46 30.0000000  0  8G03G04G06G07G09G11G20G30
 127065673.172 6  99012196.490 6  24179799.080                    24179801.960
                                        39.000          41.000



 113512411.466 7  88451251.514 7  21600681.920                    21600679.280
                                        47.750          47.000



 108407242.091 8  84473190.030 8  20629205.880                    20629204.880
                                        50.150          48.850



 118629163.508 7  92438333.088 7  22574363.800                    22574361.700
                                        47.100          43.200



 106539185.144 8  83017573.695 8  20273718.280                    20273716.020
                                        50.750          48.900



 115343645.893 8  89878172.306 7  21949158.720                    21949155.740
                                        49.000          46.250



 123279600.228 7  96062020.91446  23459324.920                    23459321.520
                                        44.800          38.350



 129339401.237 7 100783973.870 6  24612466.160                    24612470.140
                                        42.100          41.500



 23  8 27 13 47  0.0000000  0  8G03G04G06G07G09G11G20G30
 127164012.627 6  99088824.483 6  24198512.560                    24198515.440
                                        39.850          41.400



 113584562.380 7  88507472.963 7  21614411.800                    21614409.180
                                        47.350          46.650



 108436199.707 8  84495754.378 8  20634716.340                    20634715.360
                                        49.850          48.800



 118547368.356 7  92374596.644 7  22558798.660                    22558796.540
                                        47.100          43.500



 106561496.790 8  83034959.393 8  20277964.020                    20277961.780
                                        50.600          48.800



 115284471.522 8  89832062.430 7  21937898.200                    21937895.160
                                        48.850          46.000



 123183144.641 7  95986860.78246  23440969.960                    23440966.580
                                        44.600          38.550



 129230058.156 7 100698771.725 6  24591658.760                    24591662.600
                                        42.000          41.750



 23  8 27 13 47 30.0000000  0  8G03G04G06G07G09G11G20G30
 127262468.034 6  99165542.822 7  24217248.100                    24217251.000
                                        40.650          42.450



 113656986.186 7  88563907.050 7  21628193.600                    21628191.000
                                        47.300          46.600



 108465744.265 8  84518776.087 8  20640338.500                    20640337.520
                                        49.900          48.850



 118465871.285 7  92311092.488 7  22543290.240                    22543288.060
                                        47.000          43.650



 106584237.183 8  83052679.174 8  20282291.360                    20282289.120
                                        50.850          48.700



 115225784.515 8  89786332.310 7  21926730.440                    21926727.300
                                        48.850          46.550



 123086781.016 7  95911772.31746  23422632.480                    23422629.120
                                        44.850          37.800



 129120761.238 6 100613605.561 6  24570860.120                    24570863.860
                                        41.200          41.800



 23  8 27 13 48  0.0000000  0  8G03G04G06G07G09G11G20G30
 127361041.976 6  99242353.500 7  24236006.240                    24236009.180
                                        41.200          42.400



 113729684.562 7  88620555.080 7  21642027.680                    21642025.080
                                        47.300          46.400



 108495878.625 8  84542257.365 8  20646072.880                    20646071.920
                                        50.000          49.050



 118384677.615 7  92247824.733 7  22527839.560                    22527837.380
                                        46.900          44.150



 106607408.681 8  83070734.874 8  20286700.740                    20286698.520
                                        51.150          48.800



 115167590.515 8  89740986.362 7  21915656.480                    21915653.260
                                        48.800          46.850



 122990514.376 7  95836759.40646  23404313.500                    23404310.140
                                        45.050          36.850



 129011516.303 6 100528479.854 6  24550071.380                    24550075.020
                                        41.550          41.900



 23  8 27 13 48 30.0000000  0  8G03G04G06G07G09G11G20G30
 127459731.623 6  99319254.317 7  24254786.420                    24254789.400
                                        41.800          42.300



 113802653.680 7  88677414.089 7  21655913.260                    21655910.660
                                        47.350          46.900



 108526599.996 8  84566196.089 8  20651918.980                    20651918.000
                                        50.350          48.950



 118303787.414 7  92184793.467 7  22512446.620                    22512444.420
                                        46.500          44.600



 106631008.134 8  83089124.048 8  20291191.560                    20291189.320
                                        51.250          49.100



 115109889.711 8  89696024.733 7  21904676.360                    21904673.060
                                        48.850          47.600



 122894344.263 7  95761821.72546  23386012.860                    23386009.520
                                        44.800          38.250



 128902323.720 6 100443394.967 7  24529292.560                    24529296.140
                                        40.050          42.800



 23  8 27 13 49  0.0000000  0  8G03G04G06G07G09G11G20G30
 127558534.267 6  99396243.182 6  24273588.120                    24273591.120
                                        41.950          41.550



 113875889.983 7  88734481.282 7  21669849.700                    21669847.100
                                        47.750          46.800



 108557905.916 8  84590590.292 8  20657876.320                    20657875.340
                                        50.200          49.150



 118223200.967 7  92121998.892 7  22497111.480                    22497109.280
                                        46.800          43.800



 106655032.614 8  83107844.407 8  20295763.280                    20295761.040
                                        51.200          48.900



 115052682.428 8  89651447.652 7  21893790.160                    21893786.840
                                        48.900          47.400



 122798270.155 7  95686958.84146  23367730.520                    23367727.180
                                        44.700          37.200



 128793184.162 6 100358351.376 7  24508523.840                    24508527.380
                                        41.450          42.800



 23  8 27 13 49 30.0000000  0  8G03G04G06G07G09G11G20G30
 127657452.412 7  99473322.098 6  24292411.780                    24292414.780
                                        43.050          40.600



 113949395.004 7  88791757.879 7  21683837.260                    21683834.680
                                        47.950          46.950



 108589798.981 8  84615442.015 8  20663945.400                    20663944.400
                                        50.400          49.200



 118142923.721 7  92059445.239 7  22481835.200                    22481832.980
                                        46.900          43.200



 106679484.310 8  83126897.661 8  20300416.300                    20300414.040
                                        50.950          49.100



 114995974.155 8  89607259.425 7  21882998.900                    21882995.580
                                        48.300          47.600



 122702296.827 7  95612174.49146  23349467.340                    23349464.020
                                        44.100          38.550



 128684103.275 6 100273353.514 7  24487766.280                    24487769.780
                                        40.850          43.150



 23  8 27 13 50  0.0000000  0  8G03G04G06G07G09G11G20G30
 127756483.426 7  99550488.952 6  24311256.940                    24311259.880
                                        42.650          41.500



 114023165.329 8  88849241.200 7  21697875.320                    21697872.740
                                        48.200          46.800



 108622276.684 8  84640749.292 8  20670125.740                    20670124.720
                                        50.350          49.150



 118062956.682 7  91997133.283 7  22466617.960                    22466615.700
                                        46.950          43.600



 106704360.352 8  83146281.584 8  20305150.080                    20305147.800
                                        50.900          49.050



 114939765.366 8  89563460.403 7  21872302.700                    21872299.360
                                        48.450          47.700



 122606424.391 7  95537468.75246  23331223.360                    23331220.040
                                        43.800          38.200



 128575081.818 6 100188401.934 7  24467020.020                    24467023.520
                                        40.550          44.050



 23  8 27 13 50 30.0000000  0  8G03G04G06G07G09G11G20G30
 127855627.902 7  99627744.189 7  24330123.740                    24330126.620
                                        43.000          42.100



 114097200.518 8  88906930.916 7  21711963.800                    21711961.200
                                        48.350          46.850



 108655339.607 8  84666512.588 8  20676417.460                    20676416.400
                                        50.350          49.350



 117983303.007 7  91935065.515 7  22451460.360                    22451458.060
                                        46.900          43.950



 106729661.002 8  83165996.359 8  20309964.640                    20309962.360
                                        51.100          49.100



 114884059.507 8  89520053.267 8  21861702.200                    21861698.880
                                        48.600          48.050



 122510655.981 7  95462844.07846  23312999.160                    23312995.840
                                        44.500          38.200



 128466123.476 6 100103499.580 7  24446285.740                    24446289.220
                                        40.750          43.750



 23  8 27 13 51  0.0000000  0  8G03G04G06G07G09G11G20G30
 127954884.576 7  99705086.815 6  24349011.900                    24349014.760
                                        43.100          40.700



 114171498.445 8  88964825.354 7  21726102.280                    21726099.660
                                        48.250          46.600



 108688986.606 8  84692730.994 8  20682820.340                    20682819.260
                                        50.500          49.350



 117903964.670 7  91873243.489 7  22436362.720                    22436360.400
                                        46.800          44.150



 106755384.684 8  83186040.777 8  20314859.720                    20314857.420
                                        51.250          48.750



 114828858.328 8  89477039.380 7  21851197.740                    21851194.440
                                        48.700          47.750



 122414992.430 7  95388301.10346  23294794.900                    23294791.600
                                        43.900          37.800



 128357230.397 6 100018648.045 7  24425563.860                    24425567.360
                                        39.650          43.950



 23  8 27 13 51 30.0000000  0  8G03G04G06G07G09G11G20G30
 128054250.573 7  99782514.641 6  24367920.860                    24367923.700
                                        43.500          40.900



 114246055.362 8  89022921.614 7  21740290.040                    21740287.400
                                        48.550          46.600



 108723214.864 8  84719402.333 8  20689333.820                    20689332.720
                                        50.600          49.550



 117824941.564 7  91811667.096 7  22421325.060                    22421322.740
                                        46.600          45.250



 106781528.322 8  83206412.445 8  20319834.700                    20319832.400
                                        50.950          48.750



 114774161.964 8  89434418.859 7  21840789.340                    21840786.060
                                        49.050          47.500



 122319433.330 7  95313839.54946  23276610.500                    23276607.240
                                        43.950          39.700



 128248402.943 6  99933847.648 7  24404854.460                    24404857.960
                                        40.900          43.300



 23  8 27 13 52  0.0000000  0  8G03G04G06G07G09G11G20G30
 128153727.785 7  99860029.147 6  24386850.980                    24386853.780
                                        42.850          40.300



 114320872.198 8  89081220.406 7  21754527.260                    21754524.600
                                        48.350          46.550



 108758026.185 8  84746528.007 8  20695958.280                    20695957.160
                                        50.300          49.700



 117746238.472 7  91750340.083 7  22406348.300                    22406346.000
                                        47.200          44.750



 106808093.402 8  83227112.486 8  20324889.880                    20324887.580
                                        50.800          48.750



 114719975.218 8  89392195.445 7  21830477.920                    21830474.660
                                        49.050          47.550



 122223983.110 7  95239462.83346  23258446.820                    23258443.620
                                        43.400          40.500



 128139646.082 6  99849102.304 7  24384158.440                    24384161.940
                                        40.250          42.900



 23  8 27 13 52 30.0000000  0  8G03G04G06G07G09G11G20G30
 128253310.993 7  99937626.249 6  24405801.240                    24405804.000
                                        42.650          40.350



 114395942.857 8  89139716.981 7  21768812.780                    21768810.100
                                        48.450          46.550



 108793415.351 8  84774103.950 8  20702692.680                    20702691.560
                                        50.100          49.400



 117667853.309 7  91689260.791 7  22391432.040                    22391429.760
                                        47.750          44.300



 106835074.396 8  83248136.621 8  20330024.200                    20330021.900
                                        50.850          48.700



 114666295.790 8  89350367.323 8  21820263.060                    21820259.800
                                        48.550          48.000



 122128638.981 7  95165168.77746  23240303.340                    23240300.180
                                        43.650          37.900



 128030958.015 6  99764410.527 6  24363475.520                    24363479.020
                                        40.200          41.700



 23  8 27 13 53  0.0000000  0  8G03G04G06G07G09G11G20G30
 128353003.249 7 100015308.310 6  24424772.240                    24424774.980
                                        42.550          40.650



 114471269.505 8  89198413.017 7  21783147.020                    21783144.320
                                        48.550          46.650



 108829385.389 8  84802132.522 8  20709537.580                    20709536.460
                                        49.950          49.700



 117589792.033 7  91628433.857 7  22376577.440                    22376575.180
                                        47.350          43.700



 106862474.038 8  83269486.986 8  20335238.180                    20335235.880
                                        51.000          48.550



 114613129.658 8  89308939.174 8  21810145.880                    21810142.620
                                        48.900          48.250



 122033406.390 7  95090961.62246  23222181.080                    23222178.000
                                        44.300          39.000



 127922345.100 6  99679777.277 6  24342806.960                    24342810.400
                                        40.800          41.000



 23  8 27 13 53 30.0000000  0  8G03G04G06G07G09G11G20G30
 128452801.801 7 100093073.210 6  24443763.460                    24443766.200
                                        42.450          40.850



 114546848.539 8  89257305.711 7  21797529.280                    21797526.580
                                        48.200          46.700



 108865933.540 8  84830611.554 8  20716492.500                    20716491.420
                                        50.000          49.750



 117512054.981 7  91567859.572 7  22361784.560                    22361782.260
                                        47.250          43.250



 106890289.322 8  83291161.226 8  20340531.260                    20340528.940
                                        51.000          48.400



 114560477.035 8  89267911.152 8  21800126.420                    21800123.200
                                        48.650          48.050



 121938285.213 7  95016841.29946  23204080.020                    23204076.980
                                        44.000          38.550



 127813807.794 6  99595202.944 6  24322152.800                    24322156.160
                                        40.700          39.300



 23  8 27 13 54  0.0000000  0  8G03G04G06G07G09G11G20G30
 128552705.585 6 100170920.124 6  24462774.680                    24462777.440
                                        41.800          39.650



 114622677.999 8  89316393.562 7  21811959.180                    21811956.480
                                        48.000          47.150



 108903058.626 8  84859540.164 8  20723557.200                    20723556.140
                                        50.000          49.200



 117434643.984 7  91507539.378 7  22347053.680                    22347051.360
                                        47.200          43.750



 106918518.773 8  83313158.200 8  20345903.160                    20345900.820
                                        50.900          48.550



 114508339.700 8  89227284.686 7  21790204.980                    21790201.800
                                        48.050          47.850



 121843276.902 7  94942808.92246  23186000.440                    23185997.420
                                        45.000          37.400



 127705348.287 6  99510689.212 6  24301513.480                    24301516.720
                                        41.500          40.100



 23  8 27 13 54 30.0000000  0  8G03G04G06G07G09G11G20G30
 128652716.556 6 100248850.577 6  24481806.260                    24481809.040
                                        41.050          38.000



 114698758.937 7  89375677.360 7  21826436.940                    21826434.240
                                        47.800          47.300



 108940762.505 8  84888919.768 8  20730732.020                    20730731.020
                                        50.050          49.350



 117357564.054 7  91447477.171 7  22332385.800                    22332383.460
                                        47.300          44.550



 106947164.074 8  83335479.199 8  20351354.180                    20351351.840
                                        50.900          48.700



 114456722.563 8  89187063.549 7  21780382.540                    21780379.400
                                        48.350          47.600



 121748385.686 7  94868867.77046  23167943.180                    23167940.160
                                        45.100          37.950



 127596971.793 7  99426240.232 6  24280889.920                    24280893.060
                                        42.100          41.150



 23  8 27 13 55  0.0000000  0  8G03G04G06G07G09G11G20G30
 128752832.799 6 100326863.115 6  24500857.860                    24500860.620
                                        41.100          39.550



 114775088.669 7  89435155.036 7  21840962.020                    21840959.360
                                        47.600          47.600



 108979043.181 8  84918748.830 8  20738016.620                    20738015.640
                                        49.950          49.600



 117280816.232 7  91387673.740 7  22317781.100                    22317778.760
                                        47.800          44.650



 106976223.001 8  83358122.502 8  20356883.900                    20356881.560
                                        50.850          48.650



 114405626.629 7  89147248.548 7  21770659.260                    21770656.160
                                        47.800          47.650



 121653612.136 7  94795018.29746  23149908.300                    23149905.260
                                        44.850          38.200



 127488679.806 6  99341857.086 7  24260282.420                    24260285.500
                                        41.400          42.650



 23  8 27 13 55 30.0000000  0  8G03G04G06G07G09G11G20G30
 128853049.888 6 100404954.181 6  24519928.660                    24519931.420
                                        41.550          40.200



 114851661.837 7  89494822.387 7  21855533.440                    21855530.800
                                        47.550          47.400



 109017896.068 8  84949023.774 8  20745410.120                    20745409.140
                                        49.800          49.100



 117204398.812 8  91328127.775 7  22303239.300                    22303236.940
                                        48.000          43.900



 107005690.755 8  83381084.376 8  20362491.440                    20362489.080
                                        50.950          48.400



 114355050.286 8  89107838.417 7  21761034.880                    21761031.780
                                        48.600          47.400



 121558954.535 7  94721259.18546  23131895.500                    23131892.400
                                        45.550          38.550



 127380471.090 6  99257538.866 7  24239690.780                    24239693.800
                                        41.150          43.600



 23  8 27 13 56  0.0000000  0  8G03G04G06G07G09G11G20G30
 128953370.657 6 100483126.031 6  24539019.200                    24539021.980
                                        41.500          40.000



 114928480.419 7  89554680.964 7  21870151.560                    21870148.960
                                        47.700          47.250



 109057323.819 8  84979746.674 8  20752912.980                    20752912.020
                                        49.900          49.350



 117128317.706 7  91268843.862 7  22288761.500                    22288759.100
                                        47.200          44.200



 107035569.830 8  83404366.768 8  20368177.240                    20368174.860
                                        51.000          48.550



 114304999.205 8  89068837.574 7  21751510.480                    21751507.360
                                        48.950          47.600



 121464417.874 7  94647594.32246  23113905.700                    23113902.560
                                        45.000          37.050



 127272351.717 6  99173290.279 7  24219116.140                    24219119.120
                                        41.600          44.050



 23  8 27 13 56 30.0000000  0  8G03G04G06G07G09G11G20G30
 129053791.232 6 100561375.649 6  24558128.720                    24558131.540
                                        41.100          40.050



 115005539.741 7  89614727.126 7  21884815.480                    21884812.940
                                        47.650          47.350



 109097322.432 8  85010914.412 8  20760524.460                    20760523.540
                                        49.600          49.700



 117052572.061 7  91209821.353 7  22274347.540                    22274345.100
                                        47.350          44.600



 107065856.037 8  83427966.402 8  20373940.520                    20373938.140
                                        50.800          48.900



 114255472.404 8  89030245.272 8  21742085.820                    21742082.700
                                        48.850          48.250



 121370001.103 7  94574022.86046  23095938.720                    23095935.560
                                        45.850          38.600



 127164321.205 7  99089110.886 7  24198558.440                    24198561.420
                                        42.550          44.250



 23  8 27 13 57  0.0000000  0  8G03G04G06G07G09G11G20G30
 129154313.147 6 100639704.255 6  24577257.520                    24577260.360
                                        40.650          39.200



 115082840.456 7  89674961.390 7  21899525.360                    21899522.840
                                        47.450          47.250



 109137893.174 8  85042527.945 8  20768244.840                    20768243.960
                                        49.350          49.650



 116977165.981 7  91151063.450 7  22259998.180                    22259995.720
                                        47.650          44.300



 107096550.557 8  83451884.189 8  20379781.520                    20379779.120
                                        50.900          49.100



 114206474.219 8  88992064.888 7  21732761.780                    21732758.620
                                        48.750          47.950



 121275708.147 7  94500547.89846  23077995.300                    23077992.140
                                        45.650          37.600



 127056384.287 7  99005004.402 7  24178018.600                    24178021.520
                                        43.700          44.200



 23  8 27 13 57 30.0000000  0  8G03G04G06G07G09G11G20G30
 129254933.700 6 100718109.741 6  24596405.080                    24596407.900
                                        39.800          40.000



 115160379.043 7  89735381.009 7  21914280.500                    21914278.020
                                        47.600          46.950



 109179033.178 8  85074585.058 8  20776073.500                    20776072.700
                                        49.300          49.000



 116902100.024 7  91092570.567 7  22245713.540                    22245711.060
                                        47.550          44.600



 107127650.332 8  83476117.766 8  20385699.620                    20385697.240
                                        50.900          49.300



 114158004.788 8  88954296.534 7  21723538.340                    21723535.180
                                        48.900          47.700



 121181538.897 7  94427169.31746  23060075.460                    23060072.280
                                        45.350          37.550



 126948541.592 7  98920971.352 7  24157496.700                    24157499.540
                                        44.000          44.200



 23  8 27 13 58  0.0000000  0  8G03G04G06G07G09G11G20G30
 129355657.571 6 100796595.719 6  24615572.300                    24615575.120
                                        38.650          41.250



 115238159.396 7  89795989.031 7  21929081.640                    21929079.200
                                        47.400          47.050



 109220746.903 8  85107089.219 8  20784011.360                    20784010.620
                                        49.400          48.600



 116827381.676 7  91034348.567 7  22231495.040                    22231492.560
                                        47.750          45.000



 107159159.743 8  83500670.539 8  20391695.680                    20391693.320
                                        50.900          49.400



 114110071.573 8  88916946.015 7  21714416.940                    21714413.760
                                        49.050          47.600



 121087500.507 7  94353892.72446  23042180.500                    23042177.300
                                        45.200          36.850



 126840801.142 7  98837017.928 7  24136994.300                    24136997.080
                                        43.750          44.350



 23  8 27 13 58 30.0000000  0  8G03G04G06G07G09G11G20G30
 129456479.011 6 100875157.697 6  24634758.080                    24634760.960
                                        38.150          41.550



 115316174.933 7  89856780.297 7  21943927.540                    21943925.140
                                        47.400          46.950



 109263028.341 8  85140035.760 8  20792057.240                    20792056.520
                                        49.550          48.400



 116753008.170 7  90976395.258 7  22217342.180                    22217339.680
                                        47.900          44.950



 107191072.670 8  83525537.732 8  20397768.520                    20397766.200
                                        50.900          49.450



 114062671.655 8  88880011.047 7  21705397.040                    21705393.800
                                        49.050          47.650



 120993589.997 7  94280715.76646  23024309.880                    23024306.680
                                        44.500          39.000



 126733160.409 7  98753142.202 7  24116510.880                    24116513.600
                                        43.150          43.450



 23  8 27 13 59  0.0000000  0  8G03G04G06G07G09G11G20G30
 129557398.714 6 100953796.245 7  24653962.560                    24653965.540
                                        39.750          42.600



 115394425.514 7  89917754.723 7  21958818.160                    21958815.800
                                        47.350          46.750



 109305877.902 8  85173424.988 8  20800211.240                    20800210.520
                                        49.300          48.650



 116678983.210 8  90918713.559 7  22203255.640                    22203253.140
                                        48.400          44.800



 107223389.446 8  83550719.615 8  20403918.220                    20403915.940
                                        50.900          49.400



 114015808.481 8  88843494.313 7  21696479.280                    21696476.000
                                        48.850          47.750



 120899810.628 7  94207640.97446  23006464.200                    23006461.040
                                        44.800          38.050



 126625623.420 7  98669347.291 7  24096047.200                    24096049.860
                                        42.200          43.850



 23  8 27 13 59 30.0000000  0  8G03G04G06G07G09G11G20G30
 129658412.593 6 101032508.160 7  24673184.960                    24673188.080
                                        39.900          42.150



 115472906.211 7  89978908.471 7  21973752.560                    21973750.220
                                        47.300          46.350



 109349291.156 8  85207253.473 8  20808472.480                    20808471.780
                                        49.250          48.450



 116605305.122 8  90861302.139 7  22189235.100                    22189232.600
                                        48.250          44.600



 107256105.578 8  83576212.703 8  20410143.900                    20410141.640
                                        50.750          48.950



 113969480.730 8  88807394.776 7  21687663.440                    21687660.100
                                        48.700          47.600



 120806160.454 7  94134666.87446  22988643.100                    22988639.940
                                        43.900          38.950



 126518189.357 7  98585632.582 7  24075603.080                    24075605.700
                                        42.250          44.350



                            4  1
RINEX FILE SPLICE; other post-header comments skipped       COMMENT
 23  8 27 14  0  0.0000000  0  8G03G04G06G07G09G11G20G30
 129759523.128 6 101111295.360 7  24692425.800                    24692429.040
                                        39.800          42.200



 115551618.736 7  90040242.855 7  21988731.100                    21988728.780
                                        47.300          46.400



 109393270.333 8  85241522.941 8  20816841.440                    20816840.720
                                        49.200          48.850



 116531979.820 8  90804165.618 7  22175281.720                    22175279.160
                                        48.100          43.950



 107289223.221 8  83602018.647 8  20416445.980                    20416443.760
                                        50.750          48.850



 113923693.616 8  88771716.535 7  21678950.440                    21678947.060
                                        49.050          47.800



 120712644.733 7  94061797.57546  22970847.540                    22970844.420
                                        45.000          38.600



 126410864.031 7  98502002.605 7  24055179.640                    24055182.240
                                        42.700          44.700



 23  8 27 14  0 30.0000000  0  8G03G04G06G07G09G11G20G30
 129860728.345 6 101190156.321 7  24711684.700                    24711688.020
                                        39.950          42.600



 115630560.288 7  90101755.708 7  22003753.180                    22003750.900
                                        47.250          46.600



 109437813.098 8  85276231.551 8  20825317.660                    20825316.960
                                        49.550          49.050



 116459007.746 8  90747304.346 7  22161395.540                    22161392.960
                                        48.400          44.100



 107322740.019 8  83628135.618 8  20422824.000                    20422821.820
                                        50.900          48.750



 113878447.884 8  88736460.147 7  21670340.440                    21670337.060
                                        49.050          47.900



 120619264.469 7  93989033.78646  22953077.780                    22953074.720
                                        45.450          39.400



 126303648.818 7  98418458.385 7  24034777.200                    24034779.780
                                        43.100          44.800



 23  8 27 14  1  0.0000000  0  8G03G04G06G07G09G11G20G30
 129962026.684 6 101269089.878 7  24730961.300                    24730964.700
                                        40.200          42.250



 115709728.520 7  90163445.192 7  22018818.420                    22018816.160
                                        47.250          46.750



 109482917.493 8  85311377.814 8  20833900.740                    20833900.040
                                        49.250          48.900



 116386390.382 8  90690719.452 7  22147576.880                    22147574.240
                                        48.850          44.550



 107356654.058 8  83654562.133 8  20429277.620                    20429275.440
                                        51.050          48.600



 113833744.714 8  88701626.526 7  21661833.700                    21661830.320
                                        49.100          47.900



 120526020.276 7  93916376.05346  22935333.920                    22935330.880
                                        45.400          39.350



 126196545.420 7  98335001.320 7  24014396.020                    24014398.580
                                        42.600          44.950



 23  8 27 14  1 30.0000000  0  8G03G04G06G07G09G11G20G30
 130063415.136 6 101348093.663 6  24750255.040                    24750258.500
                                        38.850          41.950



 115789119.554 7  90225308.287 7  22033926.040                    22033923.800
                                        46.950          46.550



 109528580.078 8  85346959.018 8  20842590.040                    20842589.360
                                        49.050          48.700



 116314127.517 8  90634410.777 7  22133825.720                    22133823.000
                                        48.850          44.900



 107390961.867 8  83681295.471 8  20435806.200                    20435804.000
                                        51.050          48.550



 113789583.724 8  88667215.371 7  21653430.140                    21653426.760
                                        49.200          47.800



 120432911.765 7  93843824.03646  22917615.900                    22917612.900
                                        45.750          39.050



 126089554.107 6  98251631.578 7  23994036.140                    23994038.700
                                        41.700          44.600



 23  8 27 14  2  0.0000000  0  8G03G04G06G07G09G11G20G30
 130164899.493 6 101427172.157 6  24769567.000                    24769570.560
                                        37.250          40.650



 115868738.407 7  90287348.911 7  22049077.020                    22049074.800
                                        47.350          46.600



 109574806.240 8  85382979.381 8  20851386.580                    20851385.920
                                        49.250          48.900



 116242227.838 8  90578385.123 7  22120143.660                    22120140.880
                                        48.750          45.000



 107425668.872 8  83708339.878 8  20442410.720                    20442408.520
                                        50.950          48.550



 113745973.372 8  88633233.291 7  21645131.380                    21645127.960
                                        49.250          47.550



 120339947.352 7  93771384.27346  22899925.320                    22899922.340
                                        45.950          38.550



 125982683.967 6  98168356.279 7  23973699.300                    23973701.880
                                        40.850          44.400



